     3.04           OBSERVATION DATA    M: Mixed            RINEX VERSION / TYPE
Higeo_Hi1105        Huawei CBG          20220209 110014 UTC PGM / RUN BY / DATE 
************************************************************COMMENT             
* If you have any problem,                                 *COMMENT             
*     please contact with LBS Technology Group, thanks.    *COMMENT             
*                                                          *COMMENT             
* Version Higeo2RinexV1.1 2020.07.21                       *COMMENT             
* Fuction:  Convert Higeo Log to Rinex file                *COMMENT             
*                                                          *COMMENT             
* Note that the verision support B1C B2A signal            *COMMENT             
*     BDS: C1D L1D D1D S1D indicate BDS B1C                *COMMENT             
*     BDS: C5D L5D D5D S5D indicate BDS B2A                *COMMENT             
*     Reference: RINEX V3.04                               *COMMENT             
*                                                          *COMMENT             
* Copyright(C) Huawei Technologies Co., Ltd. 2019 - 2020   *COMMENT             
*     All rights reserved.                                 *COMMENT             
************************************************************COMMENT             
                                                            MARKER NAME         
                                                            MARKER NUMBER       
                                                            MARKER TYPE         
                                                            OBSERVER / AGENCY   
                                                            REC # / TYPE / VERS 
                                                            ANT # / TYPE        
        0.0000        0.0000        0.0000                  APPROX POSITION XYZ 
        0.0000        0.0000        0.0000                  ANTENNA: DELTA H/E/N
G    8 C1C L1C D1C S1C C5I L5I D5I S5I                      SYS / # / OBS TYPES 
R    4 C1C L1C D1C S1C                                      SYS / # / OBS TYPES 
E    8 C1C L1C D1C S1C C5I L5I D5I S5I                      SYS / # / OBS TYPES 
J    8 C1C L1C D1C S1C C5I L5I D5I S5I                      SYS / # / OBS TYPES 
C   12 C2I L2I D2I S2I C1D L1D D1D S1D C5D L5D D5D S5D      SYS / # / OBS TYPES 
  2022     1    25     4     2   48.0000000     GPS         TIME OF FIRST OBS   
  2022     1    25     4    17   52.0000000     GPS         TIME OF LAST OBS    
G                                                           SYS / PHASE SHIFT   
R                                                           SYS / PHASE SHIFT   
E                                                           SYS / PHASE SHIFT   
J                                                           SYS / PHASE SHIFT   
C                                                           SYS / PHASE SHIFT   
  0                                                         GLONASS SLOT / FRQ #
 C1C    0.000 C1P    0.000 C2C    0.000 C2P    0.000        GLONASS COD/PHS/BIS 
                                                            END OF HEADER       
> 2022  1 25  4  2 48.0000000  0  1                     
G32  20732632.032        3813.504        1630.486          26.000                                                                  
> 2022  1 25  4  2 49.0000000  0  9                     
G 3  23527270.553       -7334.482       -1131.007          35.000                                                                  
G16  22478677.963      -13455.351       -3333.564          22.000                                                                  
G26  20256636.710       -4254.021       -1168.572          25.000                                                                  
G29  22561077.414         351.655           5.742          25.000                                                                  
G31  20649107.069         917.839         182.616          33.000                                                                  
G32  20732946.055       12381.059        1631.372          23.000                                                                  
J 2  38676949.136        2650.910         508.908          35.000                                                                  
C24  22410294.925       -4466.925        -871.887          38.000                                                                                                                                  
C33  23517359.939       -7690.645       -1567.567          37.000                                                                                                                                  
> 2022  1 25  4  2 50.0000000  0  9                     
G 3  23527055.528      -13279.616       -1131.213          34.000    23527056.323       -4403.399        -844.864          31.000  
G16  22478056.439      -30971.558       -3331.803          24.000                                                                  
G26  20256417.910      -10383.079       -1162.995          31.000                                                                  
G29  22561092.124         379.743           6.124          22.000                                                                  
G31  20649146.611        1881.186         185.291          31.000                                                                  
G32  20733260.121       20959.386        1634.686          28.000                                                                  
J 2  38677048.624        5329.065         509.569          32.000                                                                  
C24  22410127.656       -9006.096        -871.128          39.000                                                                                                                                  
C33  23517059.376      -15841.989       -1563.952          39.000                                                                                                                                  
> 2022  1 25  4  2 51.0000000  0 11                     
G 3  23526839.863      -19220.388       -1127.490          33.000    23526841.366       -7716.081        -844.432          29.000  
G16  22477428.757      -48476.452       -3330.350          24.000                                                                  
G26  20256197.217      -16497.442       -1163.861          34.000                                                                  
G29  22561104.741         418.236           7.977          21.000                                                                  
G31  20649185.905        2851.130         184.928          33.000                                                                  
G32  20733571.099       29558.206        1637.730          29.000                                                                  
R 2  19255301.241                                          35.000  
R12  19932901.995                                          33.000  
J 2  38677151.061        8015.150         512.287          33.000                                                                  
C24  22409960.640      -13539.884        -870.573          41.000                                                                    22409952.916       -3305.952        -645.666          27.000  
C33  23516758.761      -23984.581       -1563.676          38.000                                                                                                                                  
> 2022  1 25  4  2 52.0000000  0 12                     
G 3  23526625.037      -25151.072       -1129.631          34.000    23526626.574      -11026.093        -843.075          29.000  
G16  22476792.050      -65971.268       -3328.230          22.000                                                                  
G26  20255976.062      -22616.157       -1164.180          35.000                                                                  
G29  22561102.027         465.987           9.652          20.000                                                                  
G31  20649224.784        3820.426         185.272          33.000                                                                  
G32  20733881.083       38164.113        1636.850          29.000                                                                  
R 2  19255212.864                                          36.000  
R12  19933087.683                                          34.000  
E 7  26590925.909       -7588.850       -2669.034          34.000                                                                  
J 2  38677249.379       10696.926         510.940          33.000    38677241.720        3971.626         364.711          16.000  
C24  22409793.589      -18071.934        -869.681          40.000                                                                    22409787.025       -5874.947        -655.522          30.000  
C33  23516458.391      -32122.051       -1562.574          37.000                                                                                                                                  
> 2022  1 25  4  2 53.0000000  0 12                     
G 3  23526412.061      -31076.229       -1124.557          33.000    23526411.958      -14332.280        -843.735          18.000  
G16  22614171.583      -83463.461       -3329.944          20.000                                                                  
G26  20255755.631      -28726.451       -1161.652          30.000                                                                  
G29  22561104.331         520.947          11.600          19.000                                                                  
G31  20649260.793        4798.300         184.740          28.000                                                                  
G32  20734189.679       46760.889        1637.539          27.000                                                                  
R 2  19255123.580                                          36.000  
R12  19933278.248                                          34.000  
E 7  26590416.851      -21608.041       -2667.413          33.000                                                                  
J 2  38677348.579       13386.395         512.131          32.000    38677342.918        5422.441         374.244          17.000  
C24  22409626.189      -22596.293        -868.151          39.000                                                                    22409620.306       -8444.538        -654.497          26.000  
C33  23516157.496      -40254.493       -1560.461          35.000                                                                                                                                  
> 2022  1 25  4  2 54.0000000  0 12                     
G 3  23526200.866      -36995.805       -1127.250          31.000    23526197.299      -17640.937        -842.541          19.000  
G16  22613538.036     -100958.063       -3328.772          17.000                                                                  
G26  20255533.865      -34818.719       -1159.592          32.000                                                                  
G29  22561107.997         581.198          12.091          17.000                                                                  
G31  20649297.072        5775.738         187.219          32.000                                                                  
G32  20734500.762       55375.447        1641.262          30.000                                                                  
R 2  19255033.991                                          32.000  
R12  19933468.997                                          35.000  
E 7  26589909.861      -35619.638       -2665.805          31.000                                                                  
J 2  38677446.392       16088.494         515.095          28.000    38677440.434        6897.319         376.934          18.000  
C24  22409459.575      -27112.559        -866.381          36.000                                                                    22409453.953      -11009.697        -653.236          28.000  
C33  23515857.169      -48376.824       -1558.776          34.000                                                                                                                                  
> 2022  1 25  4  2 55.0000000  0 13                     
G 3  23525985.780      -42905.591       -1122.199          31.000    23525981.742      -20939.047        -839.154          23.000  
G26  20255312.465      -40911.843       -1158.473          29.000                                                                  
G29  22561110.501         648.578          12.385          17.000                                                                  
G31  20649333.761        6761.770         187.556          34.000                                                                  
G32  20734812.168       63998.107        1641.000          27.000                                                                  
R 2  19254940.615                                          30.000  
R12  19933661.219                                          37.000  
E 7  26589402.392      -49627.457       -2664.994          34.000                                                                  
J 2  38677545.531       18784.933         512.074          31.000    38677542.199        8386.344         382.034          19.000  
C14  22332345.404         -65.875         -19.399          33.000                                                                                                                                  
C24  22409293.449      -31626.799        -866.399          36.000                                                                    22409287.626      -13572.623        -652.683          29.000  
C33  23515557.785      -56492.452       -1558.521          34.000                                                                                                                                  
C35  24772260.065       -9078.394       -1441.135          28.000                                                                                                                                  
> 2022  1 25  4  2 56.0000000  0 14                     
G 3  23525772.792      -48803.696       -1122.836          34.000    23525768.169      -24232.401        -838.769          22.000  
G26  20255094.573      -46997.082       -1157.072          33.000                                                                  
G29  22561130.543         714.475          12.979          20.000                                                                  
G31  20649370.010        7752.202         190.063          34.000                                                                  
G32  20735126.636       72618.772        1638.166          28.000                                                                  
R 2  19254849.900                                          34.000  
R12  19933852.822                                          36.000  
E 2  23293823.230        5132.551         704.456          29.000                                                                  
E 7  26588895.053      -63632.483       -2664.698          33.000                                                                  
J 2  38677643.631       21477.667         512.403          30.000    38677639.741        9891.730         384.462          22.000  
C14  22332341.183        -181.299         -20.753          33.000                                                                                                                                  
C24  22409127.541      -36135.625        -865.209          39.000                                                                    22409121.483      -16133.887        -652.414          29.000  
C33  23515258.897      -64603.952       -1557.242          36.000                                                                                                                                  
C35  24771973.610      -16639.233       -1442.922          23.000                                                                                                                                  
> 2022  1 25  4  2 58.0000000  0 18                     
G 3  23525469.371      -57173.880       -1120.203          36.000    23525465.498      -28901.090        -835.743          25.000  
G16  22611345.398     -160795.106       -3326.547          20.000                                                                  
G26  20254781.607      -55646.809       -1155.422          29.000    20254779.026       -8941.161        -852.503          18.000  
G29  22561133.832         802.173          11.106          17.000                                                                  
G31  20649422.256        9177.588         190.170          33.000                                                                  
G32  20735574.501       84883.430        1645.503          28.000                                                                  
R 2  19254722.662                                          25.000  
R 3  22264502.361                                          21.000  
R12  19934121.625                                          35.000  
E 2  23294016.308       10357.464         699.143          26.000                                                                  
E 7  26588175.153      -83518.395       -2662.423          34.000                                                                  
E30  24575723.564      -26211.540       -1579.328          27.000                                                                  
J 2  38677782.009       25318.264         510.300          19.000    38677780.309       12044.605         387.555          20.000  
C 6  35884135.728       -3280.141        -543.789          29.000                                                                                                                                  
C 9  36662549.098       -4391.616        -729.686          33.000                                                                                                                                  
C14  22332336.306        -314.303         -15.529          28.000                                                                                                                                  
C24  22408892.591      -42531.174        -863.643          38.000                                                                    22408886.036      -19764.956        -651.271          29.000  
C33  23514835.459      -76106.968       -1555.948          38.000                                                                                                                                  
> 2022  1 25  4  2 59.0000000  0 20                     
G 3  23525254.886      -63069.034       -1123.541          34.000    23525252.279      -32188.776        -837.429          25.000  
G16  22610707.305     -178257.787       -3321.064          17.000                                                                  
G26  20254559.981      -61724.035       -1156.836          32.000    20254559.223      -12311.892        -860.494          20.000  
G29  22561136.197         865.211          13.411          20.000                                                                  
G31  20649457.767       10170.198         189.374          29.000                                                                  
G32  20735889.781       93523.351        1642.738          28.000                                                                  
R 2  19254631.816                                          36.000  
R12  19934312.801                                          30.000  
E 2  23294156.529       14021.991         697.475          29.000                                                                  
E 7  26587667.613      -97518.000       -2663.674          33.000                                                                  
E 8  23303141.636       -3449.859        -757.439          33.000                                                                  
E30  24575422.400      -34519.131       -1580.398          32.000                                                                  
J 2  38677879.193       28020.733         515.764          30.000    38677879.692       13555.842         386.105          21.000  
C 6  35884034.562       -6109.898        -542.808          30.000                                                                                                                                  
C 9  36662404.263       -8197.995        -729.093          27.000                                                                                                                                  
C14  22332332.859        -402.590         -16.137          37.000                                                                                                                                  
C24  22408726.788      -47034.873        -864.472          40.000                                                                    22408719.979      -22322.604        -651.664          29.000  
C26  22314225.163        5711.596        1048.788          31.000                                                                                                                                  
C33  23514536.650      -84211.776       -1555.883          35.000                                                                                                                                  
C35  24771318.820      -34616.938       -1414.817          15.000                                                                                                                                  
> 2022  1 25  4  3  0.0000000  0 20                     
G 3  23525041.508      -68956.610       -1119.147          30.000    23525039.241      -35472.478        -836.361          25.000  
G16  22610084.114     -195722.947       -3324.152          19.000                                                                  
G26  20254340.954      -67793.836       -1151.648          26.000    20254340.319      -15689.152        -861.080          19.000  
G29  22561144.747         942.078          -0.008          16.000                                                                  
G31  20649494.796       11172.294         189.561          31.000                                                                  
G32  20736201.606      102154.736        1642.348          23.000                                                                  
R 2  19254543.448                                          35.000  
R12  19934502.904                                          33.000  
E 2  23294293.505       17689.644         697.943          30.000                                                                  
E 7  26587161.505     -111516.759       -2663.875          34.000                                                                  
E 8  23302998.710       -7428.476        -756.577          30.000                                                                  
E30  24575121.742      -42822.654       -1579.914          26.000                                                                  
J 2  38677978.768       30726.219         515.893          32.000    38677977.723       15071.464         386.699          18.000  
C 6  35883931.023       -8953.748        -544.603          29.000                                                                                                                                  
C 9  36662262.270      -11997.426        -729.263          30.000                                                                                                                                  
C14  22332329.430        -490.067         -15.337          36.000                                                                                                                                  
C24  22408560.505      -51537.384        -862.664          36.000                                                                    22408554.010      -24878.824        -650.936          28.000  
C26  22314426.224       11172.129        1051.429          31.000                                                                                                                                  
C33  23514239.150      -92311.625       -1556.194          35.000                                                                    23514259.163       -4453.878       -1171.720          25.000  
C35  24771016.544      -42112.342       -1445.740          27.000                                                                                                                                  
> 2022  1 25  4  3  1.0000000  0 21                     
G 3  23524826.934      -74847.886       -1118.904          31.000    23524826.508      -38751.656        -833.825          22.000  
G16  22609455.976     -213171.901       -3319.165          17.000                                                                  
G26  20254123.018      -73857.383       -1156.810          31.000    20254118.841      -19075.147        -863.443          20.000  
G29  22561147.819        1024.199          -0.008          14.000                                                                  
G31  20649531.325       12166.667         189.130          29.000                                                                  
G32  20736513.160      110789.764        1641.977          27.000                                                                  
R 2  19254453.579                                          35.000  
R12  19934696.008                                          34.000  
E 2  23294429.634       21359.013         698.277          32.000                                                                  
E 7  26586655.850     -125515.103       -2663.592          34.000                                                                  
E 8  23302854.955       -2301.419        -757.017          30.000                                                                  
E30  24574821.992      -51124.760       -1580.294          24.000                                                                  
J 2  38678076.101       33437.144         514.139          29.000    38678076.373       16587.088         385.917          16.000  
C 6  35883827.029      -11787.941        -545.832          30.000                                                                                                                                  
C 9  36662118.962      -15803.712        -730.693          32.000                                                                                                                                  
C14  22332326.717        -573.000         -14.902          36.000                                                                                                                                  
C21  24877075.507       36344.198        3218.630          20.000                                                                                                                                  
C24  22408395.129      -56036.942        -865.466          36.000                                                                    22408388.068      -27435.337        -651.496          28.000  
C26  22314628.647       16642.650        1049.385          30.000                                                                                                                                  
C33  23513941.170     -100405.558       -1553.429          35.000                                                                    23513960.939       -9052.695       -1171.944          25.000  
C35  24770734.928      -49651.567       -1448.424          31.000                                                                                                                                  
> 2022  1 25  4  3  2.0000000  0 20                     
G 3  23524612.074      -80741.424       -1121.743          30.000    23524613.550      -42032.450        -835.222          26.000  
G26  20253902.387      -79932.919       -1154.101          31.000    20253898.811      -22464.288        -862.370          19.000  
G29  22561150.907        1108.661          -0.008          18.000                                                                  
G31  20649568.790       13168.477         190.561          29.000                                                                  
G32  20736826.930      119433.484        1642.560          20.000                                                                  
R 2  19254364.365                                          35.000  
R12  19934889.016                                          32.000  
E 2  23294564.873       25030.287         698.715          30.000                                                                  
E 7  26586149.802     -139511.057       -2663.299          34.000                                                                  
E 8  23302712.151       -6274.959        -755.794          33.000                                                                  
E30  24574520.532      -59424.733       -1579.298          29.000                                                                  
J 2  38678175.004       36143.318         515.258          32.000    38678171.420       18100.458         386.815          18.000  
C 6  35883723.132      -14626.127        -543.712          30.000                                                                                                                                  
C 9  36661979.029      -19613.228        -731.008          29.000                                                                                                                                  
C14  22332323.366        -653.117         -15.041          34.000                                                                                                                                  
C21  24877693.550       53099.494        3215.876          18.000                                                                                                                                  
C24  22408229.038      -60537.557        -863.732          39.000                                                                    22408222.186      -29990.456        -650.380          30.000  
C26  22314829.918       22101.434        1048.691          27.000                                                                                                                                  
C33  23513643.051     -108496.263       -1554.834          36.000                                                                    23513662.697      -13648.962       -1170.727          26.000  
C35  24770456.542      -57195.522       -1447.769          29.000                                                                                                                                  
> 2022  1 25  4  3  3.0000000  0 20                     
G 3  23524402.397      -86618.652       -1116.964          32.000    23524400.854      -45310.125        -834.471          22.000  
G26  20253683.709      -85997.994       -1155.508          30.000    20253678.729      -25851.898        -862.375          19.000  
G29  22561181.271        1210.138          19.657          23.000                                                                  
G31  20649605.471       14170.094         190.544          27.000                                                                  
G32  20737139.966      128076.629        1645.604          18.000                                                                  
R 2  19254275.003                                          36.000  
R12  19935079.092                                          31.000  
E 2  23294699.510       28705.150         699.488          31.000                                                                  
E 7  26585642.596     -153505.196       -2662.961          33.000                                                                  
E 8  23302568.518      -10244.675        -754.993          32.000                                                                  
E30  24574220.442      -67720.564       -1578.474          28.000                                                                  
J 2  38678273.680       38850.645         514.838          29.000    38678269.459       19615.297         384.167          19.000  
C 6  35883619.105      -17470.084        -546.056          29.000                                                                                                                                  
C 9  36661838.112      -23415.757        -730.929          28.000                                                                                                                                  
C14  22332319.850        -727.904         -15.464          35.000                                                                                                                                  
C21  24878311.375       69852.859        3217.235          18.000                                                                                                                                  
C24  22408063.304      -65032.704        -863.607          38.000                                                                    22408056.505      -32543.838        -650.032          27.000  
C26  22315032.454       27571.494        1050.813          27.000                                                                                                                                  
C33  23513344.364     -116586.461       -1554.169          36.000                                                                    23513364.569      -18242.629       -1170.174          23.000  
C35  24770178.138      -64720.473       -1443.070          28.000                                                                                                                                  
> 2022  1 25  4  3  4.0000000  0 23                     
G 3  23524190.240      -92484.360       -1117.330          32.000    23524188.139      -48586.013        -833.674          24.000  
G16  22607563.125     -265511.345       -3320.378          19.000                                                                  
G26  20253463.086      -92064.109       -1151.072          32.000    20253459.615      -29227.617        -859.608          19.000  
G29  22561189.184        1312.603          19.511          24.000                                                                  
G31  20649641.985       15183.058         194.348          28.000                                                                  
G32  20737453.492      136732.946        1647.647          21.000                                                                  
R 2  19254186.783                                          35.000  
R 3  22260268.896                                          23.000  
R12  19935272.239                                          33.000  
R22  23549893.801                                          19.000  
E 2  23294833.798       32382.259         699.944          30.000                                                                  
E 7  26585136.112     -167497.528       -2662.503          33.000                                                                  
E 8  23302424.188      -14211.468        -754.399          33.000                                                                  
E30  24573919.907      -76014.473       -1577.922          29.000                                                                  
J 2  38678370.978       41559.106         513.960          32.000    38678363.467       21125.316         384.516          18.000  
C 6  35883514.964      -20307.820        -544.809          30.000                                                                                                                                  
C 9  36661698.425      -27216.657        -730.533          30.000                                                                                                                                  
C14  22332316.535        -803.333         -13.701          35.000                                                                                                                                  
C21  24878929.514       86605.573        3217.802          17.000                                                                                                                                  
C24  22407897.536      -69527.663        -861.622          38.000                                                                    22407890.789      -35096.648        -649.976          27.000  
C26  22315234.670       33039.398        1050.258          25.000                                                                                                                                  
C33  23513046.280     -124674.346       -1552.130          36.000                                                                                                                                  
C35  24769900.712      -72248.139       -1447.880          29.000                                                                                                                                  
> 2022  1 25  4  3  5.0000000  0 22                     
G 3  23523975.634      -98354.490       -1117.005          33.000    23523975.844      -51859.446        -833.771          26.000  
G16  22606927.169     -282977.104       -3322.902          18.000                                                                  
G26  20253245.351      -98117.757       -1152.886          31.000    20253239.847      -32606.816        -860.127          20.000  
G29  22561190.886        1420.633          22.488          21.000                                                                  
G31  20649679.355       16194.448         191.612          28.000                                                                  
G32  20737759.305      145394.459        1649.328          25.000                                                                  
R 2  19254100.404                                          35.000  
R12  19935466.608                                          35.000  
R22  23549309.355                                          18.000  
E 2  23294967.415       36062.064         700.441          30.000                                                                  
E 7  26584628.459     -181487.973       -2662.149          33.000                                                                  
E 8  23302280.764      -18174.732        -754.123          31.000                                                                  
E30  24573618.926      -84305.310       -1577.677          26.000                                                                  
J 2  38678468.485       44268.903         515.716          30.000    38678461.838       22636.233         385.789          17.000  
C 6  35883411.092      -23137.907        -542.018          28.000                                                                                                                                  
C 9  36661558.973      -31021.719        -730.103          30.000                                                                                                                                  
C14  22332313.439        -871.528         -12.526          34.000                                                                                                                                  
C21  24879546.719      103367.072        3219.466          17.000                                                                                                                                  
C24  22407732.099      -74019.572        -862.485          37.000                                                                    22407725.125      -37647.627        -649.741          29.000  
C26  22315437.163       38509.823        1051.086          29.000                                                                                                                                  
C33  23512748.064     -132756.055       -1551.817          37.000                                                                    23512770.005        -693.076       -1169.830          27.000  
C35  24769622.576      -79782.013       -1445.482          28.000                                                                                                                                  
> 2022  1 25  4  3  6.0000000  0 25                     
G 3  23523764.035     -104221.688       -1114.816          32.000    23523763.347      -55129.975        -834.812          22.000  
G16  22606295.244     -300444.127       -3323.186          19.000                                                                  
G26  20253025.164     -104166.048       -1152.746          32.000    20253020.271      -35990.178        -863.365          22.000  
G29  22561194.821        1541.043          23.482          17.000                                                                  
G31  20649715.647       17205.337         191.605          33.000                                                                  
G32  20738078.058      154060.475        1649.052          26.000                                                                  
R 1  21240451.737                                          17.000  
R 2  19254013.040                                          35.000  
R 3  22258856.372                                          20.000  
R12  19935661.431                                          33.000  
R21  23348617.926                                          17.000  
R22  23548708.247                                          17.000  
E 2  23295100.890       39744.843         700.673          31.000                                                                  
E 7  26584120.902     -195476.140       -2661.552          30.000                                                                  
E 8  23302136.695      -22134.111        -753.757          33.000                                                                  
E30  24573317.588      -92592.289       -1577.153          26.000                                                                  
J 2  38678566.115       46980.210         516.064          31.000    38678561.841       24144.904         383.539          22.000  
C 6  35883307.021      -25960.358        -544.608          30.000                                                                                                                                  
C 9  36661417.460      -34821.924        -730.368          30.000                                                                                                                                  
C14  22332310.438        -930.932         -12.559          33.000                                                                                                                                  
C21  24880165.181      120134.209        3219.760          20.000                                                                                                                                  
C24  22407567.177      -78509.005        -862.484          37.000                                                                    22407559.618      -40197.308        -649.568          27.000  
C26  22315639.838       43980.560        1051.181          33.000                                                                                                                                  
C33  23512449.866     -140833.455       -1551.350          36.000                                                                                                                                  
C35  24769345.427      -87297.880       -1443.664          28.000                                                                                                                                  
> 2022  1 25  4  3  7.0000000  0 24                     
G 3  23523553.573     -110084.229       -1115.416          34.000    23523550.747      -58399.078        -832.708          25.000  
G16  22605659.542     -317902.047       -3324.040          19.000                                                                  
G26  20252806.722     -110213.452       -1150.891          32.000    20252801.419      -39361.892        -860.339          23.000  
G29  22561199.203        1661.210          24.515          17.000                                                                  
G31  20649752.764       18222.190         194.039          30.000                                                                  
G32  20738387.483      162715.567        1646.436          27.000                                                                  
R 1  21241164.273                                          17.000  
R 2  19253926.548                                          35.000  
R12  19935856.734                                          35.000  
R21  23348376.495                                          15.000  
R22  23548107.864                                          17.000  
E 2  23295235.545       43428.837         701.264          32.000                                                                  
E 7  26583613.519     -209464.033       -2661.730          31.000    26583614.088      -12097.873       -1987.401          26.000  
E 8  23301993.874      -26091.911        -752.965          34.000                                                                  
E30  24573017.158     -100879.072       -1576.707          30.000                                                                  
J 2  38678664.006       49691.503         516.279          30.000    38678660.046       25640.502         383.586          19.000  
C 6  35883203.395      -28784.861        -542.419          29.000                                                                                                                                  
C 9  36661276.403      -38619.543        -729.220          28.000                                                                                                                                  
C14  22332307.864        -990.012         -10.826          37.000                                                                                                                                  
C21  24880783.486      136899.445        3219.595          18.000                                                                                                                                  
C24  22407401.958      -82997.686        -861.884          38.000                                                                    22407394.138      -42746.280        -648.167          29.000  
C26  22315844.617       49456.561        1051.647          33.000                                                                                                                                  
C33  23512152.410     -148908.665       -1550.683          36.000                                                                    23512171.698       -2158.217       -1164.931          26.000  
C35  24769068.003      -94825.650       -1446.776          26.000                                                                                                                                  
> 2022  1 25  4  3  8.0000000  0 26                     
G 3  23523340.631     -115938.345       -1113.949          35.000    23523338.896      -61665.173        -831.255          23.000  
G16  22605037.372     -335359.424       -3321.647          15.000                                                                  
G26  20252587.329     -116258.063       -1149.202          31.000    20252582.820      -42732.878        -858.545          23.000  
G29  22561202.213        1785.176          -0.008          18.000                                                                  
G31  20649789.619       19235.914         192.507          27.000                                                                  
G32  20738700.983      171382.293        1650.993          27.000                                                                  
R 1  21241870.745                                          17.000  
R 2  19253838.398                                          35.000  
R 3  22257457.833                                          23.000  
R12  19936050.589                                          30.000  
R21  23348122.786                                          17.000  
R22  23547507.559                                          15.000  
E 2  23295369.091       47115.119         701.917          24.000                                                                  
E 7  26583106.486     -223448.973       -2661.026          32.000    26583107.761      -19897.018       -1988.667          23.000  
E 8  23301850.171      -30046.565        -752.031          33.000                                                                  
E30  24572718.028     -109163.270       -1576.033          30.000                                                                  
J 2  38678762.918       52403.590         517.178          24.000    38678759.996       27148.747         386.350          20.000  
C 6  35883100.004      -31611.789        -542.396          27.000                                                                                                                                  
C 9  36661136.959      -42425.639        -730.858          28.000                                                                                                                                  
C10  37920556.987      -32890.127        -964.295          17.000                                                                                                                                  
C14  22332305.831       -1045.234          -9.826          37.000                                                                                                                                  
C21  24881401.808      153665.540        3218.874          18.000                                                                                                                                  
C24  22407236.574      -87483.807        -860.818          39.000                                                                    22407228.649      -45294.526        -649.086          26.000  
C26  22316049.761       54934.755        1053.087          30.000                                                                                                                                  
C33  23511855.651     -156979.294       -1548.882          35.000                                                                                                                                  
C35  24768791.238     -102347.683       -1443.096          30.000                                                                                                                                  
> 2022  1 25  4  3  9.0000000  0 26                     
G 3  23523129.680     -121792.384       -1113.215          35.000    23523126.750      -64933.497        -831.264          21.000  
G16  22604418.299     -352806.159       -3320.918          12.000                                                                  
G26  20252368.478     -122298.269       -1150.661          34.000    20252365.347      -46085.933        -852.368          20.000  
G29  22561219.488        1909.440          22.916          20.000                                                                  
G31  20649824.842       20252.902         192.433          31.000                                                                  
G32  20739015.879      180059.084        1650.734          26.000                                                                  
R 1  21242596.918                                          19.000  
R 2  19253751.060                                          29.000  
R 3  22256755.838                                          19.000  
R12  19936205.398                                          29.000  
R21  23347869.740                                          17.000  
R22  23546908.022                                          15.000  
E 2  23295502.411       50804.781         701.880          26.000                                                                  
E 7  26582600.578     -237434.415       -2661.259          32.000    26582601.897      -27690.147       -1984.369          21.000  
E 8  23301707.001      -33999.378        -752.568          31.000                                                                  
E30  24572419.045     -117445.490       -1576.455          30.000                                                                  
J 2  38678860.888       55121.530         518.217          26.000    38678858.271       28662.334         383.528          19.000  
C 6  35882996.317      -34436.079        -541.274          26.000                                                                                                                                  
C 9  36660997.498      -46223.178        -729.228          25.000                                                                                                                                  
C10  37920385.804      -37910.976        -965.721          20.000                                                                                                                                  
C14  22332303.964       -1098.558         -10.958          34.000                                                                                                                                  
C21  24882020.000      170425.085        3218.005          17.000                                                                                                                                  
C24  22407071.342      -91969.895        -861.749          39.000                                                                    22407063.051      -47842.699        -649.776          25.000  
C26  22316252.707       60413.336        1051.015          30.000                                                                                                                                  
C33  23511557.986     -165048.106       -1548.815          37.000                                                                                                                                  
C35  24768514.472     -109854.292       -1443.657          24.000                                                                                                                                  
> 2022  1 25  4  3 10.0000000  0 24                     
G 3  23522916.129     -127667.504       -1118.147          34.000    23522913.836      -68208.103        -835.402          20.000  
G26  20252150.271     -128359.920       -1153.446          33.000    20252146.835      -49446.708        -861.836          20.000  
G29  22561221.679        2031.559          23.022          17.000                                                                  
G31  20649860.257       21247.105         187.852          27.000                                                                  
G32  20739327.634      188730.670        1647.885          27.000                                                                  
R 1  21243304.228                                          17.000  
R 2  19253663.905                                          34.000  
R12  19936406.617                                          28.000  
R21  23347601.164                                          17.000  
R22  23546307.407                                          17.000  
E 2  23295634.745       54474.927         697.630          21.000                                                                  
E 7  26582093.728     -251439.845       -2666.369          30.000    26582094.244      -35502.034       -1990.889          21.000  
E 8  23301563.107      -37970.675        -756.860          32.000                                                                  
E30  24572117.829     -125747.373       -1581.061          30.000                                                                  
J 2  38678959.861       57822.767         510.584          26.000    38678955.246       30162.562         378.929          19.000  
C 6  35882890.656      -37279.538        -549.023          26.000                                                                                                                                  
C 9  36660858.516      -50045.110        -735.575          31.000                                                                                                                                  
C10  37920199.671      -42959.420        -971.794          17.000                                                                                                                                  
C14  22332301.704       -1170.395         -13.927          34.000                                                                                                                                  
C21  24882637.641      187176.232        3215.831          17.000                                                                                                                                  
C24  22406904.195      -96477.186        -865.947          39.000                                                                    22406896.855      -50401.910        -652.336          25.000  
C26  22316455.034       65887.587        1051.792          19.000                                                                                                                                  
C33  23511259.691     -173137.172       -1553.613          35.000                                                                                                                                  
C35  24768236.734     -117377.296       -1446.107          29.000                                                                                                                                  
> 2022  1 25  4  3 11.0000000  0 25                     
G 3  23522704.171     -133532.652       -1114.614          34.000    23522701.590      -71483.780        -832.804          20.000  
G26  20251930.708     -134413.368       -1150.004          32.000    20251926.818      -52823.170        -859.171          20.000  
G29  22561226.059        2150.244          22.009          17.000                                                                  
G31  20649898.155       22236.988         188.615          28.000                                                                  
G32  20739639.973      197385.474        1647.477          25.000                                                                  
R 1  21244011.433                                          17.000  
R 2  19253574.272                                          35.000  
R 3  22255350.650                                          20.000  
R12  19936602.103                                          28.000  
R21  23347348.380                                          16.000  
R22  23545715.897                                          16.000  
E 2  23295767.567       58149.326         699.503          25.000                                                                  
E 7  26581586.973     -265442.085       -2664.234          33.000    26581587.786      -43299.470       -1986.864          19.000  
E 8  23301419.771      -41937.618        -754.522          35.000                                                                  
E30  24571816.946     -134044.965       -1578.635          29.000                                                                  
J 2  38679058.554       60511.774         513.914          29.000    38679052.326       31659.996         385.366          19.000  
C 6  35882785.800      -40131.620        -548.296          28.000                                                                                                                                  
C 7  36978136.537      -11899.860        -959.215          21.000                                                                                                                                  
C 9  36660720.312      -53864.013        -731.805          32.000                                                                                                                                  
C10  37920014.699      -48020.422        -972.796          17.000                                                                                                                                  
C14  22332299.636       -1233.986         -10.461          35.000                                                                                                                                  
C24  22406737.842     -100977.723        -862.549          40.000                                                                    22406730.912      -52957.827        -649.208          26.000  
C26  22316657.805       71349.161          -0.009          24.000                                                                                                                                  
C33  23510961.040     -181217.605       -1549.480          38.000                                                                                                                                  
C35  24767959.637     -124902.829       -1444.382          29.000                                                                                                                                  
> 2022  1 25  4  3 12.0000000  0 25                     
G 3  23522493.220     -139383.837       -1112.547          34.000    23522489.557      -74754.074        -832.032          18.000  
G26  20251712.353     -140451.515       -1147.403          31.000    20251708.699      -56190.372        -856.402          18.000  
G29  22561230.578        2274.016          25.248          13.000                                                                  
G31  20649937.366       23242.425         189.860          28.000                                                                  
G32  20739952.258      206057.872        1651.418          22.000                                                                  
R 1  21244716.945                                          14.000  
R 2  19253484.673                                          32.000  
R 3  22254646.185                                          19.000  
R12  19936797.536                                          31.000  
R21  23347095.134                                          17.000  
R22  23545115.566                                          15.000  
E 2  23295899.822       61835.598         702.172          25.000                                                                  
E 7  26581080.114     -279430.921       -2661.439          30.000    26581081.363      -51096.754       -1988.945          19.000  
E 8  23301276.967      -45888.735        -751.418          32.000                                                                  
E30  24571516.297     -142327.479       -1575.489          27.000                                                                  
J 2  38679156.480       63221.321         518.010          28.000    38679150.750       33172.342         384.650          18.000  
C 6  35882681.432      -42967.402        -542.691          25.000                                                                                                                                  
C 7  36977952.581      -16898.000        -959.418          19.000                                                                                                                                  
C 9  36660581.461      -57671.172        -729.740          29.000                                                                                                                                  
C14  22332297.673       -1283.291          -8.061          35.000                                                                                                                                  
C21  24883870.168       28904.740        3214.579          17.000                                                                                                                                  
C24  22406573.095     -105466.157        -861.083          36.000                                                                    22406565.449      -55507.513        -649.453          26.000  
C26  22316860.813       76811.501        1049.595          29.000                                                                                                                                  
C33  23510663.365     -189284.574       -1547.881          37.000                                                                                                                                  
C35  24767683.249     -132416.650       -1440.897          29.000                                                                                                                                  
> 2022  1 25  4  3 13.0000000  0 25                     
G 3  23522279.791     -145229.179       -1112.945          29.000    23522277.838      -78016.266        -829.441          24.000  
G26  20251493.336     -146483.254       -1149.038          28.000    20251490.135      -59555.016        -851.896          20.000  
G29  22561240.874        2412.139          -0.008          16.000                                                                  
G31  20649972.301       24252.858         194.629          35.000                                                                  
G32  20740267.748      214737.516        1653.171          23.000                                                                  
R 1  21245424.473                                          15.000  
R 2  19253399.080                                          33.000  
R 3  22253942.959                                          21.000  
R12  19936993.816                                          34.000  
R21  23346841.678                                          17.000  
R22  23544515.000                                          15.000  
E 2  23296033.081       65532.846         704.191          32.000                                                                  
E 7  26580574.477     -293413.486       -2660.271          32.000    26580574.661      -58897.123       -1986.425          24.000  
E 8  23301133.290      -49831.791        -749.386          34.000                                                                  
E30  24571215.761     -150604.565       -1575.960          21.000                                                                  
J 2  38679254.808       65935.102         517.504          33.000    38679248.885       34680.957         387.888          23.000  
C 6  35882576.934      -45792.436        -543.794          30.000                                                                                                                                  
C 7  36977768.101      -21900.097        -961.850          16.000                                                                                                                                  
C 9  36660440.491      -61478.714        -729.999          30.000                                                                                                                                  
C14  22332295.884       -1325.401          -8.613          28.000                                                                                                                                  
C21  24884495.139       45644.997        3216.844          18.000                                                                                                                                  
C24  22406408.496     -109946.744        -860.218          39.000                                                                    22406400.196      -58051.627        -646.892          29.000  
C26  22317062.598       82294.522        1053.384          32.000                                                                                                                                  
C33  23510366.127     -197343.041       -1547.014          37.000                                                                    23510384.281        -619.332       -1165.090          29.000  
C35  24767406.806     -139928.765       -1441.504          27.000                                                                                                                                  
> 2022  1 25  4  3 14.0000000  0 26                     
G 3  23522067.523     -151067.507       -1107.731          33.000    23522066.198      -81274.533        -829.175          17.000  
G26  20251275.007     -152501.526       -1145.693          30.000    20251271.056      -62909.339        -854.902          26.000  
G29  22561246.292        2560.284          -0.008          17.000                                                                  
G31  20650007.577       25277.953         196.630          36.000                                                                  
G32  20740582.277      223426.891        1653.876          24.000                                                                  
R 1  21246129.566                                          16.000  
R 2  19253311.759                                          34.000  
R 3  22253049.665                                          26.000  
R12  19937188.255                                          24.000  
R21  23346571.505                                          17.000  
R22  23543909.456                                          13.000  
E 2  23296167.718       69234.113         705.164          34.000                                                                  
E 7  26580068.455     -307388.951       -2656.212          19.000    26580068.448      -66691.479       -1984.113          19.000  
E 8  23300991.062      -53767.643        -747.965          36.000    23300987.478       -2529.014        -559.752          24.000  
E30  24570916.709     -158875.651       -1572.798          34.000                                                                  
J 2  38679354.409       68655.974         517.226          33.000    38679347.457       36196.075         385.777          20.000  
C 6  35882472.826      -48613.126        -540.498          34.000                                                                                                                                  
C 7  36977583.673      -26901.137        -958.988          20.000                                                                                                                                  
C 9  36660298.309      -65282.405        -731.144          29.000                                                                                                                                  
C10  37919465.287      -11791.684        -961.991          23.000                                                                                                                                  
C14  22332295.197       -1351.807          -2.529          31.000                                                                                                                                  
C21  24885116.550       62403.883        3221.639          17.000                                                                                                                                  
C24  22406243.015     -114422.371        -857.952          39.000                                                                    22406235.038      -60594.039        -646.940          29.000  
C26  22317264.534       87775.908        1054.984          32.000                                                                                                                                  
C33  23510069.246     -205395.678       -1544.747          36.000                                                                                                                                  
C35  24767130.453     -147436.362       -1441.477          27.000                                                                                                                                  
> 2022  1 25  4  3 15.0000000  0 25                     
G 3  23521857.750     -156895.414       -1107.523          31.000    23521854.314      -84524.194        -826.053          22.000  
G26  20251055.483     -158521.732       -1144.881          31.000    20251053.426      -66265.447        -852.344          22.000  
G29  22561237.148        2713.434          -0.008          17.000                                                                  
G31  20650044.187       26313.169         197.097          36.000                                                                  
G32  20740897.854      232117.249        1655.767          28.000                                                                  
R 1  21246837.740                                          14.000  
R 2  19253226.881                                          31.000  
R12  19937384.735                                          34.000  
R21  23346318.416                                          17.000  
R22  23543308.706                                          12.000  
E 2  23296303.359       72942.090         706.343          29.000                                                                  
E 7  26579562.111     -321359.382       -2658.429          24.000    26579562.819      -74481.791       -1984.264          19.000  
E 8  23300849.716      -57699.458        -747.375          27.000    23300845.555       -4721.568        -557.568          24.000  
E30  24570616.575     -167149.099       -1574.125          32.000    24570614.552       -4358.004       -1176.211          20.000  
J 2  38679453.007       71380.294         519.568          30.000    38679446.508       37715.373         387.705          20.000  
C 6  35882373.938      -51429.659        -539.647          27.000                                                                                                                                  
C 7  36977399.218      -31890.556        -958.555          17.000                                                                                                                                  
C 9  36660157.033      -69076.081        -728.963          27.000                                                                                                                                  
C10  37919278.474      -16803.485        -963.495          25.000                                                                                                                                  
C14  22332293.932       -1382.983          -4.393          34.000                                                                                                                                  
C21  24885735.067       79174.972        3217.874          15.000                                                                                                                                  
C24  22406077.762     -118894.980        -857.285          37.000                                                                    22406070.081      -63134.528        -647.231          25.000  
C26  22317466.904       93273.240        1056.725          29.000                                                                                                                                  
C33  23509772.697     -213440.974       -1543.444          30.000                                                                                                                                  
C35  24766853.585     -154946.818       -1441.110          19.000                                                                                                                                  
> 2022  1 25  4  3 16.0000000  0 25                     
G 3  23521646.629     -162725.130       -1109.863          24.000    23521642.809      -87775.231        -827.125          20.000  
G26  20250837.879     -164538.847       -1145.810          31.000    20250835.508      -69617.750        -853.759          24.000  
G29  22561242.470        2869.986          28.717          18.000                                                                  
G31  20650082.757       27345.003         196.496          25.000                                                                  
G32  20741210.987      240816.735        1656.089          35.000                                                                  
R 1  21247545.843                                          13.000  
R 2  19253139.499                                          27.000  
R12  19937581.207                                          26.000  
R21  23346065.405                                          15.000  
R22  23542714.124                                          16.000  
E 2  23296438.039       76648.677         705.555          23.000                                                                  
E 7  26579057.259     -335316.289       -2654.303          18.000    26579056.772      -82274.934       -1985.920          17.000  
E 8  23300706.580      -61627.540        -747.935          25.000    23300703.188       -6911.669        -554.692          21.000  
E30  24570317.540     -175415.056       -1572.969          29.000    24570315.439       -8967.573       -1174.912          22.000  
J 2  38679550.863       74104.372         516.531          25.000    38679545.071       39228.088         384.501          18.000  
C 6  35882267.738      -54247.523        -543.516          21.000                                                                                                                                  
C 7  36977217.085      -36880.850        -958.165          24.000                                                                                                                                  
C 9  36660017.222      -72867.842        -726.170          24.000                                                                                                                                  
C10  37919094.025      -21815.040        -960.504          27.000                                                                                                                                  
C14  22332293.513       -1408.497          -5.969          26.000                                                                                                                                  
C21  24886353.320       95938.754        3221.795          14.000                                                                                                                                  
C24  22405911.863     -123365.866        -855.826          27.000                                                                    22405905.229      -65673.979        -646.375          25.000  
C26  22317669.929       98763.559        1052.758          20.000                                                                                                                                  
C33  23509476.838     -221485.796       -1541.537          24.000                                                                                                                                  
C35  24766576.654     -162460.992       -1442.293          19.000                                                                                                                                  
> 2022  1 25  4  3 17.0000000  0 25                     
G 3  23521438.610     -168566.889       -1110.988          24.000                                                                  
G26  20250619.909     -170557.526       -1145.122          24.000    20250618.148      -72967.840        -853.154          21.000  
G29  22561248.133        3023.628          28.810          17.000                                                                  
G32  20741526.459      249514.797        1655.835          37.000    20741520.527        8234.234        1237.341          25.000  
R 1  21248245.798                                          15.000  
R 2  19253055.093                                          24.000  
R12  19937775.428                                          19.000  
R21  23345812.596                                          15.000  
R22  23542114.011                                          17.000  
E 2  23296572.441       80362.048         707.356          22.000                                                                  
E 7  26578552.408     -349259.628       -2652.501          15.000    26578551.380      -90062.201       -1982.158          16.000  
E 8  23300565.015      -65552.817        -746.816          22.000    23300561.378       -9098.734        -556.794          20.000  
E25  26152983.771       29633.534        2273.130          20.000                                                                  
E30  24570017.720     -183684.484       -1573.897          27.000    24570016.335      -13578.344       -1174.618          23.000  
J 2  38679647.716       76813.482         516.642          27.000    38679643.573       40737.559         385.537          19.000  
C 6  35882164.400      -57061.874        -541.078          19.000                                                                                                                                  
C 7  36977029.220      -41866.671        -957.031          30.000                                                                                                                                  
C 9  36659877.884      -76658.910          -0.049          19.000                                                                                                                                  
C10  37918909.027      -26821.520        -961.994          29.000                                                                                                                                  
C14  22332294.176       -1436.964          -7.558          30.000                                                                                                                                  
C21  24886970.656      112722.044          -0.013          15.000                                                                                                                                  
C24  22405748.843     -127834.225        -858.654          30.000                                                                    22405740.665      -68212.430        -645.719          17.000  
C26  22317873.817      104241.007          -0.009          22.000                                                                                                                                  
C33  23509183.482     -229519.879       -1544.301          28.000                                                                                                                                  
C35  24766300.761     -169949.298       -1434.427          32.000                                                                                                                                  
> 2022  1 25  4  3 18.0000000  0 26                     
G 3  23521227.467     -174405.882       -1109.771          23.000                                                                  
G26  20250404.390     -176568.428       -1142.489          31.000    20250400.255      -76322.408        -853.848          24.000  
G29  22561253.604        3171.979          28.646          21.000                                                                  
G31  20650189.893        1447.765         194.821          25.000                                                                  
G32  20741840.770      258218.087        1656.516          38.000    20741836.784       13086.655        1236.654          23.000  
R 1  21248953.168                                          16.000  
R 2  19252968.636                                          33.000  
R12  19937970.278                                          23.000  
R21  23345560.144                                          17.000  
R22  23541507.747                                          19.000  
E 2  23296708.465       84082.756         708.072          25.000                                                                  
E 7  26578047.862     -363199.860       -2653.942          18.000    26578044.696      -97838.569       -1980.632          14.000  
E 8  23300422.368      -69477.073        -746.097          26.000    23300419.499      -11283.627        -557.239          17.000  
E25  26153426.771       41567.037        2271.312          18.000                                                                  
E30  24569718.380     -191957.561       -1574.528          32.000    24569716.567      -18197.637       -1175.142          25.000  
J 2  38679746.959       79532.869         520.474          27.000    38679742.179       42248.661         386.465          18.000  
C 6  35882060.641      -59875.250        -540.299          23.000                                                                                                                                  
C 7  36976844.871      -46861.089        -958.513          29.000                                                                                                                                  
C 9  36659740.464      -80477.294          -0.049          25.000                                                                                                                                  
C10  37918723.487      -31850.898        -967.041          29.000                                                                                                                                  
C14  22332293.600       -1463.335          -4.619          27.000                                                                                                                                  
C21  24887590.130      129518.878          -0.013          17.000                                                                                                                                  
C24                                                                                                                                  22688700.361      -70749.463        -646.554          17.000  
C26  22318077.697      109719.084          -0.009          24.000                                                                                                                                  
C33  23508886.601     -237568.222       -1545.554          25.000                                                                                                                                  
C35  24766024.480     -177426.502       -1437.188          30.000                                                                                                                                  
> 2022  1 25  4  3 19.0000000  0 24                     
G 3  23521019.228     -180228.800       -1105.397          26.000                                                                  
G26  20250187.265     -182566.322       -1144.380          29.000    20250183.079      -79671.736        -852.225          24.000  
G29  22561260.751        3321.622          26.866          18.000                                                                  
G31  20650226.975        2482.784         196.166          20.000                                                                  
G32  20742156.844      266935.937        1660.704          33.000    20742152.658       17947.210        1239.846          25.000  
R 1  21249660.967                                          17.000  
R 2  19252885.468                                          23.000  
R12  19938166.610                                          23.000  
R21  23345305.371                                          17.000  
R22  23540904.594                                          20.000  
E 2  23296843.154       87806.037         708.916          21.000                                                                  
E 7  26577542.494     -377152.152       -2655.657          18.000                                                                  
E 8  23300281.990      -73390.228        -743.379          21.000    23300277.577      -13472.559        -557.242          17.000  
E25  26153858.812       53513.053        2275.053          15.000                                                                  
E30  24569419.460     -200219.829       -1572.859          23.000    24569417.481      -22806.788       -1179.135          20.000  
J 2  38679846.770       82272.557         520.015          25.000    38679841.702       43773.184         391.705          20.000  
C 6  35881957.119      -62683.091        -539.086          20.000                                                                                                                                  
C 7  36976662.128      -51829.322        -954.260          26.000                                                                                                                                  
C10  37918538.332      -36866.675        -963.478          27.000                                                                                                                                  
C14  22332293.724       -1477.764          -3.247          20.000                                                                                                                                  
C21  24888203.217      146302.910        3224.317          20.000                                                                                                                                  
C24                                                                                                                                  22688535.518      -73292.399        -648.374          16.000  
C33  23508591.850     -245614.517       -1542.890          23.000                                                                                                                                  
C35  24765748.805     -184903.838       -1432.819          23.000                                                                                                                                  
> 2022  1 25  4  3 20.0000000  0 24                     
G 3  23520810.310     -186023.718       -1101.368          21.000                                                                  
G26  20249969.644     -188578.708       -1142.677          30.000    20249966.050      -83021.156        -850.009          23.000  
G29  22561266.588        3480.918          33.585          18.000                                                                  
G31  20650261.125        3522.866         199.390          25.000                                                                  
G32  20742472.899      275658.877        1660.050          29.000    20742467.822       22796.755        1238.135          22.000  
R 1  21250372.805                                          17.000  
R 2  19252797.432                                          23.000  
R12  19938362.697                                          23.000  
R21  23345047.212                                          17.000  
R22  23540302.902                                          18.000  
E 2  23296978.114       91530.167         708.590          20.000                                                                  
E 7  26577037.162     -391113.821       -2655.898          23.000                                                                  
E 8  23300139.989      -77302.993        -743.645          20.000    23300135.872      -15659.437        -556.353          17.000  
E25  26154291.639       65464.634        2274.369          16.000                                                                  
E30  24569119.936     -208491.572       -1571.349          28.000    24569119.598      -27413.995       -1173.318          23.000  
J 2  38679944.295       85003.140         520.021          25.000    38679942.228       45319.410         394.746          19.000  
C 6  35881853.467      -65494.999        -539.418          21.000                                                                                                                                  
C 7  36976478.702      -56806.141        -954.407          30.000                                                                                                                                  
C10  37918353.236      -41891.249        -960.596          30.000                                                                                                                                  
C14  22332292.659       -1505.376          -4.960          22.000                                                                                                                                  
C21  24888821.732      163099.345        3226.435          22.000                                                                                                                                  
C24                                                                                                                                  22688368.859      -75835.729        -648.441          17.000  
C33  23508296.261     -253646.357       -1541.713          23.000                                                                                                                                  
C35  24765473.287     -192368.897       -1437.589          24.000                                                                                                                                  
> 2022  1 25  4  3 21.0000000  0 25                     
G 3  23520601.050     -191812.180       -1100.994          17.000                                                                  
G26  20249752.511     -194583.957       -1137.157          29.000    20249747.905      -86380.441        -853.811          23.000  
G29  22561273.019        3657.865          34.666          20.000                                                                  
G31  20650298.783        4582.104         201.085          25.000                                                                  
G32  20742789.731      284387.130        1663.022          36.000    20742783.791       27663.812        1240.026          25.000  
R 1  21251081.502                                          15.000  
R 2  19252710.495                                          25.000  
R12  19938558.140                                          28.000  
R21  23344792.701                                          19.000  
R22  23539703.574                                          15.000  
E 2  23297113.659       95254.477         710.286          24.000                                                                  
E 7  26576534.029     -405059.925       -2654.349          26.000                                                                  
E 8  23300004.322       -3081.357        -742.459          23.000    23299995.285      -17840.987        -556.653          19.000  
E25  26154717.651       77405.265        2269.460          14.000                                                                  
E30  24568820.614     -216761.345       -1570.299          28.000    24568819.429      -32023.507       -1176.850          20.000  
J 2  38680043.643       87744.522         524.582          28.000    38680040.172       46850.524         391.925          22.000  
C 6  35881750.173      -68297.281        -536.918          21.000                                                                                                                                  
C 7  36976294.869      -61789.086        -954.570          30.000                                                                                                                                  
C 9  36659325.588      -91866.813        -729.117          22.000                                                                                                                                  
C10  37918167.776      -46915.783        -960.471          31.000                                                                                                                                  
C14  22332291.176       -1522.351          -2.098          22.000                                                                                                                                  
C21  24889439.827      179923.059        3231.071          24.000                                                                                                                                  
C26  22318691.246      126243.852        1056.054          25.000                                                                                                                                  
C33  23508001.177     -261670.573       -1539.868          25.000                                                                                                                                  
C35  24765197.913     -199826.852       -1430.196          27.000                                                                                                                                  
> 2022  1 25  4  3 22.0000000  0 26                     
G 3  23520391.460     -197600.659       -1102.153          17.000                                                                  
G26  20249534.365     -200577.874       -1137.500          30.000    20249530.955      -89721.596        -850.240          22.000  
G29  22561274.502        3836.928          -0.008          22.000                                                                  
G31  20650336.606        5641.746         201.102          25.000                                                                  
G32  20743105.727      293115.152        1661.148          30.000    20743100.205       32535.643        1239.218          24.000  
R 1  21251791.350                                          17.000  
R 2  19252626.097                                          25.000  
R 3  22247493.527                                          22.000  
R12  19938753.521                                          23.000  
R21  23344551.844                                          17.000  
R22  23539103.871                                          16.000  
E 2  23297250.233       98991.389         710.652          23.000                                                                  
E 7  26576030.337     -418994.780       -2652.242          20.000                                                                  
E 8  23299854.922       -6985.589        -742.136          23.000    23299851.172      -20022.208        -555.028          18.000  
E25  26155149.572       89331.499        2270.008          16.000                                                                  
E30  24568522.172     -225028.829       -1570.281          27.000    24568519.521      -36635.801       -1170.381          19.000  
J 2  38680144.239       90499.825         521.720          26.000    38680139.241       48379.597         388.333          22.000  
C 6  35881647.184      -71090.699        -536.658          20.000                                                                                                                                  
C 7  36976110.554      -66772.035        -954.561          27.000                                                                                                                                  
C 9  36659186.364      -95661.120        -727.651          21.000                                                                                                                                  
C10  37917982.254      -51945.910        -964.579          29.000                                                                                                                                  
C14  22332291.272       -1533.711           0.163          28.000                                                                                                                                  
C21  24890062.503      196751.559        3232.318          21.000                                                                                                                                  
C26  22318895.693      131757.555        1059.585          30.000                                                                                                                                  
C33  23507705.798     -269683.770          -0.000          23.000                                                                                                                                  
C35  24764923.443     -207269.624       -1431.682          28.000                                                                                                                                  
> 2022  1 25  4  3 23.0000000  0 26                     
G 3  23520186.859     -203399.507       -1102.740          18.000                                                                  
G26  20249316.351     -206577.989       -1140.779          29.000    20249314.267      -93058.831        -849.156          21.000  
G29  22561261.048        4028.871          -0.008          20.000                                                                  
G31  20650368.226        6694.803         202.145          28.000                                                                  
G32  20743420.090      301838.383        1662.050          37.000    20743416.227       37400.690        1241.198          22.000  
R 1  21252500.108                                          16.000  
R 2  19252539.500                                          21.000  
R 3  22246793.617                                          23.000  
R12  19938950.176                                          32.000  
R21  23344298.546                                          18.000  
R22  23538503.772                                          13.000  
E 2  23297384.870      102721.834         709.989          27.000    23297379.156        4239.951         529.062          20.000  
E 7  26575525.851     -432941.278       -2655.578          20.000                                                                  
E 8  23299714.989      -10898.277        -743.877          23.000    23299709.607      -22203.052        -556.435          20.000  
E25  26155570.907      101251.516        2268.990          13.000                                                                  
E30  24568222.859     -233298.296       -1573.049          24.000    24568219.912      -41238.441       -1174.710          19.000  
J 2  38680242.652       93234.453         521.195          33.000    38680238.482       49903.579         389.416          22.000  
C 6  35881543.451      -73887.239        -537.037          26.000                                                                                                                                  
C 7  36975925.585      -71770.410        -961.743          19.000                                                                                                                                  
C 9  36659046.954      -99452.085        -727.034          25.000                                                                                                                                  
C10  37917796.278      -56983.136        -968.531          20.000                                                                                                                                  
C14  22332291.185       -1544.675          -2.493          26.000                                                                                                                                  
C21  24890683.181      213584.257        3232.667          17.000                                                                                                                                  
C26  22319098.011      137279.197        1062.756          27.000                                                                                                                                  
C33  23507409.667     -277697.544       -1540.641          26.000                                                                                                                                  
C35  24764648.660     -214712.505       -1428.306          27.000                                                                                                                                  
> 2022  1 25  4  3 24.0000000  0 26                     
G 3  23519977.130     -209192.031       -1102.312          16.000                                                                  
G26  20249101.042     -212547.742       -1136.630          34.000    20249097.099      -96380.935        -845.639          24.000  
G29  22561267.784        4232.652          38.859          23.000                                                                  
G31  20650405.936        7777.559         206.193          29.000                                                                  
G32  20743736.723      310582.012        1660.451          34.000    20743732.746       42274.315        1239.225          22.000  
R 1  21253208.971                                          16.000  
R 2  19252454.875                                          28.000  
R12  19939145.243                                          27.000  
R21  23344048.309                                          15.000  
R22  23537904.767                                          13.000  
E 2  23297520.109      106465.208         712.819          23.000    23297515.024        6333.511         532.377          20.000  
E 7  26575020.641     -446886.518       -2652.623          17.000                                                                  
E 8  23299574.654      -14795.517        -739.089          24.000    23299570.346      -24370.594        -551.546          19.000  
E25  26156002.678      113175.443        2269.395          12.000                                                                  
E30  24567924.505     -241551.284       -1566.775          32.000    24567921.104      -45840.046       -1172.054          23.000  
J 2  38680342.715       95987.025         524.314          29.000    38680338.372       51436.810         393.060          20.000  
C 6  35881440.122      -76678.950        -533.824          22.000                                                                                                                                  
C 7  36975742.702      -76750.613        -951.500          28.000                                                                                                                                  
C 9  36658909.841     -103226.627        -721.420          24.000                                                                                                                                  
C10  37917610.669      -62013.122        -961.587          29.000                                                                                                                                  
C14  22332291.752       -1534.616           6.330          28.000                                                                                                                                  
C21  24891303.414      230401.495        3224.838          20.000                                                                                                                                  
C24  22404715.031       -6056.202        -853.436          29.000                                                                                                                                  
C26  22319302.205      142809.507        1060.810          22.000                                                                                                                                  
C33  23507114.567     -285706.738       -1535.500          21.000                                                                                                                                  
C35  24764374.774     -222147.931       -1427.773          21.000                                                                                                                                  
> 2022  1 25  4  3 25.0000000  0 27                     
G 3  23519767.592     -214978.591       -1100.487          16.000                                                                  
G26  20248882.612     -218531.676       -1133.867          32.000    20248880.232      -99717.914        -844.469          22.000  
G29  22561284.634        4439.121          -0.008          24.000                                                                  
G31  20650445.347        8850.074         202.544          23.000                                                                  
G32  20744053.966      319327.327        1665.446          34.000    20744047.973       47140.442        1242.526          24.000  
R 1  21253921.847                                          18.000  
R 2  19252372.597                                          27.000  
R12  19939345.380                                          30.000  
R21  23343797.654                                          16.000  
R22  23537306.163                                          12.000  
E 2  23297655.505      110217.542         713.357          23.000    23297650.865        8424.069         532.471          17.000  
E 7  26574515.676     -460833.572       -2655.960          18.000                                                                  
E 8  23299435.131      -18681.616        -739.200          22.000    23299428.179      -26536.190        -554.267          20.000  
E25  26156434.719      125106.249        2271.440          13.000                                                                  
E30  24567624.345     -249804.015       -1567.685          29.000    24567622.043      -50439.979       -1166.295          20.000  
J 2  38680442.290       98742.633         523.481          24.000    38680437.414       52970.875         390.346          21.000  
C 1  37242563.587        -637.157         -99.366          27.000                                                                                                                                  
C 6  35881337.202      -79466.144        -536.168          22.000                                                                                                                                  
C 7  36975559.714      -81727.758        -952.706          29.000                                                                                                                                  
C 9  36658771.417     -107002.449          -0.049          22.000                                                                                                                                  
C10  37917425.723      -67034.803        -958.909          32.000                                                                                                                                  
C14  22332293.200       -1508.814           5.487          26.000                                                                                                                                  
C21  24891923.272      247204.841        3227.998          20.000                                                                                                                                  
C24  22404543.329      -10505.995        -853.780          23.000                                                                                                                                  
C26  22319506.557      148333.986        1061.559          26.000                                                                                                                                  
C33  23506819.562     -293706.600       -1536.229          16.000                                                                                                                                  
C35  24764100.934     -229580.099       -1427.340          24.000                                                                                                                                  
> 2022  1 25  4  3 26.0000000  0 28                     
G 3  23519566.080     -220760.789          -0.025          14.000                                                                  
G26  20248666.945     -224513.430       -1136.058          28.000    20248664.041     -103048.657        -846.630          21.000  
G29  22561292.460        4657.640          41.729          19.000                                                                  
G31  20650485.732        9900.829         202.651          27.000                                                                  
G32  20744369.577      328071.830        1665.172          38.000    20744364.858       52019.274        1241.860          25.000  
R 1  21254635.177                                          17.000  
R 2  19252288.644                                          26.000  
R 3  22244704.477                                          21.000  
R12  19939541.747                                          28.000  
R21  23343541.590                                          17.000  
R22  23536707.577                                          14.000  
E 2  23297790.902      113963.700         713.515          23.000    23297787.492       10517.590         532.233          17.000  
E 7  26574010.989     -474793.368       -2655.392          18.000                                                                  
E 8  23299295.128      -22574.460        -739.185          25.000    23299287.635      -28701.625        -551.672          17.000  
E25  26156867.188      137048.531        2273.299          12.000                                                                  
E30  24567325.214     -258055.066       -1567.606          26.000    24567323.916      -55024.706       -1172.952          20.000  
J 2  38680542.598      101496.138         523.899          25.000    38680537.321       54505.674         389.416          21.000  
C 1  37242536.961       -1141.006        -109.291          27.000                                                                                                                                  
C 6  35881233.960      -82259.639        -535.901          22.000                                                                                                                                  
C 7  36975376.308      -86705.783        -953.600          30.000                                                                                                                                  
C 9  36658632.236     -110785.890        -728.623          22.000                                                                                                                                  
C10  37917241.658      -72039.432        -959.958          29.000                                                                                                                                  
C14  22332293.872       -1497.176           3.490          25.000                                                                                                                                  
C21  24892543.662      264026.577        3230.318          17.000                                                                                                                                  
C24  22404378.765      -14947.197           0.001          20.000                                                                                                                                  
C26  22319711.685      153854.718        1060.583          26.000                                                                                                                                  
C33  23506524.549     -301706.710       -1536.221          17.000                                                                                                                                  
C35  24763826.500     -237022.920       -1430.525          20.000                                                                                                                                  
> 2022  1 25  4  3 27.0000000  0 27                     
G 3  23519356.576     -226547.390          -0.025          17.000                                                                  
G26  20248449.280     -230492.058       -1135.162          32.000    20248447.632     -106370.282        -846.292          21.000  
G29  22561297.128        4878.976          -0.008          20.000                                                                  
G31  20650524.123       10960.361         202.645          25.000                                                                  
G32  20744686.811      336823.002        1667.145          37.000    20744681.822       56899.280        1242.776          23.000  
R 1  21255344.843                                          16.000  
R 2  19252204.717                                          28.000  
R12  19939737.459                                          23.000  
R21  23343291.364                                          17.000  
R22  23536109.131                                          14.000  
E 2  23297926.690      117713.455         714.144          21.000    23297922.888       12608.564         532.527          17.000  
E 7  26573506.338     -488730.822       -2651.471          18.000                                                                  
E 8  23299154.209      -26458.772        -738.191          22.000    23299147.963      -30864.991        -551.341          18.000  
E25  26157299.133      148998.805        2275.688          14.000                                                                  
E30  24567026.179     -266307.643       -1566.952          24.000    24567024.968      -59626.299       -1171.556          18.000  
J 2  38680641.955      104250.925         527.428          27.000    38680636.216       56030.800         389.145          20.000  
C 1  37242520.338       -1669.374         -87.121          30.000                                                                                                                                  
C 6  35881131.379      -85056.197        -537.037          21.000                                                                                                                                  
C 7  36975192.446      -91679.709        -951.262          30.000                                                                                                                                  
C 9  36658492.915     -114575.269        -726.899          19.000                                                                                                                                  
C10  37917056.703      -77050.605        -959.210          32.000                                                                                                                                  
C14  22332294.509       -1486.464           3.881          29.000                                                                                                                                  
C21  24893161.400      280850.632        3230.203          17.000                                                                                                                                  
C24  22404214.532      -19374.060           0.001          21.000                                                                                                                                  
C26  22319916.698      159370.533        1060.456          26.000                                                                                                                                  
C33  23506235.355     -309708.375          -0.000          17.000                                                                                                                                  
C35  24763552.509     -244467.240       -1428.895          22.000                                                                                                                                  
> 2022  1 25  4  3 28.0000000  0 28                     
G 3  23519157.369     -232321.828          -0.025          16.000                                                                  
G26  20248232.653     -236466.259       -1136.401          30.000    20248231.433     -109692.958        -842.875          23.000  
G29  22561247.378        5095.564          42.704          25.000                                                                  
G31  20650563.019       12017.280         201.460          21.000                                                                  
G32  20745003.609      345575.056        1666.779          36.000    20744998.969       61781.701        1245.187          25.000  
R 1  21256057.902                                          14.000  
R 2  19252123.059                                          24.000  
R 3  22243310.406                                          26.000  
R12  19939937.203                                          28.000  
R21  23343037.489                                          17.000  
R22  23535510.689                                          14.000  
E 2  23298062.933      121457.079         713.802          23.000    23298055.527       14701.282         533.433          19.000  
E 7  26573006.057     -502669.271       -2653.092          18.000                                                                  
E 8  23299014.302      -30342.358        -739.418          21.000    23299006.285      -33029.340        -551.559          18.000  
E25  26157732.300      160960.891        2276.677          13.000                                                                  
E30  24566727.486     -274562.716       -1569.904          23.000    24566726.528      -64220.894       -1170.575          18.000  
J 2  38680740.797      107012.124         521.320          26.000    38680736.157       57561.033         391.137          22.000  
C 1  37242504.161       -2078.541         -77.688          28.000                                                                                                                                  
C 6  35881028.425      -87848.881        -535.266          20.000                                                                                                                                  
C 7  36975008.900      -96647.087        -950.750          28.000                                                                                                                                  
C 9  36658353.289     -118372.510        -726.337          20.000                                                                                                                                  
C10  37916872.559      -82061.027        -959.823          30.000                                                                                                                                  
C14  22332294.537       -1476.967           3.270          25.000                                                                                                                                  
C21  24893781.738      297671.236        3230.380          18.000                                                                                                                                  
C24  22404051.486      -23800.618        -850.724          27.000                                                                                                                                  
C26  22320120.465      164881.201        1058.193          23.000                                                                                                                                  
C33  23505949.477     -317704.087          -0.000          17.000                                                                                                                                  
C35  24763279.243     -251903.038       -1427.436          20.000                                                                                                                                  
> 2022  1 25  4  3 29.0000000  0 27                     
G 3  23518948.233     -238098.261          -0.025          17.000                                                                  
G26  20248018.565     -242426.509       -1128.678          31.000    20248015.678     -113015.514        -845.593          22.000  
G29  22561247.194        5328.550          44.368          27.000                                                                  
G31  20650601.654       13081.718         204.635          25.000                                                                  
G32  20745320.242      354331.839        1670.004          37.000    20745316.265       66665.275        1246.555          24.000  
R 1  21256767.376                                          15.000  
R 2  19252040.040                                          25.000  
R12  19940133.160                                          30.000  
R21  23342787.602                                          17.000  
R22  23534912.251                                          13.000  
E 2  23298199.071      125214.141         715.107          24.000    23298191.822       16798.754         534.261          17.000  
E 7  26572500.734     -516626.024       -2656.493          16.000                                                                  
E 8  23298873.269      -34231.600        -737.097          21.000    23298865.863      -35193.049        -551.627          17.000  
E25  26158165.720      172930.300        2278.850          12.000                                                                  
E30  24566429.673     -282808.417       -1562.644          23.000    24566428.837      -68817.373       -1172.139          17.000  
J 2  38680841.070      109761.473         524.885          28.000    38680834.973       59091.613         389.049          21.000  
C 1  37242489.060       -2499.512         -72.366          28.000                                                                                                                                  
C 6  35880925.994      -90648.673           0.100          24.000                                                                                                                                  
C 7  36974825.755     -101606.932        -948.865          28.000                                                                                                                                  
C 9  36658215.458     -122159.543          -0.049          21.000                                                                                                                                  
C10  37916687.343      -87079.246        -962.327          30.000                                                                                                                                  
C14  22332296.090       -1457.799           7.286          29.000                                                                                                                                  
C21  24894402.516      314494.444        3230.311          20.000                                                                                                                                  
C24  22403888.222      -28233.866        -850.719          29.000                                                                                                                                  
C26  22320324.650      170398.703        1060.585          30.000                                                                                                                                  
C33  23505654.577     -325701.010          -0.000          18.000                                                                                                                                  
C35  24763005.300     -259332.426       -1427.501          19.000                                                                                                                                  
> 2022  1 25  4  3 30.0000000  0 27                     
G 3  23518763.693     -243878.292          -0.025          16.000                                                                  
G26  20247802.531     -248367.663       -1129.960          31.000    20247800.011     -116336.700        -843.692          23.000  
G29  22561251.007        5580.242          50.056          25.000                                                                  
G31  20650641.999       14160.317         206.153          24.000                                                                  
G32  20745638.183      363091.930        1671.138          36.000    20745633.909       71553.427        1244.858          26.000  
R 1  21257477.154                                          16.000  
R 2  19251956.392                                          23.000  
R12  19940329.903                                          23.000  
R21  23342538.177                                          17.000  
R22  23534313.526                                          15.000  
E 2  23298335.365      128974.100         715.367          25.000    23298331.501       18896.826         533.518          18.000  
E 7  26571996.379     -530578.612       -2654.322          18.000                                                                  
E 8  23298732.009      -38110.953        -736.761          22.000    23298725.205      -37364.477        -554.733          17.000  
E25  26158599.410      184906.786        2279.240          12.000                                                                  
E30  24566130.943     -291055.916       -1569.769          20.000    24566130.535      -73412.185       -1173.085          15.000  
J 2  38680939.851      112519.974         523.231          26.000    38680934.487       60622.795         387.713          21.000  
C 1  37242475.740       -2820.063         -62.932          31.000                                                                                                                                  
C 6  35880823.136      -93444.221        -536.302          23.000                                                                                                                                  
C 7  36974642.444     -106572.575        -953.265          29.000                                                                                                                                  
C 9  36658076.617     -125942.347        -725.550          20.000                                                                                                                                  
C10  37916503.400      -92089.190        -957.398          33.000                                                                                                                                  
C14  22332297.338       -1432.857           4.040          24.000                                                                                                                                  
C21  24895023.264      331325.845        3232.122          17.000                                                                                                                                  
C24  22403726.232      -32668.751        -850.025          34.000                                                                                                                                  
C26  22320529.236      175929.734        1064.466          23.000                                                                                                                                  
C33  23505359.616     -333700.011          -0.000          19.000                                                                                                                                  
C35  24762731.126     -266767.799       -1427.087          19.000                                                                                                                                  
> 2022  1 25  4  3 31.0000000  0 27                     
G 3  23518554.143     -249665.040          -0.025          16.000                                                                  
G26  20247587.056     -254322.313       -1128.931          32.000    20247583.951     -119658.999        -842.557          22.000  
G29  22561258.921        5845.793          47.880          29.000                                                                  
G31  20650682.012       15239.042         203.754          25.000                                                                  
G32  20745955.783      371859.147        1668.672          32.000    20745951.239       76438.201        1246.693          25.000  
R 1  21258185.223                                          15.000  
R 2  19251873.765                                          25.000  
R12  19940528.774                                          28.000  
R21  23342295.584                                          15.000  
R22  23533715.079                                          14.000  
E 2  23298472.201      132733.870         715.848          25.000    23298464.638       20995.913         535.966          18.000  
E 7  26571491.256     -544528.732       -2652.896          17.000                                                                  
E 8  23298591.867      -41981.985        -736.398          23.000    23298585.106      -39532.133        -552.565          17.000  
E25  26159033.214      196886.354        2280.010          13.000                                                                  
E30  24565832.746     -299305.543       -1570.741          18.000    24565831.509      -78018.190       -1174.086          14.000  
J 2  38681039.313      115269.534         524.409          28.000    38681034.446       62158.378         390.756          21.000  
C 1  37242462.197       -3167.603         -66.129          27.000                                                                                                                                  
C 6  35880720.424      -96230.071        -534.010          20.000                                                                                                                                  
C 7  36974459.447     -111541.349        -951.162          28.000                                                                                                                                  
C 9  36657938.194     -129714.887          -0.049          20.000                                                                                                                                  
C10  37916318.903      -97096.395        -956.876          31.000                                                                                                                                  
C14  22332298.245       -1406.243          10.297          25.000                                                                                                                                  
C21  24895643.750      348149.434        3231.040          18.000                                                                                                                                  
C24  22403562.348      -37120.599        -853.513          31.000                                                                                                                                  
C26  22320734.197      181474.289          -0.009          24.000                                                                                                                                  
C33  23505074.174     -341697.881          -0.000          17.000                                                                                                                                  
C35  24762457.312     -274202.911       -1425.729          26.000                                                                                                                                  
> 2022  1 25  4  3 32.0000000  0 26                     
G 3  23518355.477     -255446.450          -0.025          15.000                                                                  
G26  20247373.657     -260273.664       -1136.164          28.000    20247368.328     -122973.172        -844.471          23.000  
G29  22561264.296        6113.314          49.457          31.000                                                                  
G31  20650720.695       16313.637         210.618          19.000                                                                  
G32  20746273.995      380615.348        1669.327          35.000    20746268.875       81329.200        1249.214          26.000  
R 1  21258895.124                                          15.000  
R 2  19251793.765                                          24.000  
R 3  22240521.095                                          19.000  
R12  19940728.387                                          27.000  
R21  23342045.872                                          16.000  
R22  23533116.280                                          13.000  
E 2  23298608.051      136497.590         716.051          24.000    23298604.571       23099.415         533.938          19.000  
E 7  26571001.143     -558477.563       -2653.753          11.000                                                                  
E 8  23298452.012      -45862.233        -736.537          21.000    23298445.871      -41693.828        -549.966          17.000  
E30  24565534.034     -307554.769       -1570.388          16.000    24565531.977      -82631.700       -1177.925          13.000  
J 2  38681139.290      118022.821         523.888          28.000    38681133.777       63691.937         388.969          22.000  
C 1  37242447.219       -3532.727         -78.896          27.000                                                                                                                                  
C 6  35880617.767      -99009.611        -532.961          23.000                                                                                                                                  
C 7  36974275.839     -116521.356        -952.834          28.000                                                                                                                                  
C 9  36657800.155     -133485.591        -723.321          24.000                                                                                                                                  
C10  37916134.742     -102103.371        -961.399          29.000                                                                                                                                  
C14  22332299.790       -1364.418           8.502          20.000                                                                                                                                  
C21  24896266.417      364973.967        3230.929          17.000                                                                                                                                  
C24  22403398.918      -41556.579        -851.286          23.000                                                                                                                                  
C26  22320938.601      187013.497        1062.198          27.000                                                                                                                                  
C35  24762183.209     -281632.704       -1428.330          29.000                                                                                                                                  
> 2022  1 25  4  3 33.0000000  0 25                     
G 3  23518146.166     -261226.413          -0.025          14.000                                                                  
G26  20247155.678     -266240.449       -1132.096          32.000    20247152.434     -126292.659        -841.338          22.000  
G29  22561272.960        6385.476          52.075          28.000                                                                  
G31  20650758.484       17414.946         207.728          25.000                                                                  
G32  20746592.407      389384.739        1671.483          35.000    20746586.798       86225.356        1245.163          25.000  
R 1  21259605.462                                          16.000  
R 2  19251710.990                                          26.000  
R 3  22239823.418                                          20.000  
R12  19940923.498                                          23.000  
R21  23341787.207                                          15.000  
E 2  23298745.000      140264.657         717.186          23.000    23298741.101       25200.478         533.963          17.000  
E 7  26570496.177     -572422.195       -2653.087          14.000                                                                  
E 8  23298312.070      -49732.181        -734.768          22.000    23298306.871      -43844.006        -546.114          17.000  
E30  24565235.697     -315794.067       -1568.847          15.000                                                                  
J 2  38681239.615      120781.286         521.302          31.000    38681233.343       65224.114         388.957          23.000  
C 1  37242430.754       -3937.938         -63.793          26.000                                                                                                                                  
C 6  35880515.676     -101788.088        -534.547          22.000                                                                                                                                  
C 7  36974093.017     -121488.457        -951.707          27.000                                                                                                                                  
C 9  36657661.409     -137254.979          -0.049          20.000                                                                                                                                  
C10  37915950.267     -107110.296        -958.499          29.000                                                                                                                                  
C14  22332301.160       -1323.668           8.633          24.000                                                                                                                                  
C21  24896887.113      381803.665        3231.927          16.000                                                                                                                                  
C24  22403235.540      -45998.373        -851.880          21.000                                                                                                                                  
C26  22321142.620      192544.209        1064.408          27.000                                                                                                                                  
C35  24761909.576     -289058.892       -1430.736          31.000                                                                                                                                  
> 2022  1 25  4  3 34.0000000  0 24                     
G 3  23517937.484     -266990.049          -0.025          15.000                                                                  
G26  20246939.557     -272192.702       -1127.168          32.000    20246937.421     -129603.461        -842.788          23.000  
G29  22561284.259        6655.691          45.638          27.000                                                                  
G31  20650797.808       18494.147         203.913          23.000                                                                  
G32  20746908.523      398153.985        1669.469          30.000    20746904.563       91117.745        1250.410          23.000  
R 1  21260312.143                                          16.000  
R 2  19251628.921                                          26.000  
R12  19941121.314                                          29.000  
R21  23341537.730                                          15.000  
E 2  23298881.906      144030.158         716.246          25.000    23298878.557       27299.587         537.155          19.000  
E 7  26569991.316     -586364.034       -2652.732          12.000                                                                  
E 8  23298171.840      -53595.081        -735.731          23.000    23298167.496      -45991.532        -550.467          19.000  
E30  24564944.585     -324031.132       -1565.203          11.000                                                                  
J 2  38681339.469      123528.345         525.501          29.000    38681333.197       66759.479         391.031          24.000  
C 1  37242416.356       -4339.780         -75.519          26.000                                                                                                                                  
C 6  35880413.038     -104575.621        -535.044          21.000                                                                                                                                  
C 7  36973909.628     -126459.406        -950.680          31.000                                                                                                                                  
C 9  36657522.969     -141027.790        -722.369          21.000                                                                                                                                  
C10  37915765.617     -112121.141        -960.039          31.000                                                                                                                                  
C14  22332302.686       -1279.256          12.239          21.000                                                                                                                                  
C21  24897508.332      398628.440        3230.356          17.000                                                                                                                                  
C24  22403072.264      -50420.721        -848.601          17.000                                                                                                                                  
C26  22321346.534      198101.300        1065.242          24.000                                                                                                                                  
C35  24761636.216     -296486.033       -1427.459          31.000                                                                                                                                  
> 2022  1 25  4  3 35.0000000  0 23                     
G26  20246726.690     -278133.411       -1129.362          31.000    20246721.396     -132913.857        -843.771          23.000  
G29  22561295.924        6906.425          49.880          27.000                                                                  
G31  20650837.455       19570.676         205.268          22.000                                                                  
G32  20747226.996      406931.544        1674.260          29.000    20747223.219       96024.352        1248.276          19.000  
R 1  21261022.698                                          16.000  
R 2  19251545.649                                          26.000  
R12  19941317.244                                          23.000  
R21  23341288.419                                          16.000  
E 2  23299017.599      147796.161         715.594          22.000    23299011.274       29405.515         535.631          18.000  
E 7  26569486.499     -600304.572       -2653.543          12.000                                                                  
E 8  23298030.991      -57476.979        -735.045          23.000    23298028.924      -48152.241        -550.999          18.000  
E30  24564646.476     -332262.991       -1566.069          12.000                                                                  
J 2  38681440.292      126286.442         521.822          27.000    38681432.833       68295.515         392.427          20.000  
C 1  37242400.331       -4707.864         -82.977          26.000                                                                                                                                  
C 6  35880310.494     -107362.486        -533.916          25.000                                                                                                                                  
C 7  36973726.613     -131417.674        -951.705          30.000                                                                                                                                  
C 9  36657384.851     -144792.829        -723.642          20.000                                                                                                                                  
C10  37915581.596     -117124.857        -956.943          32.000                                                                                                                                  
C14  22332305.147       -1225.570           8.026          24.000                                                                                                                                  
C21  24898128.914      415455.169        3231.158          18.000                                                                                                                                  
C24  22402908.607      -54844.729           0.001          17.000                                                                                                                                  
C26  22321550.719      203651.533        1065.862          23.000                                                                                                                                  
C35  24761362.417     -303903.078       -1427.771          29.000                                                                                                                                  
> 2022  1 25  4  3 36.0000000  0 23                     
G26  20246511.250     -284079.954       -1128.490          29.000    20246505.571     -136231.321        -845.831          19.000  
G29  22561303.026        7173.811          51.660          27.000                                                                  
G31  20650875.994       20645.829         205.991          26.000                                                                  
G32  20747544.448      415713.650        1671.144          35.000    20747539.808      100920.759        1245.534          22.000  
R 1  21261734.737                                          16.000  
R 2  19251464.575                                          23.000  
R12  19941513.952                                          26.000  
R21  23341029.309                                          16.000  
E 2  23299153.789      151558.808         716.721          23.000    23299147.028       31503.080         533.638          18.000  
E 7  26758472.384     -614248.309       -2652.760           8.000                                                                  
E 8  23297891.328      -61338.694        -733.629          23.000    23297885.693      -50316.594        -551.286          18.000  
E30  24564348.532     -340491.456       -1565.604          13.000                                                                  
J 2  38681540.670      129038.733         523.085          29.000    38681532.330       69830.294         389.501          22.000  
C 1  37242387.848       -5080.546         -63.462          24.000                                                                                                                                  
C 6  35880208.148     -110141.510        -534.898          23.000                                                                                                                                  
C 7  36973544.044     -136387.670        -951.166          29.000                                                                                                                                  
C 9  36657246.176     -148561.034        -723.443          21.000                                                                                                                                  
C10  37915397.845     -122126.372        -958.253          29.000                                                                                                                                  
C14  22332306.176       -1189.724           5.309          20.000                                                                                                                                  
C21  24898751.188      432286.554        3233.243          17.000                                                                                                                                  
C24  22402745.177      -59263.930           0.001          19.000                                                                                                                                  
C26  22321755.011      209202.626        1064.680          25.000                                                                                                                                  
C35  24761088.865     -311325.133       -1426.928          30.000                                                                                                                                  
> 2022  1 25  4  3 37.0000000  0 24                     
G26  20246296.132     -290014.489       -1127.736          29.000    20246290.018     -139542.592        -842.465          20.000  
G29  22561311.745        7445.903          49.003          29.000                                                                  
G31  20650916.090       21704.016         198.756          23.000                                                                  
G32  20747862.686      424494.931        1670.877          35.000    20747857.862      105816.173        1247.845          24.000  
R 1  21262445.083                                          14.000  
R 2  19251381.818                                          21.000  
R12  19941708.696                                          25.000  
R21  23340780.679                                          16.000  
E 2  23299290.407      155328.776         717.143          21.000    23299283.716       33605.981         536.418          19.000  
E 7  26757967.628     -628187.432       -2652.218           8.000                                                                  
E 8  23297751.604      -65195.801        -733.052          20.000    23297742.627      -52480.846        -552.280          17.000  
E30  24564050.623     -348718.251       -1564.669          13.000                                                                  
J 2  38681641.309      131789.329         523.019          30.000    38681631.600       71364.380         387.814          23.000  
C 1  37242375.849       -5354.706         -56.013          23.000                                                                                                                                  
C 6  35880105.177     -112929.244        -535.965          22.000                                                                                                                                  
C 7  36973360.986     -141351.303        -949.971          30.000                                                                                                                                  
C 9  36657107.728     -152332.161        -724.450          21.000                                                                                                                                  
C10  37915213.021     -127125.836        -958.048          31.000                                                                                                                                  
C14  22332307.548       -1148.409           9.940          20.000                                                                                                                                  
C21  24899374.397      449129.876        3234.715          18.000                                                                                                                                  
C24  22402581.529      -63692.118        -851.299          20.000                                                                                                                                  
C26  22321960.819      214753.051        1062.750          29.000                                                                                                                                  
C33  23503444.149      -11217.242       -1530.249          19.000                                                                                                                                  
C35  24760815.295     -318746.750       -1423.548          27.000                                                                                                                                  
> 2022  1 25  4  3 38.0000000  0 23                     
G26  20246082.263     -295952.098       -1125.165          31.000    20246075.197     -142846.488        -841.613          21.000  
G29  22561323.707        7720.350          51.111          29.000                                                                  
G31  20650951.296       22757.270         199.452          22.000                                                                  
G32  20748180.662      433274.566        1673.269          35.000    20748175.847      110710.902        1247.849          23.000  
R 1  21263155.752                                          15.000  
R 2  19251299.426                                          22.000  
R12  19941904.941                                          25.000  
R21  23340530.775                                          14.000  
E 2  23299426.998      159094.801         717.872          22.000    23299422.079       35706.584         533.692          18.000  
E 7  26757462.950     -642124.778       -2652.097           7.000                                                                  
E 8  23297611.993      -69051.379        -733.079          23.000    23297603.244      -54642.288        -549.317          17.000  
E30  24563767.119     -356941.859       -1565.252          11.000                                                                  
J 2  38681740.623      134538.068         522.953          29.000    38681731.751       72900.108         392.625          22.000  
C 6  35880002.476     -115719.518        -535.087          21.000                                                                                                                                  
C 7  36973178.643     -146307.419        -950.726          28.000                                                                                                                                  
C 9  36656968.145     -156116.988        -727.059          20.000                                                                                                                                  
C10  37915028.529     -132133.374        -959.139          28.000                                                                                                                                  
C14  22332309.974       -1090.651          11.501          26.000                                                                                                                                  
C21  24899995.790      465978.074        3234.886          19.000                                                                                                                                  
C24  22402417.261      -68130.449        -851.773          20.000                                                                                                                                  
C26  22322164.210      220278.751        1062.635          24.000                                                                                                                                  
C33  23503143.237      -19184.340          -0.000          20.000                                                                                                                                  
C35  24760542.377     -326153.026       -1426.971          26.000                                                                                                                                  
> 2022  1 25  4  3 39.0000000  0 23                     
G26  20245867.817     -301881.345       -1128.233          30.000    20245860.018     -146149.388        -837.069          21.000  
G29  22561332.624        7995.226          51.045          27.000                                                                  
G31  20650990.367       23813.599         203.057          21.000                                                                  
G32  20748500.121      442065.904        1673.867          33.000    20748493.919      115612.073        1246.175          22.000  
R 1  21263875.032                                          14.000  
R 2  19251216.067                                          24.000  
R12  19942102.111                                          27.000  
R21  23340283.104                                          17.000  
E 2  23299563.529      162867.967         717.595          23.000    23299561.523       37802.780         535.584          18.000  
E 7  26756958.246     -656062.378       -2652.143           8.000                                                                  
E 8  23297474.180      -72917.239        -733.626          27.000    23297466.268      -56789.186        -546.730          17.000  
E30  24563469.333     -365165.347       -1564.748           9.000                                                                  
J 2  38681840.425      137291.499         523.601          28.000    38681832.172       74433.792         388.420          21.000  
C 6  35879900.856     -118499.209        -533.224          25.000                                                                                                                                  
C 7  36972995.420     -151271.147        -951.327          26.000                                                                                                                                  
C 9  36656828.919     -159906.508        -727.280          20.000                                                                                                                                  
C10  37914844.455     -137142.933        -960.278          27.000                                                                                                                                  
C14  22332312.469       -1034.257          12.325          20.000                                                                                                                                  
C21  24900616.713      482809.405        3233.363          18.000                                                                                                                                  
C24  22402252.958      -72566.667           0.001          18.000                                                                                                                                  
C26  22322367.845      225815.300        1063.462          25.000                                                                                                                                  
C33  23502837.230      -27148.826       -1528.756          19.000                                                                                                                                  
C35  24760268.417     -333585.828       -1427.524          25.000                                                                                                                                  
> 2022  1 25  4  3 40.0000000  0 23                     
G26  20245653.776     -307816.070       -1124.100          29.000    20245645.533     -149443.263        -842.260          18.000  
G29  22561342.160        8279.351          51.228          30.000                                                                  
G31  20651028.583       24889.075         207.743          23.000                                                                  
G32  20748819.092      450859.015        1676.615          30.000    20748812.375      120514.409        1253.284          18.000  
R 1  21264585.675                                          15.000  
R 2  19251134.513                                          24.000  
R12  19942298.243                                          22.000  
R21  23340035.904                                          13.000  
E 2  23299699.824      166636.172         717.136          25.000    23299696.318       39906.328         536.096          17.000  
E 7  26756453.656     -669996.691       -2651.201           8.000                                                                  
E 8  23297334.980      -76780.206        -733.657          22.000    23297326.884      -58937.472        -548.441          17.000  
E30  24563171.485     -373390.791       -1565.586           9.000                                                                  
J 2  38681938.865      140040.869         525.374          31.000    38681931.555       75962.680         390.150          22.000  
C 6  35879798.747     -121282.464        -533.114          20.000                                                                                                                                  
C 7  36972812.249     -156239.120        -952.068          25.000                                                                                                                                  
C 9  36656689.746     -163697.578        -726.139          19.000                                                                                                                                  
C10  37914660.085     -142154.343        -957.029          30.000                                                                                                                                  
C14  22332314.720        -981.517           9.932          19.000                                                                                                                                  
C21  24901240.855      499653.108        3232.090          22.000                                                                                                                                  
C24  22402088.394      -77007.277           0.001          19.000                                                                                                                                  
C26  22322572.414      231351.677        1062.573          25.000                                                                                                                                  
C33  23502543.735      -35107.275       -1527.782          23.000                                                                                                                                  
C35  24759995.080     -341009.934       -1425.306          21.000                                                                                                                                  
> 2022  1 25  4  3 41.0000000  0 23                     
G26  20245438.598     -313744.050       -1129.474          30.000    20245430.651     -152743.292        -839.373          22.000  
G29  22561352.159        8567.556          52.326          26.000                                                                  
G31  20651067.288       25970.821         206.010          23.000                                                                  
G32  20749138.071      459667.571        1673.894          24.000    20749131.659      125429.450        1251.024          17.000  
R 1  21265297.775                                          15.000  
R 2  19251051.651                                          23.000  
R12  19942496.451                                          27.000  
R21  23339787.343                                          15.000  
E 2  23299835.979      170408.299         719.246          20.000    23299833.311       42012.073         536.571          17.000  
E 7  26566483.648     -683927.920       -2650.940          10.000                                                                  
E 8  23297195.239      -80637.656        -734.067          22.000    23297188.757      -61094.955        -550.193          18.000  
E30  24562873.488     -381619.960       -1566.292           9.000                                                                  
J 2  38682037.716      142800.782         525.155          26.000    38682031.566       77498.207         389.339          20.000  
C 6  35879696.831     -124065.526        -535.637          26.000                                                                                                                                  
C 7  36972628.947     -161207.863        -953.180          26.000                                                                                                                                  
C 9  36656550.546     -167481.849        -727.102          20.000                                                                                                                                  
C10  37914475.235     -147163.406        -960.377          28.000                                                                                                                                  
C14  22332317.416        -923.099          11.866          24.000                                                                                                                                  
C21  24901862.056      516486.808        3232.389          18.000                                                                                                                                  
C24  22401924.188      -81452.474           0.001          17.000                                                                                                                                  
C26  22322776.459      236888.322        1063.952          23.000                                                                                                                                  
C33  23502271.163      -43061.997       -1527.727          26.000                                                                                                                                  
C35  24759721.570     -348432.843           0.027          20.000                                                                                                                                  
> 2022  1 25  4  3 42.0000000  0 24                     
G26  20245223.419     -319685.454       -1123.975          24.000    20245216.955     -156028.204        -836.101          19.000  
G29  22561362.150        8850.503          55.106          23.000                                                                  
G31  20651107.411       27046.447         204.902          23.000                                                                  
G32  20749456.586      468460.621        1673.488          21.000    20749448.272      130339.187        1250.333          14.000  
R 1  21266008.749                                          14.000  
R 2  19250970.420                                          24.000  
R 3  22233551.726                                          15.000  
R12  19942693.482                                          25.000  
R21  23339539.821                                          16.000  
E 2  23299973.286      174180.269         717.235          21.000    23299970.504       44122.695         537.425          17.000  
E 7  26565979.214     -697857.922       -2650.558           9.000                                                                  
E 8  23297056.335      -84492.476        -734.346          23.000    23297047.131      -63250.524        -548.929          18.000  
E30  24562575.369     -389852.043       -1566.254          10.000                                                                  
J 2  38682134.508      145549.497         523.693          24.000    38682130.950       79027.372         388.783          20.000  
C 6  35879595.630     -126852.482        -535.999          24.000                                                                                                                                  
C 7  36972446.726     -166171.150        -950.603          25.000                                                                                                                                  
C 9  36656413.520     -171266.013        -726.840          24.000                                                                                                                                  
C10  37914291.226     -152166.394        -958.160          30.000                                                                                                                                  
C14  22332320.043        -861.040          12.941          20.000                                                                                                                                  
C21  24902482.708      533327.729        3233.605          18.000                                                                                                                                  
C24  22401759.998      -85905.762           0.001          16.000                                                                                                                                  
C26  22322980.758      242422.305        1061.873          22.000                                                                                                                                  
C33  23501980.032      -51027.840       -1528.780          25.000                                                                                                                                  
C35  24759448.122     -355856.646       -1424.964          19.000                                                                                                                                  
> 2022  1 25  4  3 43.0000000  0 26                     
G 3  23516261.956      -11855.354       -1086.430          17.000                                                                  
G26  20245009.017     -325603.740       -1125.955          25.000    20245003.705     -159314.042        -837.799          17.000  
G29  22561373.466        9142.548          54.879          26.000                                                                  
G31  20651147.668       28139.080         207.544          24.000                                                                  
G32  20749776.028      477258.207        1673.378          19.000    20749767.531      135253.231        1252.457          13.000  
R 1  21266720.055                                          15.000  
R 2  19250890.123                                          21.000  
R 3  22232852.495                                          17.000  
R12  19942888.242                                          30.000  
R21  23339296.530                                          17.000  
E 2  23300110.748      177955.319         718.320          26.000    23300103.691       46229.089         535.477          18.000  
E 7  26565474.859     -711785.776       -2649.908           9.000                                                                  
E 8  23296916.471      -88346.148        -733.383          23.000    23296908.812      -65405.080        -547.059          17.000  
E25  26164218.267      103317.332        2280.300          14.000                                                                  
E30  24562277.312     -398082.903       -1566.252          10.000                                                                  
J 2  38682232.643      148302.850         522.954          28.000    38682230.368       80560.687         388.130          24.000  
C 6  35879493.086     -129640.432        -533.882          23.000                                                                                                                                  
C 7  36972263.458     -171137.531        -951.440          25.000                                                                                                                                  
C 9  36656274.284     -175050.682        -725.755          22.000                                                                                                                                  
C10  37914106.472     -157173.886        -957.575          28.000                                                                                                                                  
C14  22332322.791        -799.658          12.772          18.000                                                                                                                                  
C21  24903103.460      550162.849        3232.469          18.000                                                                                                                                  
C24  22401590.356      -90359.757           0.001          17.000                                                                                                                                  
C26  22323184.768      247957.927        1064.264          25.000                                                                                                                                  
C33  23501686.258      -58996.419       -1530.374          19.000                                                                                                                                  
C35  24759175.302     -363270.805       -1423.232          24.000                                                                                                                                  
> 2022  1 25  4  3 44.0000000  0 25                     
G26  20244793.263     -331527.350       -1127.659          24.000    20244786.790     -162605.911        -838.782          16.000  
G29  22561384.259        9438.252          54.563          25.000                                                                  
G31  20651186.844       29228.785         205.002          23.000                                                                  
G32  20750093.497      486059.140        1673.529          20.000    20750086.798      140167.539        1253.118          14.000  
R 1  21267455.843                                          18.000  
R 2  19250810.018                                          25.000  
R 3  22232154.530                                          19.000  
R12  19943083.405                                          21.000  
R21  23339049.077                                          16.000  
E 2  23300248.177      181731.976         718.451          27.000    23300240.379       48331.668         536.485          16.000  
E 7  26564970.679     -725708.921       -2648.813           9.000                                                                  
E 8  23296776.878      -92189.503        -731.780          20.000    23296769.690      -67549.613        -547.818          17.000  
E25  26164652.132      115298.548        2279.956          13.000                                                                  
E30  24561979.186     -406315.124       -1566.711           9.000                                                                  
J 2  38682332.288      151058.409         523.330          29.000    38682329.690       82086.000         388.032          21.000  
C 6  35879390.208     -132434.381        -535.786          23.000                                                                                                                                  
C 7  36972080.305     -176105.418        -950.296          24.000                                                                                                                                  
C 9  36656134.763     -178833.975        -726.108          19.000                                                                                                                                  
C10  37913922.285     -162168.486        -956.185          27.000                                                                                                                                  
C14  22332325.155        -736.028          12.290          20.000                                                                                                                                  
C21  24903724.408      566993.986        3232.523          17.000                                                                                                                                  
C24  22401426.246      -94810.798           0.001          17.000                                                                                                                                  
C26  22323389.442      253500.433        1063.571          29.000                                                                                                                                  
C33  23501391.759      -66971.679       -1531.613          18.000                                                                                                                                  
C35  24758903.214     -370681.350       -1423.701          22.000                                                                                                                                  
> 2022  1 25  4  3 45.0000000  0 25                     
G 3  23515841.658      -23292.969       -1087.030          17.000                                                                  
G26  20244577.979     -337451.199       -1125.222          24.000    20244574.595     -165890.113        -838.157          19.000  
G29  22561396.073        9735.941          54.803          25.000                                                                  
G31  20651227.817       30311.664         206.880          25.000                                                                  
G32  20750413.061      494859.970        1675.460          18.000    20750406.187      145083.778        1253.715          13.000  
R 1  21268167.149                                          17.000  
R 2  19250729.851                                          20.000  
R12  19943280.016                                          25.000  
R21  23338801.554                                          17.000  
E 2  23300385.423      185514.986         719.791          23.000    23300377.197       50437.704         537.139          17.000  
E 7  26564466.690     -739626.589       -2648.447           9.000                                                                  
E 8  23296637.111      -96033.652        -731.143          19.000    23296625.595      -69703.803        -549.120          15.000  
E25  26165085.961      127278.506        2279.090          12.000                                                                  
E30  24627459.341     -414547.424       -1566.269           8.000                                                                  
J 2  38682432.937      153807.949         522.285          30.000    38682428.916       83616.819         389.208          21.000  
C 6  35879288.144     -135220.231        -535.427          25.000                                                                                                                                  
C 7  36971897.003     -181062.709        -950.539          29.000                                                                                                                                  
C 9  36655996.411     -182614.369        -725.706          21.000                                                                                                                                  
C10  37913738.124     -167157.478        -957.272          27.000                                                                                                                                  
C14  22332327.974        -659.715          16.324          21.000                                                                                                                                  
C21  24904345.776      583840.357        3235.321          17.000                                                                                                                                  
C24  22401261.943      -99267.076           0.001          16.000                                                                                                                                  
C26  22323593.880      259043.721        1065.635          31.000                                                                                                                                  
C33  23501097.889      -74938.179       -1528.169          17.000                                                                                                                                  
C35  24758630.324     -378089.086       -1420.374          19.000                                                                                                                                  
> 2022  1 25  4  3 46.0000000  0 27                     
G 3  23515634.256      -29021.650       -1090.282          17.000                                                                  
G16  22581254.566     -158183.198       -3296.109          16.000                                                                  
G26  20244363.786     -343373.204       -1125.917          31.000    20244358.553     -169183.199        -842.425          20.000  
G29  22561407.607       10037.053          58.030          20.000                                                                  
G31  20651266.818       31394.040         206.211          21.000                                                                  
G32  20750731.613      503656.991        1672.892          18.000                                                                  
R 1  21268878.350                                          14.000  
R 2  19250652.407                                          22.000  
R 3  22230759.561                                          16.000  
R12  19943477.562                                          25.000  
R21  23338559.363                                          17.000  
E 2  23300523.193      189296.397         719.070          22.000    23300514.129       52544.093         536.497          17.000  
E 7  26563962.711     -753544.288       -2648.396          11.000                                                                  
E 8  23296497.806      -99882.843        -732.330          20.000    23296485.531      -71862.768        -550.025          12.000  
E25  26165519.608      139254.164        2278.798          10.000                                                                  
E30  24627161.300     -422777.861       -1565.818           8.000                                                                  
J 2  38682532.756      156567.819         525.833          29.000    38682528.622       85148.197         388.481          20.000  
C 6  35879186.080     -137992.145        -531.960          20.000                                                                                                                                  
C 7  36971714.373     -186014.706        -952.366          27.000                                                                                                                                  
C 9  36655857.612     -186383.736        -723.092          17.000                                                                                                                                  
C10  37913554.042     -172154.435        -955.965          30.000                                                                                                                                  
C14  22332331.036        -579.444          18.140          19.000                                                                                                                                  
C21  24904967.117      600688.087        3236.311          15.000                                                                                                                                  
C24  22401090.887     -103723.568           0.001          16.000                                                                                                                                  
C26  22323797.473      264591.653        1066.242          26.000                                                                                                                                  
C33  23500804.908      -82884.090       -1524.900          17.000                                                                                                                                  
C35  24758357.703     -385492.111       -1422.647          18.000                                                                                                                                  
> 2022  1 25  4  3 47.0000000  0 27                     
G 3  23515435.381      -34754.944       -1090.590          17.000                                                                  
G16  22580627.265     -175507.150       -3297.931          16.000                                                                  
G26  20244149.856     -349294.826       -1127.946          28.000    20244142.249     -172480.785        -838.948          20.000  
G29  22561417.379       10349.797          58.826          23.000                                                                  
G31  20651306.365       32485.135         208.625          23.000                                                                  
G32  20751056.063      512453.667        1673.560          16.000                                                                  
R 1  21269589.211                                          12.000  
R 2  19250572.084                                          19.000  
R 3  22230060.051                                          20.000  
R12  19943673.126                                          23.000  
R21  23338321.577                                          21.000  
E 2  23300659.880      193072.833         719.659          28.000    23300653.460       54650.428         535.574          16.000  
E 7  26563458.724     -767462.232       -2648.296          11.000                                                                  
E 8  23296358.666     -103728.159        -732.403          19.000    23296345.222      -74025.685        -551.724          12.000  
E25  26165953.185      151227.429        2278.336          11.000                                                                  
E30  24561086.889     -431004.975       -1564.771           9.000                                                                  
J 2  38682632.261      159316.834         523.776          33.000    38682628.284       86678.122         389.199          22.000  
C 6  35879083.641     -140767.557        -534.307          24.000                                                                                                                                  
C 7  36971531.331     -190978.978        -952.410          28.000                                                                                                                                  
C 9  36655718.553     -190158.530        -725.429          20.000                                                                                                                                  
C10  37913369.279     -177155.846        -958.903          23.000                                                                                                                                  
C14  22332334.057        -494.266          15.971          22.000                                                                                                                                  
C21  24905588.746      617542.418        3237.565          16.000                                                                                                                                  
C24  22400926.655     -108177.501           0.001          16.000                                                                                                                                  
C26  22324001.789      270138.538        1065.272          28.000                                                                                                                                  
C33  23500512.181      -90823.036       -1524.928          17.000                                                                                                                                  
C35  24758084.641     -392895.798       -1421.157          20.000                                                                                                                                  
> 2022  1 25  4  3 48.0000000  0 28                     
G 3  23515228.025      -40482.763       -1087.827          16.000                                                                  
G16  22579999.590     -192840.987       -3297.171          16.000                                                                  
G26  20243935.619     -355211.744       -1122.301          20.000    20243930.682     -175775.670        -837.080          19.000  
G29  22561429.595       10660.213          -0.008          24.000                                                                  
G31  20651347.085       33576.996         206.629          24.000                                                                  
G32  20751374.894      521258.528        1675.492          16.000                                                                  
R 1  21270300.429                                          17.000  
R 2  19250492.336                                          26.000  
R 3  22229361.660                                          18.000  
R12  19943868.237                                          29.000  
R21  23338066.378                                          17.000  
R22  23523720.386                                          17.000  
E 2  23300797.475      196852.348         718.443          25.000    23300795.173       56755.412         536.451          19.000  
E 7  26562954.779     -781378.545       -2648.079          11.000                                                                  
E 8  23296219.161     -107575.853        -731.937          21.000    23296205.333      -76182.450        -548.838          17.000  
E25  26166386.692      163198.435        2277.779          11.000                                                                  
E30  24560789.259     -439224.008       -1563.454           9.000                                                                  
J 2  38682731.417      162069.103         521.193          33.000    38682727.789       88207.362         389.157          25.000  
C 6  35878981.478     -143550.312        -534.717          23.000                                                                                                                                  
C 7  36971348.404     -195941.739        -951.595          28.000                                                                                                                                  
C 9  36655579.850     -193928.913        -725.163          22.000                                                                                                                                  
C10  37913185.293     -182144.599        -957.159          24.000                                                                                                                                  
C14  22332337.119        -405.959          17.239          19.000                                                                                                                                  
C21  24906209.153      634399.020        3236.590          14.000                                                                                                                                  
C24  22400762.492     -112630.220           0.001          16.000                                                                                                                                  
C26  22324206.716      275691.774        1065.447          26.000                                                                                                                                  
C33  23500216.906      -98768.950          -0.000          15.000                                                                                                                                  
C35  24757812.413     -400296.675       -1420.838          18.000                                                                                                                                  
> 2022  1 25  4  3 49.0000000  0 28                     
G 3  23515024.368      -46201.041          -0.025          17.000                                                                  
G16  22579379.645     -210168.971       -3297.740          15.000                                                                  
G26  20243725.318     -361106.171       -1121.234          22.000    20243716.969     -179068.815        -840.923          19.000  
G29  22561440.457       10970.141          57.418          20.000                                                                  
G31  20651389.882       34657.655         205.096          29.000                                                                  
G32  20751693.830      530065.131        1675.084          15.000                                                                  
R 1  21271011.665                                          16.000  
R 2  19250413.496                                          21.000  
R 3  22228663.154                                          15.000  
R12  19944064.229                                          25.000  
R21  23337819.179                                          17.000  
R22  23523120.884                                          17.000  
E 2  23300934.704      200622.062         718.274          24.000    23300932.350       58869.111         538.758          16.000  
E 7  26562450.887     -795293.369       -2648.074           9.000                                                                  
E 8  23296079.384     -111419.198        -731.252          21.000    23296072.066      -78330.568        -548.075          15.000  
E25  26166820.024      175165.024        2276.853          12.000                                                                  
E30  24560491.742     -447440.414       -1563.262          11.000                                                                  
J 2  38682829.640      164809.558         520.871          26.000    38682827.242       89736.639         388.939          22.000  
C 6  35878879.083     -146337.698        -535.348          20.000                                                                                                                                  
C 7  36971165.294     -200905.328        -948.803          29.000                                                                                                                                  
C 9  36655440.337     -197712.404        -727.089          21.000                                                                                                                                  
C10  37913001.524     -187131.220        -958.229          28.000                                                                                                                                  
C14  22332340.452        -311.158          19.226          20.000                                                                                                                                  
C21  24906830.791      651254.767        3237.042          13.000                                                                                                                                  
C24  22400594.385     -117073.595           0.001          17.000                                                                                                                                  
C26  22324411.416      281241.593        1065.783          22.000                                                                                                                                  
C33  23499923.620     -106722.180          -0.000          17.000                                                                                                                                  
C35  24757539.016     -407711.058       -1425.532          17.000                                                                                                                                  
> 2022  1 25  4  3 50.0000000  0 28                     
G 3  23514817.418      -51916.821          -0.025          16.000                                                                  
G16  22578752.353     -227492.301       -3297.092          15.000                                                                  
G26  20243512.687     -367006.919       -1125.000          26.000    20243503.466     -182359.798        -838.209          20.000  
G29  22561451.793       11283.908          60.507          20.000                                                                  
G31  20651433.429       35749.203         206.024          29.000                                                                  
G32  20752019.894      538867.055        1674.805          14.000                                                                  
R 1  21271720.502                                          15.000  
R 2  19250332.265                                          20.000  
R 3  22227964.185                                          17.000  
R12  19944259.243                                          24.000  
R21  23337572.433                                          17.000  
R22  23522521.378                                          17.000  
E 2  23301072.264      204404.487         720.102          23.000    23301069.831       60982.411         539.252          18.000  
E 7  26561947.116     -809204.699       -2646.723           9.000                                                                  
E 8  23295940.577     -115258.175        -731.271          18.000    23295933.912      -80474.534        -543.722          15.000  
E25  26167253.296      187130.194        2276.721          11.000                                                                  
E30  24560194.383     -455651.799       -1561.984          12.000                                                                  
J 2  38682930.681      167549.409         517.749          24.000    38682927.105       91273.371         389.485          20.000  
C 6  35878776.224     -149134.450        -537.285          20.000                                                                                                                                  
C 7  36970982.586     -205857.871        -948.411          25.000                                                                                                                                  
C 9  36655302.622     -201495.762        -726.898          26.000                                                                                                                                  
C10  37912816.945     -192131.308        -956.461          23.000                                                                                                                                  
C14  22332343.340        -214.172          18.853          22.000                                                                                                                                  
C21  24907450.897      668106.378          -0.013          12.000                                                                                                                                  
C24  22400419.185     -121510.282        -851.259          17.000                                                                                                                                  
C26  22324616.273      286794.092        1063.891          26.000                                                                                                                                  
C33  23499630.317     -114676.288          -0.000          15.000                                                                                                                                  
C35  24757265.300     -415137.264       -1424.520          20.000                                                                                                                                  
> 2022  1 25  4  3 51.0000000  0 22                     
G 3  23514610.743      -57624.613          -0.025          17.000                                                                  
G16  22578125.175     -244812.621       -3293.814          12.000                                                                  
G26  20243297.482     -372903.142       -1119.163          23.000    20243289.649     -185640.087        -834.202          19.000  
G29  22561466.853       11601.648          58.053          25.000                                                                  
G31  20651474.603       36827.380         206.100          24.000                                                                  
G32  20752338.522      547665.161        1674.719          15.000                                                                  
R 1  21272431.284                                          14.000  
R 2  19250252.431                                          20.000  
R 3  22227264.048                                          17.000  
R12  19944455.898                                          25.000  
R21  23337328.182                                          17.000  
R22  23521930.042                                          15.000  
E 2  23301211.185      208189.622         720.553          26.000    23301207.548       63100.475         538.966          16.000  
E 7  26561443.459     -823113.589       -2646.993          11.000                                                                  
E 8                                                                  21537057.767      -82610.295        -544.350          13.000  
E25  26167692.605      199093.083        2276.274          11.000                                                                  
E30  24559897.190     -463858.204       -1561.187          11.000                                                                  
J 2  38683029.261      170292.821         523.913          29.000    38683027.055       92807.418         390.428          22.000  
C 6  35878675.521     -151928.581        -536.416          23.000                                                                                                                                  
C21  24908072.422      684958.513          -0.013          13.000                                                                                                                                  
C26  22324821.478      292330.283        1063.222          25.000                                                                                                                                  
C35  24756992.487     -422548.350       -1422.522          17.000                                                                                                                                  
> 2022  1 25  4  3 52.0000000  0 22                     
G 3  23514399.836      -63340.336       -1086.202          19.000                                                                  
G16  22577498.590     -262116.231       -3291.889          11.000                                                                  
G26  20243082.112     -378791.145       -1122.229          28.000    20243075.744     -188918.439        -837.643          20.000  
G29  22561479.364       11918.228          61.540          21.000                                                                  
G31  20651514.499       37915.924         208.831          24.000                                                                  
G32  20752657.405      556470.655        1676.471          15.000                                                                  
R 1  21273142.599                                          13.000  
R 2  19250172.805                                          22.000  
R 3  22226563.536                                          17.000  
R12  19944656.463                                          28.000  
R21  23337081.628                                          17.000  
R22  23521330.435                                          16.000  
E 2  23301348.396      211966.052         718.377          22.000    23301348.363       65214.179         537.508          16.000  
E 7  26560939.829     -837021.739       -2646.902          12.000                                                                  
E 8  23295667.446       -6903.841        -730.626          20.000    23295656.410      -84752.956        -546.112          16.000  
E25  26168125.746      211054.997        2276.895          12.000                                                                  
E30  24559600.197     -472059.876       -1560.079          12.000                                                                  
J 2  38683129.421      173041.666         522.845          31.000    38683126.630       94340.316         389.498          20.000  
C 6  35878573.614     -154716.684        -535.627          28.000                                                                                                                                  
C21  24908694.042      701813.707          -0.013          14.000                                                                                                                                  
C26  22325026.318      297862.978          -0.009          24.000                                                                                                                                  
C35  24756720.721     -429948.189       -1419.883          25.000                                                                                                                                  
> 2022  1 25  4  3 53.0000000  0 22                     
G 3  23514171.914      -69049.135       -1085.321          23.000                                                                  
G16  22576871.978     -279420.108       -3292.937          14.000                                                                  
G26  20242868.233     -384689.189       -1117.895          27.000    20242862.965     -192204.905        -838.249          19.000  
G29  22561490.751       12245.688          62.637          22.000                                                                  
G31  20651559.686       39010.915         208.493          31.000                                                                  
G32  20752974.247      565285.785          -0.011          15.000                                                                  
R 1  21273853.381                                          15.000  
R 2  19250093.686                                          22.000  
R 3  22225863.520                                          15.000  
R12  19944853.615                                          31.000  
R21  23336837.185                                          17.000  
R22  23520736.491                                          15.000  
E 2  23301485.494      215748.110         719.453          21.000    23301484.370       67323.078         538.703          17.000  
E 7  26560407.135     -850928.973       -2646.289          13.000                                                                  
E 8  23295531.753      -10743.088        -730.671          19.000    23295520.272      -86897.330        -545.039          14.000  
E25  26168559.070      223021.171        2277.533          13.000                                                                  
E30  24559303.308     -480258.489       -1559.951          12.000                                                                  
J 2  38683229.502      175793.616         521.417          32.000    38683225.682       95867.072         391.642          21.000  
C 6  35878471.461     -157499.587        -534.217          25.000                                                                                                                                  
C21  24909315.819      718672.062          -0.013          14.000                                                                                                                                  
C26  22325230.599      303401.678        1064.724          25.000                                                                                                                                  
C35  24756448.390     -437333.143       -1419.202          18.000                                                                                                                                  
> 2022  1 25  4  3 54.0000000  0 24                     
G 3  23513972.899      -74759.687       -1086.303          20.000                                                                  
G16  22576244.914     -296737.641       -3296.196          14.000                                                                  
G26  20242654.912     -390576.747       -1119.256          29.000    20242651.039     -195489.298        -837.868          23.000  
G29  22561504.728       12576.135          61.072          25.000                                                                  
G31  20651599.071       40106.675         212.080          23.000                                                                  
G32  20753293.750      574109.008          -0.011          16.000                                                                  
R 1  21274564.416                                          12.000  
R 2  19250009.794                                          24.000  
R 3  22225160.713                                          17.000  
R12  19945049.005                                          30.000  
R21  23336605.490                                          17.000  
R22  23520137.530                                          15.000  
E 2  23301624.982      219536.293         721.804          25.000    23301620.202       69436.092         539.099          16.000  
E 7  26559903.696     -864832.273       -2645.502          13.000                                                                  
E 8  23295390.694      -14574.688        -727.173          22.000    23295383.105      -89035.792        -546.565          17.000  
E25  26168992.472      234989.725        2277.890          13.000                                                                  
E30  24559006.455     -488455.951       -1559.541          12.000                                                                  
J 2  38683330.534      178537.760         523.047          29.000    38683325.562       97405.637         390.171          19.000  
C 6  35878369.536     -160289.124        -533.656          22.000                                                                                                                                  
C21  24909937.283      735523.128          -0.013          13.000                                                                                                                                  
C24  22399746.461      -11482.209        -845.377          25.000                                                                                                                                  
C26  22325435.970      308948.690        1064.774          23.000                                                                                                                                  
C33  23498385.680      -20442.225       -1521.578          17.000                                                                                                                                  
C35  24756176.042     -444725.261       -1418.308          18.000                                                                                                                                  
> 2022  1 25  4  3 55.0000000  0 24                     
G 3  23513769.012      -80472.165       -1086.548          21.000                                                                  
G16  22575617.482     -314065.585       -3300.304          14.000                                                                  
G26  20242440.606     -396465.762       -1116.530          34.000    20242437.510     -198767.578        -830.209          22.000  
G29  22561516.664       12890.663          59.150          23.000                                                                  
G31  20651642.330       41213.647         210.118          29.000                                                                  
G32  20753613.209      582931.039          -0.011          15.000                                                                  
R 1  21275260.750                                          16.000  
R 2  19249933.266                                          26.000  
R 3  22224459.258                                          16.000  
R12  19945246.646                                          29.000  
R21  23336359.704                                          17.000  
R22  23519538.652                                          16.000  
E 2  23301762.934      223330.021         721.332          22.000    23301758.093       71556.363         541.890          14.000  
E 7  26559400.353     -878733.454       -2645.400          13.000                                                                  
E 8  23295251.380      -18396.943        -726.659          22.000    23295242.151      -91182.930        -547.071          17.000  
E25  26169425.961      246960.577        2278.170          12.000                                                                  
E30  24558712.386     -496650.607       -1558.959          12.000                                                                  
J 2  38683430.415      181289.323         525.563          31.000    38683424.710       98933.922         388.425          19.000  
C 6  35878266.826     -163078.278        -534.478          21.000                                                                                                                                  
C21  24910560.247      752362.891          -0.013          14.000                                                                                                                                  
C24  22399583.241      -15893.926        -846.502          18.000                                                                                                                                  
C26  22325641.490      314495.151        1065.523          21.000                                                                                                                                  
C33  23498093.432      -28364.566       -1520.251          19.000                                                                                                                                  
C35  24755904.712     -452101.037       -1415.836          22.000                                                                                                                                  
> 2022  1 25  4  3 56.0000000  0 23                     
G 3  23513567.702      -86180.815       -1083.396          19.000                                                                  
G16  22574989.623     -331405.008       -3299.312          11.000                                                                  
G26  20242228.272     -402345.119       -1116.811          27.000    20242224.321     -202045.344        -835.254          19.000  
G29  22561533.390       13206.915          -0.008          22.000                                                                  
G31  20651682.893       42307.360         207.740          28.000                                                                  
G32  20753933.314      591770.233          -0.011          15.000                                                                  
R 1  21275972.134                                          14.000  
R 2  19249854.540                                          23.000  
R 3  22223762.602                                          18.000  
R12  19945442.412                                          26.000  
R21  23336108.647                                          15.000  
R22  23518952.953                                          15.000  
E 2  23301900.913      227119.381         719.761          21.000    23301893.795       73680.645         540.084          17.000  
E 7  26558897.106     -892630.942       -2644.200          12.000                                                                  
E 8  23295112.308      -22216.289        -728.078          22.000    23295103.794      -93314.857        -542.209          17.000  
E25  26169859.338      258928.541        2277.649          14.000                                                                  
E30  24558415.733     -504842.979       -1558.407          12.000                                                                  
J 2  38683530.452      184055.862         521.759          26.000    38683523.823      100459.874         388.147          20.000  
C 6  35878163.785     -165856.255        -532.861          20.000                                                                                                                                  
C21  24911180.925      769192.354          -0.013          14.000                                                                                                                                  
C26  22325846.644      320038.701        1062.878          23.000                                                                                                                                  
C33  23497796.953      -36281.978       -1520.116          22.000                                                                                                                                  
C35  24755633.812     -459482.199       -1417.024          18.000                                                                                                                                  
> 2022  1 25  4  3 57.0000000  0 24                     
G 3  23513367.780      -91878.281       -1083.200          23.000                                                                  
G16  22574361.852     -348741.929       -3300.650          12.000                                                                  
G26  20242014.550     -408238.335       -1123.557          22.000    20242011.725     -205322.127        -835.376          16.000  
G29  22561547.071       13531.494          62.078          22.000                                                                  
G31  20651725.189       43393.858         207.697          26.000                                                                  
G32  20754253.968      600624.367          -0.011          14.000                                                                  
R 1  21276677.437                                          15.000  
R 2  19249775.951                                          20.000  
R 3  22223063.878                                          16.000  
R12  19945639.904                                          26.000  
R21  23335862.189                                          16.000  
R22  23518353.974                                          16.000  
E 2  23302039.607      230909.792         726.754          21.000    23302030.255       75800.543         540.822          16.000  
E 7  26558384.558     -906526.304       -2644.885          12.000                                                                  
E 8  23294973.256      -26037.081        -727.664          21.000    23294967.054      -95450.670        -545.528          17.000  
E25  26170292.696      270895.769        2277.205          12.000                                                                  
E30  24558119.185     -513032.195       -1557.966          12.000                                                                  
J 2  38683630.786      186806.770         523.431          30.000    38683623.101      101982.360         388.107          18.000  
C 6  35878061.378     -168640.326        -537.064          23.000                                                                                                                                  
C21  24911801.385      786016.009          -0.013          13.000                                                                                                                                  
C24  22399230.877       -7697.459        -846.339          23.000                                                                                                                                  
C26  22326050.996      325574.435        1063.196          20.000                                                                                                                                  
C33  23497504.863      -44196.607       -1520.229          20.000                                                                                                                                  
C35  24755362.509     -466857.678       -1417.182          20.000                                                                                                                                  
> 2022  1 25  4  3 58.0000000  0 24                     
G 3  23513161.574      -97580.978       -1083.514          24.000                                                                  
G16  22573734.368     -366070.144       -3292.999          14.000                                                                  
G26  20241803.385     -414129.382       -1117.326          21.000    20241794.932     -208595.176        -832.440          15.000  
G29  22561564.059       13859.184          60.833          23.000                                                                  
G31  20651764.565       44500.635         211.723          28.000                                                                  
G32  20754574.649      609479.253          -0.011          13.000                                                                  
R 1  21277388.673                                          13.000  
R 2  19249697.905                                          24.000  
R 3  22222364.020                                          17.000  
R12  19945835.302                                          27.000  
R21  23335615.932                                          17.000  
R22  23517755.318                                          16.000  
E 2  23302178.685      234712.772         722.018          27.000    23302168.330       77919.381         540.305          16.000  
E 7  26557881.189     -920427.760       -2648.783          15.000                                                                  
E 8  23294835.984      -29853.406        -725.729          21.000    23294828.141      -97592.766        -545.800          15.000  
E25  26170726.020      282861.939        2277.184          12.000                                                                  
E30  24557822.724     -521219.089       -1557.546          13.000                                                                  
J 2  38683731.731      189552.884         523.905          30.000    38683722.772      103507.696         388.662          19.000  
C 6  35877958.738     -171437.220        -533.486          23.000                                                                                                                                  
C21  24912420.056      802834.368          -0.013          11.000                                                                                                                                  
C24  22399073.974      -12099.175        -846.398          27.000                                                                                                                                  
C26  22326255.818      331127.609        1068.220          24.000                                                                                                                                  
C33  23497211.821      -52123.541       -1522.837          16.000                                                                                                                                  
C35  24755090.799     -474241.924           0.027          17.000                                                                                                                                  
> 2022  1 25  4  3 59.0000000  0 22                     
G 3  23512955.561     -103270.718       -1082.115          18.000                                                                  
G26  20241590.981     -420010.042       -1119.971          19.000    20241583.112     -211860.153        -832.424          13.000  
G29  22561577.251       14183.765          61.682          23.000                                                                  
G31  20651804.483       45596.329         211.095          26.000                                                                  
G32  20754895.084      618328.401          -0.011          14.000                                                                  
R 1  21278099.839                                          16.000  
R 2  19249621.822                                          24.000  
R 3  22221662.340                                          17.000  
R12  19946030.466                                          28.000  
R21  23335367.921                                          19.000  
R22  23517172.538                                          16.000  
E 2  23302315.827      238510.857         721.656          24.000    23302306.004       80036.400         540.317          17.000  
E 8  23294698.485      -33665.460        -725.669          25.000    23294686.812      -99733.465        -545.531          16.000  
E25  26171191.618      294831.101        2278.354          12.000                                                                  
E30  24557526.246     -529406.449       -1557.950          14.000                                                                  
J 2  38683831.358      192311.770         522.357          30.000    38683822.085      105036.253         389.053          20.000  
C 6  35877855.915     -174215.098        -533.421          23.000                                                                                                                                  
C21  24913040.228      819649.940          -0.013          13.000                                                                                                                                  
C24  22398911.268      -16502.394        -845.483          24.000                                                                                                                                  
C26  22326461.103      336679.722        1064.191          24.000                                                                                                                                  
C33  23496919.356      -60054.472       -1522.006          18.000                                                                                                                                  
C35  24754818.981     -481625.879           0.027          17.000                                                                                                                                  
> 2022  1 25  4  4  0.0000000  0 21                     
G 3  23512747.165     -108957.235       -1082.047          20.000                                                                  
G26  20241380.235     -425893.285       -1117.981          17.000    20241370.682     -215134.459        -833.013          15.000  
G29  22561595.129       14508.454          62.451          26.000                                                                  
G31  20651843.850       46700.974         208.963          25.000                                                                  
G32  20755215.677      627180.317          -0.011          12.000                                                                  
R 1  21278802.891                                          17.000  
R 2  19249543.479                                          23.000  
R 3  22220961.408                                          16.000  
R12  19946229.991                                          30.000  
R21  23335122.676                                          18.000  
R22  23516574.240                                          15.000  
E 2  23302453.518      242304.566         721.190          26.000    23302442.334       82160.388         541.272          17.000  
E 8  23294560.645      -37485.927        -724.770          24.000    23294548.161     -101871.730        -545.455          15.000  
E25  26171625.151      306803.436        2278.470          17.000                                                                  
E30  24557229.855     -537590.935       -1556.873          14.000                                                                  
J 2  38683929.371      195063.541         523.461          30.000    38683922.367      106566.823         391.687          20.000  
C 6  35877753.589     -176997.738        -535.925          21.000                                                                                                                                  
C21  24913659.920      836452.071          -0.013          16.000                                                                                                                                  
C24  22398748.021      -20909.791           0.001          23.000                                                                                                                                  
C26  22326665.070      342221.218        1064.797          27.000                                                                                                                                  
C33  23496618.619      -67978.500       -1520.876          21.000                                                                                                                                  
> 2022  1 25  4  4  1.0000000  0 21                     
G 3  23512541.048     -114649.987       -1082.245          17.000                                                                  
G26  20241167.508     -431761.435       -1116.628          22.000    20241158.828     -218400.277        -830.505          16.000  
G29  22561608.836       14841.350          65.338          22.000                                                                  
G31  20651884.422       47804.546         209.594          32.000                                                                  
G32  20755536.401      636036.494          -0.011          15.000                                                                  
R 1  21279514.580                                          17.000  
R 2  19249465.773                                          22.000  
R 3  22220262.230                                          20.000  
R12  19946424.806                                          29.000  
R21  23334884.219                                          17.000  
R22  23515984.841                                          15.000  
E 2  23302591.645      246105.946         724.492          24.000    23302579.178       84286.824         542.628          17.000  
E 8  23294422.344      -41295.435        -723.002          23.000    23294413.917     -104007.268        -543.442          16.000  
E25  26172058.685      318775.524        2278.496          19.000                                                                  
E30  24556933.595     -545771.855       -1556.447          13.000                                                                  
J 2  38684027.507      197826.841         523.499          32.000    38684022.631      108098.822         390.386          20.000  
C 6  35877651.322     -179788.413        -536.032          25.000                                                                                                                                  
C24  22398584.792      -25309.545        -844.274          23.000                                                                                                                                  
C26  22326870.284      347773.132        1065.172          25.000                                                                                                                                  
C33  23496310.256      -75889.640       -1517.177          23.000                                                                                                                                  
C35  24754276.605     -496363.356       -1414.708          19.000                                                                                                                                  
> 2022  1 25  4  4  2.0000000  0 21                     
G 3  23512335.060     -120338.841       -1081.413          15.000                                                                  
G26  20240954.755     -437633.047       -1116.566          20.000    20240945.412     -221662.423        -831.179          13.000  
G29  22561624.639       15182.625          63.664          26.000                                                                  
G31  20651926.277       48926.857         214.822          23.000                                                                  
G32  20755856.820      644883.853          -0.011          15.000                                                                  
R 1  21280207.825                                          18.000  
R 2  19249388.076                                          24.000  
R 3  22219563.585                                          20.000  
R12  19946619.698                                          36.000  
R21  23334638.720                                          16.000  
R22  23515386.404                                          14.000  
E 2  23302730.042      249910.681         724.640          25.000    23302719.600       86418.091         542.917          17.000  
E 8  23294284.932      -45101.854        -724.135          26.000    23294277.910     -106141.643        -543.870          17.000  
E25  26172492.183      330746.473        2277.542          15.000                                                                  
E30  24556637.440     -553950.139       -1555.907          13.000                                                                  
J 2  38684126.044      200571.266         522.454          33.000    38684122.651      109632.783         390.091          21.000  
C 6  35877548.586     -182585.431        -537.825          27.000                                                                                                                                  
C24  22398420.184      -29707.595        -845.044          28.000                                                                                                                                  
C26  22327076.877      353329.065        1065.869          29.000                                                                                                                                  
C33  23496013.593      -83789.229       -1517.360          22.000                                                                                                                                  
C35  24754005.625     -503725.396       -1413.080          22.000                                                                                                                                  
> 2022  1 25  4  4  3.0000000  0 20                     
G 3  23512117.417     -126019.236          -0.025          15.000                                                                  
G26  20240741.548     -443505.573       -1117.142          23.000    20240733.924     -224922.556        -829.900          12.000  
G29  22561637.465       15522.234          65.128          23.000                                                                  
G31  20651966.169       50042.522         211.694          30.000                                                                  
G32  20756175.259      653728.463          -0.011          16.000                                                                  
R 1  21280816.218                                          25.000  
R 2  19249308.930                                          23.000  
R12  19946815.307                                          25.000  
R21  23334403.614                                          17.000  
R22  23514787.896                                          13.000  
E 2  23302867.131      253707.799         724.172          25.000    23302857.797       88556.380         546.303          17.000  
E 8  23294146.552      -48909.897        -723.055          25.000    23294139.303     -108279.175        -545.490          17.000  
E25  26172925.446      342710.803        2277.270          15.000                                                                  
E30  24556325.370     -562126.403       -1555.265          15.000                                                                  
J 2  38684225.837      203319.140         523.928          29.000    38684222.645      111170.371         390.411          20.000  
C 6  35877446.966     -185374.997        -534.948          27.000                                                                                                                                  
C24  22398257.225      -34105.652        -843.018          25.000                                                                                                                                  
C26  22327282.005      358889.322        1067.916          23.000                                                                                                                                  
C33  23495720.456      -91693.211       -1518.267          24.000                                                                                                                                  
C35  24753734.190     -511079.351       -1412.103          23.000                                                                                                                                  
> 2022  1 25  4  4  4.0000000  0 20                     
G 3  23511912.573     -131676.639          -0.025          16.000                                                                  
G26  20240529.580     -449375.707       -1117.746          19.000    20240522.087     -228187.779        -834.227          14.000  
G29  22561650.483       15865.202          66.753          23.000                                                                  
G31  20652005.013       51155.115         212.021          25.000                                                                  
G32  20756495.791      662578.316          -0.011          15.000                                                                  
R 1  21281511.112                                          24.000  
R 2  19249230.596                                          22.000  
R12  19947016.333                                          30.000  
R21  23334157.976                                          17.000  
R22  23514186.078                                          13.000  
E 2  23303004.875      257512.759         724.466          25.000    23302996.474       90688.789         543.080          17.000  
E 8  23294008.896      -52711.464        -723.219          23.000    23294003.130     -110414.695        -544.042          18.000  
E25  26173366.552      354665.126        2274.618          16.000                                                                  
E30  24556029.668     -570292.313       -1552.549          15.000                                                                  
J 2  38684325.159      206072.838         523.803          25.000    38684322.796      112703.444         392.778          19.000  
C 6  35877344.344     -188157.014        -534.304          21.000                                                                                                                                  
C24  22398094.589      -38506.961        -843.857          24.000                                                                                                                                  
C26  22327489.078      364447.585        1066.377          32.000                                                                                                                                  
C33  23495426.297      -99595.164       -1515.443          26.000                                                                                                                                  
C35  24753463.186     -518434.477       -1414.243          23.000                                                                                                                                  
> 2022  1 25  4  4  5.0000000  0 21                     
G 3  23511707.623     -137337.128          -0.025          15.000                                                                  
G26  20240317.412     -455240.172       -1115.424          18.000    20240309.360     -231466.990        -835.179          12.000  
G29  22561665.804       16217.884          67.019          22.000                                                                  
G31  20652045.366       52273.876         216.117          24.000                                                                  
G32  20756822.719      671435.117        1685.225          15.000                                                                  
R 1  21282219.896                                          23.000  
R 2  19249153.362                                          24.000  
R12  19947212.071                                          25.000  
R21  23333912.468                                          17.000  
R22  23513587.195                                          13.000  
E 2  23303142.827      261323.267         725.072          25.000    23303137.777       92814.272         541.323          17.000  
E 7  26554556.899      -32199.290       -2653.294          15.000                                                                  
E 8  23293870.193      -56516.203        -723.514          22.000    23293863.825     -112550.975        -545.011          17.000  
E25  26173799.396      366616.761        2274.848          14.000                                                                  
E30  24555734.211     -578451.250       -1552.229          15.000                                                                  
J 2  38684424.228      208822.639         521.842          23.000    38684422.423      114239.908         392.555          17.000  
C 6  35877242.140     -190938.009        -536.202          21.000                                                                                                                                  
C24  22397916.370      -42903.503        -842.216          25.000                                                                                                                                  
C26  22327695.304      370009.856        1069.228          27.000                                                                                                                                  
C33  23495106.897     -107488.872       -1515.319          24.000                                                                                                                                  
C35  24753192.094     -525796.486           0.027          21.000                                                                                                                                  
> 2022  1 25  4  4  6.0000000  0 22                     
G 3  23511487.797     -142999.542          -0.025          15.000                                                                  
G26  20240105.252     -461100.035       -1112.116          22.000    20240096.947     -234741.609        -833.983          14.000  
G29  22561677.784       16574.373          68.117          22.000                                                                  
G31  20652084.001       53402.385         212.206          29.000                                                                  
G32  20757143.408      680290.236        1685.984          14.000                                                                  
R 1  21282930.870                                          22.000  
R 2  19249076.223                                          23.000  
R 3  22216789.892                                          18.000  
R12  19947408.517                                          25.000  
R21  23333668.200                                          16.000  
R22  23512988.618                                          14.000  
E 2  23303280.344      265126.479         726.201          24.000    23303272.789       94938.554         541.824          16.000  
E 7  26554052.614      -46126.711       -2650.538          14.000                                                                  
E 8  23293732.109      -60323.643        -722.714          25.000    23293724.686     -114686.191        -543.052          17.000  
E25  26174232.851      378585.662        2279.687          18.000                                                                  
E30  24555438.954     -586604.772       -1550.483          16.000                                                                  
J 2  38684525.923      211566.306         522.449          24.000    38684522.600      115778.451         390.620          18.000  
C 6  35877139.018     -193731.361        -535.688          23.000                                                                                                                                  
C24  22397750.951      -47304.494        -845.892          27.000                                                                                                                                  
C26  22327901.985      375574.079        1068.215          29.000                                                                                                                                  
C33  23494810.759     -115387.997       -1514.561          20.000                                                                                                                                  
C35  24752921.595     -533166.777       -1416.662          23.000                                                                                                                                  
> 2022  1 25  4  4  7.0000000  0 23                     
G 3  23511283.067     -148654.907          -0.025          16.000                                                                  
G26  20239893.624     -466953.411       -1115.780          20.000    20239884.840     -238011.416        -832.810          15.000  
G29  22561691.840       16923.180          66.175          22.000                                                                  
G31  20652121.934       54515.872         213.648          24.000                                                                  
G32  20757464.202      689148.593        1685.007          15.000                                                                  
R 1  21283643.249                                          22.000  
R 2  19249000.690                                          29.000  
R 3  22216092.162                                          16.000  
R12  19947601.543                                          29.000  
R21  23333422.466                                          19.000  
R22  23512390.764                                          14.000  
E 2  23303418.871      268929.415         725.191          24.000    23303407.600       97058.236         539.808          17.000  
E 7  26553560.256      -60059.341       -2652.512          10.000                                                                  
E 8  23293593.991      -64125.385        -720.022          22.000    23293586.733     -116814.262        -541.221          17.000  
E25  26174666.873      390570.844        2281.326          18.000                                                                  
E30  24555149.099     -594747.197       -1549.187          15.000                                                                  
J 2  38684625.193      214310.823         522.890          23.000    38684622.838      117312.908         391.810          19.000  
C 6  35877036.125     -196519.367        -535.406          20.000                                                                                                                                  
C21  24917783.550       50729.375        3229.909          16.000                                                                                                                                  
C24  22397589.327      -51714.470        -845.603          27.000                                                                                                                                  
C26  22328107.740      381123.836        1066.181          24.000                                                                                                                                  
C33  23494524.444     -123287.007       -1517.183          22.000                                                                                                                                  
C35  24752650.623     -540535.999       -1413.178          20.000                                                                                                                                  
> 2022  1 25  4  4  8.0000000  0 24                     
G 3  23511075.388     -154313.091       -1077.128          15.000                                                                  
G16  22567095.415      -91932.195       -3292.819          21.000                                                                  
G26  20239683.222     -472804.108       -1111.442          23.000    20239672.823     -241280.022        -833.549          12.000  
G29  22561705.661       17271.189          66.561          23.000                                                                  
G31  20652163.474       55635.105         214.476          25.000                                                                  
G32  20757790.090      697999.623          -0.011          15.000                                                                  
R 1  21284353.866                                          28.000  
R 2  19248924.083                                          30.000  
R 3  22215397.260                                          16.000  
R12  19947798.468                                          29.000  
R21  23333177.046                                          18.000  
R22  23511793.675                                          13.000  
E 2  23303557.295      272739.770         726.781          23.000    23303543.476       99178.347         539.464          16.000  
E 7  26553055.665      -73994.078       -2651.081          12.000                                                                  
E 8  23293455.855      -67923.330        -721.768          28.000    23293448.754     -118938.213        -539.969          17.000  
E25  26175090.721      402555.709        2279.701          19.000                                                                  
E30  24554854.453     -602884.621       -1547.944          16.000                                                                  
J 2  38684725.544      217059.808         523.426          27.000    38684721.803      118839.523         388.745          18.000  
C 6  35876933.206     -199315.669        -536.146          27.000                                                                                                                                  
C21  24918403.565       67541.245        3230.883          16.000                                                                                                                                  
C24  22397427.938      -56112.243        -846.099          31.000                                                                                                                                  
C26  22328311.875      386671.072        1065.418          22.000                                                                                                                                  
C33  23494232.458     -131187.121       -1515.882          22.000                                                                                                                                  
C35  24752381.398     -547903.599           0.027          23.000                                                                                                                                  
> 2022  1 25  4  4  9.0000000  0 24                     
G 3  23510870.231     -159977.815       -1078.101          15.000                                                                  
G16  22566470.226     -109242.764       -3293.711          19.000                                                                  
G26  20239471.752     -478644.987       -1110.657          20.000                                                                  
G29  22561725.048       17621.292          66.550          33.000                                                                  
G31  20652202.074       56755.579         212.436          24.000                                                                  
G32  20758110.273      706840.891          -0.011          12.000                                                                  
R 1  21285066.899                                          22.000  
R 2  19248847.442                                          25.000  
R 3  22214701.022                                          14.000  
R12  19947993.998                                          27.000  
R21  23332933.399                                          18.000  
R22  23511196.668                                          14.000  
E 2                                                                  23220990.212      101287.893         538.642          16.000  
E 7  26552551.171      -87926.675       -2650.921          13.000                                                                  
E 8  23293318.827      -71719.886        -722.088          27.000    23293312.799     -121058.875        -540.685          17.000  
E25  26175524.586      414533.168        2278.616          18.000                                                                  
E30  24554559.912     -611018.965       -1548.182          17.000                                                                  
J 2  38684824.849      219809.519         521.470          25.000    38684820.994      120369.616         390.950          17.000  
C 6  35876830.147     -202109.752        -535.442          20.000                                                                                                                                  
C21  24919023.876       84360.499        3229.837          15.000                                                                                                                                  
C24  22397264.770      -60533.966        -846.240          29.000                                                                                                                                  
C26  22328516.749      392223.386        1066.771          22.000                                                                                                                                  
C33  23493941.581     -139083.618          -0.000          24.000                                                                                                                                  
C35  24752110.655     -555282.142       -1413.956          23.000                                                                                                                                  
> 2022  1 25  4  4 10.0000000  0 24                     
G 3  23510665.323     -165636.699       -1075.638          14.000                                                                  
G16  22565843.380     -126554.482       -3293.549          17.000                                                                  
G26  20239260.709     -484477.540       -1110.942          18.000                                                                  
G29  22561740.413       17956.877          64.538          29.000                                                                  
G31  20652238.789       57872.010         213.853          25.000                                                                  
G32  20758430.596      715684.610          -0.011          18.000                                                                  
R 1  21285779.933                                          18.000  
R 2  19248770.801                                          22.000  
R 3  22214004.507                                          15.000  
R12  19948190.994                                          29.000  
R21  23332661.769                                          28.000  
R22  23510599.749                                          15.000  
E 2  23303832.215      280355.030         723.292          23.000    23303822.654      103401.070         539.053          17.000  
E 7  26552046.694     -101858.134       -2650.687          13.000                                                                  
E 8  23293180.211      -75518.552        -721.822          24.000    23293175.972     -123185.140        -541.418          19.000  
E25  26175957.676      426521.894        2282.433          16.000                                                                  
E30  24554265.423     -619151.504       -1546.818          15.000                                                                  
J 2  38684926.570      222548.069         519.942          24.000    38684920.822      121903.188         390.919          15.000  
C 6  35876726.824     -204904.524        -534.532          22.000                                                                                                                                  
C21  24919647.024      101175.566        3226.490          14.000                                                                                                                                  
C24  22397101.750      -64937.496        -840.969          28.000                                                                                                                                  
C26  22328721.344      397783.277        1068.181          24.000                                                                                                                                  
C33  23493649.970     -146984.611       -1510.301          23.000                                                                                                                                  
C35  24751840.189     -562640.901           0.027          21.000                                                                                                                                  
> 2022  1 25  4  4 11.0000000  0 23                     
G 3  23510460.898     -171282.817          -0.025          16.000                                                                  
G16  22565215.059     -143851.145       -3292.809          17.000                                                                  
G26  20239049.073     -490317.553       -1110.483          22.000                                                                  
G29  22561754.635       18303.092          64.707          27.000                                                                  
G31  20652278.183       58991.300         213.837          28.000                                                                  
G32  20758752.839      724536.708        1684.261          20.000                                                                  
R 1  21286492.050                                          17.000  
R 2  19248692.327                                          21.000  
R12  19948387.204                                          28.000  
R21  23332417.553                                          30.000  
R22  23510002.724                                          15.000  
E 2  23303970.106      284162.620         726.680          25.000    23303958.922      105513.487         539.111          16.000  
E 7  26551547.574     -115789.659       -2650.844          13.000                                                                  
E 8  23293041.543      -79314.289        -721.538          22.000    23293036.083     -125314.577        -541.522          18.000  
E25  26176391.183      438492.045        2271.938          14.000                                                                  
E30  24553966.459     -627281.607       -1546.988          20.000                                                                  
J 2  38685026.652      225291.573         522.829          25.000    38685020.258      123430.654         389.272          15.000  
C 6  35876624.472     -207689.370        -536.119          23.000                                                                                                                                  
C21  24920266.515      117972.573        3224.542          15.000                                                                                                                                  
C24  22396940.257      -69327.384        -839.817          28.000                                                                                                                                  
C26  22328927.335      403342.490          -0.009          22.000                                                                                                                                  
C33  23493358.883     -154858.575       -1507.701          25.000                                                                                                                                  
C35  24751569.506     -569998.019       -1412.287          23.000                                                                                                                                  
> 2022  1 25  4  4 12.0000000  0 23                     
G 3  23510256.936     -176916.381          -0.025          17.000                                                                  
G16  22564586.973     -161161.830       -3294.808          16.000                                                                  
G26  20238840.656     -496155.773       -1110.939          22.000                                                                  
G29  22561766.161       18657.672          70.498          25.000                                                                  
G31  20652318.132       60107.487         211.908          22.000                                                                  
G32  20759073.328      733385.860        1684.038          20.000                                                                  
R 1  21287206.427                                          20.000  
R 2  19248616.262                                          18.000  
R12  19948584.714                                          24.000  
R21  23332172.255                                          19.000  
R22  23509405.185                                          15.000  
E 2  23304108.242      287982.904         728.491          24.000    23304095.392      107622.158         535.519          14.000  
E 7  26551043.228     -129717.830       -2649.820          18.000                                                                  
E 8  23292905.815      -83107.164        -720.899          25.000    23292897.537     -127437.637        -541.393          17.000  
E25  26176817.361      450451.206        2277.413          14.000                                                                  
E30  24553671.996     -635414.551       -1548.534          17.000                                                                  
J 2  38685124.447      228033.272         521.876          27.000    38685119.676      124957.697         389.808          17.000  
C 6  35876521.771     -210480.202        -536.022          24.000                                                                                                                                  
C21  24920888.066      134759.944        3229.107          15.000                                                                                                                                  
C24  22396780.683      -73714.753        -842.640          28.000                                                                                                                                  
C26  22329132.602      408904.376        1067.933          25.000                                                                                                                                  
C33  23493069.105     -162733.553       -1512.981          24.000                                                                                                                                  
C35  24751299.297     -577351.440       -1412.311          20.000                                                                                                                                  
> 2022  1 25  4  4 13.0000000  0 24                     
G 3  23510049.973     -182548.766       -1072.643          16.000                                                                  
G16  22563962.953     -178471.483       -3293.749          18.000                                                                  
G26  20238629.264     -501994.831       -1110.444          19.000                                                                  
G29  22561777.870       19037.102          68.701          25.000                                                                  
G31  20652357.229       61225.650         209.596          23.000                                                                  
G32  20759396.861      742229.019        1681.738          18.000                                                                  
R 1  21287918.954                                          26.000  
R 2  19248540.554                                          19.000  
R 3  22211914.904                                          17.000  
R12  19948779.597                                          24.000  
R21  23331928.292                                          21.000  
R22  23508807.450                                          15.000  
E 2  23304246.448      291798.150         725.906          24.000    23304232.018      109722.331         534.703          17.000  
E 7  26550538.942     -143644.126       -2650.252          18.000                                                                  
E 8  23292768.700      -86901.165        -719.972          22.000    23292762.079     -129563.952        -541.164          17.000  
E25  26177250.693      462417.786        2277.455          15.000                                                                  
E30  24553378.772     -643563.193       -1550.408          17.000                                                                  
J 2  38685224.161      230771.975         520.984          29.000    38685218.195      126484.809         389.076          20.000  
C 6  35876419.202     -213272.951        -538.713          22.000                                                                                                                                  
C21  24921508.456      151582.154        3229.825          17.000                                                                                                                                  
C24  22396621.616      -78095.657        -839.086          24.000                                                                                                                                  
C26  22329337.249      414448.184        1064.346          23.000                                                                                                                                  
C33  23492778.463     -170620.756       -1514.671          23.000                                                                                                                                  
C35  24751031.737     -584701.465       -1413.463          25.000                                                                                                                                  
> 2022  1 25  4  4 14.0000000  0 24                     
G 3  23509845.799     -188188.028       -1074.686          15.000                                                                  
G16  22563334.955     -195778.769       -3292.452          20.000                                                                  
G26  20238418.474     -507835.956       -1111.237          22.000                                                                  
G29  22561789.581       19431.169          76.370          27.000                                                                  
G31  20652397.827       62325.255         208.743          21.000                                                                  
G32  20759719.514      751067.976        1682.818          17.000                                                                  
R 1  21288629.091                                          28.000  
R 2  19248464.401                                          17.000  
R 3  22211219.863                                          16.000  
R12  19948974.542                                          22.000  
R21  23331682.907                                          17.000  
R22  23508209.388                                          14.000  
E 2  23304383.930      295611.560         727.492          24.000    23304370.809      111821.895         538.871          17.000  
E 7  26550034.649     -157570.516       -2650.420          27.000                                                                  
E 8  23292631.690      -90689.781        -719.079          24.000    23292624.685     -131690.806        -540.404          18.000  
E25  26177684.122      474386.916        2278.532          13.000                                                                  
E30  24553083.437     -651720.816       -1553.728          17.000                                                                  
J 2  38685323.230      233511.386         523.198          29.000    38685317.595      128015.543         391.277          21.000  
C 6  35876316.009     -216074.224        -536.363          21.000                                                                                                                                  
C21  24922128.907      168405.152        3231.689          12.000                                                                                                                                  
C24  22396460.647      -82472.571        -841.471          19.000                                                                                                                                  
C26  22329542.001      420001.950        1068.805          26.000                                                                                                                                  
C33  23492486.852     -178507.790       -1512.959          23.000                                                                                                                                  
C35  24750761.081     -592060.702       -1411.672          22.000                                                                                                                                  
> 2022  1 25  4  4 15.0000000  0 24                     
G 3  23509641.530     -193830.713       -1072.964          14.000                                                                  
G16  22562708.858     -213068.315       -3288.867          17.000                                                                  
G26  20238208.208     -513674.371       -1111.842          19.000                                                                  
G29  22561803.070       19846.827          77.272          23.000                                                                  
G31  20652438.058       63429.198         210.003          23.000                                                                  
G32  20760039.898      759913.655        1683.323          17.000                                                                  
R 1  21289339.943                                          31.000  
R 2  19248388.309                                          16.000  
R 3  22210521.619                                          16.000  
R12  19949175.944                                          30.000  
R21  23331438.718                                          17.000  
R22  23507611.613                                          13.000  
E 2  23304522.109      299429.053         727.662          25.000    23304509.922      113936.983         538.604          17.000  
E 7  26549514.021     -171503.512       -2651.785          26.000                                                                  
E 8  23292495.203      -94469.888        -718.957          21.000    23292484.752     -133812.076        -538.958          17.000  
E25  26178117.795      486362.422        2279.564          13.000                                                                  
E30  24552790.178     -659882.809       -1552.504          18.000                                                                  
J 2  38685423.355      236252.700         521.276          30.000    38685415.303      129548.076         389.947          21.000  
C 6  35876212.505     -218860.572        -533.737          20.000                                                                                                                                  
C21  24922749.262      185225.443          -0.013          14.000                                                                                                                                  
C24  22396299.188      -86862.297        -844.437          19.000                                                                                                                                  
C26  22329747.548      425569.055        1069.262          27.000                                                                                                                                  
C33  23492196.794     -186381.204       -1511.018          25.000                                                                                                                                  
C35  24750490.851     -599414.815           0.027          22.000                                                                                                                                  
> 2022  1 25  4  4 16.0000000  0 23                     
G 3  23509437.463     -199473.841          -0.025          14.000                                                                  
G16  22562082.012     -230361.395       -3289.852          19.000                                                                  
G26  20237997.584     -519513.972       -1109.323          21.000                                                                  
G29  22561816.969       20253.627          74.815          25.000                                                                  
G31  20652478.176       64543.497         212.335          26.000                                                                  
G32  20760360.326      768761.084        1684.631          17.000                                                                  
R 1  21290050.132                                          33.000  
R 2  19248325.017                                          17.000  
R 3  22209823.409                                          16.000  
R12  19949377.136                                          23.000  
R21  23331203.384                                          17.000  
R22  23507013.620                                          13.000  
E 2  23304660.158      303248.548         728.319          23.000    23304649.078      116051.204         539.707          18.000  
E 7  26549022.154     -185434.530       -2647.477          20.000                                                                  
E 8  23292359.702      -98251.417        -718.513          25.000    23292347.898     -135927.349        -538.841          18.000  
E25  26178553.858      498340.997        2279.106          14.000                                                                  
E30  24552497.888     -668027.729       -1550.380          20.000                                                                  
J 2  38685523.663      238995.824         522.411          30.000    38685516.990      131078.232         389.175          21.000  
C 6  35876110.198     -221631.988        -532.228          23.000                                                                                                                                  
C21  24923369.277      202036.454          -0.013          14.000                                                                                                                                  
C24  22396138.175      -91267.593           0.001          20.000                                                                                                                                  
C26  22329952.675      431128.517        1066.129          29.000                                                                                                                                  
C33  23491908.046     -194249.635       -1509.320          23.000                                                                                                                                  
> 2022  1 25  4  4 17.0000000  0 23                     
G 3  23509232.995     -205121.987          -0.025          15.000                                                                  
G16  22561456.325     -247658.090       -3293.157          20.000                                                                  
G26  20237786.855     -525332.382       -1105.523          18.000                                                                  
G29  22561831.819       20664.362          78.009          24.000                                                                  
G31  20652519.573       65665.731         216.283          24.000                                                                  
G32  20760701.526      777615.167        1688.327          20.000                                                                  
R 1  21290761.978                                          32.000  
R 2  19248252.817                                          17.000  
R 3  22209125.646                                          17.000  
R12  19949572.151                                          24.000  
R21  23330959.962                                          16.000  
R22  23506415.620                                          15.000  
E 2  23304798.599      307068.268         727.880          21.000    23304789.902      118173.028         542.003          18.000  
E 7  26548511.194     -199350.026       -2647.891          19.000                                                                  
E 8  23292223.468     -102030.892        -720.583          22.000    23292214.413     -138034.182        -536.203          19.000  
E25  26178987.627      510319.797        2280.268          16.000                                                                  
E30  24552203.600     -676178.953       -1552.030          19.000                                                                  
J 2  38685620.237      241732.274         520.457          28.000    38685615.553      132604.902         390.139          25.000  
C 6  35876007.733     -224405.432        -533.900          22.000                                                                                                                                  
C21  24923992.102      218855.264          -0.013          16.000                                                                                                                                  
C24  22395979.317      -95661.940           0.001          21.000                                                                                                                                  
C26  22330158.369      436683.335        1067.224          28.000                                                                                                                                  
C33  23491619.690     -202108.757       -1508.465          28.000                                                                                                                                  
> 2022  1 25  4  4 18.0000000  0 22                     
G 3  23509028.307     -210775.532          -0.025          16.000                                                                  
G16  22560829.269     -264948.399       -3288.544          26.000                                                                  
G26  20237576.327     -531153.022       -1108.097          22.000                                                                  
G29  22561847.262       21074.790          79.382          22.000                                                                  
G31  20652560.197       66798.028         216.027          23.000                                                                  
G32  20761012.836      786485.533        1689.267          19.000                                                                  
R 1  21291474.558                                          27.000  
R 2  19248177.162                                          16.000  
R 3  22208427.306                                          17.000  
R12  19949770.691                                          24.000  
R21  23330716.471                                          16.000  
R22  23505818.037                                          14.000  
E 2  23304937.520      310889.072         727.908          24.000    23304926.258      120298.190         541.879          17.000  
E 7  26548006.621     -213272.214       -2650.753          19.000                                                                  
E 8  23292085.419     -105816.445        -716.599          20.000    23292078.659     -140142.178        -537.392          17.000  
E25  26179421.675      522306.017        2281.316          15.000                                                                  
E30  24551910.691     -684334.866       -1552.062          19.000                                                                  
J 2  38685720.108      244469.781         520.561          27.000    38685715.852      134142.177         392.721          23.000  
C 6  35875904.822     -227195.205        -536.592          20.000                                                                                                                                  
C21  24924612.562      235678.909          -0.013          16.000                                                                                                                                  
C26  22330363.298      442250.976        1069.490          28.000                                                                                                                                  
C33  23491330.051     -209962.302       -1507.773          21.000                                                                                                                                  
> 2022  1 25  4  4 19.0000000  0 22                     
G 3  23508823.429     -216434.374          -0.025          15.000                                                                  
G16  22560202.265     -282233.790       -3290.569          26.000                                                                  
G26  20237365.598     -536972.796       -1105.327          19.000                                                                  
G29  22561862.758       21493.126          80.410          27.000                                                                  
G31  20652599.486       67932.824         216.604          24.000                                                                  
G32  20761332.417      795360.602        1690.525          18.000                                                                  
R 1  21292186.972                                          31.000  
R 2  19248101.524                                          17.000  
R 3  22207731.984                                          16.000  
R12  19949972.067                                          29.000  
R21  23330474.916                                          17.000  
R22  23505220.131                                          16.000  
E 2  23305075.211      314712.694         727.977          24.000    23305065.249      122423.841         543.532          18.000  
E 7  26547502.999     -227210.999       -2654.775          19.000                                                                  
E 8  23291949.081     -109579.362        -715.452          17.000    23291942.730     -142249.369        -533.550          12.000  
E25  26179855.985      534299.147        2282.593          16.000                                                                  
E30  24551615.984     -692495.672       -1553.009          17.000                                                                  
J 2  38685819.125      247211.906         523.404          33.000    38685815.174      135670.629         389.930          24.000  
C 6  35875801.630     -229975.081        -531.772          20.000                                                                                                                                  
C21  24925232.956      252501.068          -0.013          15.000                                                                                                                                  
C26  22330568.940      447817.065        1068.393          29.000                                                                                                                                  
C33  23491041.215     -217808.544          -0.000          25.000                                                                                                                                  
