     3.03           OBSERVATION DATA    M: Mixed            RINEX VERSION / TYPE
rinex ON            NSL                 20190610 144916 UTC PGM / RUN BY / DATE
                                                            MARKER NAME
                                                            MARKER TYPE
rinex ON User                                               OBSERVER / AGENCY
 -2417158.7717  5385932.6722  2406534.1039                  APPROX POSITION XYZ
XXXXXXXX            Xiaomi              MI 8                REC # / TYPE / VERS
XXXXXXXX            MI 8                                    ANT # / TYPE
        0.0000        0.0000        0.0000                  APPROX POSITION XYZ
        0.0000        0.0000        0.0000                  ANTENNA: DELTA H/E/N
G    8 C1C L1C D1C S1C C5X L5X D5X S5X                      SYS / # / OBS TYPES
R    4 C1C L1C D1C S1C                                      SYS / # / OBS TYPES
E    8 C1C L1C D1C S1C C5X L5X D5X S5X                      SYS / # / OBS TYPES
C    4 C2I L2I D2I S2I                                      SYS / # / OBS TYPES
J    8 C1C L1C D1C S1C C5X L5X D5X S5X                      SYS / # / OBS TYPES
S    4 C1C L1C D1C S1C                                      SYS / # / OBS TYPES
  2019    06    10    06    49   39.0004536     GPS         TIME OF FIRST OBS
                                                            END OF HEADER
> 2019 06 10 06 49 39.0004536  0 17
G03  21867583.787       33019.173       -1183.686          39.904    21867585.885      119431.332        -883.969          40.916
G06  21842045.367      -40215.459        1435.034          31.159    21842041.769     -146121.194        1071.415          31.568
G17  22200181.934      -24744.777         889.537          24.458                                                            
G19  22602873.656      -40746.630        1462.031          31.535                                                            
G28  20308968.793      -17790.172         652.987          31.808                                                            
J01  37248143.247        6538.244        -231.641          29.287    37248142.947       36691.345        -173.059          31.240
J02  35998471.876        8080.815        -286.814          31.915    35998467.979       47493.032        -213.476          17.994
J04  39340774.349      -18033.404         648.833          36.407    39340777.646     -100659.863         484.376          36.757
C01  36761221.536        1398.616         -72.671          17.443                                                            
C07  35979297.750       17721.190        -674.135          22.317                                                            
C08  36547040.211       19587.162        -698.557          28.611                                                            
C10  36028417.845        2983.114        -106.311          26.513                                                            
C13  37148875.968       11630.937        -437.864          22.191                                                            
C21  23878833.528      -59516.161        2544.727          32.678                                                            
C22  23560045.020      -13747.514         528.729          32.351                                                            
C24  23099854.004       18302.533       -1010.840          24.644                                                            
C26  24079808.096       48258.286       -2912.469          21.136                                                            
> 2019 06 10 06 49 40.0004536  0 19
G03  21867806.233       34203.251       -1184.079          42.336    21867811.929      120315.509        -884.177          40.972
G06  21841784.847      -41650.280        1434.821          32.109    21841767.459     -147192.749        1071.555          30.882
G17  22200013.151      -25634.769         889.992          25.608                                                            
G19  22602601.445      -42209.229        1462.600          31.667                                                            
G28  20308847.977      -18442.790         652.618          32.907                                                            
J01  37248188.815        6769.477        -231.234          29.254    37248188.815       36864.127        -172.782          30.534
J02  35998528.837        8367.119        -286.304          31.743    35998522.841       47711.026        -216.539          17.425
J04  39340651.434      -18682.584         649.181          39.585    39340654.432     -101144.651         484.788          36.682
C01  36761247.318        1471.186         -72.131          21.477                                                            
C07  35979442.850       18393.855        -675.174          23.702                                                            
C08  36547173.618       20285.379        -698.217          30.412                                                            
C10  36028430.437        3093.559        -105.883          25.339                                                            
C13  37148946.420       12067.126        -425.927          27.232                                                            
C21  23878342.467      -62061.331        2545.170          30.221                                                            
C22  23559940.093      -14275.748         528.234          30.378                                                            
C24  23100039.875       19312.956       -1010.171          22.731                                                            
C26  24080362.712       51166.891       -2911.105          20.574                                                            
E13  24115170.715        2316.201        -744.389          20.801                                                            
E21  24206062.991       -1819.903         735.575          38.172    24206063.591      177758.054         556.087           9.296
> 2019 06 10 06 49 41.0004536  0 20
G03  21868034.675       35387.451       -1184.199          44.132    21868036.773      121199.846        -884.336          41.938
G06  21841509.038      -43085.050        1434.770          33.685    21841493.449     -148264.067        1071.318          30.893
G17  22199817.086      -26524.850         890.084          22.977                                                            
G19  22602327.135      -43671.882        1462.652          31.240                                                            
G28  20308725.962      -19095.505         652.714          34.371                                                            
J01  37248235.583        7000.517        -231.040          30.583    37248231.686       37036.618        -172.491          30.680
J02  35998579.502        8653.548        -286.429          31.590    35998583.699       47935.141        -219.673          16.977
J04  39340528.219      -19332.266         649.681          39.767    39340530.318     -101629.784         485.133          38.740
C01  36761248.517        1544.396         -72.886          23.198                                                            
C07  35979576.857       19066.513        -672.658          26.821                                                            
C08  36547305.827       20983.344        -697.964          31.456                                                            
C10  36028452.921        3199.666        -105.950          28.749                                                            
C13  37149027.064       12494.625        -427.499          29.987                                                            
C21  23877850.508      -64606.441        2545.109          29.878                                                            
C22  23559836.365      -14804.279         528.531          29.515                                                            
C24  23100195.168       20323.767       -1011.341          20.779                                                            
C26  24080943.110       54082.559       -2923.181          22.279                                                            
E13  24115337.999        3054.784        -741.844          20.567    24115323.309     -171284.015        -546.351          11.021
E21  24205920.890       -2563.836         743.934          39.527    24205910.397      177228.401         556.087          28.872
E27  23938259.588        5777.672       -1965.480          31.762                                                            
> 2019 06 10 06 49 42.0004536  0 21
G03  21868260.119       36571.994       -1184.544          45.169    21868261.018      122084.374        -884.529          40.892
G06  21841235.927      -44519.692        1434.642          32.685    21841220.038     -149335.529        1071.462          28.953
G17  22199613.527      -27410.467         892.163          21.720                                                            
G19  22602040.833      -45134.916        1463.034          31.325                                                            
G28  20308598.850      -19747.988         652.484          37.361                                                            
J01  37248276.055        7231.246        -230.729          28.466    37248277.254       37209.155        -172.538          29.591
J02  35998634.964        8939.575        -286.027          30.971    35998638.561       48146.808        -221.389          13.803
J04  39340408.002      -19982.383         650.117          39.380    39340406.803     -102115.278         485.494          39.805
C01  36761289.289        1615.385         -71.612          20.751                                                            
C07  35979702.470       19738.868        -673.131          25.713                                                            
C08  36547440.733       21680.909        -697.565          30.366                                                            
C10  36028475.106        3305.407        -105.741          29.987                                                            
C13  37149109.806       12921.568        -426.943          34.039                                                            
C21  23877366.343      -67151.826        2545.385          30.511                                                            
C22  23559739.232      -15332.580         528.301          31.061                                                            
C24  23100377.441       21338.863       -1010.493          22.527                                                            
C26  24081502.223       57002.982       -2922.969          22.395                                                            
E13  24115463.912        3795.337        -740.552          24.951    24115478.602     -170740.950        -553.568          21.246
E21  24205777.589       -3307.867         744.030          40.437    24205778.488      176661.335         554.227          37.243
E26  24494488.219       -2571.586         765.870          29.055                                                            
E27  23938637.026        7743.062       -1965.390          32.420    23938638.825     -491990.317       -1465.804          18.850
> 2019 06 10 06 49 43.0004536  0 21
G03  21868483.164       37757.031       -1185.036          43.732    21868487.061      122969.294        -884.920          41.386
G06  21840960.118      -45954.218        1434.527          32.344    21840947.826     -150406.719        1071.189          27.069
G17  22199437.549      -28297.612         891.664          19.881                                                            
G19  22601758.428      -46598.222        1463.306          31.978                                                            
G28  20308474.436      -20400.154         652.166          38.133                                                            
J01  37248326.120        7462.031        -230.853          25.100    37248320.125       37381.339        -172.183          27.253
J02  35998681.132        9225.441        -285.866          29.867    35998679.333       48350.733        -219.465          14.573
J04  39340281.490      -20632.660         650.277          38.224    39340282.989     -102600.892         485.614          40.349
C01  36761296.184        1686.020         -71.309          19.527                                                            
C07  35979828.083       20411.428        -673.260          25.784                                                            
C08  36547576.839       22378.368        -697.458          29.457                                                            
C10  36028496.391        3411.282        -105.875          30.975                                                            
C13  37149185.954       13348.598        -427.029          34.187                                                            
C21  23876874.084      -69697.196        2545.370          29.394                                                            
C22  23559634.904      -15860.357         527.776          29.907                                                            
C24  23100565.711       22351.888       -1008.015          21.963                                                            
C26  24082070.030       59923.267       -2920.285          26.122                                                            
E13  24115625.800        4538.015        -742.678          27.030    24115617.405     -170203.309        -550.891          23.662
E21  24205633.688       -4051.530         743.663          41.773    24205633.988      176105.919         555.373          39.367
E26  24494345.517       -3338.282         767.866          30.553    24494332.926      202526.399         575.599          10.869
E27  23939019.562        9708.607       -1965.545          34.971    23939019.262     -490522.492       -1467.529          26.775
> 2019 06 10 06 49 44.0004536  0 21
G03  21868711.606       38942.245       -1185.214          44.219    21868713.705      123854.413        -885.120          41.452
G06  21840672.917      -47388.745        1434.527          31.929    21840684.309     -151478.421        1074.066          22.718
G17  22199266.368      -29189.786         892.119          14.549                                                            
G19  22601474.225      -48061.900        1463.678          31.943                                                            
G28  20308351.221      -21052.009         651.855          38.171                                                            
J01  37248361.496        7692.178        -230.915          27.518    37248363.594       37553.222        -171.883          26.488
J02  35998738.692        9511.198        -285.950          28.019    35998740.191       48555.323        -213.180          18.063
J04  39340160.074      -21283.421         650.761          37.984    39340158.875     -103086.880         485.988          39.254
C01  36761295.285        1755.308         -70.529          23.179                                                            
C07  35979957.893       21083.613        -672.186          28.251                                                            
C08  36547710.247       23075.334        -696.966          26.477                                                            
C10  36028514.978        3517.168        -105.886          32.348                                                            
C13  37149278.290       13775.423        -426.825          35.622                                                            
C21  23876380.026      -72242.954        2545.759          27.706                                                            
C22  23559542.868      -16388.111         527.755          30.190                                                            
C24  23100790.555       23363.142       -1011.254          23.991                                                            
C26  24082621.648       62843.417       -2920.150          28.653                                                            
E13  24115758.308        5279.808        -741.793          25.609    24115756.209     -169668.629        -552.519          21.420
E21  24205492.186       -4794.939         743.410          41.643    24205493.685      175550.723         555.094          38.646
E26  24494197.720       -4104.069         764.959          26.272    24494207.913      201954.301         570.808          31.771
E27  23939390.405       11674.192       -1965.585          35.515    23939394.302     -489054.682       -1468.113          28.856
> 2019 06 10 06 49 45.0004536  0 22
G03  21868938.849       40128.018       -1185.774          44.678    21868937.949      124739.801        -885.387          41.930
G06  21840409.099      -48822.592        1433.847          33.336    21840406.701     -152549.975        1071.117          23.264
G17  22199190.520      -30088.978         890.617          18.336                                                            
G19  22601194.818      -49525.225        1463.325          30.384                                                            
G28  20308228.006      -21703.582         651.572          37.826                                                            
J01  37248406.165        7922.931        -230.753          28.977    37248407.064       37725.722        -172.500          23.427
J02  35998792.654        9797.375        -286.176          25.845    35998798.650       48759.578        -213.443          19.120
J04  39340036.260      -21934.563         651.142          36.981    39340034.761     -103572.920         486.040          38.466
C01  36761313.272        1825.637         -70.970          23.903                                                            
C03  36145125.550          97.734         -54.634          31.339                                                            
C07  35980085.905       21756.133        -672.519          29.299                                                            
C08  36547836.759       23773.156        -697.304          25.663                                                            
C10  36028535.064        3622.875        -105.707          33.760                                                            
C13  37149357.135       14202.094        -426.671          35.716                                                            
C21  23875893.163      -74788.201        2545.246          27.911                                                            
C22  23559442.437      -16915.760         527.649          31.797                                                            
C24  23100975.228       24375.295       -1015.068          24.932                                                            
C26  24083180.161       65763.504       -2920.087          28.850                                                            
E13  24115903.707        6021.264        -741.456          25.735    24115894.414     -169114.421        -554.826          19.475
E21  24205351.284       -5538.064         743.125          40.567    24205351.884      174995.903         554.820          39.406
E26  24494039.130       -4871.189         769.095          26.395    24494046.624      201382.015         572.285          31.999
E27  23939770.542       13640.293       -1966.101          35.104    23939766.644     -487586.509       -1468.398          28.872
> 2019 06 10 06 49 46.0004536  0 23
G03  21869163.693       41313.694       -1185.675          44.683    21869163.993      125625.207        -885.406          41.379
G06  21840132.691      -50256.968        1434.375          33.220    21840126.695     -153620.744        1071.438          24.700
G17  22199057.113      -30980.485         891.587          21.100                                                            
G19  22600911.814      -50989.472        1464.246          29.993                                                            
G28  20308100.894      -22355.443         651.861          37.397                                                            
J01  37248449.935        8152.923        -229.992          26.681    37248455.031       37897.513        -176.839          20.200
J02  35998853.213       10082.539        -285.165          30.430    35998851.714       48974.394        -213.312          18.600
J04  39339910.347      -22586.137         651.574          36.026    39339910.647     -104059.623         486.703          38.532
C01  36761327.063        1895.907         -69.513          19.920                                                            
C03  36145085.678          49.054         -54.634          20.747                                                            
C07  35980221.111       22427.987        -671.855          27.745                                                            
C08  36547977.362       24469.491        -696.334          29.650                                                            
C10  36028559.647        3727.963        -105.088          32.224                                                            
C13  37149436.880       14627.909        -425.814          34.684                                                            
C21  23875409.898      -77334.262        2546.061          29.448                                                            
C22  23559338.110      -17443.596         527.836          30.629                                                            
C24  23101158.101       25386.709       -1014.877          22.872                                                            
C26  24083741.073       68682.933       -2919.805          25.493                                                            
E13  24116041.612        6762.123        -740.858          27.215    24116041.012     -168561.165        -553.255          24.839
E14  19955499.695        6368.163       -3974.199          36.411                                                            
E21  24205207.384       -6281.621         743.557          40.352    24205209.182      174440.646         555.257          40.791
E26  24493918.913       -5637.928         766.739          28.443    24493903.923      200809.008         572.913          31.024
E27  23940141.385       15605.732       -1965.439          31.362    23940139.886     -486118.672       -1467.838          30.349
> 2019 06 10 06 49 47.0004536  0 23
G03  21869387.938       42499.130       -1185.436          45.131    21869388.537      126510.462        -885.255          41.072
G06  21839873.070      -51691.791        1434.823          34.040    21839854.783     -154692.055        1070.765          26.560
G17  22198882.933      -31873.369         892.760          21.701                                                            
G19  22600631.508      -52454.456        1464.984          30.208                                                            
G28  20307976.480      -23007.470         652.027          37.081                                                            
J01  37248495.803        8381.973        -229.816          25.637    37248496.403       38068.418        -170.047          19.357
J02  35998908.674       10367.023        -284.484          31.560    35998901.779       49184.881        -208.013          16.427
J04  39339784.134      -23238.830         652.692          36.181    39339785.933     -104546.968         487.345          38.832
C01  36761359.440        1966.273         -69.139          18.497                                                            
C03  36145097.070          49.092         -54.634          19.476                                                            
C07  35980350.622       23099.151        -671.592          26.903                                                            
C08  36548110.170       25165.106        -695.615          31.012                                                            
C10  36028578.534        3832.655        -104.692          31.667                                                            
C13  37149519.023       15053.358        -425.449          35.078                                                            
C21  23874920.636      -79881.137        2546.875          29.106                                                            
C22  23559238.579      -17971.651         528.056          30.661                                                            
C24  23101362.260       26397.942       -1012.813          24.856                                                            
C26  24084311.878       71599.892       -2923.668          22.528                                                            
E13  24116181.315        7502.354        -740.975          25.317    24116181.615     -168008.485        -552.680          27.153
E14  19956265.665       10343.052       -3974.889          36.319                                                            
E21  24205066.181       -7025.357         743.736          39.811    24205068.580      173885.267         555.379          40.751
E26  24493768.417       -6405.331         766.707          28.083    24493755.226      200236.065         572.943          29.847
E27  23940518.524       17570.849       -1965.117          30.585    23940514.627     -484651.213       -1467.459          31.071
> 2019 06 10 06 49 48.0004536  0 23
G03  21869612.482       43685.341       -1186.211          45.556    21869614.281      127396.288        -885.826          41.059
G06  21839597.861      -53126.037        1434.247          33.753    21839581.972     -155763.127        1071.072          26.654
G17  22198711.152      -32766.440         892.116          21.785                                                            
G19  22600350.003      -53919.390        1464.934          29.479                                                            
G28  20307854.765      -23658.954         651.484          37.300                                                            
J01  37248545.868        8611.425        -229.315          26.522    37248537.774       38239.726        -168.517          18.873
J02  35998960.538       10651.759        -284.736          34.212    35998954.243       49395.434        -209.613          13.476
J04  39339662.119      -23891.444         652.615          36.035    39339661.819     -105034.312         487.344          39.048
C01  36761371.732        2033.500         -71.912          18.793                                                            
C03  36145108.162          49.051         -52.683           7.000                                                            
C07  35980481.031       23770.720        -673.546          26.094                                                            
C08  36548243.877       25860.784        -695.677          31.674                                                            
C10  36028601.019        3937.397        -104.742          32.180                                                            
C13  37149601.466       15478.672        -425.314          34.510                                                            
C21  23874437.671      -82427.644        2546.507          29.507                                                            
C22  23559139.947      -18499.076         527.424          31.410                                                            
C24  23101565.519       27409.560       -1010.955          23.838                                                            
C26  24084870.091       74527.229       -2921.722          23.550                                                            
E13  24116321.318        8242.599        -740.245          24.574    24116322.517     -167455.636        -552.849          28.098
E14  19957002.255       14318.312       -3976.712          35.767    19957151.252      248082.026      -39804.849          15.756
E21  24204925.878       -7768.617         743.259          40.101    24204926.778      173330.253         555.015          40.569
E26  24493617.022       -7172.780         767.449          27.543    24493608.328      199662.925         573.140          29.003
E27  23940892.665       19536.411       -1965.562          30.280    23940888.768     -483183.389       -1467.824          31.054
> 2019 06 10 06 49 49.0004536  0 24
G03  21869840.924       44872.425       -1187.085          45.501    21869840.624      128282.728        -886.439          41.207
G06  21839325.050      -54559.679        1433.642          35.198    21839309.760     -156833.701        1070.574          27.298
G17  22198512.989      -33659.524         888.328          21.091                                                            
G19  22600074.194      -55384.054        1464.664          30.481                                                            
G28  20307729.451      -24309.582         650.628          36.423                                                            
G30  23322851.026          11.717       -2875.119          22.801                                                            
J01  37248583.342        8840.991        -230.469          26.362    37248581.244       38411.092        -168.351          18.402
J02  35999018.698       10936.946        -285.187          32.382    35999012.702       49595.479        -209.251          16.449
J04  39339535.906      -24543.899         652.455          37.058    39339538.604     -105521.565         487.252          39.358
C01  36761365.436        2101.649         -68.555          18.019                                                            
C03  36145119.854          49.052         -52.683           7.000                                                            
C07  35980612.041       24442.591        -671.871          25.146                                                            
C08  36548376.086       26556.772        -695.988          31.297                                                            
C10  36028619.306        4042.681        -105.284          31.447                                                            
C13  37149684.808       15904.497        -425.825          34.611                                                            
C21  23873943.013      -84973.783        2546.139          27.981                                                            
C22  23559038.017      -19025.855         526.779          33.724                                                            
C24  23101749.292       28422.005       -1012.446          26.572                                                            
C26  24085424.707       77446.610       -2920.329          25.615                                                            
E13  24116467.317        8983.299        -742.136          21.822    24116464.019     -166902.568        -553.068          27.872
E14  19957765.227       18294.803       -3976.491          35.966    19957752.635      250575.813       -2972.158          40.144
E21  24204785.875       -8511.105         742.489          40.710    24204785.576      172775.770         554.483          40.658
E26  24493474.021       -7939.703         766.923          30.447    24493464.727      199090.241         572.684          29.551
E27  23941277.898       21502.664       -1966.253          29.404    23941262.609     -481715.111       -1468.278          31.115
> 2019 06 10 06 49 50.0004536  0 25
G03  21870066.668       46061.473       -1189.047          44.603    21870066.668      129170.695        -887.967          40.711
G06  21839049.541      -55991.577        1431.898          35.339    21839036.050     -157903.018        1069.317          25.753
G17  22198352.001      -34550.814         888.607          19.341                                                            
G19  22599793.588      -56847.599        1463.546          28.389                                                            
G28  20307608.335      -24958.477         648.895          38.519                                                            
G30  23323396.948          11.604       -2875.119          21.888                                                            
R14  20076868.873      -20660.877         510.418          39.913                                                            
J01  37248624.714        9072.020        -232.079          25.556    37248628.311       38583.665        -172.306          22.318
J02  35999070.862       11223.355        -286.409          31.486    35999063.367       49806.392        -208.642          17.193
J04  39339418.088      -25195.086         651.187          36.173    39339414.490     -106007.866         486.302          39.643
C01  36761393.317        2169.351         -69.379          12.968                                                            
C03  36145130.647          49.050         -52.683           7.000                                                            
C07  35980741.851       25115.882        -674.095          27.608                                                            
C08  36548508.294       27254.086        -697.314          30.517                                                            
C10  36028640.291        4149.346        -106.665          32.166                                                            
C13  37149760.656       16331.571        -427.074          34.613                                                            
C21  23873455.850      -87518.591        2544.808          28.771                                                            
C22  23558941.784      -19550.832         524.977          33.272                                                            
C24  23101952.551       29436.139       -1014.133          25.639                                                            
C26  24085984.720       80367.474       -2922.208          27.074                                                            
E13  24116598.027        9725.256        -741.957          26.708    24116605.521     -166348.568        -554.001          26.536
E14  19958522.502       22273.224       -3978.422          39.037    19958524.901      253546.708       -2971.342          41.493
E21  24204645.273       -9251.949         740.844          41.944    24204644.074      172222.529         553.240          40.691
E26  24493329.221       -8705.158         765.455          29.644    24493318.129      198518.565         571.676          30.267
E27  23941639.748       23470.502       -1967.839          32.981    23941637.050     -480245.624       -1469.488          30.858
> 2019 06 10 06 49 51.0004536  0 23
G01  23894708.438        6471.670       -3223.363          21.709    23894698.544        4826.413       -2414.189          21.073
G02  25044962.933       -4372.143        2185.998          26.366                                                            
G03  21870294.510       47251.117       -1189.644          44.799    21870293.011      130059.036        -888.341          40.794
G06  21838787.222      -57423.010        1431.433          35.148    21838766.237     -158971.887        1068.869          28.408
G17  22198162.232      -35445.292         890.684          19.930                                                            
G19  22599517.480      -58310.777        1463.178          30.668                                                            
G28  20307479.125      -25606.751         648.274          36.674                                                            
G30  23323972.850        2313.119       -2875.118          19.305    23323957.260       12822.473       -2136.593          19.172
R14  20076787.030      -21170.269         509.392          39.653                                                            
R23  22393033.326       49815.245       -1805.181          24.294                                                            
J01  37248663.987        9303.226        -230.557          24.674    37248672.381       38756.377        -172.713          21.766
J02  35999119.428       11510.053        -286.698          31.899    35999118.229       50011.724        -213.787          18.801
J04  39339289.477      -25846.451         651.365          36.585    39339290.676     -106494.202         486.336          39.602
C01  36761396.914        2240.038         -69.912          13.224                                                            
C03  36145157.328          91.899         -57.878           7.000                                                            
C07  35980873.160       25789.415        -674.119          25.297                                                            
C08  36548642.301       27950.907        -696.821          29.904                                                            
C10  36028660.977        4256.246        -106.900          31.239                                                            
C13  37149846.996       16758.758        -427.187          34.417                                                            
C21  23872961.493      -90063.151        2544.560          28.655                                                            
C22  23558836.857      -20075.331         524.499          34.878                                                            
C24  23102136.923       30450.932       -1014.793          26.750                                                            
C26  24086543.533       83288.292       -2920.818          28.138                                                            
> 2019 06 10 06 49 52.0004536  0 32
G01  23895360.786        9689.286       -3224.742          19.117    23895311.920        7230.342       -2412.622          16.021
G02  25044550.419       -6558.613        2186.470          25.587                                                            
G03  21870519.355       48440.841       -1189.724          45.367    21870519.654      130947.459        -888.423          40.110
G06  21838509.015      -58854.640        1431.630          35.619    21838492.226     -160040.959        1070.331          26.695
G07  24936362.216        6136.415       -3075.758          19.176                                                            
G09  25278793.256         -41.879        1309.267          10.431                                                            
G11  24239488.052        5154.465       -2577.156          22.114                                                            
G17  22198002.443      -36338.757         891.789          22.265                                                            
G19  22599238.373      -59774.692        1463.915          28.596                                                            
G22  23733310.671           4.436       -2447.803          18.291                                                            
G23  25580112.257         -32.186        1082.926           7.000                                                            
G28  20307360.407      -26255.163         648.412          38.794                                                            
G30  23324532.862        5184.371       -2874.080          23.743    23324505.281       14955.800       -2141.586          14.121
R14  20076684.800      -21679.375         509.106          40.157                                                            
R23  22393364.596       51619.596       -1806.583          23.584                                                            
J01  37248713.452        9533.772        -230.546          26.232    37248718.849       38928.523        -172.145          21.766
J02  35999175.789       11796.301        -286.248          30.956    35999176.689       50215.627        -212.022          19.598
J04  39339167.161      -26498.360         651.909          35.970    39339166.262     -106981.028         486.826          39.431
C01  36761427.493        2311.322         -69.354           8.172                                                            
C02  37228535.921           0.043         -21.463           7.000                                                            
C03  36145180.412         145.493         -57.861          20.840                                                            
C06  40196882.677          -9.797         807.804           7.000                                                            
C07  35981001.771       26462.507        -673.092          28.323                                                            
C08  36548776.908       28647.711        -696.804          30.320                                                            
C10  36028681.363        4362.797        -106.551          31.828                                                            
C11  25784639.366         -34.143        1229.267           7.000                                                            
C12  22802242.236           3.568        -392.195          19.491                                                            
C13  37149928.540       17185.533        -426.775          34.658                                                            
C21  23872476.728      -92608.169        2545.018          28.703                                                            
C22  23558740.623      -20599.896         524.564          34.158                                                            
C24  23102331.789       31465.530       -1012.766          23.933                                                            
C26  24087104.445       86208.311       -2920.018          27.526                                                            
> 2019 06 10 06 49 53.0004536  0 32
G01  23895999.644       12913.502       -3232.695          20.590    23895925.895        9640.262       -2420.377          11.898
G02  25044137.904       -8746.379        2187.766          24.414                                                            
G03  21870745.398       49629.518       -1188.678          44.609    21870746.597      131835.100        -887.641          40.330
G06  21838238.902      -60287.512        1432.872          35.607    21838219.715     -161111.051        1070.092          27.411
G07  24936954.905        9204.662       -3075.502          18.394                                                            
G09  25278543.528         -41.910        1309.267           7.000                                                            
G11  24239980.011        7729.442       -2576.758          19.696                                                            
G17  22197838.756      -37232.680         893.923          23.187                                                            
G19  22598961.964      -61240.218        1465.526          29.260                                                            
G22  23733776.848           4.341       -2448.778           7.000                                                            
G23  25579905.100         -32.211        1082.926          18.108                                                            
G28  20307237.192      -26904.778         649.615          37.593                                                            
G30  23325091.975        8061.276       -2879.696          22.017    23325048.505       17090.099       -2150.179          11.042
R14  20076606.854      -22189.441         510.066          40.075                                                            
R23  22393723.748       53422.253       -1804.241          23.858                                                            
J01  37248759.321        9763.131        -230.304          25.267    37248757.522       39099.626        -171.103          21.509
J02  35999232.150       12080.919        -284.618          31.449    35999227.953       50420.379        -214.028          20.455
J04  39339037.951      -27152.039         653.678          36.701    39339042.148     -107469.208         488.180          39.088
C01  36761435.588        2381.154         -70.251          14.985                                                            
C02  37228539.818           0.042         -21.463           7.000                                                            
C03  36145207.693         199.816         -54.802          20.620                                                            
C06  40196726.485          -9.816         807.804           7.000                                                            
C07  35981130.382       27134.211        -671.703          27.295                                                            
C08  36548911.815       29342.803        -695.092          30.504                                                            
C10  36028698.151        4467.709        -104.912          30.376                                                            
C11  25784402.530         -34.172        1229.267           7.000                                                            
C12  22802317.184           3.553        -392.195          20.512                                                            
C13  37150009.783       17610.454        -424.920          34.435                                                            
C21  23871982.970      -95154.689        2546.520          27.780                                                            
C22  23558636.895      -21125.712         525.816          35.268                                                            
C24  23102516.161       32478.923       -1013.935          24.679                                                            
C26  24087671.352       89127.191       -2918.881          25.995                                                            
> 2019 06 10 06 49 54.0004536  0 32
G01  23896628.009       16148.460       -3238.143          21.580    23896532.675       12048.495       -2409.764          12.640
G02  25043727.488      -10933.554        2190.042          22.973                                                            
G03  21870971.442       50819.408       -1189.889          43.811    21870972.341      132723.737        -888.637          40.645
G06  21837969.988      -61719.468        1431.956          33.702    21837948.703     -162180.150        1069.099          26.880
G07  24937537.102       12271.109       -3074.539          17.626                                                            
G09  25278292.602         -41.972        1311.218           7.000                                                            
G11  24240464.775       10306.101       -2578.293          18.918                                                            
G17  22197683.164      -38123.589         895.285          22.084                                                            
G19  22598681.658      -62705.255        1465.036          28.672                                                            
G22  23734241.227           4.397       -2446.827           7.000                                                            
G23  25579697.644         -32.266        1084.877          12.747                                                            
G28  20307114.277      -27553.126         648.347          38.119                                                            
G30  23325639.995       10937.457       -2877.739          23.612    23325590.230       19220.838       -2138.461          10.322
R14  20076515.418      -22697.749         508.309          40.821                                                            
R23  22394063.113       55219.896       -1801.091          22.240                                                            
J01  37248802.491        9992.521        -231.181          24.431    37248802.191       39271.096        -171.470          23.269
J02  35999277.719       12366.252        -285.333          32.106    35999287.012       50637.673        -213.486          20.454
J04  39338914.436      -27805.214         653.176          35.960    39338918.034     -107956.921         487.713          39.911
C01  36761447.280        2450.239         -70.251          13.444                                                            
C02  37228542.516           0.039         -19.512          15.428                                                            
C03  36145171.119         252.954         -54.628          20.214                                                            
C06  40196569.694          -9.846         809.755           7.000                                                            
C07  35981256.894       27806.538        -672.327          26.566                                                            
C08  36549043.124       30038.580        -695.778          30.170                                                            
C10  36028717.338        4573.593        -105.884          30.409                                                            
C11  25784164.494         -34.228        1231.218           7.000                                                            
C12  22802391.533           3.562        -392.195          19.103                                                            
C13  37150087.130       18036.489        -426.036          34.265                                                            
C21  23871493.409      -97700.603        2545.913          29.365                                                            
C22  23558536.165      -21650.338         524.626          33.988                                                            
C24  23102706.229       33492.967       -1011.774          22.702                                                            
C26  24088226.868       92046.750       -2919.559          27.915                                                            
> 2019 06 10 06 49 55.0004536  0 32
G01  23897251.877       19394.277       -3236.884          19.027    23897155.344       14464.334       -2403.571           7.588
G02  25043302.083      -13118.895        2185.341          26.313                                                            
G03  21871197.185       52011.530       -1192.122          44.173    21871198.984      133613.912        -890.175          40.625
G06  21837694.179      -63149.257        1429.789          34.316    21837674.393     -163247.790        1067.639          25.581
G07  24938150.178       15335.657       -3066.254          16.953                                                            
G09  25278041.976         -41.921        1311.218           7.000                                                            
G11  24240971.425       12884.678       -2581.107          19.775                                                            
G17  22197506.886      -39018.004         895.430          18.237                                                            
G19  22598401.952      -64168.213        1462.959          28.548                                                            
G22  23734706.205           4.302       -2447.803          10.946                                                            
G23  25579490.487         -32.223        1084.877           7.000                                                            
G28  20306991.063      -28199.345         646.220          38.867                                                            
G30  23326195.811       13815.457       -2878.257          23.998    23326145.446       21369.646       -2140.576           7.000
R14  20076405.094      -23203.551         505.802          40.971                                                            
R23  22394409.973       57016.497       -1804.702          20.216                                                            
J01  37248850.457       10224.065        -231.752          25.195    37248845.661       39443.945        -172.849          25.510
J02  35999332.581       12653.599        -287.346          30.524    35999337.977       50858.461        -213.093          21.946
J04  39338793.320      -28456.784         651.570          36.062    39338793.320     -108443.485         486.563          39.600
C01  36761463.468        2518.152         -68.299          12.153                                                            
C02  37228546.414           0.038         -19.512           7.000                                                            
C03  36145208.893         305.031         -52.894          21.972                                                            
C06  40196413.502          -9.815         809.755           7.000                                                            
C07  35981384.006       28480.828        -674.290          27.317                                                            
C08  36549178.930       30736.010        -697.429          30.716                                                            
C10  36028743.120        4681.289        -107.696          32.328                                                            
C11  25783927.658         -34.180        1231.218           7.000                                                            
C12  22802466.481           3.547        -392.195          12.776                                                            
C13  37150178.567       18464.120        -427.631          34.400                                                            
C21  23871003.848     -100244.425        2543.630          28.744                                                            
C22  23558428.539      -22172.984         522.646          31.349                                                            
C24  23102915.484       34509.287       -1015.795          22.105                                                            
C26  24088782.983       94968.142       -2921.392          29.666                                                            
> 2019 06 10 06 49 56.0004536  0 32
G01  23897862.854       22633.425       -3234.354          17.247    23897769.319       16873.859       -2391.757           7.000
G02  25042893.765      -15304.418        2185.523          27.784                                                            
G03  21871420.830       53203.472       -1191.942          43.685    21871426.526      134503.992        -890.080          41.040
G06  21837430.062      -64579.524        1430.267          35.944    21837405.179     -164315.930        1068.140          28.241
G07  24938706.293       18403.124       -3077.174          16.093                                                            
G09  25277793.748         -41.936        1310.243           7.000                                                            
G11  24241462.485       15462.343       -2580.968          20.011                                                            
G17  22197334.805      -39914.133         894.402          17.007                                                            
G19  22598142.032      -65632.248        1464.035          30.614                                                            
G22  23735173.581           4.361       -2449.754          16.221                                                            
G23  25579285.729         -32.220        1082.926           7.000                                                            
G28  20306865.749      -28845.936         646.591          37.311                                                            
G30  23326752.825       16693.407       -2876.693          23.153    23326690.168       23506.266       -2152.199           7.000
R14  20076321.452      -23709.345         505.794          41.217                                                            
R23  22394770.323       58818.165       -1803.351          18.871                                                            
J01  37248893.927       10454.894        -230.829          26.252    37248889.430       39616.132        -170.624          24.543
J02  35999399.434       12940.082        -286.483          31.300    35999393.738       51077.478        -211.382          21.675
J04  39338668.307      -29109.200         652.415          37.015    39338668.906     -108930.811         487.326          39.033
C01  36761480.557        2588.217         -68.299          17.608                                                            
C02  37228552.110           0.042         -21.463           7.000                                                            
C03  36145233.775         359.298         -53.188          20.686                                                            
C06  40196259.109          -9.834         809.755           7.000                                                            
C07  35981519.512       29154.304        -673.477          26.926                                                            
C08  36549310.839       31432.580        -696.571          30.798                                                            
C10  36028766.204        4788.170        -106.881          31.440                                                            
C11  25783692.921         -34.182        1229.267           7.000                                                            
C12  22802543.228           3.556        -392.195           7.000                                                            
C13  37150251.116       18890.863        -426.743          33.688                                                            
C21  23870510.989     -102788.983        2544.558          26.965                                                            
C22  23558328.409      -22695.955         522.970          32.313                                                            
C24  23103115.146       35525.538       -1016.251          26.257                                                            
C26  24089346.592       97888.539       -2917.683          28.603                                                            
> 2019 06 10 06 49 57.0004536  0 32
G01  23898473.231       25877.111       -3240.093          14.119    23898383.294       19280.680       -2409.764           7.966
G02  25042473.756      -17491.004        2186.586          26.772                                                            
G03  21871653.469       54394.767       -1191.295          42.798    21871652.870      135393.578        -889.586          42.153
G06  21837155.452      -66010.627        1431.104          34.685    21837131.169     -165384.470        1068.540          29.187
G07  24939289.689        3119.995       -3069.265          17.572                                                            
G09  25277544.020         -41.885        1310.243           7.000                                                            
G11  24241957.742       18038.743       -2577.046          23.573                                                            
G17  22197160.326      -40811.924         894.409          13.842                                                            
G19  22597862.325      -67097.445        1465.198          31.731                                                            
G22  23735640.658        1959.714       -2436.130          14.012                                                            
G23  25579079.772         -32.177        1082.926          11.660                                                            
G28  20306742.235      -29493.219         647.283          36.460                                                            
G30  23327303.544       19569.393       -2875.567          23.578    23327239.688       25645.946       -2136.593           7.000
R14  20076218.323      -24215.420         506.075          40.636                                                            
R23  22395124.378       60615.047       -1798.858          14.197                                                            
J01  37248936.498       10684.345        -229.451          30.230    37248932.601       39787.622        -171.490          28.032
J02  35999456.395       13225.418        -285.336          32.305    35999450.399       51290.796        -214.257          21.369
J04  39338545.991      -29763.073         653.873          39.153    39338545.692     -109419.073         488.262          40.671
C01  36761494.347        2658.656         -70.251          16.380                                                            
C02  37228556.007           0.043         -21.463           7.000                                                            
C03  36145235.874         413.926         -54.986          16.315                                                            
C06  40196103.217          -9.853         809.755           7.000                                                            
C07  35981642.727       29826.906        -672.801          26.811                                                            
C08  36549441.548       32128.044        -695.463          30.847                                                            
C10  36028784.492        4894.100        -105.929          31.821                                                            
C11  25783456.385         -34.134        1229.267           7.000                                                            
C12  22802618.776           3.565        -392.195          15.094                                                            
C13  37150339.255       19316.503        -425.640          35.271                                                            
C21  23870010.036     -105334.920        2545.774          24.555                                                            
C22  23558223.481      -23219.822         523.867          31.400                                                            
C24  23103313.309       36540.638       -1015.100          25.734                                                            
C26  24089878.424      100808.593       -2920.871          27.224                                                            
> 2019 06 10 06 49 58.0004536  0 32
G01  23899087.806       29123.664       -3253.074          11.109    23899004.164       21690.527       -2410.145           7.000
G02  25042060.342      -19677.429        2186.425          27.155                                                            
G03  21871874.416       55586.649       -1191.883          42.897    21871878.614      136283.625        -890.046          42.808
G06  21836881.142      -67441.349        1430.721          34.208    21836858.957     -166452.897        1068.427          29.292
G07  24939873.385        5569.456       -3069.265           7.000                                                            
G09  25277294.293         -41.946        1312.194           7.000                                                            
G11  24242443.406       20614.749       -2574.056          24.178                                                            
G17  22197016.725      -41711.688         892.997          16.082                                                            
G19  22597589.814      -68562.809        1465.363          33.861                                                            
G22  23736106.535        4411.447       -2451.719          13.972                                                            
G23  25578873.215         -32.232        1084.877           7.000                                                            
G28  20306621.718      -30140.125         646.906          35.829                                                            
G30  23327848.267       22445.194       -2876.749          23.061    23327784.111       27782.540       -2136.593           7.000
R14  20076120.891      -24720.924         505.504          39.308                                                            
R23  22395333.333       62408.889       -1799.768          17.702                                                            
J01  37248976.670       10913.869        -229.524          30.168    37248976.070       39958.966        -171.344          29.769
J02  35999513.056       13510.803        -285.385          33.296    35999502.263       51503.880        -214.883          20.754
J04  39338418.280      -30417.203         654.130          38.195    39338420.378     -109907.528         488.456          39.333
C01  36761509.636        2727.346         -70.251          11.328                                                            
C02  37228559.604           0.038         -19.512           7.000                                                            
C03  36145261.656         467.398         -54.542          16.167                                                            
C06  40195947.325          -9.833         811.707          11.024                                                            
C07  35981768.940       30499.260        -672.353          26.830                                                            
C08  36549575.256       32823.246        -695.203          30.810                                                            
C10  36028803.678        4999.920        -105.820          31.913                                                            
C11  25783219.549         -34.190        1231.218           7.000                                                            
C12  22802693.724           3.550        -392.195           7.000                                                            
C13  37150420.199       19741.931        -425.428          35.308                                                            
C21  23869526.171     -107880.607        2544.804          24.397                                                            
C22  23558118.554      -23743.122         523.300          30.955                                                            
C24  23103516.568       37556.518       -1015.879          27.705                                                            
C26  24090439.935      103728.253       -2919.661          27.901                                                            
> 2019 06 10 06 49 59.0004536  0 32
G01  23899644.520       32356.230       -3251.849          11.500    23899613.042       24097.224       -2408.106           7.000
G02  25041640.333      -21862.046        2184.617          27.117                                                            
G03  21872107.055       56780.666       -1194.017          43.662    21872106.456      137175.298        -891.673          40.652
G06  21836612.828      -68870.123        1428.774          33.853    21836588.844     -167519.965        1067.068          30.132
G07  24940457.081        8639.674       -3064.485           7.000                                                            
G09  25277044.566         -41.993        1313.169          13.771                                                            
G11  24242926.671       23192.583       -2580.398          22.271                                                            
G17  22196824.558      -42612.859         895.562          19.040                                                            
G19  22597300.514      -70026.754        1463.945          33.099                                                            
G22  23736592.199        6857.843       -2459.201          14.884                                                            
G23  25578666.058         -32.257        1084.877          14.803                                                            
G28  20306496.105      -30785.001         644.876          36.653                                                            
G30  23328399.285       25322.644       -2877.450          23.912    23328337.528       29919.406       -2136.593           7.000
R14  20076044.444      -25224.005         503.081          41.036                                                            
R23  22395781.823       64211.857       -1805.057          21.751                                                            
J01  37249019.540       11145.009        -231.140          28.559    37249019.840       40131.731        -172.724          25.921
J02  35999573.614       13797.550        -286.747          31.803    35999556.226       51718.300        -214.420          21.945
J04  39338295.065      -31069.773         652.570          36.930    39338295.964     -110394.799         487.270          39.400
C01  36761470.663        2795.348         -68.299          13.005                                                            
C02  37228563.502           0.039         -19.512           7.000                                                            
C03  36145270.050         519.370         -53.555          19.324                                                            
C06  40195791.732          -9.852         811.707          10.549                                                            
C07  35981902.048       31173.675        -674.415          26.123                                                            
C08  36549710.762       33520.074        -696.828          30.721                                                            
C10  36028825.563        5107.468        -107.548          31.381                                                            
C11  25782982.712         -34.219        1231.218           7.000                                                            
C12  22802769.271           3.559        -392.195           7.000                                                            
C13  37150501.443       20168.949        -427.019          34.744                                                            
C21  23869039.308     -110424.923        2543.679          26.673                                                            
C22  23558018.123      -24264.342         521.220          29.964                                                            
C24  23103708.435       38574.907       -1018.904          26.906                                                            
C26  24091023.631      106649.585       -2921.332          29.176                                                            
> 2019 06 10 06 50  0.0004536  0 32
G01  23900215.625       35578.072       -3232.243          12.874    23900238.409       26505.448       -2408.354           7.000
G02  25041229.917      -24045.922        2184.033          26.719                                                            
G03  21872332.799       57975.293       -1194.627          43.066    21872333.698      138067.364        -892.066          40.159
G06  21836353.507      -70298.536        1428.413          31.343    21836315.733     -168586.668        1066.702          30.938
G07  24941042.276        3120.019       -3069.265          13.871                                                            
G09  25276795.439         -41.910        1311.218           7.000                                                            
G11  24243428.823       25770.183       -2578.817          22.824                                                            
G17  22196682.456      -43514.251         894.378          17.488                                                            
G19  22597015.712      -71490.602        1463.848          32.352                                                            
G22  23737059.576        9307.295       -2449.123          15.222                                                            
G23  25578460.400        -898.666        1084.878           7.000                                                            
G28  20306375.289      -31429.418         644.418          36.503                                                            
G30  23328932.316       28200.050       -2877.571          23.603    23328899.339       32051.718       -2139.471          11.629
R14  20075945.812      -25726.080         502.075          40.949                                                            
R23  22396096.605       66015.212       -1806.309          22.876                                                            
J01  37249062.111       11376.301        -231.292          27.669    37249066.908       40304.439        -173.235          23.248
J02  35999608.989       14084.583        -287.034          32.636    35999611.388       51932.609        -214.309          22.800
J04  39338173.349      -31722.477         652.703          36.244    39338172.750     -110882.168         487.369          40.018
C01  36761484.754        2864.869         -68.299          14.330                                                            
C02  37228567.999           0.043         -21.463           7.000                                                            
C03  36145281.143         573.966         -52.341          14.273                                                            
C06  40195636.140          -9.808         809.755           7.000                                                            
C07  35982032.157       31847.948        -674.273          24.905                                                            
C08  36549846.268       34216.879        -696.805          30.387                                                            
C10  36028846.848        5215.145        -107.677          30.912                                                            
C11  25782746.776         -34.143        1229.267           7.000                                                            
C12  22802844.819           3.568        -392.195          13.837                                                            
C13  37150583.286       20596.032        -427.083          33.755                                                            
C21  23868555.443     -112969.018        2544.094          28.536                                                            
C22  23557915.894      -24785.200         520.858          28.665                                                            
C24  23103896.405       39593.093       -1018.444          23.769                                                            
C26  24091585.143      109570.842       -2921.257          30.083                                                            
> 2019 06 10 06 50  1.0004536  0 32
G01  23900893.756       38813.652       -3233.513          13.107    23900843.690       28912.121       -2398.655          10.579
G02  25040825.797      -26230.702        2184.779          24.722                                                            
G03  21872557.044       59170.286       -1194.993          42.918    21872561.241      138959.735        -892.370          40.238
G06  21836080.996      -71726.880        1428.344          31.385    21836044.421     -169653.281        1066.613          31.222
G07  24941625.972        3120.074       -3068.290           7.000                                                            
G09  25276545.412         -41.957        1312.194           7.000                                                            
G11  24243915.686       28347.629       -2574.164          22.650                                                            
G17  22196514.573      -44409.806         889.403          19.404                                                            
G19  22596733.907      -72954.661        1464.059          31.622                                                            
G22  23737537.445       11759.209       -2454.192          15.189                                                            
G23  25578254.143         -32.226        1083.901           7.000                                                            
G28  20306249.676      -32073.508         644.090          35.965                                                            
G30  23329479.138       31077.180       -2880.705          22.427    23329430.871       34188.525       -2134.878          14.141
R14  20075848.080      -26227.523         501.443          39.474                                                            
R23  22396439.867       67817.496       -1803.035          23.862                                                            
J01  37249100.484       11607.242        -230.743          26.707    37249110.677       40476.873        -172.897          22.811
J02  35999662.053       14371.557        -286.974          33.138    35999666.250       52146.844        -214.578          22.377
J04  39338048.935      -32375.489         653.012          35.681    39338048.036     -111369.803         487.636          40.268
C01  36761499.144        2935.688         -70.251           9.278                                                            
C02  37228573.095           0.042         -21.463           7.000                                                            
C03  36145288.338         628.861         -54.302          13.293                                                            
C06  40195481.147          -9.827         809.755           7.000                                                            
C07  35982158.670       32522.261        -674.313          25.334                                                            
C08  36549978.177       34913.494        -696.615          29.714                                                            
C10  36028865.735        5322.733        -107.588          29.286                                                            
C11  25782510.839         -34.172        1229.267          13.595                                                            
C12  22802920.966           3.553        -392.195          17.712                                                            
C13  37150666.029       21023.000        -426.967          33.516                                                            
C21  23868065.282     -115513.160        2544.142          28.569                                                            
C22  23557820.560      -25305.889         520.689          29.338                                                            
C24  23104074.782       40611.632       -1022.951          21.321                                                            
C26  24092145.755      112491.940       -2921.099          30.760                                                            
> 2019 06 10 06 50  2.0004536  0 32
G01  23901505.932       42049.613       -3238.451          13.603    23901455.866       31305.039       -2394.482          12.242
G02  25040405.788      -28414.967        2184.265          24.045                                                            
G03  21872789.083       60365.742       -1195.456          43.406    21872789.083      139852.444        -892.709          40.412
G06  21835807.585      -73154.897        1428.016          29.269    21835772.509     -170719.657        1066.376          30.954
G07  24942209.668        3120.146       -3068.290          13.871                                                            
G09  25276295.984         -41.987        1312.194          17.266                                                            
G11  24244410.644       30924.874       -2576.664          21.602                                                            
G17  22196316.710      -45296.830         893.946          18.970                                                            
G19  22596458.098      -74418.828        1464.167          31.330                                                            
G22  23738003.922       14210.972       -2451.463          15.365                                                            
G23  25578048.186         -32.251        1083.901          14.384                                                            
G28  20306131.258      -32717.233         643.725          37.241                                                            
G30  23330025.360       33954.226       -2877.046          23.156    23329975.294       36324.554       -2148.541           9.197
R14  20075747.649      -26728.125         500.602          39.815                                                            
R23  22396803.516       69620.187       -1797.787          22.850                                                            
J01  37249154.447       11838.306        -231.064          27.018    37249153.248       40649.330        -172.457          21.859
J02  35999714.516       14658.404        -286.847          32.592    35999721.411       52361.075        -214.232          22.941
J04  39337923.023      -33028.713         653.224          35.294    39337923.622     -111857.625         487.822          40.454
C01  36761512.634        3005.938         -70.251           7.000                                                            
C02  37228577.292           0.043         -21.463           7.000                                                            
C03  36145285.340         683.358         -54.466           8.242                                                            
C06  40195324.956          -9.846         809.755           7.258                                                            
C07  35982292.677       33196.411        -669.063          24.254                                                            
C08  36550113.083       35610.024        -696.530          29.712                                                            
C10  36028883.423        5430.506        -107.773          30.086                                                            
C11  25782274.603         -34.201        1229.267           7.000                                                            
C12  22802996.514           3.562        -392.195           7.000                                                            
C13  37150746.373       21449.937        -426.937          33.613                                                            
C21  23867578.719     -118057.342        2544.182          28.706                                                            
C22  23557713.834      -25826.091         520.888          26.754                                                            
C24  23104275.643       41630.542       -1016.941          20.773                                                            
C26  24092705.767      115413.021       -2921.081          31.328                                                            
> 2019 06 10 06 50  3.0004536  0 32
G01  23902122.005       45284.253       -3232.878          14.394    23902073.139       33720.684       -2379.066           7.191
G02  25039990.275      -30599.076        2184.109          25.642                                                            
G03  21873014.227       61561.680       -1195.938          43.280    21873016.326      140745.529        -893.085          40.570
G06  21835548.564      -74582.648        1427.752          29.489    21835501.197     -171785.746        1066.090          31.492
G07  24942793.663        3120.026       -3068.290          14.204                                                            
G09  25276045.358         -41.936        1312.194           7.000                                                            
G11  24244903.802       33501.884       -2577.425          23.560                                                            
G17  22196147.927      -46190.574         894.781          16.706                                                            
G19  22596182.588      -75883.001        1464.173          31.771                                                            
G22  23738471.898       16667.859       -2451.563          15.434                                                            
G23  25577842.228         -32.209        1083.901           7.000                                                            
G28  20306006.244      -33360.566         643.333          36.285                                                            
G30  23330577.277       36831.075       -2875.614          23.582    23330522.116       38459.160       -2136.631          12.455
R14  20075646.019      -27228.102         499.977          38.960                                                            
R23  22397112.602       71422.561       -1799.257          22.147                                                            
J01  37249194.319       12069.266        -230.960          26.706    37249201.215       40821.940        -173.000          22.826
J02  35999773.276       14945.317        -286.914          32.385    35999775.974       52575.334        -214.274          23.182
J04  39337798.609      -33682.196         653.483          35.260    39337799.508     -112345.577         487.951          40.305
C01  36761526.425        3076.189         -70.251           7.000                                                            
C02  37228581.190           0.042         -21.463           7.000                                                            
C03  36145267.352         737.706         -54.768           7.000                                                            
C06  40195169.363          -9.815         809.755           7.000                                                            
C07  35982417.691       33870.939        -673.810          24.165                                                            
C08  36550244.392       36306.341        -696.318          29.834                                                            
C10  36028902.910        5538.198        -107.692          29.658                                                            
C11  25782046.760         -34.153        1229.267           7.000                                                            
C12  22803072.062           3.547        -392.195          17.434                                                            
C13  37150828.517       21876.793        -426.856          33.265                                                            
C21  23867086.460     -120601.376        2544.034          28.333                                                            
C22  23557611.305      -26346.160         520.069          26.562                                                            
C24  23104455.218       42649.861       -1019.646          19.476                                                            
C26  24093265.180      118333.601       -2920.580          31.900                                                            
> 2019 06 10 06 50  4.0004536  0 32
G01  23902740.777       48521.195       -3235.311          14.322    23902677.820       36129.990       -2356.772           7.000
G02  25039568.467      -32783.090        2184.014          25.706                                                            
G03  21873244.768       62758.088       -1196.407          43.783    21873244.468      141638.924        -893.395          40.429
G06  21835277.852      -76010.201        1427.552          28.002    21835228.686     -172851.683        1065.937          30.400
G07  24943377.359        3120.098       -3068.290          15.036                                                            
G09  25275795.631         -41.983        1313.169           7.000                                                            
G11  24245396.961       36078.727       -2577.225          23.816                                                            
G17  22195973.148      -47087.555         892.720          14.838                                                            
G19  22595906.479      -77347.439        1464.439          31.773                                                            
G22  23738947.968       19120.824       -2448.682          15.123                                                            
G23  25577635.971         -32.234        1083.901          17.839                                                            
G28  20305884.828      -34003.533         642.967          37.221                                                            
G30  23331121.701       39707.961       -2876.886          24.371    23331065.639       40595.434       -2138.594           9.312
R14  20075560.279      -27727.217         499.115          40.564                                                            
R23  22397441.474       73224.472       -1798.719          21.658                                                            
J01  37249243.485       12300.085        -230.820          27.910    37249242.286       40994.292        -172.352          22.584
J02  35999830.236       15232.167        -286.850          31.245    35999831.136       52789.442        -214.107          23.223
J04  39337675.394      -34335.864         653.668          35.819    39337675.094     -112833.742         488.165          40.051
C01  36761595.977        3146.440         -70.251           7.000                                                            
C02  37228585.087           0.042         -21.463          20.889                                                            
C03  36145327.011         792.602         -54.641           9.659                                                            
C06  40195013.471          -9.834         809.755           7.000                                                            
C07  35982546.901       34545.172        -678.436          24.787                                                            
C08  36550380.198       37002.617        -696.276          29.903                                                            
C10  36028926.593        5646.072        -107.874          30.720                                                            
C11  25781801.830         -34.182        1229.267          19.089                                                            
C12  22803147.609           3.556        -392.195           7.000                                                            
C13  37150913.658       22303.570        -426.778          33.482                                                            
C21  23866605.293     -123145.589        2544.212          28.943                                                            
C22  23557519.868      -26865.645         519.485          25.674                                                            
C24  23104656.079       43669.374       -1023.265          19.417                                                            
C26  24093824.293      121254.476       -2920.875          31.953                                                            
> 2019 06 10 06 50  5.0004536  0 32
G01  23903349.655       51753.012       -3237.201          14.409    23903307.684       38530.225       -2409.764           7.000
G02  25039148.758      -34966.720        2183.631          26.475                                                            
G03  21873470.811       63955.196       -1197.109          43.775    21873472.010      142532.875        -893.951          39.980
G06  21834995.147      -77437.079        1426.878          27.258    21834957.973     -173917.318        1065.635          31.165
G07  24943960.755        3119.945       -3066.339          13.510                                                            
G09  25275545.904         -41.947        1314.145          14.682                                                            
G11  24245886.822       38655.578       -2575.751          22.904                                                            
G17  22195806.463      -47985.103         893.885          13.957                                                            
G19  22595630.670      -78811.671        1464.232          32.429                                                            
G22  23739419.242       21571.803       -2455.098          15.597                                                            
G23  25577429.714         -32.206        1084.877           7.000                                                            
G28  20305764.911      -34645.925         642.393          36.034                                                            
G30  23331675.117       42585.000       -2876.524          23.485    23331617.557       42729.212       -2128.381           7.000
R14  20075468.542      -28225.415         498.198          39.465                                                            
R23  22397771.845       75025.929       -1801.970          20.355                                                            
J01  37249288.154       12531.109        -231.024          28.542    37249286.356       41166.707        -172.415          22.706
J02  35999884.199       15519.295        -287.128          30.707    35999885.098       53003.938        -214.496          23.837
J04  39337550.680      -34989.528         653.665          36.668    39337550.680     -113321.878         488.136          39.590
C01  36761553.706        3214.741         -70.251           7.000                                                            
C02  37228589.284           0.039         -19.512           7.000                                                            
C03  36145338.103         845.691         -54.225          15.564                                                            
C06  40194857.579          -9.864         811.707           7.000                                                            
C07  35982678.210       35219.858        -678.644          24.600                                                            
C08  36550512.107       37698.921        -696.304          30.342                                                            
C10  36028948.778        5753.993        -107.921          29.834                                                            
C11  25781565.294         -34.134        1229.267           7.000                                                            
C12  22803222.857           3.557        -390.244           7.000                                                            
C13  37150994.602       22730.439        -426.868          33.220                                                            
C21  23866119.030     -125689.490        2543.901          29.517                                                            
C22  23557418.539      -27385.140         515.801          24.656                                                            
C24  23104852.144       44690.162       -1019.906          16.948                                                            
C26  24094381.007      124175.660       -2921.184          30.879                                                            
> 2019 06 10 06 50  6.0004536  0 32
G01  23903966.628       54990.802       -3228.913          14.558    23903921.659       40939.989       -2409.764           7.000
G02  25038738.342      -37150.231        2183.511          25.938                                                            
G03  21873699.853       65152.787       -1197.591          43.180    21873699.853      143427.166        -894.290          40.374
G06  21834718.439      -78864.272        1427.990          25.833    21834686.661     -174982.774        1065.456          30.734
G07  24944545.950        3120.017       -3066.339          17.058                                                            
G09  25275296.177         -41.993        1315.121          14.803                                                            
G11  24246379.980       41236.729       -2581.011          22.665                                                            
G17  22195527.656      -48880.465         891.614          13.542                                                            
G19  22595352.463      -80276.270        1464.599          33.042                                                            
G22  23739889.017       24024.023       -2449.126          15.735                                                            
G23  25577223.756         -32.246        1085.853           7.000                                                            
G28  20305640.198      -35287.986         642.061          36.265                                                            
G30  23332217.442       45461.720       -2876.720          24.113    23332161.980       44865.795       -2123.388           7.000
R14  20075372.009      -28722.991         497.577          40.169                                                            
R23  22398076.434       76823.718       -1800.992          16.696                                                            
J01  37249332.224       12762.006        -230.897          28.850    37249331.924       41339.166        -172.459          22.370
J02  35999937.862       15806.202        -286.907          30.724    35999939.660       53218.234        -214.296          23.450
J04  39337428.065      -35643.528         654.000          37.271    39337426.566     -113810.239         488.361          39.479
C01  36761567.796        3283.038         -68.299           7.000                                                            
C02  37228594.081           0.038         -19.512           7.000                                                            
C03  36145343.200         897.676         -52.690          19.424                                                            
C06  40194702.287          -9.833         811.707           7.000                                                            
C07  35982809.519       35894.296        -673.572          25.310                                                            
C08  36550643.116       38395.070        -696.148          29.851                                                            
C10  36028967.365        5861.949        -107.956          29.807                                                            
C11  25781329.357         -34.162        1229.267           7.000                                                            
C12  22803299.005           3.542        -390.244           7.000                                                            
C13  37151077.045       23157.221        -426.783          33.820                                                            
C21  23865633.666     -128233.510        2544.020          30.053                                                            
C22  23557316.909      -27903.608         518.468          25.843                                                            
C24  23105041.313       45712.570       -1017.393          18.248                                                            
C26  24094936.523      127096.842       -2921.182          29.718                                                            
> 2019 06 10 06 50  7.0004536  0 32
G01  23904609.683       58220.700       -3232.276          14.249    23904539.532       43349.753       -2409.764           7.000
G02  25038331.824      -39333.412        2183.180          24.783                                                            
G03  21873927.695       66350.879       -1198.092          42.934    21873928.594      144321.904        -894.738          40.966
G06  21834468.712      -80296.855        1427.034          24.153    21834416.248     -176047.917        1065.143          31.395
G07  24945129.646        5570.029       -3066.338           7.000                                                            
G09  25275046.449         -42.024        1315.121           9.023                                                            
G11  24246866.244       43820.372       -2577.314          24.197                                                            
G17  22195381.357      -49744.815         889.709          15.251                                                            
G19  22595073.356      -81740.569        1464.299          33.767                                                            
G22  23740355.494       26475.495       -2451.533          15.888                                                            
G23  25577017.499         -32.272        1085.853          19.391                                                            
G28  20305515.784      -35929.541         641.554          36.241                                                            
G30  23332762.165       48338.622       -2876.715          24.131    23332713.299       46999.773       -2136.593           7.000
R14  20075274.577      -29219.685         496.694          38.754                                                            
R23  22398423.594       78621.385       -1802.500          18.090                                                            
J01  37249375.994       12993.150        -231.143          28.366    37249379.291       41511.903        -173.849          22.594
J02  35999991.524       16093.334        -287.133          31.802    35999993.023       53432.576        -214.342          22.831
J04  39337301.553      -36297.568         654.040          37.145    39337301.853     -114298.689         488.451          40.029
C01  36761581.587        3351.338         -68.299           7.000                                                            
C02  37228598.578           0.039         -19.512           7.000                                                            
C03  36145351.594         950.904         -52.690          17.895                                                            
C06  40194546.694          -9.852         811.707          11.612                                                            
C07  35982937.830       36569.106        -672.559          24.639                                                            
C08  36550777.423       39091.286        -696.217          30.310                                                            
C10  36028987.451        5969.990        -108.041          29.837                                                            
C11  25781093.720         -34.191        1229.267           7.000                                                            
C12  22803374.552           3.551        -390.244           7.000                                                            
C13  37151157.689       23583.993        -426.771          33.532                                                            
C21  23865142.905     -130777.266        2543.756          29.260                                                            
C22  23557226.372      -28422.153         521.291          25.875                                                            
C24  23105234.379       46731.629       -1017.998          16.680                                                            
C26  24095508.527      130018.197       -2921.355          33.329                                                            
> 2019 06 10 06 50  8.0004536  0 32
G01  23905226.956       61454.691       -3231.812          13.904    23905153.507       45759.517       -2409.764          11.112
G02  25037918.710      -41516.634        2183.222          27.235                                                            
G03  21874156.437       67549.502       -1198.623          43.220    21874155.537      145216.963        -895.059          41.193
G06  21834185.108      -81722.797        1425.629          25.812    21834143.437     -177112.887        1064.970          31.698
G07  24945712.143        3119.953       -3065.363          14.998                                                            
G09  25274795.823         -41.973        1315.121          17.858                                                            
G11  24247355.505       46396.891       -2576.860          23.841                                                            
G17  22195232.061      -50637.452         892.637          25.061                                                            
G19  22594799.945      -83205.176        1464.608          35.445                                                            
G22  23740821.971       28928.803       -2453.725          15.557                                                            
G23  25576810.343        -900.999        1085.853           7.000                                                            
G28  20305393.169      -36570.739         641.199          35.331                                                            
G30  23333311.085       51215.190       -2876.438          21.758    23333258.022       49136.366       -2136.593           7.000
R14  20075177.444      -29715.522         495.837          37.116                                                            
R23  22398765.957       80419.822       -1802.835          17.583                                                            
J01  37249411.369       13224.015        -230.865          27.246    37249425.759       41683.598        -169.486          22.445
J02  36000048.185       16380.409        -289.509          28.191    36000044.288       53647.007        -214.431          23.051
J04  39337174.141      -36951.883         654.315          36.566    39337177.439     -114787.269         488.580          40.093
C01  36761640.346        3419.637         -68.299          17.636                                                            
C02  37228602.475           0.039         -19.512           7.000                                                            
C03  36145359.388        1003.334         -52.690          16.973                                                            
C06  40194390.502          -9.820         811.707           7.000                                                            
C07  35983061.345       37243.907        -674.800          25.920                                                            
C08  36550913.229       39787.240        -695.954          29.696                                                            
C10  36029007.537        6078.165        -108.174          29.535                                                            
C11  25780856.584         -34.143        1229.267           8.545                                                            
C12  22803450.100           3.560        -390.244           7.467                                                            
C13  37151238.333       24010.746        -426.753          34.295                                                            
C21  23864648.847     -133321.237        2543.971          27.633                                                            
C22  23557113.350      -28939.273         520.019          24.335                                                            
C24  23105417.252       47746.356       -1016.664          18.225                                                            
C26  24096065.841      132939.265       -2921.068          31.962                                                            
> 2019 06 10 06 50  9.0004536  0 32
G01  23905842.430       64688.597       -3231.969          13.705    23905767.781       48169.280       -2409.764           7.978
G02  25037501.099      -43699.787        2183.153          28.643                                                            
G03  21874386.078       68748.581       -1199.079          43.459    21874383.379      146112.349        -895.386          40.729
G06  21833899.406      -83148.385        1430.413          21.827    21833872.425     -178177.573        1064.686          31.315
G07  24946295.839        3120.025       -3065.363          15.766                                                            
G09  25274544.897         -42.019        1316.096           7.000                                                            
G11  24247854.660       48973.058       -2572.804          21.773                                                            
G17  22195030.600      -51532.740         892.513          22.406                                                            
G19  22594520.839      -84669.934        1464.758          34.760                                                            
G22  23741295.643       31379.002       -2452.484          15.898                                                            
G23  25576604.385         -32.255        1085.853           9.847                                                            
G28  20305272.053      -37211.539         640.800          36.773                                                            
G30  23333856.108       54091.743       -2876.553          23.198    23333803.944       51273.592       -2136.593           7.000
R14  20075101.896      -30210.583         495.061          39.541                                                            
R23  22399122.110       82220.654       -1806.205          18.887                                                            
J01  37249459.036       13454.647        -230.632          27.146    37249464.732       41847.116        -172.556          22.024
J02  36000104.246       16667.446        -287.037          29.376    36000104.846       53861.253        -214.535          21.931
J04  39337050.926      -37606.453         654.570          36.271    39337052.425     -115276.057         488.788          40.041
C01  36761608.568        3487.937         -68.299          12.584                                                            
C02  37228606.672           0.038         -19.512          12.187                                                            
C03  36145360.588        1055.623         -52.690          18.423                                                            
C06  40194233.711          -9.851         813.658          11.024                                                            
C07  35983196.851       37918.552        -674.644          24.241                                                            
C08  36551047.836       40483.210        -695.970          30.861                                                            
C10  36029028.822        6186.373        -108.208          30.076                                                            
C11  25780620.348         -34.172        1229.267           7.000                                                            
C12  22803525.048           3.545        -390.244           7.000                                                            
C13  37151325.273       24437.503        -426.757          33.516                                                            
C21  23864174.876     -135865.156        2543.919          30.330                                                            
C22  23557065.083      -29456.249         517.550          26.819                                                            
C24  23105664.581       48759.430       -1018.083          20.529                                                            
C26  24096629.451      135860.198       -2920.933          31.493                                                            
> 2019 06 10 06 50 10.0004536  0 32
G01  23906439.616       67915.555       -3239.820          13.475    23906378.459       50579.044       -2409.764           7.000
G02  25037082.888      -45882.375        2182.588          26.220                                                            
G03  21874613.620       69948.522       -1199.941          43.190    21874612.721      147008.439        -896.090          41.150
G06  21833626.895      -84577.990        1431.883          20.993    21833601.112     -179241.954        1064.382          31.018
G07  24946879.834        3120.096       -3065.363          13.116                                                            
G09  25274294.270         -42.050        1316.096           7.000                                                            
G11  24248344.520       51549.824       -2580.345          21.821                                                            
G17  22194875.008      -52428.851         893.049          19.289                                                            
G19  22594240.233      -86134.445        1464.510          34.513                                                            
G22  23741767.516       33834.695       -2457.080          16.249                                                            
G23  25576397.229         -32.280        1085.853           7.000                                                            
G28  20305151.836      -37851.689         640.149          36.378                                                            
G30  23334407.426       56968.487       -2876.744          24.191    23334356.761       53409.861       -2130.305           7.000
R14  20075003.264      -30704.791         494.208          39.085                                                            
R23  22399448.584       84021.669       -1800.371          19.794                                                            
J01  37249511.500       13685.847        -231.199          27.197    37249507.602       42020.029        -170.526          22.086
J02  36000155.511       16954.716        -287.270          30.696    36000157.909       54075.872        -214.619          22.444
J04  39336929.810      -38260.851         654.398          36.899    39336928.011     -115764.725         488.668          39.959
C01  36761622.358        3556.236         -68.299           7.533                                                            
C02  37228610.569           0.039         -19.512           7.000                                                            
C03  36145374.078        1108.644         -52.690          13.755                                                            
C06  40194077.519          -9.870         813.658          12.952                                                            
C07  35983327.261       38593.716        -675.128          24.072                                                            
C08  36551183.043       41179.253        -696.043          31.310                                                            
C10  36029046.210        6294.829        -108.456          29.719                                                            
C11  25780383.812         -34.201        1229.267           7.000                                                            
C12  22803599.996           3.554        -390.244          15.059                                                            
C13  37151402.619       24864.262        -426.759          33.189                                                            
C21  23863683.516     -138408.766        2543.610          30.374                                                            
C22  23556959.256      -29973.319         517.070          28.709                                                            
C24  23105894.222       49777.248       -1023.820          19.761                                                            
C26  24097186.465      138781.682       -2921.484          31.550                                                            
> 2019 06 10 06 50 11.0004536  0 32
G01  23906988.836       71155.175       -3224.695          12.806    23906993.033       52988.808       -2409.764           7.000
G02  25036666.476      -48064.944        2182.569          26.557                                                            
G03  21874844.460       71148.818       -1200.296          43.836    21874840.563      147904.743        -896.304          40.805
G06  21833323.505      -86007.960        1427.096          20.480    21833330.100     -180306.040        1064.086          30.999
G07  24947463.231        3119.960       -3064.387           7.000                                                            
G09  25274044.843         -41.998        1316.096          12.414                                                            
G11  24248832.583       54125.667       -2575.659          21.046                                                            
G17  22194702.627      -53318.844         895.659          20.744                                                            
G19  22593965.923      -87599.078        1464.634          34.881                                                            
G22  23742230.096       36282.919       -2456.283          15.965                                                            
G23  25576190.971         -32.238        1085.853           7.000                                                            
G28  20305029.820      -38491.480         639.792          36.439                                                            
G30  23334960.543       59845.028       -2876.369          23.794    23334902.383       55549.167       -2127.847           7.000
R14  20074910.928      -31198.052         493.261          38.715                                                            
R23  22399848.807       85824.074       -1796.480          18.620                                                            
J01  37249552.272       13916.836        -230.989          26.743    37249550.473       42192.545        -172.235          22.274
J02  36000216.069       17242.013        -287.297          30.391    36000210.973       54290.293        -214.421          23.522
J04  39336803.298      -38915.576         654.724          36.182    39336803.897     -116253.627         488.901          39.968
C01  36761692.210        3624.536         -68.299           9.582                                                            
C02  37228615.066           0.038         -19.512           7.000                                                            
C03  36145392.366        1161.097         -52.690          17.532                                                            
C06  40193921.927          -9.838         813.658           7.000                                                            
C07  35983451.975       39268.696        -671.637          24.258                                                            
C08  36551314.651       41875.232        -695.979          31.017                                                            
C10  36029067.496        6403.407        -108.579          30.115                                                            
C11  25780148.175         -34.153        1229.267           8.853                                                            
C12  22803676.144           3.539        -390.244           7.000                                                            
C13  37151484.462       25291.178        -426.916          33.455                                                            
C21  23863196.353     -140952.385        2543.619          30.061                                                            
C22  23556857.327      -30490.092         516.773          30.254                                                            
C24  23106129.559       50807.336       -1025.877          20.939                                                            
C26  24097748.276      141702.928       -2921.246          32.322                                                            
> 2019 06 10 06 50 12.0004536  0 32
G01  23907603.411       74387.486       -3230.503          12.135    23907593.218       55398.572       -2409.764           7.000
G02  25036243.469      -50247.081        2182.137          28.105                                                            
G03  21875071.103       72349.913       -1201.094          43.986    21875069.604      148801.671        -896.928          40.732
G06  21833062.086      -87440.332        1423.060          21.776    21833057.889     -181369.901        1063.861          30.440
G07  24948046.027        3120.032       -3064.387          10.320                                                            
G09  25273793.917         -42.045        1317.072           7.000                                                            
G11  24249317.947       56702.034       -2578.750          20.120                                                            
G17  22194539.840      -54212.641         898.757          20.811                                                            
G19  22593686.516      -89063.678        1464.600          34.795                                                            
G22  23742694.774       38739.999       -2456.535          15.547                                                            
G23  25575985.014         -32.263        1085.853           7.000                                                            
G28  20304904.807      -39130.698         639.217          37.035                                                            
G30  23335502.568       62721.843       -2876.815          25.079    23335449.804       57685.901       -2128.914           7.000
R14  20074815.594      -31690.514         492.462          39.839                                                            
R23  22400155.795       87625.202       -1801.459          19.963                                                            
J01  37249599.939       14148.082        -231.246          27.018    37249597.840       42365.138        -171.866          21.301
J02  36000265.835       17529.449        -287.436          30.170    36000265.835       54504.986        -214.693          23.329
J04  39336676.486      -39570.225         654.649          35.806    39336678.584     -116742.526         488.899          39.979
C01  36761649.640        3692.835         -68.299           7.000                                                            
C02  37228619.563           0.038         -19.512           7.000                                                            
C03  36145404.357        1213.893         -52.690          16.702                                                            
C06  40193766.335          -9.857         813.658           7.000                                                            
C07  35983579.986       39944.243        -676.078          24.108                                                            
C08  36551450.158       42571.234        -696.002          31.456                                                            
C10  36029091.179        6512.106        -108.698          30.691                                                            
C11  25779911.039         -34.182        1229.267           7.000                                                            
C12  22803751.691           3.548        -390.244          15.624                                                            
C13  37151571.702       25718.069        -426.891          33.793                                                            
C21  23862714.586     -143495.813        2543.427          30.221                                                            
C22  23556754.198      -31006.268         516.176          30.904                                                            
C24  23106312.133       51835.793       -1024.817          23.154                                                            
C26  24098307.989      144624.478       -2921.549          32.708                                                            
> 2019 06 10 06 50 13.0004536  0 32
G01  23908219.484       77617.591       -3244.263          11.436    23908231.776       57808.335       -2409.764           7.000
G02  25035826.458      -52429.258        2181.881          25.298                                                            
G03  21875300.744       73551.301       -1201.389          43.214    21875298.346      149698.802        -897.131          41.023
G06  21832797.369      -88869.626        1422.676          25.706    21832789.274     -182433.534        1063.632          31.165
G07  24948629.723        3119.912       -3064.387          19.999                                                            
G09  25273542.990         -41.993        1317.072           8.544                                                            
G11  24249820.998       59277.726       -2579.894          20.278                                                            
G17  22194361.763      -55113.864         894.548          20.908                                                            
G19  22593408.009      -90528.603        1464.925          34.425                                                            
G22  23743142.964       41193.935       -2455.878          14.920                                                            
G23  25575777.857         -32.221        1085.853           7.000                                                            
G28  20304787.888      -39769.639         638.942          36.777                                                            
G30  23336048.190       65598.347       -2876.504          25.495    23335997.525       59820.203       -2138.899           9.872
R14  20074724.158      -32182.278         491.764          38.802                                                            
R23  22400439.398       89425.514       -1804.073          20.776                                                            
J01  37249639.511       14378.939        -230.857          25.638    37249638.312       42537.776        -172.806          21.054
J02  36000322.196       17816.735        -287.286          30.828    36000321.596       54719.568        -214.709          23.138
J04  39336554.470      -40225.282         655.057          35.615    39336554.170     -117231.672         489.146          40.238
C01  36761711.996        3761.134         -68.299           7.000                                                            
C02  37228623.760           0.039         -19.512           7.000                                                            
C03  36145416.349        1266.070         -52.690          15.947                                                            
C06  40193609.843          -9.876         813.658           7.000                                                            
C07  35983709.496       40619.438        -675.195          24.789                                                            
C08  36551584.764       43266.974        -695.740          31.403                                                            
C10  36029109.766        6620.712        -108.606          30.351                                                            
C11  25779674.803         -34.134        1229.267           7.000                                                            
C12  22803826.639           3.557        -390.244           9.139                                                            
C13  37151652.946       26144.788        -426.719          33.215                                                            
C21  23862220.828     -146039.369        2543.556          29.532                                                            
C22  23556650.770      -31522.351         516.083          31.085                                                            
C24  23106522.887       52859.061       -1023.575          23.694                                                            
C26  24098868.001      147545.818       -2921.341          33.223                                                            
> 2019 06 10 06 50 14.0004536  0 32
G01  23908834.958       80844.513       -3241.225          10.929    23908845.751       60218.099       -2409.764           7.000
G02  25035411.845      -54611.149        2181.693          26.090                                                            
G03  21875529.486       74753.313       -1202.012          43.231    21875527.687      150596.411        -897.609          40.916
G06  21832524.858      -90293.590        1423.964          26.232    21832517.063     -183496.883        1063.349          30.967
G07  24949217.316        5570.771       -3059.693          13.749                                                            
G09  25273292.364         -42.024        1317.072           7.000                                                            
G11  24250311.459       61853.371       -2579.438          19.974                                                            
G17  22194207.670      -56007.888         893.849          22.918                                                            
G19  22593125.305      -91993.400        1464.797          33.838                                                            
G22  23743596.850       43653.811       -2448.600          14.333                                                            
G23  25575571.900         -32.246        1085.853           7.000                                                            
G28  20304665.872      -40408.073         638.433          36.408                                                            
G30  23336590.814       68474.797       -2876.450          25.179    23336541.948       61956.806       -2143.415           8.609
R14  20074634.220      -32673.218         490.940          39.412                                                            
R23  22400815.638       91224.358       -1802.242          19.881                                                            
J01  37249684.180       14610.050        -231.111          26.679    37249685.379       42710.278        -172.268          21.799
J02  36000377.058       18104.090        -287.355          31.355    36000377.657       54934.132        -214.564          24.273
J04  39336431.855      -40880.432         655.151          36.535    39336430.056     -117720.872         489.200          40.159
C01  36761729.085        3829.434         -68.299           7.000                                                            
C02  37228628.257           0.038         -19.512           7.000                                                            
C03  36145428.640        1318.848         -52.690          11.607                                                            
C06  40193453.651          -9.844         813.658           7.000                                                            
C07  35983842.005       41294.768        -675.226          24.329                                                            
C08  36551716.673       43962.751        -695.777          31.033                                                            
C10  36029131.951        6729.498        -108.786          30.259                                                            
C11  25779438.866         -34.162        1229.267           7.000                                                            
C12  22803902.187           3.542        -390.244           7.000                                                            
C13  37151733.590       26571.627        -426.839          32.925                                                            
C21  23861733.965     -148582.758        2543.389          30.134                                                            
C22  23556553.038      -32037.847         515.496          31.751                                                            
C24  23106714.454       53882.933       -1021.288          23.368                                                            
C26  24099429.812      150467.306       -2921.488          33.152                                                            
> 2019 06 10 06 50 15.0004536  0 32
G01  23909403.964       84081.568       -3235.316          10.444    23909463.323       62627.863       -2409.764           7.000
G02  25035001.129      -56792.966        2181.817          27.434                                                            
G03  21875757.029       75955.824       -1202.511          43.930    21875755.530      151494.392        -897.981          41.078
G06  21832258.942      -91717.389        1423.798          26.424    21832245.451     -184560.060        1063.177          30.309
G07  24949820.199        8628.374       -3058.072          13.279                                                            
G09  25273042.637         -42.071        1318.047           7.000                                                            
G11  24250793.225       64434.082       -2576.657          19.155                                                            
G17  22194041.585      -56902.137         898.293          22.922                                                            
G19  22592848.297      -93458.315        1464.915          33.934                                                            
G22  23744047.738       46106.445       -2456.408          13.555                                                            
G23  25575365.643         -32.272        1085.853           7.000                                                            
G28  20304544.756      -41046.111         638.039          37.091                                                            
G30  23337147.229       71351.226       -2876.429          25.867    23337095.365       64094.819       -2136.593           7.000
R14  20074531.391      -33163.302         490.084          39.481                                                            
R23  22401153.204       93024.378       -1797.538          22.073                                                            
J01  37249731.547       14840.996        -230.766          26.821    37249724.952       42882.673        -172.395          22.186
J02  36000432.519       18391.522        -287.432          31.458    36000432.219       55148.786        -214.654          24.970
J04  39336307.441      -41535.796         655.364          36.551    39336304.743     -118210.265         489.393          40.303
C01  36761691.011        3897.733         -68.299           7.000                                                            
C02  37228632.154           0.039         -19.512           7.000                                                            
C03  36145395.064        1371.707         -52.690          18.397                                                            
C06  40193298.059          -9.863         813.658           7.000                                                            
C07  35983971.815       41970.133        -676.063          22.953                                                            
C08  36551848.582       44658.451        -695.699          31.104                                                            
C10  36029151.437        6838.388        -108.890          30.639                                                            
C11  25779202.629         -34.191        1229.267           7.000                                                            
C12  22803978.334           3.551        -390.244           7.000                                                            
C13  37151815.733       26998.382        -426.755          32.231                                                            
C21  23861243.805     -151126.218        2543.460          30.136                                                            
C22  23556448.410      -32553.631         515.784          32.089                                                            
C24  23106903.623       54906.865       -1021.942          24.337                                                            
C26  24099988.625      153388.601       -2921.294          33.355                                                            
> 2019 06 10 06 50 16.0004536  0 33
G01  23910065.006        3300.486       -3232.192           9.720                                                            
G02  25034583.219      -58974.376        2181.410          28.539                                                            
G03  21875985.770       77158.938       -1203.114          44.049    21875984.271      152392.840        -898.448          40.671
G06  21831992.126      -93140.666        1423.278          26.248    21831975.038     -185622.917        1062.857          30.111
G07  24950409.291       11686.061       -3067.268          13.545                                                            
G09  25272792.010         -42.019        1318.047          12.747                                                            
G11  24251279.788       67009.758       -2574.765          20.146                                                            
G17  22193901.582      -57796.521         895.072          21.837                                                            
G19  22592570.989      -94923.230        1464.915          33.886                                                            
G22  23744516.014       48566.334       -2454.791          12.697                                                            
G23  25575159.685         -32.229        1085.853           7.000                                                            
G28  20304423.340      -41683.711         637.600          37.201                                                            
G30  23337689.554       74227.649       -2876.424          26.361    23337641.887       66233.285       -2138.003           7.000
R14  20074446.850      -33652.567         489.266          40.090                                                            
R23  22401496.467       94824.271       -1795.571          22.806                                                            
J01  37249772.319       15072.291        -231.295          26.179    37249769.321       43055.364        -173.289          22.287
J02  36000484.983       18679.060        -287.538          31.315    36000487.981       55363.561        -214.774          24.777
J04  39336180.629      -42191.158         655.362          36.308    39336180.029     -118699.727         489.462          40.652
C01  36761705.401        3966.033         -68.299           7.000                                                            
C02  37228636.951           0.039         -19.512           7.000                                                            
C03  36145405.856        1424.697         -52.690          17.323                                                            
C06  40193141.867          -9.832         813.658           7.000                                                            
C07  35984095.329       42645.901        -677.026          23.045                                                            
C08  36551979.591       45354.129        -695.678          30.639                                                            
C10  36029175.721        6947.223        -108.834          30.724                                                            
C11  25778966.093         -34.143        1229.267           7.000                                                            
C12  22804053.882           3.560        -390.244          15.094                                                            
C13  37151899.975       27425.097        -426.715          32.507                                                            
C21  23860753.644     -153669.449        2543.231          29.948                                                            
C22  23556345.282      -33068.390         514.759          31.733                                                            
C24  23107095.790       55931.443       -1024.463          25.181                                                            
C25  25319032.598       -3072.415        1525.846          17.121                                                            
C26  24100547.438      156310.220       -2921.619          33.628                                                            
> 2019 06 10 06 50 17.0004536  0 33
G01  23910681.080        3300.562       -3232.192          17.105                                                            
G02  25034175.201      -61155.832        2181.456          27.106                                                            
G03  21876216.011       78362.446       -1203.508          43.334    21876214.212      153291.559        -898.719          41.321
G06  21831714.219      -94563.850        1423.183          27.766    21831704.326     -186685.694        1062.778          30.430
G07  24950990.589       14749.702       -3072.163          13.296                                                            
G09  25272541.384         -42.050        1318.047           7.000                                                            
G11  24251775.345       69584.686       -2573.029          19.212                                                            
G17  22193718.408      -58691.445         891.203          20.226                                                            
G19  22592294.880      -96388.415        1465.185          35.128                                                            
G22  23744983.090       51023.094       -2461.752          11.975                                                            
G23  25574952.529         -32.255        1085.853           7.000                                                            
G28  20304301.025      -42320.946         637.235          36.679                                                            
G30  23338231.878       77103.862       -2876.213          25.667    23338186.610       68367.959       -2134.497           7.373
R14  20074355.413      -34141.135         488.567          39.678                                                            
R23  22401843.926       96623.655       -1796.376          21.223                                                            
J01  37249814.290       15303.110        -230.819          27.553    37249818.187       43227.755        -171.732          21.446
J02  36000538.945       18966.427        -287.368          30.877    36000542.543       55578.066        -213.973          24.650
J04  39336055.316      -42846.944         655.786          36.966    39336055.316     -119189.398         489.671          40.254
C01  36761718.892        4034.332         -68.299           7.000                                                            
C02  37228641.448           0.038         -19.512           7.000                                                            
C03  36145461.917        1477.476         -52.690          12.272                                                            
C06  40192985.375          -9.851         813.658           9.537                                                            
C07  35984232.634       43321.267        -673.778          24.168                                                            
C08  36552115.097       46049.646        -695.517          30.458                                                            
C10  36029191.610        7056.164        -108.942          30.383                                                            
C11  25778730.456         -34.172        1229.267          11.532                                                            
C12  22804128.830           3.545        -390.244           7.000                                                            
C13  37151975.822       27851.694        -426.597          33.247                                                            
C21  23860260.186     -156212.812        2543.363          29.399                                                            
C22  23556248.449      -33582.777         514.387          32.081                                                            
C24  23107286.159       56956.321       -1024.878          24.365                                                            
C25  25318726.810       -4618.925        1525.846          12.069                                                            
C26  24101106.251      159231.614       -2921.394          33.892                                                            
> 2019 06 10 06 50 18.0004536  0 33
G01  23911295.654        3300.638       -3232.192           7.000                                                            
G02  25033768.683      -63337.143        2181.311          27.639                                                            
G03  21876446.251       79566.560       -1204.115          43.539    21876443.553      154190.730        -899.171          41.012
G06  21831442.007      -95986.663        1422.814          29.511    21831433.013     -187748.241        1062.547          29.027
G07  24951597.069       17810.830       -3068.996          13.083                                                            
G09  25272290.757         -42.081        1318.047          15.258                                                            
G11  24252276.298       72161.338       -2575.234          18.778                                                            
G17  22193546.627      -59586.146         895.034          20.981                                                            
G19  22592015.473      -97853.678        1465.263          35.174                                                            
G22  23745451.366       53485.326       -2451.431          11.165                                                            
G23  25574746.272         -32.280        1085.853          10.320                                                            
G28  20304176.311      -42957.710         636.763          37.177                                                            
G30  23338778.700       79980.089       -2876.227          26.104    23338731.033       70504.525       -2121.159           7.000
R14  20074266.375      -34628.872         487.737          41.073                                                            
R23  22402188.987       98423.011       -1798.579          22.390                                                            
J01  37249856.861       15534.046        -231.018          27.494    37249858.659       43400.360        -172.605          22.763
J02  36000594.407       19253.847        -287.420          32.096    36000598.304       55792.846        -214.779          24.165
J04  39335933.600      -43502.806         655.862          36.152    39335930.902     -119679.181         489.784          40.658
C01  36761732.682        4102.632         -68.299           7.000                                                            
C02  37228645.345           0.039         -19.512           7.000                                                            
C03  36145467.014        1530.285         -52.690          19.399                                                            
C06  40192829.183          -9.870         813.658           7.000                                                            
C07  35984363.344       43996.839        -673.022          23.753                                                            
C08  36552249.704       46745.078        -695.433          30.257                                                            
C10  36029215.593        7165.216        -109.052          31.475                                                            
C11  25778493.920         -34.201        1229.267          10.237                                                            
C12  22804204.378           3.554        -390.244           7.000                                                            
C13  37152061.863       28278.399        -426.705          33.070                                                            
C21  23859775.121     -158756.178        2543.366          28.123                                                            
C22  23556152.215      -34096.868         514.090          33.632                                                            
C24  23107482.823       57981.532       -1025.211          25.818                                                            
C25  25318433.613       -6091.583        1525.846           8.317                                                            
C26  24101670.461      162153.032       -2921.419          35.305                                                            
> 2019 06 10 06 50 19.0004536  0 33
G01  23911911.728        3300.511       -3232.192           7.000                                                            
G02  25033360.365      -65518.068        2180.925          27.133                                                            
G03  21876676.192       80771.411       -1204.851          43.659    21876671.995      155090.473        -899.744          41.400
G06  21831175.192      -97409.300        1422.637          29.988    21831163.800     -188810.159        1061.918          28.573
G07  24952184.062       20874.834       -3064.490          12.734                                                            
G09  25272039.831         -42.045        1319.023          13.057                                                            
G11  24252759.864       74744.489       -2581.132          16.590                                                            
G17  22193386.238      -60482.971         899.382          20.447                                                            
G19  22591738.465      -99318.565        1464.886          35.285                                                            
G22  23745919.642       55937.855       -2456.582          10.915                                                            
G23  25574539.115         -32.238        1085.853           7.000                                                            
G28  20304057.893      -43593.838         636.128          36.905                                                            
G30  23339323.423       82856.512       -2876.423          25.270    23339282.351       72638.062       -2136.593           7.000
R14  20074183.032      -35115.578         486.706          40.517                                                            
R23  22402534.648      100222.580       -1800.458          21.172                                                            
J01  37249898.832       15765.364        -231.840          26.991    37249902.429       43572.924        -172.565          22.867
J02  36000650.468       19541.653        -287.806          33.402    36000653.766       56007.669        -214.821          24.295
J04  39335809.486      -44158.592         655.785          36.008    39335805.888     -120168.926         489.745          40.728
C01  36761746.472        4170.931         -68.299           7.000                                                            
C02  37228650.142           0.038         -19.512           7.000                                                            
C03  36145481.704        1582.553         -52.690          17.806                                                            
C06  40192673.591          -9.838         813.658           7.000                                                            
C07  35984503.047       44672.906        -675.161          22.101                                                            
C08  36552383.112       47440.683        -695.604          30.508                                                            
C10  36029236.279        7274.577        -109.361          31.244                                                            
C11  25778257.684         -34.153        1229.267           7.000                                                            
C12  22804279.926           3.539        -390.244           7.000                                                            
C13  37152141.907       28705.186        -426.787          32.712                                                            
C21  23859284.961     -161299.160        2542.982          27.789                                                            
C22  23556050.286      -34610.359         513.491          33.347                                                            
C24  23107682.784       59007.416       -1025.883          25.071                                                            
C25  25318081.657       -7617.428        1525.846           7.807                                                            
C26  24102232.871      165074.809       -2921.777          35.822                                                            
> 2019 06 10 06 50 20.0004536  0 35
G01  23912527.502        3300.587       -3232.192           7.000                                                            
G02  25032939.457      -67698.660        2180.424          26.803                                                            
G03  21876901.037       81976.733       -1205.322          43.170    21876901.636      155990.558        -900.085          40.938
G06  21830898.184      -98831.275        1421.974          29.375    21830891.888     -189872.009        1061.850          30.236
G07  24952712.896       23934.549       -3064.806          12.410                                                            
G09  25271788.905         -42.076        1319.023          11.577                                                            
G11  24253235.634       77329.715       -2583.516          15.574                                                            
G17  22193222.852      -61384.083         897.690          18.919                                                            
G19  22591461.457     -100783.656        1465.091          36.178                                                            
G22  23746387.918       58391.287       -2466.200          10.054                                                            
G23  25574332.858         -32.278        1086.828           7.000                                                            
G28  20303935.578      -44229.616         635.779          36.031                                                            
G30  23339866.347       85732.899       -2876.964          23.266    23339833.370       74769.535       -2136.593           7.000
R14  20074083.801      -35601.481         485.904          38.669                                                            
R01  21731296.337     -125044.123        1853.695          25.237                                                            
R23  22402911.187      102019.514       -1804.762          19.044                                                            
R17  22401885.597      -47595.517         868.282          27.816                                                            
J01  37249941.702       15996.459        -231.095          27.336    37249948.897       43745.582        -172.585          22.286
J02  36000704.131       19829.323        -287.670          32.595    36000707.729       56222.558        -214.887          24.665
J04  39335682.674      -44814.641         656.049          36.357    39335680.875     -120658.809         489.883          40.531
C01  36761760.263        4239.231         -68.299           7.000                                                            
C02  37228654.639           0.038         -19.512           7.000                                                            
C03  36145498.192        1635.335         -52.690          13.379                                                            
C06  40192517.399          -9.857         813.658          16.394                                                            
C07  35984627.161       45349.014        -676.313          25.130                                                            
C08  36552518.918       48136.223        -695.541          30.891                                                            
C10  36029256.065        7383.952        -109.376          29.742                                                            
C11  25778021.747         -34.182        1229.267           7.000                                                            
C12  22804355.473           3.548        -390.244           7.000                                                            
C13  37152220.153       29131.982        -426.797          32.097                                                            
C21  23858792.702     -163842.133        2542.972          27.486                                                            
C22  23555951.654      -35123.457         513.098          33.606                                                            
C24  23107869.855       60033.593       -1026.177          25.415                                                            
C25  25317848.418       -9141.744        1525.844           7.000                                                            
C26  24102788.087      167996.483       -2921.673          35.787                                                            
> 2019 06 10 06 50 21.0004536  0 35
G01  23913142.076        3300.461       -3232.192          10.090                                                            
G02  25032519.747      -69879.425        2180.765          25.208                                                            
G03  21877135.174       83182.467       -1205.734          43.633    21877131.277      156890.940        -900.381          41.366
G06  21830631.968     -100253.101        1421.826          30.942    21830620.576     -190933.869        1061.860          29.608
G07  24953346.658       26991.742       -3067.550          11.719                                                            
G09  25271538.278         -42.025        1319.023           7.000                                                            
G11  24253722.797       79909.774       -2571.166          17.885                                                            
G17  22193011.198      -62279.985         895.706          21.298                                                            
G19  22591186.547     -102249.128        1465.472          36.064                                                            
G22  23746854.994       60849.335       -2457.606           9.249                                                            
G23  25574125.701         -32.236        1086.828           7.000                                                            
G28  20303811.164      -44865.068         635.452          36.300                                                            
G30  23340416.766       88608.821       -2876.070          23.535    23340376.294       76911.380       -2129.143           7.000
R14  20073994.463      -36086.838         485.356          39.979                                                            
R01  21730962.668     -126897.532        1853.409          25.039                                                            
R23  22403222.072      103826.842       -1808.557          15.142                                                            
R17  22401714.716      -48463.973         867.537          26.246                                                            
J01  37249986.671       16227.393        -230.934          28.147    37249987.870       43917.939        -172.357          21.787
J02  36000759.293       20116.871        -287.548          33.429    36000766.488       56437.196        -214.638          24.800
J04  39335558.260      -45471.048         656.407          36.191    39335556.761     -121148.948         490.140          40.493
C01  36761774.053        4307.530         -68.299           7.000                                                            
C02  37228658.536           0.039         -19.512           7.000                                                            
C03  36145509.584        1687.903         -52.690          17.161                                                            
C06  40192360.008          -9.888         815.609           7.000                                                            
C07  35984761.168       46024.678        -676.460          23.855                                                            
C08  36552651.126       48831.417        -695.194          31.213                                                            
C10  36029279.749        7493.244        -109.292          30.446                                                            
C11  25777784.911         -34.134        1229.267          11.532                                                            
C12  22804430.421           3.557        -390.244           7.000                                                            
C13  37152308.292       29558.624        -426.642          31.620                                                            
C21  23858306.138     -166385.306        2543.173          27.737                                                            
C22  23555851.224      -35636.317         512.860          33.570                                                            
C24  23108073.414       61059.524       -1025.931          25.859                                                            
C25  25317555.521      -10665.217        1523.894           7.000                                                            
C26  24103351.997      170918.004       -2921.521          36.341                                                            
> 2019 06 10 06 50 22.0004536  0 35
G01  23913756.951        3300.537       -3232.192          15.636                                                            
G02  25032115.027      -72059.862        2181.274          23.569                                                            
G03  21877361.818       84388.799       -1206.332          43.035    21877361.518      157791.729        -900.789          41.688
G06  21830355.559     -101674.428        1421.327          31.237    21830350.763     -191995.304        1061.435          29.698
G07  24953919.261       30055.786       -3066.604          12.097                                                            
G09  25271286.153         -42.071        1319.999           7.000                                                            
G11  24254220.153       82481.826       -2565.408          16.327                                                            
G17  22192842.115      -63176.198         894.700          20.529                                                            
G19  22590903.843     -103714.421        1465.293          36.158                                                            
G22  23747323.270       63309.029       -2460.151          10.285                                                            
G23  25573919.744         -32.261        1086.828           7.000                                                            
G28  20303695.444      -45500.108         635.040          35.917                                                            
G30  23340962.688       91484.852       -2875.371          24.589    23340920.717       79047.956       -2122.435           7.043
R14  20073899.429      -36571.230         484.392          39.564                                                            
R01  21730627.200     -128750.246        1853.069          24.772                                                            
R23  22403491.286      105638.253       -1802.402          14.347                                                            
R17  22401563.021      -49332.300         868.916          25.077                                                            
J01  37250029.241       16458.543        -231.150          29.569    37250036.436       44090.547        -172.797          22.458
J02  36000812.956       20404.557        -287.685          33.943    36000817.153       56652.100        -214.903          24.884
J04  39335432.647      -46127.435         656.387          36.169    39335431.148     -121639.144         490.196          40.551
C01  36761787.244        4375.829         -68.299           7.000                                                            
C02  37228662.733           0.038         -19.512           7.000                                                            
C03  36145520.077        1740.451         -52.690          13.655                                                            
C06  40192203.816          -9.856         815.609           7.000                                                            
C07  35984892.477       46700.836        -674.574          24.033                                                            
C08  36552787.532       49526.677        -695.259          31.052                                                            
C10  36029298.636        7602.643        -109.399          30.706                                                            
C11  25777548.375         -34.162        1229.267          10.840                                                            
C12  22804505.369           3.542        -390.244          11.766                                                            
C13  37152388.337       29985.232        -426.608          32.032                                                            
C21  23857813.879     -168928.312        2543.006          27.095                                                            
C22  23555751.992      -36148.734         512.416          32.594                                                            
C24  23108265.880       62086.405       -1026.880          26.553                                                            
C25  25317262.324      -12189.111        1523.894           7.649                                                            
C26  24103914.407      173839.635       -2921.631          36.658                                                            
> 2019 06 10 06 50 23.0004536  0 35
G01  23914372.724        3300.613       -3232.192           7.000                                                            
G02  25031695.018      -74240.147        2180.449          24.242                                                            
G03  21877595.356       85595.549       -1206.750          43.067    21877590.859      158692.907        -901.178          41.351
G06  21830083.947     -103095.575        1421.148          29.967    21830080.949     -193056.452        1061.148          29.883
G07  24954494.263       33111.912       -3064.691          11.935                                                            
G09  25271035.526         -42.102        1319.999          16.419                                                            
G11  24254705.517       85047.547       -2576.710          16.380                                                            
G17  22192680.527      -64072.982         893.339          20.611                                                            
G19  22590628.034     -105179.847        1465.426          36.578                                                            
G22  23747791.546       65762.783       -2460.810          10.105                                                            
G23  25573712.587         -32.287        1086.828           7.000                                                            
G28  20303570.431      -46134.641         634.533          35.989                                                            
G30  23341501.715       94360.732       -2875.317          23.323    23341471.735       81181.749       -2136.593           7.000
R14  20073802.895      -37054.826         483.596          39.899                                                            
R01  21730279.740     -130602.818        1854.195          24.961                                                            
R23  22403777.887      107437.706       -1796.821          14.825                                                            
R17  22401366.057      -50200.571         868.188          22.873                                                            
J01  37250075.110       16689.441        -230.898          29.534    37250082.005       44262.916        -171.751          21.855
J02  36000872.315       20692.188        -287.632          34.002    36000874.413       56866.875        -215.021          24.098
J04  39335307.633      -46784.174         656.739          36.434    39335305.834     -122129.535         490.391          40.808
C01  36761836.110        4444.129         -68.299           7.000                                                            
C02  37228666.630           0.039         -19.512           7.000                                                            
C03  36145530.570        1792.732         -52.690          15.648                                                            
C06  40192047.624          -9.875         815.609           7.000                                                            
C07  35985023.786       47377.080        -676.934          24.614                                                            
C08  36552919.440       50221.845        -695.169          30.377                                                            
C10  36029322.619        7712.177        -109.534          30.582                                                            
C11  25777312.138         -34.191        1229.267          16.840                                                            
C12  22804580.917           3.551        -390.244           7.000                                                            
C13  37152469.880       30411.893        -426.661          32.292                                                            
C21  23857326.716     -171471.189        2542.877          26.286                                                            
C22  23555648.864      -36660.865         512.131          32.085                                                            
C24  23108455.049       63113.566       -1027.161          26.511                                                            
C25  25316970.026      -13716.824        1534.820           7.000                                                            
C26  24104476.518      176761.153       -2921.518          36.523                                                            
> 2019 06 10 06 50 24.0004536  0 35
G01  23914987.599        3300.486       -3232.192           7.000                                                            
G02  25031269.912      -76420.164        2180.017          27.395                                                            
G03  21877821.999       86802.889       -1207.340          44.080    21877820.500      159594.483        -901.575          41.524
G06  21829814.134     -104516.412        1420.836          29.737    21829809.937     -194117.433        1060.981          29.754
G07  24955081.257       36175.097       -3060.718          11.633                                                            
G09  25270783.700         -42.050        1319.999          16.888                                                            
G11  24255200.774       87620.395       -2578.474          17.520                                                            
G17  22192529.432      -64967.827         898.986          23.715                                                            
G19  22590349.227     -106645.352        1465.505          36.398                                                            
G22  23748321.879       68226.052       -2458.533           9.767                                                            
G23  25573505.431         -32.244        1086.828          11.136                                                            
G28  20303451.113      -46768.812         634.171          36.610                                                            
G30  23342049.735       97236.701       -2874.549          22.492    23342016.158       83318.342       -2136.593          10.574
R14  20073721.652      -37537.639         482.813          39.853                                                            
R01  21729928.084     -132454.557        1850.873          25.793                                                            
R23  22404131.942      109223.618       -1789.012          14.283                                                            
R17  22401180.785      -51068.573         868.099          23.550                                                            
J01  37250122.177       16920.473        -231.032          28.609    37250123.976       44435.523        -172.607          22.702
J02  36000928.676       20979.963        -287.775          33.425    36000927.776       57081.785        -214.910          24.366
J04  39335185.018      -47441.015         656.841          36.070    39335181.421     -122620.029         490.493          40.854
C01  36761846.303        4512.428         -68.299           7.000                                                            
C02  37228670.528           0.039         -19.512           7.000                                                            
C03  36145532.069        1845.348         -52.690          18.232                                                            
C06  40191890.833          -9.843         815.609           7.000                                                            
C07  35985151.798       48053.251        -681.822          23.429                                                            
C08  36553049.850       50916.903        -695.057          30.882                                                            
C10  36029343.904        7821.770        -109.593          30.381                                                            
C11  25777075.602         -34.143        1229.267           7.000                                                            
C12  22804655.865           3.560        -390.244           7.000                                                            
C13  37152556.221       30838.475        -426.582          31.788                                                            
C21  23856835.956     -174014.143        2542.954          27.192                                                            
C22  23555544.536      -37172.575         511.711          32.591                                                            
C24  23108657.709       64141.266       -1027.700          26.827                                                            
C25  25316676.829      -15236.899        1523.894           7.000                                                            
C26  24105037.430      179682.776       -2921.624          36.023                                                            
> 2019 06 10 06 50 25.0004536  0 35
G01  23915603.372        3300.562       -3232.192          12.811                                                            
G02  25030854.700      -78600.177        2180.013          27.110                                                            
G03  21878053.439       88010.732       -1207.843          43.910    21878049.841      160496.428        -901.945          41.106
G06  21829547.319     -105936.955        1420.544          29.420    21829538.925     -195178.220        1060.787          29.874
G07  24955659.257       39240.023       -3050.339          11.094                                                            
G09  25270532.774         -42.097        1320.974           7.000                                                            
G11  24255697.230       90200.901       -2581.610          16.207                                                            
G17  22192369.642      -65863.796         895.969          24.522                                                            
G19  22590071.919     -108111.030        1465.678          35.867                                                            
G22  23748809.941       70679.957       -2469.946           8.907                                                            
G23  25573299.173         -32.270        1086.828          10.848                                                            
G28  20303331.796      -47402.591         633.779          36.980                                                            
G30  23342607.049      100112.431       -2878.314          22.825    23342566.577       85454.936       -2136.593           7.000
R14  20073629.615      -38019.710         482.071          40.108                                                            
R01  21729580.325     -134306.092        1851.033          26.535                                                            
R23  22404509.381      111011.812       -1794.935          17.943                                                            
R17  22401015.300      -51936.687         868.671          23.355                                                            
J01  37250165.647       17151.375        -230.902          28.449    37250171.043       44608.024        -173.036          23.502
J02  36000976.043       21267.634        -287.671          33.189    36000982.339       57296.596        -214.810          24.066
J04  39335060.604      -48098.093         657.077          35.932    39335056.107     -123110.698         490.670          40.818
C01  36761870.886        4580.728         -68.299           7.000                                                            
C02  37228675.324           0.038         -19.512           7.000                                                            
C03  36145528.771        1897.977         -52.690          16.580                                                            
C06  40191734.341          -9.862         815.609           7.000                                                            
C07  35985273.813       48729.388        -676.819          22.499                                                            
C08  36553183.558       51611.926        -695.023          30.412                                                            
C10  36029363.691        7931.404        -109.634          30.665                                                            
C11  25776839.965         -34.172        1229.267           7.000                                                            
C12  22804731.413           3.545        -390.244           7.000                                                            
C13  37152630.569       31265.002        -426.527          31.656                                                            
C21  23856350.292     -176557.027        2542.883          26.374                                                            
C22  23555443.206      -37683.889         511.313          31.830                                                            
C24  23108851.375       65169.199       -1027.933          26.137                                                            
C25  25316384.831      -16759.654        1523.893           7.000                                                            
C26  24105600.740      182604.361       -2921.585          36.447                                                            
> 2019 06 10 06 50 26.0004536  0 35
G01  23916217.647        3300.599       -3230.241           9.970                                                            
G02  25030438.888      -80779.857        2179.680          27.657                                                            
G03  21878283.380       89219.204       -1208.472          43.616    21878280.382      161398.883        -902.455          41.303
G06  21829278.705     -107356.987        1420.031          29.097    21829267.912     -196238.614        1060.394          29.263
G07  24956222.866       42305.775       -3060.404          10.685                                                            
G09  25270281.848         -42.144        1321.950           7.000                                                            
G11  24256181.695       92780.987       -2570.706          16.256                                                            
G17  22192201.459      -66759.150         895.354          25.639                                                            
G19  22589791.912     -109576.525        1465.495          35.488                                                            
G22  23749196.074       73131.179       -2460.673           8.973                                                            
G23  25573092.916         -32.324        1088.779           7.000                                                            
G28  20303210.680      -48035.820         633.229          37.200                                                            
G30  23343165.563      102988.200       -2876.057          22.370    23343109.202       87591.867       -2136.403           7.000
R14  20073545.074      -38500.906         481.196          40.262                                                            
R01  21729233.764     -136157.009        1850.917          27.039                                                            
R23  22404844.549      112809.591       -1799.673          21.214                                                            
R17  22400863.905      -52804.773         866.216          23.331                                                            
J01  37250203.721       17382.507        -231.132          27.890    37250213.014       44780.578        -172.554          23.294
J02  36001033.003       21555.483        -287.848          32.960    36001036.601       57511.493        -214.898          24.758
J04  39334929.895      -48755.128         657.036          35.009    39334931.394     -123601.358         490.659          40.942
C01  36761869.088        4649.027         -68.299           7.000                                                            
C02  37228679.222           0.039         -19.512           7.000                                                            
C03  36145527.572        1950.232         -52.690          17.463                                                            
C06  40191577.850          -9.893         817.560           7.000                                                            
C07  35985411.718       49405.747        -672.873          22.118                                                            
C08  36553317.265       52306.980        -695.054          30.566                                                            
C10  36029385.875        8041.222        -109.818          30.739                                                            
C11  25776603.129         -34.228        1231.218           7.000                                                            
C12  22804806.661           3.547        -388.292           7.000                                                            
C13  37152719.008       31691.628        -426.626          31.562                                                            
C21  23855862.230     -179099.775        2542.748          27.198                                                            
C22  23555344.574      -38194.727         510.838          31.894                                                            
C24  23109055.234       66197.668       -1028.468          25.841                                                            
C25  25316091.934      -18282.315        1521.944           7.000                                                            
C26  24106165.249      185526.111       -2921.750          36.555                                                            
> 2019 06 10 06 50 27.0004536  0 35
G01  23916832.821        3300.511       -3232.192           7.000                                                            
G02  25030020.977      -82959.289        2179.432          26.797                                                            
G03  21878511.222       90428.271       -1209.066          43.016    21878510.922      162301.717        -902.834          41.825
G06  21829005.894     -108776.730        1419.744          28.311    21828999.598     -197298.821        1060.207          29.486
G07  24956792.472       45366.641       -3065.299           9.825                                                            
G09  25270030.322         -42.076        1320.974           7.000                                                            
G11  24256682.648       95346.992       -2569.942          18.103                                                            
G17  22192031.177      -67654.778         895.627          26.846                                                            
G19  22589514.604     -111042.225        1465.700          36.008                                                            
G22  23749664.649       75586.653       -2472.118           9.947                                                            
G23  25572886.059         -32.253        1086.828          17.593                                                            
G28  20303092.561      -48668.599         632.779          37.185                                                            
G30  23343715.682      105864.121       -2875.739          23.020    23343661.419       89726.215       -2133.087           7.000
R14  20073443.144      -38981.316         480.409          39.958                                                            
R01  21728899.196     -138007.376        1850.367          27.080                                                            
R23  22405194.706      114608.888       -1799.838          21.348                                                            
R17  22400669.339      -53672.650         865.455          23.209                                                            
J01  37250256.784       17613.567        -231.060          28.189    37250260.681       44953.030        -171.988          22.679
J02  36001090.863       21843.350        -287.868          33.178    36001090.264       57726.448        -214.955          25.513
J04  39334808.779      -49412.391         657.263          35.493    39334806.080     -124092.189         490.831          40.897
C01  36761883.178        4717.327         -68.299           7.000                                                            
C02  37228683.119           0.038         -19.512           7.000                                                            
C03  36145547.358        2003.492         -52.690          18.018                                                            
C06  40191421.358          -9.849         815.609           7.000                                                            
C07  35985542.128       50082.277        -676.530          23.841                                                            
C08  36553450.972       53001.944        -694.964          30.712                                                            
C10  36029408.659        8151.071        -109.848          30.643                                                            
C11  25776366.593         -34.153        1229.267           7.000                                                            
C12  22804882.209           3.539        -390.244           7.000                                                            
C13  37152798.153       32118.173        -426.545          32.089                                                            
C21  23855371.170     -181642.486        2542.711          26.095                                                            
C22  23555249.540      -38705.193         510.466          32.061                                                            
C24  23109242.904       67227.088       -1028.909          25.720                                                            
C25  25315799.936      -19804.679        1521.943           7.000                                                            
C26  24106726.461      188447.853       -2921.742          36.736                                                            
> 2019 06 10 06 50 28.0004536  0 35
G01  23917448.295        3300.548       -3230.241          11.406                                                            
G02  25029610.861      -85138.535        2179.246          27.175                                                            
G03  21878743.261       91637.844       -1209.574          43.914    21878740.563      163205.002        -903.285          41.647
G06  21828734.282     -110196.001        1419.271          28.235    21828727.986     -198358.757        1059.936          28.833
G07  24957374.969       48431.016       -3062.280           9.757                                                            
G09  25269778.197         -42.138        1322.926          11.042                                                            
G11  24257183.301       97919.401       -2573.461          14.347                                                            
G17  22191856.697      -68550.310         895.533          27.516                                                            
G19  22589228.602     -112507.866        1465.641          35.628                                                            
G22  23750141.319       78049.316       -2460.485           9.319                                                            
G23  25572678.303         -32.307        1088.779           7.000                                                            
G28  20302973.544      -49300.920         632.321          37.476                                                            
G30  23344268.799      108740.070       -2875.948          23.485    23344205.843       91862.837       -2147.149           7.000
R14  20073350.209      -39460.813         479.497          39.694                                                            
R01  21728550.537     -139857.403        1850.026          26.915                                                            
R23  22405541.866      116406.796       -1794.976          21.792                                                            
R17  22400534.732      -54540.459         867.094          23.923                                                            
J01  37250298.155       17844.675        -231.108          27.580    37250300.853       45125.780        -173.423          22.656
J02  36001144.226       22131.242        -287.892          33.237    36001147.224       57941.579        -215.131          25.114
J04  39334676.870      -50069.850         657.459          35.058    39334681.367     -124583.097         490.908          40.938
C01  36761868.488        4785.626         -68.299           7.000                                                            
C02  37228687.316           0.038         -19.512           7.000                                                            
C03  36145559.950        2055.654         -52.690          16.357                                                            
C06  40191264.267          -9.880         817.560           7.000                                                            
C07  35985668.340       50758.855        -677.266          23.460                                                            
C08  36553584.680       53696.815        -694.871          30.322                                                            
C10  36029427.247        8261.099        -110.028          30.683                                                            
C11  25776129.757         -34.209        1231.218           7.000                                                            
C12  22804956.557           3.540        -388.292          17.454                                                            
C13  37152885.093       32544.763        -426.591          31.895                                                            
C21  23854882.808     -184185.066        2539.893          25.866                                                            
C22  23555148.210      -39215.181         509.988          31.621                                                            
C24  23109440.467       68256.380       -1030.073          25.036                                                            
C25  25315507.339      -21326.622        1521.943           7.000                                                            
C26  24107289.171      191369.655       -2921.802          36.753                                                            
> 2019 06 10 06 50 29.0004536  0 35
G01  23918062.870        3300.422       -3230.241          10.644                                                            
G02  25029189.353      -87317.752        2179.217          25.633                                                            
G03  21878971.703       92847.957       -1210.113          43.769    21878971.103      164108.671        -903.669          40.973
G06  21828465.967     -111615.186        1419.185          28.782    21828459.072     -199418.511        1059.754          29.049
G07  24957957.466       51491.169       -3050.597           9.881                                                            
G09  25269526.371         -42.087        1322.926           7.000                                                            
G11  24257651.277      100494.484       -2575.412          16.228                                                            
G17  22191691.811      -69446.161         895.851          27.938                                                            
G19  22588948.297     -113973.671        1465.804          35.238                                                            
G22  23750606.597       80490.531       -2459.192          10.645                                                            
G23  25572471.147         -32.265        1088.779          12.274                                                            
G28  20302852.728      -49932.869         631.949          37.084                                                            
G30  23344822.516      111615.737       -2875.667          23.437    23344755.362       94001.520       -2136.593           7.000
R14  20073266.867      -39939.533         478.720          40.064                                                            
R01  21728205.476     -141706.832        1849.430          26.970                                                            
R23  22405866.242      118195.850       -1793.668          19.300                                                            
R17  22400366.849      -55408.376         867.124          22.997                                                            
J01  37250338.627       18075.783        -231.108          28.602    37250342.524       45298.318        -172.538          22.296
J02  36001197.889       22419.225        -287.983          33.099    36001200.887       58156.613        -215.034          25.134
J04  39334556.653      -50727.441         657.591          34.931    39334556.053     -125074.185         491.089          40.776
C01  36761882.278        4853.925         -68.299           7.000                                                            
C02  37228691.213           0.039         -19.512           7.000                                                            
C03  36145571.342        2108.784         -52.690          15.985                                                            
C06  40191107.475          -9.899         817.560           7.000                                                            
C07  35985798.150       51435.605        -680.833          23.418                                                            
C08  36553717.788       54391.691        -694.876          30.057                                                            
C10  36029448.532        8371.131        -110.032          30.668                                                            
C11  25775893.220         -34.161        1231.218           7.000                                                            
C12  22805031.805         312.757        -380.572           7.782                                                            
C13  37152961.840       32971.301        -426.538          31.893                                                            
C21  23854391.448     -186727.588        2540.381          23.590                                                            
C22  23555048.080      -39724.760         509.579          30.965                                                            
C24  23109631.435       69286.066       -1030.282          25.943                                                            
C25  25315214.742       -1560.260        1521.950          15.593                                                            
C26  24107850.682      194291.480       -2921.825          36.804                                                            
> 2019 06 10 06 50 30.0004536  0 35
G01  23918677.744        3300.498       -3230.241           7.000                                                            
G02  25028786.731      -89496.504        2179.127          24.151                                                            
G03  21879202.543       94058.637       -1210.679          42.918    21879200.745      165012.761        -904.090          41.407
G06  21828201.850     -113033.942        1418.756          29.384    21828187.760     -200477.967        1059.456          30.234
G07  24958539.962        3119.885       -3058.534           7.000                                                            
G09  25269275.445         -42.133        1323.901          15.148                                                            
G11  24258152.530      103069.442       -2585.776          17.826                                                            
G17  22191512.835      -70341.958         895.797          27.887                                                            
G19  22588667.091     -115439.398        1465.728          35.817                                                            
G22  23751067.978       82949.618       -2459.825          10.607                                                            
G23  25572265.189         -32.290        1088.779           7.000                                                            
G28  20302732.511      -50564.320         631.451          36.192                                                            
G30  23345365.740      114491.335       -2876.063          22.292    23345300.085       96138.113       -2136.593           7.000
R14  20073166.136      -40417.404         477.871          38.800                                                            
R01  21727846.025     -143555.648        1848.815          25.861                                                            
R23  22406168.133      119985.162       -1788.144          16.767                                                            
R17  22400180.977      -56276.230         867.357          23.982                                                            
J01  37250384.795       18306.859        -231.076          28.153    37250389.892       45470.867        -172.549          22.806
J02  36001253.351       22707.275        -288.050          32.111    36001254.250       58371.697        -215.161          24.559
J04  39334427.742      -51385.122         657.681          35.024    39334431.040     -125565.334         491.149          40.650
C01  36761895.769        4922.225         -68.299           7.000                                                            
C02  37228695.710           0.038         -19.512           7.000                                                            
C03  36145586.631        2161.145         -52.690          15.073                                                            
C06  40190950.984          -9.867         817.560           7.000                                                            
C07  35985924.663       52112.337        -676.732          25.437                                                            
C08  36553850.596       55086.481        -694.790          29.777                                                            
C10  36029471.916        8481.256        -110.125          30.202                                                            
C11  25775656.984         -34.190        1231.218           7.000                                                            
C12  22805107.353         702.813        -391.912          12.468                                                            
C13  37153045.482       33397.874        -426.573          32.573                                                            
C21  23853903.686     -189270.144        2544.234          23.645                                                            
C22  23554950.647      -40234.054         509.294          31.638                                                            
C24  23109815.508       70316.137       -1030.071          26.156                                                            
C25  25314923.043       -1560.296        1521.950           7.000                                                            
C26  24108409.196      197213.341       -2921.861          37.160                                                            
> 2019 06 10 06 50 31.0004536  0 35
G01  23919292.318        3300.573       -3230.241           7.000                                                            
G02  25028369.121      -91675.523        2179.019          26.518                                                            
G03  21879432.184       95269.629       -1210.993          43.342    21879431.884      165917.038        -904.277          40.893
G06  21827936.834     -114452.635        1418.693          29.747    21827918.546     -201537.182        1059.215          29.791
G07  24959122.459        3119.956       -3058.534          11.492                                                            
G09  25269023.619         -42.164        1323.901           7.000                                                            
G11  24258628.001      105658.133       -2598.669          14.520                                                            
G17  22191342.853      -71238.131         896.172          28.190                                                            
G19  22588389.184     -116905.417        1466.018          34.435                                                            
G22  23751538.652        1973.520       -2460.485          16.217                                                            
G23  25572058.033         -32.316        1088.779           7.000                                                            
G28  20302613.493      -51195.501         631.181          37.083                                                            
G30  23345913.161      117366.770       -2875.439          23.332    23345850.204       98274.706       -2136.593           7.000
R14  20073079.796      -40894.546         477.142          40.082                                                            
R01  21727511.757     -145410.534        1848.473          24.640                                                            
R23  22406472.722      121769.727       -1794.485          16.546                                                            
R17  22400025.085      -57143.940         867.711          25.138                                                            
J01  37250427.965       18537.707        -230.847          29.260    37250432.462       45643.316        -172.449          23.279
J02  36001306.714       22995.123        -287.848          31.961    36001315.708       58586.597        -214.790          24.154
J04  39334308.425      -52043.192         658.070          35.050    39334305.427     -126056.722         491.387          40.676
C01  36761908.960        4990.524         -68.299           7.000                                                            
C02  37228699.308           0.039         -19.512          12.187                                                            
C03  36145611.214        2214.125         -52.690          11.756                                                            
C06  40190794.192          -9.887         817.560           7.000                                                            
C07  35986054.773       52788.930        -674.706          23.570                                                            
C08  36553983.704       55781.061        -694.580          30.727                                                            
C10  36029492.901        8591.498        -110.242          30.716                                                            
C11  25775420.448         -34.219        1231.218           7.000                                                            
C12  22805223.372        1090.247        -392.987          13.958                                                            
C13  37153132.122       33824.467        -426.593          32.096                                                            
C21  23853423.718     -191812.820        2542.676          26.931                                                            
C22  23554853.214      -40743.055         509.001          31.560                                                            
C24  23110017.568       71346.400       -1029.599          24.362                                                            
C25  25314630.446       -1560.331        1521.950           7.000                                                            
C26  24108974.604      200134.922       -2921.581          36.918                                                            
> 2019 06 10 06 50 32.0004536  0 35
G01  23919908.392        3300.447       -3230.241          18.397                                                            
G02  25027940.717      -93854.087        2178.564          26.331                                                            
G03  21879663.624       96481.241       -1211.612          43.656    21879661.825      166821.818        -904.779          40.706
G06  21827662.524     -115870.835        1418.200          30.862    21827648.733     -202596.341        1059.159          29.539
G07  24959704.056        3119.837       -3058.534           7.000                                                            
G09  25268771.793         -42.113        1323.901           8.193                                                            
G11  24259129.254      108259.341       -2597.115          14.377                                                            
G17  22191173.770      -72134.458         896.327          28.272                                                            
G19  22588108.578     -118371.483        1466.066          33.671                                                            
G22  23752006.628        4429.408       -2460.485          18.218                                                            
G23  25571850.876         -32.273        1088.779          15.185                                                            
G28  20302494.775      -51826.274         630.773          37.055                                                            
G30  23346462.081      120242.117       -2873.369          22.864    23346394.627      100411.300       -2136.593           8.217
R14  20072995.554      -41371.125         476.579          40.882                                                            
R01  21727175.689     -147262.099        1846.837          23.611                                                            
R23  22406855.856      123567.438       -1807.243          15.474                                                            
R17  22399882.684      -58011.856         867.915          26.241                                                            
J01  37250475.932       18768.733        -231.026          28.569    37250477.731       45815.826        -173.155          23.028
J02  36001363.675       23283.072        -287.949          31.754    36001368.771       58801.677        -215.080          24.715
J04  39334180.114      -52701.392         658.200          35.682    39334180.414     -126548.247         491.525          40.246
C01  36761922.750        5058.824         -68.299           7.000                                                            
C02  37228703.805           0.039         -19.512           7.000                                                            
C03  36145626.503        2266.892         -52.690          18.608                                                            
C06  40190637.401          -9.855         817.560           7.258                                                            
C07  35986182.784       53465.848        -677.420          21.467                                                            
C08  36554118.610       56475.587        -694.526          30.792                                                            
C10  36029514.786        8701.590        -110.265          30.487                                                            
C11  25775184.211         -34.170        1231.218           7.000                                                            
C12  22805298.320        1477.339        -387.320          14.844                                                            
C13  37153206.770       34250.611        -426.143          31.251                                                            
C21  23852937.455     -194355.348        2542.405          28.005                                                            
C22  23554754.883      -41251.718         508.663          31.891                                                            
C24  23110230.720       72377.114       -1030.868          23.267                                                            
C25  25314338.448       -1560.272        1521.950           7.000                                                            
C26  24109534.916      203056.702       -2921.780          36.000                                                            
> 2019 06 10 06 50 33.0004536  0 35
G01  23920522.967        3300.523       -3230.241           7.000                                                            
G02  25027538.396      -96032.674        2178.764          25.956                                                            
G03  21879893.565       97693.330       -1212.089          43.045    21879892.366      167726.952        -905.135          41.086
G06  21827392.111     -117288.845        1418.010          31.084    21827379.520     -203655.240        1058.898          31.067
G07  24960286.853        3119.909       -3058.534           7.000                                                            
G09  25268519.668         -42.159        1324.877           7.000                                                            
G11  24259625.711      110842.190       -2597.741          13.576                                                            
G17  22190997.792      -73030.885         896.427          29.074                                                            
G19  22587831.869     -119837.711        1466.229          35.561                                                            
G22  23752476.403        6887.147       -2467.784          17.503                                                            
G23  25571643.719         -32.299        1088.779           7.000                                                            
G28  20302372.160      -52456.625         630.351          36.112                                                            
G30  23347013.099      123117.433       -2870.576          22.028    23346944.746      102547.893       -2136.593           7.000
R14  20072896.023      -41846.783         475.658          38.476                                                            
R01  21726853.412     -149109.910        1843.952          22.897                                                            
R23  22407149.953      125372.641       -1811.471          15.140                                                            
R17  22399717.798      -58879.642         867.787          26.266                                                            
J01  37250518.503       18999.660        -230.927          27.796    37250521.800       45988.205        -172.477          23.665
J02  36001422.134       23570.878        -287.807          30.556    36001419.136       59016.699        -215.511          25.314
J04  39334054.800      -53359.842         658.450          35.742    39334055.100     -127039.963         491.716          40.466
C01  36761984.208        5127.123         -68.299          11.991                                                            
C02  37228707.702           0.038         -19.512          14.721                                                            
C03  36145633.998        2319.826         -52.690          15.740                                                            
C06  40190480.609          -9.874         817.560           7.000                                                            
C07  35986313.793       54142.607        -676.759          25.224                                                            
C08  36554249.919       57169.969        -694.382          30.208                                                            
C10  36029535.472        8811.791        -110.201          30.109                                                            
C11  25774947.675         -34.199        1231.218           7.000                                                            
C12  22805332.797        1864.898        -388.183          16.278                                                            
C13  37153288.014       34676.981        -426.371          31.963                                                            
C21  23852456.888     -196897.895        2542.591          26.191                                                            
C22  23554659.249      -41760.004         508.287          32.845                                                            
C24  23110410.596       73408.177       -1031.092          24.491                                                            
C25  25314047.050       -1560.276        1519.999           7.000                                                            
C26  24110091.931      205978.423       -2921.721          36.298                                                            
> 2019 06 10 06 50 34.0004536  0 35
G01  23921137.841        3300.599       -3230.241          13.563                                                            
G02  25027115.389      -98210.968        2178.294          27.028                                                            
G03  21880125.304       98905.868       -1212.538          43.674    21880123.805      168632.419        -905.467          41.653
G06  21827123.797     -118706.582        1417.737          30.784    21827108.807     -204713.784        1058.545          30.219
G07  24960868.151        3119.964       -3057.558          14.017                                                            
G09  25268267.842         -42.190        1324.877           7.000                                                            
G11  24260081.395      113401.019       -2575.255          12.716                                                            
G17  22190823.612      -73927.382         896.496          28.966                                                            
G19  22587553.062     -121303.970        1466.259          35.133                                                            
G22  23752944.379        9348.166       -2462.026          16.731                                                            
G23  25571436.563         -32.324        1088.779           7.000                                                            
G28  20302254.642      -53086.576         629.951          36.636                                                            
G30  23347564.118      125992.545       -2874.796          24.046    23347489.170      104684.486       -2136.593           7.000
R14  20072822.274      -42321.564         474.780          39.901                                                            
R01  21726487.965     -150957.382        1843.594          22.958                                                            
R23  22407433.557      127186.943       -1811.497          14.222                                                            
R17  22399578.694      -59747.387         867.745          26.836                                                            
J01  37250566.170       19230.515        -230.855          28.577    37250564.970       46160.602        -172.764          23.620
J02  36001473.399       23858.867        -287.988          31.221    36001475.197       59231.544        -214.474          25.991
J04  39333929.787      -54018.458         658.617          35.765    39333929.787     -127531.812         491.849          40.511
C01  36761949.732        5195.423         -68.299           7.000                                                            
C02  37228711.299           0.039         -19.512           7.000                                                            
C03  36145645.390        2372.558         -52.690          14.148                                                            
C06  40190323.218          -9.893         817.560           7.000                                                            
C07  35986449.300       54819.545        -677.453          22.636                                                            
C08  36554383.627       57864.289        -694.321          31.160                                                            
C10  36029558.556        8922.191        -110.400          30.513                                                            
C11  25774710.839         -34.228        1231.218           7.000                                                            
C12  22805448.816        2252.372        -389.218          11.901                                                            
C13  37153369.258       35103.358        -426.377          30.243                                                            
C21  23851964.329     -199440.400        2542.505          25.503                                                            
C22  23554557.619      -42267.887         507.883          32.156                                                            
C24  23110600.664       74439.706       -1033.032          23.632                                                            
C25  25313754.452       -1560.312        1519.999           7.000                                                            
C26  24110656.740      208900.084       -2921.661          37.719                                                            
> 2019 06 10 06 50 35.0004536  0 35
G01  23921752.415        3300.472       -3230.241          17.878                                                            
G02  25026698.677     -100389.110        2178.143          26.622                                                            
G03  21880354.346      100119.125       -1213.258          43.957    21880354.346      169538.435        -906.016          41.588
G06  21826861.178     -120123.766        1417.184          30.715    21826840.193     -205772.125        1058.341          30.729
G07  24961450.647        3119.844       -3057.558          18.551                                                            
G09  25268016.017         -42.139        1324.877           7.000                                                            
G11  24260571.256      115973.283       -2570.583          12.032                                                            
G17  22190654.829      -74824.040         896.659          30.136                                                            
G19  22587277.853     -122770.160        1466.190          35.850                                                            
G22  23753412.954       11810.641       -2459.406          15.871                                                            
G23  25571229.106         -32.282        1088.779          13.920                                                            
G28  20302134.125      -53715.973         629.397          36.801                                                            
G30  23348116.335      128867.914       -2875.837          23.636    23348035.991      106821.437       -2136.593           9.319
R14  20072724.242      -42795.509         473.945          39.275                                                            
R01  21726117.422     -152805.144        1845.302          18.904                                                            
R23  22407805.299      128993.722       -1795.800          14.839                                                            
R17  22399413.209      -60614.997         867.610          27.182                                                            
J01  37250610.239       19461.487        -230.972          26.827    37250613.537       46333.151        -172.549          22.899
J02  36001535.456       24146.931        -288.065          30.573    36001529.160       59446.781        -214.943          24.756
J04  39333802.975      -54677.161         658.703          35.411    39333804.474     -128023.656         491.844          40.583
C01  36762012.688        5263.722         -68.299          16.731                                                            
C02  37228715.796           0.038         -19.512           7.000                                                            
C03  36145648.089        2425.709         -52.690          13.776                                                            
C06  40190166.427          -9.861         817.560           7.000                                                            
C07  35986581.508       55496.611        -675.404          24.304                                                            
C08  36554517.034       58558.641        -694.352          31.299                                                            
C10  36029577.443        9032.630        -110.439          30.618                                                            
C11  25774474.303         -34.180        1231.218           7.000                                                            
C12  22805527.062        2644.128        -391.442          17.223                                                            
C13  37153455.598       35529.732        -426.373          29.802                                                            
C21  23851474.468     -201982.868        2543.238          25.019                                                            
C22  23554464.084      -42775.330         507.443          33.376                                                            
C24  23110789.234       75471.588       -1028.853          23.134                                                            
C25  25313463.354       -1560.253        1519.999           7.000                                                            
C26  24111218.251      211821.959       -2921.876          37.312                                                            
> 2019 06 10 06 50 36.0004536  0 35
G01  23922367.290        3300.548       -3230.241          16.250                                                            
G02  25026282.865     -102567.232        2178.121          24.257                                                            
G03  21880585.786      101332.833       -1213.707          42.728    21880585.186      170444.769        -906.334          41.657
G06  21826589.866     -121540.763        1416.997          30.827    21826570.080     -206830.351        1058.226          30.966
G07  24962032.544        5569.414       -3057.557           7.000                                                            
G09  25267762.992         -42.170        1324.877           7.000                                                            
G11  24261060.817        2625.815       -2571.705          19.044                                                            
G17  22190482.149      -75720.771         896.730          30.381                                                            
G19  22587000.545     -124236.753        1466.593          36.209                                                            
G22  23753882.130       14274.190       -2462.436          15.011                                                            
G23  25571021.950         -32.307        1088.779           7.000                                                            
G28  20302011.810      -54345.125         629.152          36.064                                                            
G30  23348665.255      131742.931       -2874.397          23.057    23348591.506      108951.926       -2149.798           7.000
R14  20072653.191      -43268.840         473.331          39.946                                                            
R01  21725806.837     -154655.087        1844.683          19.461                                                            
R23  22408222.910      130786.443       -1796.881          17.479                                                            
R17  22399236.032      -61482.749         867.752          27.182                                                            
J01  37250653.409       19692.227        -230.740          28.647    37250656.407       46505.236        -172.086          23.534
J02  36001589.118       24434.902        -287.970          30.907    36001587.620       59661.725        -214.943          24.945
J04  39333679.460      -55336.078         658.917          36.063    39333678.861     -128515.737         492.081          40.276
C01  36762025.879        5332.021         -68.299          11.680                                                            
C02  37228719.993           0.038         -19.512           7.000                                                            
C03  36145658.881        2477.577         -52.690          16.902                                                            
C06  40190009.036          -9.880         817.560           7.000                                                            
C07  35986711.018       56173.610        -676.999          25.515                                                            
C08  36554650.142       59252.785        -694.144          31.114                                                            
C10  36029599.327        9143.064        -110.434          30.594                                                            
C11  25774238.066         -34.209        1231.218           7.000                                                            
C12  22805597.513        3030.207        -390.905          16.483                                                            
C13  37153532.045       35955.877        -426.146          30.117                                                            
C21  23850991.502     -204525.135        2542.267          25.249                                                            
C22  23554363.653      -43282.400         507.070          32.696                                                            
C24  23110982.000       76503.767       -1031.625          23.719                                                            
C25  25313170.757       -1560.288        1519.999          18.738                                                            
C26  24111778.563      214743.665       -2921.706          37.634                                                            
> 2019 06 10 06 50 37.0004536  0 35
G01  23922981.864        3300.422       -3230.241           8.544                                                            
G02  25025854.761     -104744.859        2177.628          25.495                                                            
G03  21880819.324      102547.124       -1214.292          43.511    21880817.225      171351.542        -906.774          41.796
G06  21826319.453     -122957.392        1416.629          30.550    21826300.267     -207888.160        1057.810          30.858
G07  24962615.041        8623.979       -3061.506           7.000                                                            
G09  25267510.866         -42.133        1325.852           7.000                                                            
G11  24261549.479        2625.714       -2571.705          10.644                                                            
G17  22190305.271      -76617.636         896.865          29.172                                                            
G19  22586719.939     -125703.105        1466.353          35.610                                                            
G22  23754350.405           4.432       -2463.412           7.000                                                            
G23  25570814.793         -32.265        1088.779          16.737                                                            
G28  20301896.390      -54973.676         628.551          36.769                                                            
G30  23349210.578      134618.075       -2875.144          24.786    23349132.032      111101.952       -2130.000           7.000
R14  20072562.054      -43741.159         472.319          41.147                                                            
R01  21725434.794     -156504.394        1846.936          20.861                                                            
R23  22408555.080      132585.766       -1794.420          18.805                                                            
R17  22399076.242      -62350.243         867.494          26.699                                                            
J01  37250696.280       19923.208        -230.980          29.995    37250694.181       46677.893        -172.656          23.890
J02  36001640.383       24722.948        -288.046          32.180    36001642.781       59876.890        -215.233          24.704
J04  39333554.147      -55995.180         659.102          34.700    39333553.847     -129007.870         492.133          40.922
C01  36762039.969        5400.321         -68.299           7.000                                                            
C02  37228723.291           0.039         -19.512           7.000                                                            
C03  36145668.474        2530.192         -52.690          12.903                                                            
C06  40189851.345          -9.911         819.511           7.000                                                            
C07  35986842.327       56850.755        -677.108          23.354                                                            
C08  36554785.049       59946.964        -694.179          30.960                                                            
C10  36029622.112        9253.708        -110.644          30.588                                                            
C11  25774001.230         -34.161        1231.218           7.000                                                            
C12  22805673.061        3416.073        -390.560          14.442                                                            
C13  37153616.287       36382.250        -426.373          29.887                                                            
C21  23850500.442     -207067.375        2541.871          26.061                                                            
C22  23554262.024      -43789.057         506.657          30.972                                                            
C24  23111183.760       77536.489       -1035.627          23.424                                                            
C25  25312879.358       -2783.412        1519.992          12.188                                                            
C26  24112340.974      217665.556       -2921.891          37.148                                                            
> 2019 06 10 06 50 38.0004536  0 35
G01  23923596.439        3300.478       -3229.265          16.250                                                            
G02  25025438.949     -106922.477        2178.004          25.701                                                            
G03  21881045.967      103761.997       -1214.873          43.430    21881048.066      172258.745        -907.203          41.449
G06  21826053.238     -124373.664        1416.272          30.429    21826031.353     -208945.734        1057.574          30.403
G07  24963196.339       11677.743       -3065.493           7.000                                                            
G09  25267259.041         -42.164        1325.852           7.000                                                            
G11  24262039.340        2625.775       -2571.705           7.000                                                            
G17  22190135.889      -77514.540         896.904          28.456                                                            
G19  22586438.734     -127169.519        1466.414          35.742                                                            
G22  23754819.880           4.336       -2463.412          16.015                                                            
G23  25570607.637         -32.290        1088.779           7.000                                                            
G28  20301773.774      -55601.770         628.094          36.656                                                            
G30  23349750.204      137493.247       -2875.439          25.004    23349676.455      113238.513       -2114.166           7.889
R14  20072471.817      -44212.640         471.481          41.257                                                            
R01  21725048.062     -158345.551        1846.798          21.695                                                            
R23  22408918.429      134388.564       -1797.511          18.909                                                            
R17  22398898.765      -63217.652         867.299          25.907                                                            
J01  37250743.047       20154.273        -231.065          30.258    37250739.749       46850.362        -172.469          24.276
J02  36001698.543       25011.134        -288.186          32.124    36001695.845       60092.117        -215.146          24.950
J04  39333427.635      -56654.331         659.151          34.398    39333427.934     -129500.082         492.212          40.668
C01  36762002.795        5468.620         -68.299           7.000                                                            
C02  37228727.188           0.038         -19.512           7.000                                                            
C03  36145669.973        2582.959         -52.690          15.685                                                            
C06  40189694.254          -9.879         819.511           7.000                                                            
C07  35986973.337       57528.270        -678.482          23.339                                                            
C08  36554917.557       60641.168        -694.204          30.667                                                            
C10  36029642.797        9364.423        -110.715          30.327                                                            
C11  25773764.694         -34.190        1231.218           7.000                                                            
C12  22805750.707        3807.300        -391.079          15.727                                                            
C13  37153699.329       36808.642        -426.391          29.592                                                            
C21  23850012.980     -209609.480        2542.105          25.810                                                            
C22  23554165.790      -44295.214         506.157          29.939                                                            
C24  23111380.424       78569.616       -1036.427          23.218                                                            
C25  25312587.960       -4289.201        1518.041           7.136                                                            
C26  24112902.785      220587.430       -2921.874          36.797                                                            
> 2019 06 10 06 50 39.0004536  0 35
G01  23924211.313        3300.554       -3229.265          15.185                                                            
G02  25025028.233     -109099.732        2177.405          24.916                                                            
G03  21881280.105      104977.438       -1215.441          44.078    21881279.505      173166.377        -907.632          41.475
G06  21825778.328     -125789.477        1415.813          30.181    21825761.240     -210003.057        1057.322          30.071
G07  24963779.135       14735.310       -3054.122           7.000                                                            
G09  25267006.316         -42.196        1325.852           7.000                                                            
G11  24262529.500        2625.835       -2571.705          13.456                                                            
G17  22189967.105      -78411.533         896.994          28.613                                                            
G19  22586159.927     -128635.993        1466.474          35.517                                                            
G22  23755289.056           4.394       -2463.412          16.363                                                            
G23  25570400.480         -32.316        1088.779           7.000                                                            
G28  20301655.057      -56229.428         627.658          36.974                                                            
G30  23350295.527      140368.204       -2874.957          23.891    23350227.774      115370.665       -2136.593           7.000
R14  20072385.177      -44683.353         470.713          41.226                                                            
R01  21724706.599     -160189.647        1844.927          19.743                                                            
R23  22409171.154      136188.031       -1795.555          17.313                                                            
R17  22398738.676      -64085.028         867.510          25.246                                                            
J01  37250787.716       20385.250        -230.978          29.860    37250781.121       47022.817        -172.455          23.925
J02  36001748.308       25299.346        -288.212          32.629    36001752.805       60307.346        -215.229          24.778
J04  39333305.020      -57313.573         659.242          34.805    39333302.621     -129992.386         492.303          40.750
C01  36762068.450        5536.920         -68.299          15.623                                                            
C02  37228731.386           0.039         -19.512           7.000                                                            
C03  36145646.889        2635.243         -52.690          12.718                                                            
C06  40189536.863          -9.898         819.511          10.745                                                            
C07  35987101.948       58205.577        -675.533          23.317                                                            
C08  36555051.864       61335.313        -694.145          30.831                                                            
C10  36029663.483        9475.288        -110.865          30.514                                                            
C11  25773528.458         -34.219        1231.218           7.000                                                            
C12  22805817.261        4193.010        -386.758          15.756                                                            
C13  37153779.074       37234.894        -426.253          29.386                                                            
C21  23849519.221     -212151.641        2542.161          25.237                                                            
C22  23554069.257      -44801.045         505.831          29.609                                                            
C24  23111586.681       79603.063       -1031.802          23.429                                                            
C25  25312296.562       -5803.441        1518.041           7.000                                                            
C26  24113461.298      223509.431       -2922.001          36.084                                                            
> 2019 06 10 06 50 40.0004536  0 35
G01  23924825.888        3300.428       -3229.265           7.000                                                            
G02  25024615.719     -111276.970        2177.238          24.300                                                            
G03  21881508.547      106193.300       -1215.862          43.813    21881510.346      174074.305        -907.928          41.347
G06  21825509.714     -127205.168        1415.691          29.964    21825492.326     -211060.227        1057.170          30.603
G07  24964360.433        3119.804       -3056.582          16.788                                                            
G09  25266754.190         -42.159        1326.828           7.000                                                            
G11  24263019.361        2625.734       -2571.705          18.829                                                            
G17  22189795.324      -79308.745         897.212          28.101                                                            
G19  22585883.518     -130102.650        1466.657          35.924                                                            
G22  23755758.830        1978.063       -2471.187           9.851                                                            
G23  25570193.024         -32.288        1089.755           7.000                                                            
G28  20301533.641      -56856.750         627.323          36.525                                                            
G30  23350844.447      143243.154       -2874.719          23.223    23350772.197      117507.259       -2136.593           7.000
R14  20072294.640      -45153.291         469.938          40.593                                                            
R01  21724390.018     -162028.227        1845.744          17.604                                                            
R23  22409448.162      137984.923       -1786.475          18.483                                                            
R17  22398558.501      -64952.392         870.526          24.577                                                            
J01  37250831.486       20616.110        -230.859          29.787    37250830.886       47195.254        -172.437          24.318
J02  36001806.468       25587.485        -288.139          32.409    36001806.768       60522.488        -215.201          24.602
J04  39333177.008      -57973.172         659.600          35.076    39333177.008     -130484.954         492.568          40.620
C01  36762081.341        5605.219         -68.299          15.013                                                            
C02  37228735.882           0.039         -19.512           7.000                                                            
C03  36145706.248        2688.496         -52.690           7.667                                                            
C06  40189380.071          -9.866         819.511           7.000                                                            
C07  35987235.056       58883.031        -676.979          25.284                                                            
C08  36555185.272       62029.241        -693.928          30.756                                                            
C10  36029686.867        9586.081        -110.793          30.334                                                            
C11  25773291.921         -34.170        1231.218          16.573                                                            
C12  22805902.402        4582.328        -391.244          13.419                                                            
C13  37153858.519       37661.045        -426.151          30.034                                                            
C21  23849036.556     -214693.954        2550.042          22.676                                                            
C22  23553976.621      -45306.545         505.500          30.309                                                            
C24  23111779.748       80636.948       -1032.929          23.007                                                            
C25  25312005.163       -7325.760        1518.041           9.042                                                            
C26  24114024.308      226431.276       -2921.845          36.025                                                            
> 2019 06 10 06 50 41.0004536  0 35
G01  23925440.762        3300.503       -3229.265          13.116                                                            
G02  25024200.806     -113453.967        2176.998          25.251                                                            
G03  21881740.886      107409.719       -1216.420          44.357    21881741.785      174982.675        -908.371          41.445
G06  21825240.800     -128620.504        1415.336          30.625    21825222.513     -212117.074        1056.847          29.712
G07  24964942.030        3119.875       -3056.582          13.668                                                            
G09  25266501.165         -42.190        1326.828          18.273                                                            
G11  24263508.023        2625.795       -2571.705          16.075                                                            
G17  22189630.139      -80205.956         897.211          28.477                                                            
G19  22585609.808     -131569.269        1466.618          35.562                                                            
G22  23756227.106        4441.788       -2463.813           8.991                                                            
G23  25569985.867         -32.313        1089.755           7.000                                                            
G28  20301417.321      -57483.591         626.841          37.046                                                            
G30  23351395.166      146118.001       -2874.847          24.099    23351321.716      119643.852       -2136.593           7.000
R14  20072208.899      -45622.390         469.099          41.196                                                            
R01  21724005.984     -163870.649        1845.966          20.783                                                            
R23  22409825.900      139767.275       -1791.016          18.819                                                            
R17  22398389.118      -65819.733         872.066          22.481                                                            
J01  37250871.958       20847.038        -230.929          29.527    37250870.759       47367.716        -172.381          24.201
J02  36001862.829       25875.754        -288.269          32.247    36001861.030       60737.721        -215.232          25.093
J04  39333051.695      -58632.846         659.673          35.513    39333051.095     -130977.575         492.620          40.704
C01  36762096.030        5673.519         -68.299          14.212                                                            
C02  37228739.180           0.038         -19.512           7.000                                                            
C03  36145667.575        2741.185         -52.690           7.000                                                            
C06  40189222.680          -9.886         819.511          15.655                                                            
C07  35987366.365       59560.659        -676.889          23.316                                                            
C08  36555321.677       62723.181        -693.939          31.130                                                            
C10  36029706.953        9697.085        -111.005          30.190                                                            
C11  25773055.085         -34.199        1231.218          13.391                                                            
C12  22805980.348        4974.418        -386.428          13.464                                                            
C13  37153940.962       38087.321        -426.275          29.719                                                            
C21  23848541.298     -217235.949        2545.188          21.459                                                            
C22  23553871.694      -45811.115         504.067          28.204                                                            
C24  23111980.009       81671.238       -1033.307          22.699                                                            
C25  25311713.465       -8844.534        1518.041           7.000                                                            
C26  24114586.119      229353.209       -2921.934          35.965                                                            
> 2019 06 10 06 50 42.0004536  0 35
G01  23926055.337        3300.579       -3229.265          15.669                                                            
G02  25023791.889     -115630.683        2176.026          24.032                                                            
G03  21881972.626      108626.666       -1216.947          43.845    21881974.125      175891.454        -908.779          41.725
G06  21824969.488     -130035.470        1414.966          30.160    21824953.599     -213173.716        1056.642          30.528
G07  24965523.328        3119.931       -3055.607          12.683                                                            
G09  25266249.340         -42.222        1326.828          12.054                                                            
G11  24263998.184        2625.855       -2571.705          16.221                                                            
G17  22189457.458      -81103.394         897.438          29.035                                                            
G19  22585329.802     -133036.011        1466.742          35.885                                                            
G22  23756696.581        6904.600       -2464.387           8.131                                                            
G23  25569778.711         -32.339        1089.755          10.848                                                            
G28  20301296.805      -58109.984         626.393          36.971                                                            
G30  23351948.582      148992.827       -2874.826          24.411    23351866.139      121780.445       -2136.593           7.000
R14  20072120.460      -46090.739         468.349          40.544                                                            
R01  21723627.646     -165709.542        1847.187          20.131                                                            
R23  22410227.023      141564.478       -1796.998          19.351                                                            
R17  22398237.123      -66686.949         867.216          24.189                                                            
J01  37250911.231       21077.942        -230.904          28.498    37250918.426       47540.138        -172.421          23.678
J02  36001919.490       26163.959        -288.205          32.042    36001917.091       60952.966        -215.246          24.971
J04  39332926.981      -59292.725         659.880          35.274    39332925.782     -131470.371         492.796          40.481
C01  36762104.125        5741.818         -68.299          15.005                                                            
C02  37228743.377           0.039         -19.512           7.000                                                            
C03  36145677.768        2793.875         -52.690           7.000                                                            
C06  40189065.289          -9.905         819.511           7.000                                                            
C07  35987494.076       60238.138        -677.214          25.044                                                            
C08  36555455.085       63417.020        -693.839          31.537                                                            
C10  36029726.739        9808.050        -110.964          30.198                                                            
C11  25772817.949         -34.228        1231.218           7.000                                                            
C12  22806052.898        5363.536        -388.397          15.266                                                            
C13  37154027.302       38513.561        -426.241          29.836                                                            
C21  23848049.939     -219779.952        2541.709          18.462                                                            
C22  23553778.758      -46315.813         504.699          29.324                                                            
C24  23112176.073       82705.828       -1039.627          22.380                                                            
C25  25311421.767      -10357.238        1518.041           7.000                                                            
C26  24115148.530      232275.146       -2921.936          35.818                                                            
> 2019 06 10 06 50 43.0004536  0 35
G01  23926669.012        3300.453       -3229.265          15.570                                                            
G02  25023369.182     -117807.304        2176.622          25.058                                                            
G03  21882203.466      109844.183       -1217.517          44.192    21882205.564      176800.646        -909.192          41.646
G06  21824699.075     -131450.136        1414.666          29.400    21824686.184     -214230.159        1056.443          30.269
G07  24966104.925        3119.811       -3055.607           7.000                                                            
G09  25265996.015         -42.185        1327.804          10.090                                                            
G11  24264486.845        2625.755       -2571.705          19.712                                                            
G17  22189293.172      -82000.965         897.571          29.832                                                            
G19  22585049.196     -134502.792        1466.781          35.441                                                            
G22  23757164.857        9369.638       -2458.539           8.957                                                            
G23  25569570.355         -32.296        1089.755          15.570                                                            
G28  20301178.986      -58735.997         626.013          37.109                                                            
G30  23352500.800      151867.750       -2875.747          25.387    23352415.359      123917.038       -2136.593           7.000
R14  20072030.223      -46558.286         467.547          40.898                                                            
R01  21723322.457     -167551.642        1844.744          20.396                                                            
R23  22410539.406      143369.916       -1797.973          17.804                                                            
R17  22398078.833      -67554.085         861.853          22.871                                                            
J01  37250959.497       21308.864        -230.922          29.204    37250956.200       47712.628        -172.490          24.369
J02  36001971.953       26452.290        -288.331          32.360    36001970.754       61168.247        -215.437          25.181
J04  39332799.569      -59952.725         660.000          35.318    39332800.169     -131963.243         492.872          40.708
C01  36762117.915        5810.142         -68.299          15.297                                                            
C02  37228746.675           0.038         -19.512           7.000                                                            
C03  36145688.261        2846.565         -52.690           7.000                                                            
C06  40188907.298          -9.873         819.511          13.232                                                            
C07  35987619.689       60915.850        -673.816          23.460                                                            
C08  36555588.493       64110.870        -693.850          31.683                                                            
C10  36029748.024        9919.231        -111.181          30.370                                                            
C11  25772581.113         -34.180        1231.218           7.000                                                            
C12  22806127.247        5748.695        -390.322          15.330                                                            
C13  37154107.347       38939.739        -426.177          29.886                                                            
C21  23847558.279     -222327.287        2541.202          15.890                                                            
C22  23553681.326      -46820.099         504.286          28.878                                                            
C24  23112367.641       83740.855       -1038.372          21.879                                                            
C25  25311129.769      -11879.376        1515.076           7.000                                                            
C26  24115707.643      235197.152       -2922.006          35.523                                                            
> 2019 06 10 06 50 44.0004536  0 35
G01  23927283.586        3300.529       -3229.265          17.819                                                            
G02  25022960.565     -119983.947        2176.731          23.694                                                            
G03  21882434.306      111062.158       -1217.975          43.686    21882436.704      177710.181        -909.535          41.639
G06  21824440.055     -132864.600        1414.463          29.509    21824415.472     -215286.323        1056.164          30.467
G07  24966686.523        3119.883       -3055.607          15.830                                                            
G09  25265743.290         -42.216        1327.804          13.771                                                            
G11  24264975.807        2625.815       -2571.705          13.871                                                            
G17  22189128.886      -82898.654         897.689          29.628                                                            
G19  22584766.791     -135969.724        1466.932          35.456                                                            
G22  23757690.993       11842.892       -2458.966           9.035                                                            
G23  25569363.198         -32.322        1089.755          13.401                                                            
G28  20301061.168      -59361.566         625.569          37.154                                                            
G30  23353050.320      154742.310       -2874.560          24.371    23352960.082      126053.632       -2136.593           7.000
R14  20071934.589      -47025.007         466.722          40.374                                                            
R01  21722995.083     -169392.479        1844.345          21.310                                                            
R23  22410924.640      145170.240       -1793.576          18.569                                                            
R17  22397937.630      -68421.352         869.942          23.623                                                            
J01  37251008.364       21539.696        -230.832          29.792    37251005.366       47885.023        -172.395          24.036
J02  36002027.115       26740.505        -288.215          31.574    36002025.916       61383.515        -215.353          25.704
J04  39332676.655      -60613.029         660.304          35.841    39332674.856     -132456.282         493.039          40.746
C01  36762122.412        5879.022         -68.299          18.948                                                            
C02  37228750.872           0.038         -19.512           7.000                                                            
C03  36145697.854        2899.255         -52.690          13.638                                                            
C06  40188749.907          -9.892         819.511           7.000                                                            
C07  35987756.395       61593.616        -677.767          24.409                                                            
C08  36555721.301       64804.464        -693.594          31.573                                                            
C10  36029769.909       10030.356        -111.125          30.124                                                            
C11  25772344.577         -34.209        1231.218           7.000                                                            
C12  22806197.998        6133.622        -387.477          15.340                                                            
C13  37154191.289       39365.916        -426.178          30.435                                                            
C21  23847086.406     -224869.849        2543.506          13.362                                                            
C22  23553587.491      -47324.044         503.945          28.747                                                            
C24  23112567.902       84776.174       -1035.800          22.007                                                            
C25  25310838.671      -13392.984        1518.857           7.000                                                            
C26  24116267.955      238118.997       -2921.846          35.201                                                            
> 2019 06 10 06 50 45.0004536  0 35
G01  23927898.461        3300.402       -3229.265          17.509                                                            
G02  25022547.751     -122160.092        2176.145          23.504                                                            
G03  21882667.245      112280.695       -1218.537          43.629    21882668.744      178620.089        -909.908          41.363
G06  21824171.441     -134278.593        1413.993          28.776    21824146.558     -216342.271        1055.948          30.950
G07  24967267.820        3119.763       -3055.607          12.936                                                            
G09  25265490.265         -42.164        1327.804           7.000                                                            
G11  24265465.668        2625.714       -2571.705          19.660                                                            
G17  22188958.604      -83796.416         897.762          30.014                                                            
G19  22584484.387     -137436.616        1466.892          34.381                                                            
G22  23758180.854       14306.518       -2462.170           8.904                                                            
G23  25569154.842         -32.279        1089.755           7.000                                                            
G28  20300944.549      -59986.742         625.176          37.225                                                            
G30  23353599.839      157616.861       -2874.226          23.871    23353509.602      128190.225       -2136.593           7.000
R14  20071851.846      -47490.982         465.975          40.033                                                            
R01  21722647.024     -171233.669        1841.378          21.417                                                            
R23  22411236.124      146969.814       -1793.163          19.787                                                            
R17  22397806.621      -69288.569         870.195          25.933                                                            
J01  37251054.831       21770.665        -230.970          28.884    37251052.733       48057.480        -172.458          23.968
J02  36002082.877       27028.852        -288.347          30.980    36002081.977       61598.856        -215.287          25.745
J04  39332550.142      -61273.397         660.368          35.494    39332548.643     -132949.420         493.138          40.516
C01  36762143.697        5946.650         -68.299          19.299                                                            
C02  37228754.769           0.039         -19.512           7.000                                                            
C03  36145708.647        2951.944         -52.690           8.586                                                            
C06  40188591.917          -9.911         819.511           7.000                                                            
C07  35987888.903       62271.553        -680.370          24.582                                                            
C08  36555855.608       65498.109        -693.644          31.867                                                            
C10  36029792.094       10141.519        -111.162          30.198                                                            
C11  25772107.741         -34.161        1231.218           7.000                                                            
C12  22806277.742        6520.083        -388.218          13.101                                                            
C13  37154269.534       39792.021        -426.104          29.932                                                            
C21  23846638.516     -227406.449        2536.493          14.169                                                            
C22  23553487.060      -47828.105         504.061          29.213                                                            
C24  23112766.665       85812.034       -1034.340          22.585                                                            
C25  25310547.872      -14909.606        1521.662           7.000                                                            
C26  24116826.768      241041.059       -2922.062          34.709                                                            
> 2019 06 10 06 50 46.0004536  0 35
G01  23928513.035        3300.478       -3229.265          21.046                                                            
G02  25022135.536     -124336.395        2177.552          22.109                                                            
G03  21882898.984      113499.740       -1219.045          43.420    21882901.682      179530.469        -910.380          41.829
G06  21823904.026     -135692.327        1413.734          28.950    21823879.143     -217398.035        1055.764          30.990
G07  24967849.418        3119.835       -3055.607          14.428                                                            
G09  25265237.240         -42.196        1327.804           7.000                                                            
G11  24265954.329        2625.775       -2571.705           8.544                                                            
G17  22188790.420      -84694.474         898.058          30.180                                                            
G19  22584197.785     -138903.750        1467.134          34.745                                                            
G22  23758634.440       16770.460       -2466.338           8.732                                                            
G23  25568947.686         -32.305        1089.755          12.747                                                            
G28  20300823.133      -60611.538         624.795          36.997                                                            
G30  23354151.158      160491.407       -2874.546          24.574    23354054.025      130326.818       -2136.593           7.000
R14  20071750.816      -47956.198         465.216          38.794                                                            
R01  21722315.154     -173075.243        1841.303          21.821                                                            
R23  22411550.606      148763.129       -1788.588          18.586                                                            
R17  22397649.530      -70155.683         867.601          26.022                                                            
J01  37251094.104       22001.425        -230.760          29.095    37251094.404       48229.869        -172.388          24.319
J02  36002140.437       27317.093        -288.241          31.001    36002136.240       61814.030        -215.175          25.783
J04  39332423.030      -61934.077         660.680          34.890    39332422.730     -133442.788         493.367          40.615
C01  36762155.689        6015.978         -68.299          18.494                                                            
C02  37228758.667           0.038         -19.512           7.000                                                            
C03  36145767.706        3004.634         -52.690           7.000                                                            
C06  40188434.526          -9.879         819.511          13.741                                                            
C07  35988015.715       62949.196        -677.965          23.760                                                            
C08  36555989.015       66191.557        -693.448          31.703                                                            
C10  36029813.979       10252.813        -111.294          30.318                                                            
C11  25771871.205         -34.190        1231.218           7.000                                                            
C12  22806369.479        6905.288        -392.474           9.514                                                            
C13  37154349.279       40218.025        -426.004          29.687                                                            
C21  23846208.314     -229937.717        2538.060          17.954                                                            
C22  23553390.227      -48331.282         503.177          27.999                                                            
C24  23112965.427       86848.697       -1035.374          20.898                                                            
C25  25310256.774      -16420.978        1516.088           7.000                                                            
C26  24117393.376      243962.940       -2921.881          34.904                                                            
> 2019 06 10 06 50 47.0004536  0 35
G01  23929127.909        3300.554       -3229.265          15.074                                                            
G02  25021711.330     -126512.384        2176.556          22.472                                                            
G03  21883129.525      114719.253       -1219.513          43.833    21883133.422      180441.093        -910.623          42.131
G06  21823643.506     -137105.783        1413.456          29.469    21823610.229     -218453.587        1055.552          30.686
G07  24968430.715        3119.890       -3054.631          16.711                                                            
G09  25264983.916         -42.242        1328.779           7.000                                                            
G11  24266444.490        2625.835       -2571.705          17.152                                                            
G17  22188626.134      -85592.552         898.078          30.207                                                            
G19  22583919.878     -140370.944        1467.194          34.323                                                            
G22  23759042.457       19232.541       -2472.099           7.872                                                            
G23  25568740.229         -32.330        1089.755           7.000                                                            
G28  20300702.316      -61235.900         624.362          37.041                                                            
G30  23354700.977      163365.787       -2874.058          23.761    23354603.844      132463.411       -2136.593          10.204
R14  20071673.470      -48420.655         464.457          39.455                                                            
R01  21721967.095     -174916.477        1840.306          21.012                                                            
R23  22411917.253      150549.040       -1791.089          18.011                                                            
R17  22397487.642      -71022.753         867.069          25.947                                                            
J01  37251138.773       22232.277        -230.852          29.135    37251135.775       48402.195        -172.722          24.041
J02  36002192.900       27605.417        -288.324          31.084    36002192.601       62029.388        -215.245          25.917
J04  39332294.119      -62594.931         660.854          34.498    39332297.717     -133936.243         493.456          40.630
C01  36762166.782        6083.718         -68.299          16.330                                                            
C02  37228762.864           0.039         -19.512           7.000                                                            
C03  36145775.800        3057.324         -52.690           7.000                                                            
C06  40188277.135          -9.898         819.511           7.000                                                            
C07  35988140.729       63627.195        -677.128          23.649                                                            
C08  36556123.622       66884.989        -693.432          31.829                                                            
C10  36029833.166       10364.064        -111.251          30.477                                                            
C11  25771634.369         -34.219        1231.218           7.000                                                            
C12  22806468.710        7293.252        -393.768          10.771                                                            
C13  37154433.521       40643.984        -425.959          29.514                                                            
C21  23845716.654     -232478.772        2540.176          18.791                                                            
C22  23553286.199      -48833.685         502.630          25.788                                                            
C24  23113167.487       87885.094       -1040.442          20.927                                                            
C25  25309965.975      -17937.951        1514.138           9.531                                                            
C26  24117953.688      246884.863       -2921.923          34.749                                                            
> 2019 06 10 06 50 48.0004536  0 35
G01  23929742.484        3300.428       -3229.265          18.397                                                            
G02  25021303.912     -128689.034        2171.365          20.210                                                            
G03  21883363.063      115939.477       -1220.223          44.446    21883365.162      181352.305        -911.212          42.037
G06  21823381.787     -138518.898        1413.114          29.783    21823340.416     -219508.773        1055.186          30.121
G07  24969012.312        3119.771       -3054.631           7.000                                                            
G09  25264730.891         -42.190        1328.779           7.000                                                            
G11  24266954.437        4678.287       -2574.255          18.845                                                            
G17  22188459.749      -86490.631         898.079          29.925                                                            
G19  22583636.574     -141838.033        1467.089          34.187                                                            
G22  23759512.832           4.455       -2467.315          18.326                                                            
G23  25568533.073         -32.288        1089.755           7.000                                                            
G28  20300583.898      -61859.664         623.764          37.374                                                            
G30  23355243.302      166240.313       -2874.182          24.332    23355148.267      134600.005       -2136.593           7.000
R14  20071580.834      -48884.037         463.382          38.796                                                            
R01  21721619.336     -176757.226        1836.330          23.136                                                            
R23  22412204.454      152330.166       -1790.652          16.581                                                            
R17  22397329.951      -71889.725         866.973          25.363                                                            
J01  37251179.245       22463.193        -230.916          28.225    37251183.442       48574.555        -172.360          23.432
J02  36002245.964       27893.932        -288.515          30.391    36002245.064       62244.798        -215.473          26.524
J04  39332169.706      -63255.719         660.788          34.522    39332171.204     -134429.724         493.481          40.609
C01  36762180.272        6151.594         -68.299          13.639                                                            
C02  37228766.761           0.039         -19.512           7.000                                                            
C03  36145788.691        3110.013         -52.690           7.000                                                            
C06  40188119.744          -9.866         819.511           7.000                                                            
C07  35988274.736       64305.248        -677.004          24.084                                                            
C08  36556256.730       67578.481        -693.492          31.908                                                            
C10  36029852.652       10475.657        -111.593          30.557                                                            
C11  25771397.833         -34.170        1231.218           7.000                                                            
C12  22806547.256        7675.936        -389.715          13.140                                                            
C13  37154514.165       41070.195        -426.211          29.747                                                            
C21  23845224.694     -235020.464        2540.420          18.266                                                            
C22  23553185.769      -49335.920         502.538          23.309                                                            
C24  23113393.531       88922.231       -1041.481          20.749                                                            
C25  25309675.176      -19457.158        1514.138           7.000                                                            
C26  24118514.300      249806.922       -2922.059          34.857                                                            
> 2019 06 10 06 50 49.0004536  0 35
G01  23930355.859        3300.465       -3227.314          18.291                                                            
G02  25020902.789     -130861.853        2173.646          21.503                                                            
G03  21883594.203      117160.108       -1220.632          44.220    21883597.800      182263.865        -911.560          41.732
G06  21823114.372     -139931.618        1412.720          29.866    21823073.001     -220563.709        1054.936          30.395
G07  24969592.411        3119.809       -3052.680           7.000                                                            
G09  25264477.566         -42.253        1330.730           7.000                                                            
G11  24267455.090        7253.702       -2572.686          19.961                                                            
G17  22188286.769      -87388.873         898.241          30.489                                                            
G19  22583358.067     -143305.209        1467.176          33.662                                                            
G22  23759980.808           4.358       -2466.339           9.315                                                            
G23  25568324.417         -32.343        1091.706           7.000                                                            
G28  20300463.981      -62483.085         623.421          37.182                                                            
G30  23355795.519      169114.736       -2874.423          24.433    23355698.386      136736.454       -2136.593           7.058
R14  20071499.290      -49346.737         462.700          39.182                                                            
R01  21721262.283     -178594.209        1842.113          21.990                                                            
R23  22412554.012      154117.804       -1786.840          14.582                                                            
R17  22397171.661      -72756.642         871.936          24.332                                                            
J01  37251224.814       22694.011        -230.818          27.482    37251224.214       48747.096        -172.859          23.923
J02  36002303.824       28182.353        -288.421          30.635    36002298.727       62460.209        -215.411          26.076
J04  39332045.591      -63916.782         661.063          34.783    39332045.591     -134923.393         493.669          40.443
C01  36762160.786        6218.239         -68.299          18.382                                                            
C02  37228769.759           0.034         -17.561           7.000                                                            
C03  36145796.786        3161.145         -52.690          15.488                                                            
C06  40187961.453          -9.897         821.463           8.383                                                            
C07  35988402.747       64983.495        -678.040          23.193                                                            
C08  36556392.236       68271.806        -693.325          32.100                                                            
C10  36029874.237       10587.232        -111.576          30.058                                                            
C11  25771160.697         -34.227        1233.170          19.452                                                            
C12  22806617.707        8072.346        -382.600          13.750                                                            
C13  37154597.507       41496.244        -426.049          30.244                                                            
C21  23844730.936     -237562.139        2544.248          18.408                                                            
C22  23553099.728      -49837.954         502.034          25.264                                                            
C24  23113591.094       89959.543       -1035.685          19.133                                                            
C25  25309383.478      -20972.826        1514.139           7.000                                                            
C26  24119072.813      252728.946       -2922.024          33.816                                                            
> 2019 06 10 06 50 50.0004536  0 35
G01  23930970.434        3300.540       -3227.314          21.074                                                            
G02  25020498.070     -133034.074        2178.977          21.206                                                            
G03  21883829.540      118381.230       -1221.121          44.041    21883829.840      183175.736        -911.871          41.674
G06  21822854.152     -141344.206        1412.588          28.763    21822802.288     -221618.550        1054.842          30.274
G07  24970173.708        3119.881       -3052.680          13.057                                                            
G09  25264224.541         -42.284        1330.730          17.530                                                            
G11  24267953.945        9831.843       -2571.628          20.165                                                            
G17  22188114.688      -88287.451         898.578          30.782                                                            
G19  22583076.561     -144772.664        1467.455          33.282                                                            
G22  23760451.182           4.416       -2466.339           7.000                                                            
G23  25568117.261         -32.368        1091.706           7.000                                                            
G28  20300346.163      -63106.227         623.142          37.716                                                            
G30  23356339.643      171988.938       -2874.201          23.588    23356243.409      138871.144       -2135.660           7.000
R14  20071405.755      -49808.805         462.068          38.370                                                            
R01  21720890.540     -180434.184        1845.687          21.688                                                            
R23  22412827.722      155900.749       -1779.183          15.385                                                            
R17  22396980.993      -73623.716         871.272          22.864                                                            
J01  37251266.185       22924.791        -230.780          28.410    37251269.483       48919.278        -171.819          23.708
J02  36002358.086       28470.709        -288.356          29.861    36002354.788       62675.545        -215.725          25.642
J04  39331916.681      -64578.180         661.398          34.328    39331919.978     -135417.275         493.882          40.802
C01  36762186.268        6284.209         -66.348          15.494                                                            
C02  37228773.956           0.035         -17.561           7.000                                                            
C03  36145806.679        3211.490         -50.738          15.040                                                            
C06  40187804.062          -9.916         821.463           7.000                                                            
C07  35988536.155       65661.715        -677.935          23.874                                                            
C08  36556526.543       68964.978        -693.172          32.328                                                            
C10  36029893.124       10698.696        -111.464          30.367                                                            
C11  25770924.160       -1020.162        1233.163           7.000                                                            
C12  22806687.259        8453.491        -385.564           8.699                                                            
C13  37154680.850       41922.092        -425.848          30.715                                                            
C21  23844158.932     -240104.072        2545.412          21.853                                                            
C22  23553003.195      -50339.629         499.116          24.750                                                            
C24  23113796.152       90997.118       -1034.692          18.198                                                            
C25  25309093.279       -1560.218        1514.145           7.000                                                            
C26  24119634.624      255650.878       -2921.932          33.863                                                            
> 2019 06 10 06 50 51.0004536  0 35
G01  23931584.109        3300.414       -3227.314          20.979                                                            
G02  25020066.668     -135217.424        2177.523          18.911                                                            
G03  21884058.881      119602.877       -1221.647          44.064    21884062.179      184087.969        -912.233          41.950
G06  21822590.635     -142756.488        1412.281          28.803    21822532.475     -222673.137        1054.587          29.699
G07  24970755.306        3119.762       -3052.680           8.544                                                            
G09  25263971.516         -42.247        1331.706          14.640                                                            
G11  24268446.204       12402.824       -2572.517          20.298                                                            
G17  22187943.506      -89186.017         898.566          30.806                                                            
G19  22582802.251     -146240.084        1467.420          33.703                                                            
G22  23760920.957           4.320       -2467.315          11.901                                                            
G23  25567908.905         -32.326        1091.706           7.000                                                            
G28  20300229.244      -63728.845         622.618          37.245                                                            
G30  23356881.068      174862.984       -2875.706          21.451    23356791.430      141011.657       -2138.461           8.421
R14  20071323.912      -50269.971         461.166          38.510                                                            
R01  21720579.056     -182273.320        1842.958          22.414                                                            
R23  22413143.404      157692.912       -1782.638          14.524                                                            
R17  22396830.197      -74489.559         867.252          19.520                                                            
J01  37251314.751       23155.522        -230.731          30.034    37251316.550       49091.639        -172.361          22.567
J02  36002416.246       28759.127        -288.418          29.456    36002409.950       62890.873        -215.328          25.307
J04  39331798.263      -65239.699         661.520          35.194    39331794.066     -135911.238         493.963          40.785
C01  36762200.658        6351.248         -66.348          16.344                                                            
C02  37228777.254           0.034         -17.561           7.000                                                            
C03  36145817.771        3262.229         -50.738           9.989                                                            
C06  40187645.472          -9.884         821.463           7.000                                                            
C07  35988664.166       66339.870        -678.581          22.198                                                            
C08  36556658.452       69658.134        -693.156          32.510                                                            
C10  36029914.709       10810.372        -111.676          30.059                                                            
C11  25770687.324       -2253.324        1233.163           7.000                                                            
C12  22806760.708        8837.200        -396.699          11.297                                                            
C13  37154761.794       42348.049        -425.957          30.927                                                            
C21  23843682.262     -242645.710        2541.656          24.938                                                            
C22  23552913.257      -50840.768         498.460          26.042                                                            
C24  23114003.608       92035.085       -1035.771          19.312                                                            
C25  25308801.881       -1560.159        1514.145           7.000                                                            
C26  24120194.637      258572.853       -2921.975          33.920                                                            
