     3.04           OBSERVATION DATA    M: Mixed            RINEX VERSION / TYPE
Higeo_Hi1105        Huawei CBG          20220126 062147 UTC PGM / RUN BY / DATE 
************************************************************COMMENT             
* If you have any problem,                                 *COMMENT             
*     please contact with LBS Technology Group, thanks.    *COMMENT             
*                                                          *COMMENT             
* Version Higeo2RinexV1.1 2020.07.21                       *COMMENT             
* Fuction:  Convert Higeo Log to Rinex file                *COMMENT             
*                                                          *COMMENT             
* Note that the verision support B1C B2A signal            *COMMENT             
*     BDS: C1D L1D D1D S1D indicate BDS B1C                *COMMENT             
*     BDS: C5D L5D D5D S5D indicate BDS B2A                *COMMENT             
*     Reference: RINEX V3.04                               *COMMENT             
*                                                          *COMMENT             
* Copyright(C) Huawei Technologies Co., Ltd. 2019 - 2020   *COMMENT             
*     All rights reserved.                                 *COMMENT             
************************************************************COMMENT             
                                                            MARKER NAME         
                                                            MARKER NUMBER       
                                                            MARKER TYPE         
                                                            OBSERVER / AGENCY   
                                                            REC # / TYPE / VERS 
                                                            ANT # / TYPE        
        0.0000        0.0000        0.0000                  APPROX POSITION XYZ 
        0.0000        0.0000        0.0000                  ANTENNA: DELTA H/E/N
G    8 C1C L1C D1C S1C C5I L5I D5I S5I                      SYS / # / OBS TYPES 
R    4 C1C L1C D1C S1C                                      SYS / # / OBS TYPES 
E    8 C1C L1C D1C S1C C5I L5I D5I S5I                      SYS / # / OBS TYPES 
J    8 C1C L1C D1C S1C C5I L5I D5I S5I                      SYS / # / OBS TYPES 
C   12 C2I L2I D2I S2I C1D L1D D1D S1D C5D L5D D5D S5D      SYS / # / OBS TYPES 
  2022     1    25     6    53   56.0000000     GPS         TIME OF FIRST OBS   
  2022     1    25     7    16   20.0000000     GPS         TIME OF LAST OBS    
G                                                           SYS / PHASE SHIFT   
R                                                           SYS / PHASE SHIFT   
E                                                           SYS / PHASE SHIFT   
J                                                           SYS / PHASE SHIFT   
C                                                           SYS / PHASE SHIFT   
  0                                                         GLONASS SLOT / FRQ #
 C1C    0.000 C1P    0.000 C2C    0.000 C2P    0.000        GLONASS COD/PHS/BIS 
                                                            END OF HEADER       
> 2022  1 25  6 53 56.0000000  0  2                     
G 8                    -17453.912       -2102.221          29.000                                                                  
G27                      -280.912        -302.674          27.000                                                                  
> 2022  1 25  6 53 58.0000000  0  7                     
G 4                      4596.321         897.155          33.000                                                                  
G 8                    -28512.901       -2105.438          22.000                                                                  
G 9                     -3563.583       -1049.528          30.000                                                                  
G16                     10847.451        1665.818          29.000                                                                  
G18                      5286.627        1168.789          19.000                                                                  
G26                     13166.975        2751.254          26.000                                                                  
G27                     -1850.982        -296.963          20.000                                                                  
> 2022  1 25  6 53 59.0000000  0  9                     
G 4                      9309.762         894.998          37.000                                                                  
G 8                    -39581.952       -2107.715          34.000                                                                  
G 9                     -9073.915       -1046.845          32.000                                                                  
G16                     19614.257        1669.296          29.000                                                                  
G18                     11424.398        1163.899          32.000                                                                  
G26                     27614.908        2747.279          29.000                                                                  
G27                     -3404.717        -294.615          29.000                                                                  
G31                     15126.780        3326.806          19.000                                                                  
R 3                                                        33.000  
> 2022  1 25  6 54  0.0000000  0 11                     
G 4                     14012.431         895.180          33.000                                                                  
G 8                    -50654.520       -2109.611          32.000                                                                  
G 9                    -14586.158       -1048.811          29.000                                                                  
G16                     28379.187        1664.829          32.000                                                                  
G18                     17539.871        1161.524          32.000                                                                  
G26                     42066.136        2750.586          27.000                                                                  
G27                     -4946.529        -293.934          32.000                                                                  
G31                     32607.926        3324.668          24.000                                                                  
R 3                                                        29.000  
R24                                                        20.000  
C11                    -11058.083       -2198.405          27.000                                                                                                                                  
> 2022  1 25  6 54  1.0000000  0 11                     
G 4                     18713.151         893.348          31.000                                                                  
G 8                    -61737.073       -2108.628          32.000                                                                  
G 9                    -20098.994       -1049.517          30.000                                                                  
G16                     37123.328        1664.393          34.000                                                                  
G18                     23640.124        1163.087          31.000                                                                  
G26                     56511.365        2746.536          30.000                                                                  
G27                     -6512.508        -297.574          36.000                                                                  
G31                     50077.348        3324.522          24.000                                                                  
R 3                                                        33.000  
R24                                                        18.000  
C11                    -22586.673       -2221.665          23.000                                                                                                                                  
> 2022  1 25  6 54  2.0000000  0 12                     
G 4                     23405.417         893.687          30.000                                                                  
G 8                    -72820.758       -2110.937          28.000                                                                  
G 9                    -25625.059       -1051.303          27.000                                                                  
G16                     45869.343        1662.427          24.000                                                                  
G18                     29746.775        1160.989          22.000                                                                  
G26                     70936.997        2745.156          28.000                                                                  
G27                     -8077.024        -298.848          26.000                                                                  
G31                     67538.429        3320.737          21.000                                                                  
R 3                                                        30.000  
R24                                                        20.000  
C11                    -34235.528       -2241.858          25.000                                                                                                                                  
C25                     -5935.674        -896.948          32.000                                                                                                                                  
> 2022  1 25  6 54  3.0000000  0 12                     
G 4                     28079.665         886.481          30.000                                                                  
G 8                    -83907.974       -2108.091          29.000                                                                  
G 9                    -31167.339       -1059.754          29.000                                                                  
G16                     54599.553        1658.194          32.000                                                                  
G18                     35832.234        1154.575          27.000                                                                  
G26                     85348.802        2739.905          30.000                                                                  
G27                     -9644.678        -300.002          28.000                                                                  
G31                     84992.889        3321.073          20.000                                                                  
R 3                                                        26.000  
R24                                                        20.000  
C11                    -45967.841       -2252.417          15.000                                                                                                                                  
C25                    -10615.446        -901.260          30.000                                                                                                                                  
> 2022  1 25  6 54  4.0000000  0 11                     
G 4                     32742.581         889.397          31.000                                                                  
G 8                    -94993.532       -2109.413          23.000                                                                  
G 9                    -36734.090       -1057.470          27.000                                                                  
G16                     63320.742        1660.490          30.000                                                                  
G18                     41898.449        1153.098          19.000                                                                  
G26                     99744.673        2738.107          30.000                                                                  
G27                    -11208.834        -295.499          29.000                                                                  
G31                    102448.093        3321.045          19.000                                                                  
R 3                                                        21.000  
C11                    -57685.501       -2248.978          18.000                                                                                                                                  
C25                    -15299.285        -897.473          29.000                                                                                                                                  
> 2022  1 25  6 54  5.0000000  0 11                     
G 4                     37418.353         894.592          26.000                                                                  
G 8                   -106082.447       -2111.610          23.000                                                                  
G 9                    -42295.287       -1056.537          25.000                                                                  
G16                     72043.121        1662.292          27.000                                                                  
G18                     47963.696        1152.824          25.000                                                                  
G26                    114126.259           0.005          25.000                                                                  
G27                    -12762.614        -294.374          24.000                                                                  
G31                    119904.553        3320.100          21.000                                                                  
R 3                                                        20.000  
C11                    -69400.986       -2249.536          21.000                                                                                                                                  
C25                    -19987.471        -903.442          25.000                                                                                                                                  
> 2022  1 25  6 54  6.0000000  0 12                     
G 4                     42105.915         891.153          22.000                                                                  
G 8                   -117176.620       -2110.510          19.000                                                                  
G 9                    -47861.683       -1058.301          28.000                                                                  
G16                     80753.629        1655.775          35.000                                                                  
G18                     54033.048        1155.107          24.000                                                                  
G26                    128531.217        2744.091          28.000                                                                  
G27                    -14322.440        -297.422          22.000                                                                  
G31                    137370.195        3324.447          21.000                                                                  
R 3                                                        17.000  
R12                                                        21.000  
C11                    -81119.881       -2251.312          19.000                                                                                                                                  
C25                    -24695.241        -905.240          23.000                                                                                                                                  
> 2022  1 25  6 54  7.0000000  0 12                     
G 4                     46769.342         886.049          29.000                                                                  
G 8                   -128273.544       -2113.751          27.000                                                                  
G 9                    -53446.035       -1062.927          27.000                                                                  
G16                     89443.325        1655.302          29.000                                                                  
G18                     60107.837        1155.663          22.000                                                                  
G26                    142943.202        2741.913          29.000                                                                  
G27                    -15892.871        -298.469          22.000                                                                  
G31                    154836.402        3322.385          20.000                                                                  
R 3                                                        17.000  
R12                                                        20.000  
C11                    -92858.891       -2256.242          18.000                                                                                                                                  
C25                    -29407.626        -904.738          22.000                                                                                                                                  
> 2022  1 25  6 54  8.0000000  0 12                     
G 4                     51416.594         885.280          27.000                                                                  
G 8                   -139373.182       -2111.573          27.000                                                                  
G 9                    -59015.293       -1057.301          33.000                                                                  
G16                     98146.394        1659.926          29.000                                                                  
G18                     66181.714        1155.566          23.000                                                                  
G26                    157349.215        2735.228          34.000                                                                  
G27                    -17463.503        -298.851          23.000                                                                  
G31                    172276.601           0.002          25.000                                                                  
R 3                                                        14.000  
R12                                                        22.000  
C11                   -104599.822       -2254.560          18.000                                                                                                                                  
C25                    -34113.377        -903.359          25.000                                                                                                                                  
> 2022  1 25  6 54 10.0000000  0 12                     
G 4                     59661.736         891.909          27.000                                                                  
G 8                   -158962.232       -2109.745          30.000                                                                  
G 9                    -68843.879       -1059.701          30.000                                                                  
G16                    113507.951        1657.761          29.000                                                                  
G18                     76872.998        1152.624          24.000                                                                  
G26                    182703.246        2738.577          27.000                                                                  
G27                    -20246.064        -302.964          23.000                                                                  
G31                    203012.527        3316.470          31.000                                                                  
R 3                                                        15.000  
R12                                                        19.000  
R24                                                        20.000  
C11                   -125306.883       -2253.515          22.000                                                                                                                                  
> 2022  1 25  6 54 11.0000000  0 18                     
G 4                     64349.797         890.736          27.000                                                                  
G 8                   -170051.655       -2111.083          23.000                                                                  
G 9                    -74407.196       -1064.161          31.000                                                                  
G16                    122221.483        1652.994          24.000                                                                  
G18                     82931.536        1152.606          19.000                                                                  
G26                    197094.451        2741.145          30.000                                                                  
G27                    -21835.905        -302.359          23.000                                                                  
G31                    220458.601        3321.273          22.000                                                                  
R 3                                                        15.000  
R12                                                        18.000  
R24                                                        17.000  
E36                      5975.856        1418.272          21.000                                                                  
C 7                      6010.427         763.685          21.000                                                                                                                                  
C 9                      4950.728         779.456          20.000                                                                                                                                  
C11                   -137043.566       -2254.634          21.000                                                                                                                                  
C24                      9897.688        1406.927          32.000                                                                                                                                  
C26                     37162.806        2775.187          20.000                                                                                                                                  
C34                     -9473.219       -1315.602          20.000                                                                                                                                  
> 2022  1 25  6 54 12.0000000  0 24                     
G 4                     69009.005         884.949          30.000                                                                  
G 8                   -181165.451       -2117.549          28.000                                                                  
G 9                    -79996.091       -1064.865          27.000                                                                  
G16                    130922.690        1656.196          29.000                                                                  
G18                     88991.304        1153.625          20.000                                                                  
G26                    211505.539        2739.698          28.000                                                                  
G27                    -23421.426        -302.960          26.000                                                                  
G31                    237895.740        3317.495          19.000                                                                  
R 3                                                        13.000  
R12                                                        19.000  
R24                                                        21.000  
E 8                     47367.535        3590.129          30.000                                                                  
E36                     13418.215        1414.493          22.000                                                                  
J 1                     93103.843        1298.352          26.000                                                                  
J 2                      5675.416         544.192          26.000                                                                  
J 3                     66203.030         967.324          27.000                                                                  
C 7                      9989.387         763.268          23.000                                                                                                                                  
C 9                      9001.817         776.590          22.000                                                                                                                                  
C10                      5403.239         697.742          25.000                                                                                                                                  
C11                   -148774.273       -2257.164          20.000                                                                                                                                  
C24                     17231.709        1409.600          30.000                                                                                                                                  
C25                    -11800.138        -901.887          17.000                                                                                                                                  
C26                     51601.018        2773.767          21.000                                                                                                                                  
C34                    -16323.113       -1315.958          24.000                                                                                                                                  
> 2022  1 25  6 54 13.0000000  0 25                     
G 4                     73660.114         886.565          24.000                                                                  
G 8                   -192282.694       -2116.712          22.000                                                                  
G 9                    -85579.585       -1056.415          32.000                                                                  
G16                    139632.125        1655.711          27.000                                                                  
G18                     95061.116        1156.232          24.000                                                                  
G26                    225898.194        2737.549          32.000                                                                  
G27                    -24999.796        -300.128          21.000                                                                  
G31                    255331.165        3316.497          23.000                                                                  
R 3                                                        14.000  
R12                                                        17.000  
R24                                                        20.000  
E 2                     14169.086        2222.997          27.000                                                                  
E 8                     66244.044        3590.513          20.000                                                                  
E36                     20846.627        1414.086          25.000                                                                  
J 1                     99931.401        1298.497          21.000                                                                  
J 2                      8532.472         542.212          30.000                                                                  
J 3                     71268.480         963.352          25.000                                                                  
C 7                     13968.589         764.620          21.000                                                                                                                                  
C 9                     13047.672         776.857          23.000                                                                                                                                  
C10                      9041.326         699.565          21.000                                                                                                                                  
C11                   -160526.248       -2256.593          23.000                                                                                                                                  
C24                     24549.274        1402.125          28.000                                                                                                                                  
C25                    -16503.153        -904.291          17.000                                                                                                                                  
C26                     66036.594        2769.489          20.000                                                                                                                                  
C34                    -23184.581       -1319.720          22.000                                                                                                                                  
> 2022  1 25  6 54 14.0000000  0 26                     
G 4                     78316.761         886.923          25.000                                                                  
G 8                   -203400.207       -2116.093          27.000                                                                  
G 9                    -91121.964       -1055.778          26.000                                                                  
G16                    148341.869        1659.520          26.000                                                                  
G18                    101143.166        1158.805          23.000                                                                  
G26                    240286.976        2734.468          25.000                                                                  
G27                    -26582.206        -301.150          24.000                                                                  
G31                    272768.968        3319.033          24.000                                                                  
R 3                                                        15.000  
R12                                                        18.000  
R24                                                        26.000  
E 2                     25880.194        2231.366          29.000                                                                  
E 8                     85117.900        3590.543          24.000                                                                  
E36                     28292.794        1417.412          20.000                                                                  
J 1                    106759.164        1301.151          23.000                                                                  
J 2                     11376.976         538.023          24.000                                                                  
J 3                     76342.398         965.099          21.000                                                                  
C 7                     17941.359         761.387          24.000                                                                                                                                  
C 9                     17097.349         778.797          20.000                                                                                                                                  
C10                     12696.565         701.500          22.000                                                                                                                                  
C11                   -172272.914       -2257.275          20.000                                                                                                                                  
C12                      1513.717         232.336          22.000                                                                                                                                  
C24                     31853.036        1403.771          25.000                                                                                                                                  
C25                    -21204.921        -901.810          17.000                                                                                                                                  
C26                     80460.146        2769.214          22.000                                                                                                                                  
C34                    -30046.672       -1315.057          26.000                                                                                                                                  
> 2022  1 25  6 54 15.0000000  0 26                     
G 4                     82981.856         888.404          26.000                                                                  
G 8                   -214522.800       -2117.813          23.000                                                                  
G 9                    -96653.450       -1052.418          33.000                                                                  
G16                    157052.707        1660.041          27.000                                                                  
G18                    107235.677        1157.942          19.000                                                                  
G26                    254671.643        2735.442          24.000                                                                  
G27                    -28164.746        -301.676          22.000                                                                  
G31                    290211.810        3316.797          25.000                                                                  
R 3                                                        15.000  
R12                                                        18.000  
R24                                                        20.000  
E 2                     37599.446        2230.320          22.000                                                                  
E 8                    103984.219        3589.782          20.000                                                                  
E36                     35760.169        1422.432          20.000                                                                  
J 1                    113585.682        1295.430          24.000                                                                  
J 2                     14204.318         537.516          25.000                                                                  
J 3                     81420.873         966.644          20.000                                                                  
C 7                     21905.221         761.395          21.000                                                                                                                                  
C 9                     21154.409         778.396          22.000                                                                                                                                  
C10                     16347.572         701.348          20.000                                                                                                                                  
C11                   -184023.261       -2257.928          20.000                                                                                                                                  
C12                      2739.277         237.773          24.000                                                                                                                                  
C24                     39168.496        1403.682          24.000                                                                                                                                  
C25                    -25903.555        -901.096          16.000                                                                                                                                  
C26                     94892.705        2773.193          22.000                                                                                                                                  
C34                    -36895.346       -1315.537          23.000                                                                                                                                  
> 2022  1 25  6 54 16.0000000  0 27                     
G 4                     87645.997         888.626          23.000                                                                  
G 8                   -225647.305       -2116.295          29.000                                                                  
G 9                   -102197.089       -1056.976          23.000                                                                  
G16                    165752.841        1653.500          30.000                                                                  
G18                    113333.671        1161.583          20.000                                                                  
G26                    269057.351        2738.935          32.000                                                                  
G27                    -29749.337        -300.674          22.000                                                                  
G31                    307646.693        3317.584          28.000                                                                  
R 3                                                        14.000  
R12                                                        19.000  
R24                                                        21.000  
E 2                     49314.902        2228.942          26.000                                                                  
E 8                    122854.968        3591.708          24.000                                                                  
E15                     -5285.149       -2166.183          29.000                                                                  
E30                      6462.448         964.305          28.000                                                                  
E36                     43216.180        1418.650          24.000                                                                  
J 1                    120400.828        1296.383          26.000                                                                  
J 2                     17035.372         539.924          23.000                                                                  
J 3                     86502.311         966.833          21.000                                                                  
C 9                     25201.446         775.755          22.000                                                                                                                                  
C10                     19999.848         702.842          22.000                                                                                                                                  
C11                   -195783.408       -2257.560          24.000                                                                                                                                  
C12                      3969.524         234.668          22.000                                                                                                                                  
C24                     46496.927        1407.987          30.000                                                                                                                                  
C25                    -30599.868        -902.212          16.000                                                                                                                                  
C26                    109336.110        2774.866          29.000                                                                                                                                  
C34                    -43748.185       -1315.500          23.000                                                                                                                                  
> 2022  1 25  6 54 17.0000000  0 29                     
G 4                     92313.708         889.158          23.000                                                                  
G 8                   -236772.054       -2119.210          25.000                                                                  
G 9                   -107751.006       -1055.708          23.000                                                                  
G16                    174462.560        1653.734          32.000                                                                  
G18                    119436.673        1160.179          21.000                                                                  
G26                    283458.502        2739.424          30.000                                                                  
G27                    -31324.086        -299.013          25.000                                                                  
G31                    325098.071        3320.767          23.000                                                                  
R 3                                                        15.000  
R12                                                        18.000  
R24                                                        20.000  
E 2                     61022.251        2228.070          28.000                                                                  
E 7                      6134.286        1840.031          24.000                                                                  
E 8                    141721.789        3589.029          22.000                                                                  
E15                    -16661.709       -2166.320          27.000                                                                  
E30                     11528.495         963.837          29.000                        2306.813         722.488          19.000  
E36                     50653.581        1416.041          24.000                                                                  
J 1                    127205.556        1294.777          27.000                                                                  
J 2                     19868.272         536.981          30.000                                                                  
J 3                     91589.016         967.546          20.000                                                                  
C 7                      6516.325         759.544          19.000                                                                                                                                  
C 9                     29242.150         776.893          21.000                                                                                                                                  
C10                     23656.067         700.901          20.000                                                                                                                                  
C11                   -207541.377       -2257.205          25.000                                                                                                                                  
C12                      5181.691         232.226          21.000                                                                                                                                  
C24                     53840.966        1407.748          31.000                                                                                                                                  
C25                    -35296.758        -900.288          16.000                                                                                                                                  
C26                    123798.777        2777.947          23.000                                                                                                                                  
C34                    -50602.638       -1316.640          27.000                                                                                                                                  
> 2022  1 25  6 54 18.0000000  0 29                     
G 4                     96988.573         889.851          21.000                                                                  
G 8                   -247891.926       -2114.727          25.000                                                                  
G 9                   -113302.953       -1057.222          17.000                                                                  
G16                    183149.740        1654.634          34.000                                                                  
G18                    125533.597        1159.761          26.000                                                                  
G26                    297848.266        2735.925          36.000                                                                  
G27                    -32901.987        -300.013          23.000                                                                  
G31                    342541.688        3318.577          25.000                                                                  
R 3                                                        16.000  
R12                                                        17.000  
R24                                                        23.000  
E 2                     72729.135        2225.283          22.000                                                                  
E 7                     15787.177        1836.997          22.000                                                                  
E 8                    160578.060        3584.133          22.000                                                                  
E15                    -28037.586       -2165.128          26.000                                                                  
E30                     16600.503         965.327          33.000                        5128.226         716.573          20.000  
E36                     58096.523        1418.391          24.000                                                                  
J 1                    134009.805        1294.312          25.000                                                                  
J 2                     22680.007         536.641          26.000                        3242.441         402.380          20.000  
J 3                     96684.800         969.928          22.000                                                                  
C 7                      3912.485         757.487          24.000                                                                                                                                  
C 9                     33288.243         775.982          24.000                                                                                                                                  
C10                     27296.575         698.485          18.000                                                                                                                                  
C11                   -219297.985       -2259.907          23.000                                                                                                                                  
C12                      6392.547         232.995          25.000                                                                                                                                  
C24                     61146.824        1403.196          28.000                                                                                                                                  
C25                    -39991.033        -901.853          17.000                                                                                                                                  
C26                    138264.985        2777.424          18.000                                                                                                                                  
C34                    -57451.615       -1314.393          27.000                                                                                                                                  
> 2022  1 25  6 54 19.0000000  0 29                     
G 4                    101653.911         888.468          19.000                                                                  
G 8                   -259014.662       -2116.218          23.000                                                                  
G 9                   -118866.366       -1060.361          18.000                                                                  
G16                    191847.194        1651.025          29.000                                                                  
G18                    131617.999        1158.405          28.000                                                                  
G26                    312247.794        2736.706          33.000                                                                  
G27                    -34476.251        -298.745          24.000                                                                  
G31                    359969.739        3315.781          22.000                                                                  
R 3                                                        16.000  
R12                                                        16.000  
R24                                                        21.000  
E 2                      7864.980        2225.764          23.000                                                                  
E 7                     25446.476        1839.099          24.000                                                                  
E 8                    179429.939        3588.567          20.000                                                                  
E15                    -39414.070       -2165.246          25.000                                                                  
E30                     21677.936         966.864          28.000                        7967.101         722.436          19.000  
E36                     65560.603        1419.497          24.000                                                                  
J 1                    140826.761        1297.366          21.000                                                                  
J 2                     25528.358         540.731          27.000                        4828.190         401.345          23.000  
J 3                    101784.517         969.612          21.000                                                                  
C 7                      7850.441         756.528          19.000                                                                                                                                  
C 9                     37330.699         774.401          21.000                                                                                                                                  
C10                     30929.933         698.760          17.000                                                                                                                                  
C11                   -231055.918       -2258.883          20.000                                                                                                                                  
C12                      7617.730         233.417          21.000                                                                                                                                  
C24                     68461.591        1405.883          29.000                                                                                                                                  
C25                    -44687.580        -901.610          17.000                                                                                                                                  
C26                    152732.267        2776.344          19.000                                                                                                                                  
C34                    -64297.811       -1318.672          20.000                                                                                                                                  
> 2022  1 25  6 54 20.0000000  0 29                     
G 4                    106324.871         890.850          18.000                                                                  
G 8                   -270134.700       -2116.156          19.000                                                                  
G 9                   -124436.816       -1059.181          17.000                                                                  
G16                    200525.262        1657.375          30.000                                                                  
G18                    137718.159        1162.833          28.000                                                                  
G26                    326639.613        2742.590          33.000                                                                  
G27                    -36047.130        -301.355          24.000                                                                  
G31                    377391.338        3314.964          23.000                                                                  
R 3                                                        17.000  
R12                                                        19.000  
R24                                                        25.000  
E 2                     19550.096        2226.405          27.000                                                                  
E 7                     35092.978        1834.827          20.000                                                                  
E 8                    198290.186        3588.390          19.000                                                                  
E15                    -50790.581       -2164.874          24.000                                                                  
E30                     26761.172         966.353          29.000                       10795.419         720.073          20.000  
E36                     73017.156        1424.426          23.000                                                                  
J 1                    147640.576        1295.293          24.000                                                                  
J 2                     28361.563         540.571          27.000                        6399.026         400.440          18.000  
J 3                    106874.920         968.390          22.000                                                                  
C 7                     11796.084         756.599          20.000                                                                                                                                  
C 9                     41374.401         777.085          20.000                                                                                                                                  
C10                     34562.674         699.201          17.000                                                                                                                                  
C11                   -242824.545       -2262.128          20.000                                                                                                                                  
C12                      8838.456         236.135          25.000                                                                                                                                  
C24                     75777.935        1405.680          30.000                                                                                        5234.407        1062.509          25.000  
C25                    -49393.433        -904.854          17.000                                                                                                                                  
C26                    167185.999        2776.262          27.000                                                                                                                                  
C34                    -71158.303       -1317.487          21.000                                                                                                                                  
> 2022  1 25  6 54 21.0000000  0 30                     
G 4                    110998.596         889.445          17.000                                                                  
G 8                   -281251.211       -2117.888          22.000                                                                  
G 9                   -129999.827       -1058.283          14.000                                                                  
G16                    209223.701        1658.805          27.000                                                                  
G18                    143830.693        1160.152          21.000                                                                  
G26                    341019.175        2735.368          30.000                                                                  
G27                    -37621.025        -298.468          23.000                                                                  
G31                    394803.544        3314.734          23.000                                                                  
R 3                                                        23.000  
R12                                                        18.000  
R24                                                        23.000  
E 2                     31244.913        2227.438          25.000                       13951.505        1663.205          20.000  
E 7                     44732.729        1833.079          24.000                       17886.826        1375.486          18.000  
E 8                    217149.991        3590.831          19.000                                                                  
E15                    -62170.167       -2166.013          22.000                                                                  
E30                     31826.541         965.282          27.000                       13615.787         718.156          20.000  
E36                     80493.045        1425.548          24.000                                                                  
J 1                    154456.632        1296.112          24.000                                                                  
J 2                     31193.730         542.420          25.000                        7969.859         400.537          19.000  
J 3                    111964.440         969.171          22.000                                                                  
C 6                     20274.936        1325.705          17.000                                                                                                                                  
C 7                     15738.072         758.676          18.000                                                                                                                                  
C 9                     45416.543         776.221          24.000                                                                                                                                  
C10                     38207.289         700.913          15.000                                                                                                                                  
C11                   -254596.614       -2259.951          21.000                                                                                                                                  
C12                     10065.116         237.733          22.000                                                                                                                                  
C24                     83099.518        1409.682          28.000                                                                                        9387.839        1061.295          22.000  
C25                    -54104.997        -904.534          16.000                                                                                                                                  
C26                    181645.943        2781.539          25.000                                                                                                                                  
C34                    -78016.251       -1316.453          24.000                                                                                                                                  
> 2022  1 25  6 54 22.0000000  0 30                     
G 4                    115675.013         889.634          14.000                                                                  
G 8                   -292372.410       -2115.859          24.000                                                                  
G 9                   -135561.284       -1059.225          15.000                                                                  
G16                    217925.215        1653.645          25.000                                                                  
G18                    149920.035        1156.115          23.000                                                                  
G26                    355401.768        2748.628          29.000                                                                  
G27                    -39186.480        -294.690          23.000                                                                  
G31                    412226.697        3315.465          22.000                                                                  
R 3                                                        18.000  
R12                                                        18.000  
R24                                                        22.000  
E 2                     42938.894        2223.543          23.000                                                                  
E 7                     54374.427        1830.435          27.000                       23279.056        1374.450          17.000  
E 8                    236007.646        3588.846          20.000                                                                  
E15                    -73575.805       -2171.919          23.000                                                                  
E30                     36895.330         964.458          24.000                       16419.436         717.458          19.000  
E36                     87952.704        1418.700          23.000                       12838.620        1073.840          19.000  
J 1                    161259.675        1294.367          22.000                                                                  
J 2                     34028.090         542.888          26.000                        9556.895         410.272          19.000  
J 3                    117047.273         967.245          22.000                                                                  
C 6                     27166.592        1323.624          17.000                                                                                                                                  
C 7                     19675.106         756.028          17.000                                                                                                                                  
C 9                     49450.728         774.334          22.000                                                                                                                                  
C10                     41857.369         701.013          14.000                                                                                                                                  
C11                   -266363.140       -2258.748          21.000                                                                                                                                  
C12                     11296.735         235.894          24.000                                                                                                                                  
C24                     90425.884        1405.414          27.000                                                                                       13547.925        1060.104          23.000  
C25                    -58818.078        -906.496          17.000                                                                                                                                  
C26                    196103.733        2777.296          24.000                                                                                                                                  
C34                    -84875.009       -1318.712          23.000                                                                                                                                  
> 2022  1 25  6 54 23.0000000  0 31                     
G 4                    120349.863         891.118          14.000                                                                  
G 8                   -303488.867       -2116.128          31.000                                                                  
G 9                   -141118.523           0.001          16.000                                                                  
G16                    226623.099        1657.234          29.000                                                                  
G18                    155989.108        1150.854          27.000                                                                  
G26                    369808.557        2740.836          29.000                                                                  
G27                    -40735.605        -294.951          22.000                                                                  
G31                    429651.977        3315.717          24.000                                                                  
R 3                                                        15.000  
R12                                                        18.000  
R13                                                        20.000  
R24                                                        23.000  
E 2                     54613.486        2221.115          27.000                                                                  
E 7                     64020.009        1836.603          29.000                       28668.258        1373.162          15.000  
E 8                    254869.224        3588.559          25.000                                                                  
E15                    -84982.921       -2165.217          24.000                      -28779.540       -1617.794          15.000  
E30                     41964.776         962.588          26.000                       19232.552         719.812          19.000  
E36                     95410.742        1421.089          21.000                       17037.308        1068.000          17.000  
J 1                    168052.656        1292.407          25.000                                                                  
J 2                     36868.949         540.758          24.000                       11152.318         404.385          19.000  
J 3                    122122.988         966.101          19.000                                                                  
C 6                     34050.473        1324.070          18.000                                                                                                                                  
C 7                     23604.833         755.303          16.000                                                                                                                                  
C 9                     53477.547         771.947          20.000                                                                                                                                  
C10                     45509.079         700.391          15.000                                                                                                                                  
C11                   -278117.496       -2257.393          22.000                                                                                                                                  
C12                     12525.989         233.964          22.000                                                                                                                                  
C24                     97744.837        1403.968          26.000                                                                                       17713.495        1064.011          21.000  
C25                    -63549.586        -910.097          25.000                                                                                                                                  
C26                    210560.641        2776.536          23.000                                                                                                                                  
C34                    -91742.332       -1322.943          24.000                                                                                                                                  
> 2022  1 25  6 54 24.0000000  0 31                     
G 4                    125027.389         889.723          15.000                                                                  
G 8                   -314599.622       -2119.127          29.000                                                                  
G 9                   -146665.597           0.001          16.000                                                                  
G16                    235314.461        1651.828          33.000                                                                  
G18                    162047.670        1153.226          27.000                                                                  
G26                    384194.679        2739.209          30.000                                                                  
G27                    -42296.931        -302.706          28.000                                                                  
G31                    447076.961        3316.595          20.000                                                                  
R 3                                                        13.000  
R12                                                        16.000  
R13                                                        18.000  
R24                                                        25.000  
E 2                     66290.415        2226.512          24.000                       33513.299        1663.886          19.000  
E 7                                                                                     34054.286        1373.173          17.000  
E 8                    273716.685        3585.621          24.000                                                                  
E15                    -96373.005       -2169.033          23.000                      -35132.324       -1617.263          15.000  
E30                     47033.686         960.821          30.000                       22053.931         717.677          21.000  
E36                    102866.646        1417.972          22.000                       21221.137        1065.746          17.000  
J 1                    174850.192        1293.523          24.000                                                                  
J 2                     39691.443         534.037          30.000                       12730.490         399.431          18.000  
J 3                    127197.056         965.633          20.000                                                                  
C 6                     40912.697        1319.915          19.000                                                                                                                                  
C 7                     27537.451         753.558          17.000                                                                                                                                  
C 9                     57501.543         772.945          26.000                                                                                                                                  
C10                     49153.273           0.003          13.000                                                                                                                                  
C11                   -289873.528       -2258.126          25.000                                                                                                                                  
C12                     13750.729         235.962          23.000                                                                                                                                  
C24                    105056.593        1402.235          30.000                                                                                       21875.833        1062.684          18.000  
C25                    -68289.907        -912.506          28.000                                                                                                                                  
C26                    225016.094        2773.127          22.000                                                                                                                                  
C34                    -98611.142       -1322.077          28.000                                                                                                                                  
> 2022  1 25  6 54 25.0000000  0 31                     
G 4                    129703.875         890.505          14.000                                                                  
G 8                   -325726.744       -2116.544          26.000                                                                  
G 9                   -152218.293       -1054.113          15.000                                                                  
G16                    243998.670        1654.207          28.000                                                                  
G18                    168109.677        1153.376          25.000                                                                  
G26                    398587.031        2740.560          31.000                                                                  
G27                    -43865.756        -296.186          33.000                                                                  
G31                    464506.557        3314.832          25.000                                                                  
R 3                                                        11.000  
R12                                                        17.000  
R13                                                        18.000  
R24                                                        28.000  
E 2                     77972.858        2219.350          22.000                       40037.277        1663.164          19.000  
E 7                     83341.319        1838.523          27.000                       39443.530        1373.109          25.000  
E 8                    292564.415        3584.931          20.000                                                                  
E15                   -107786.157       -2171.897          24.000                      -41491.229       -1621.573          17.000  
E30                     52097.664         964.510          25.000                       24881.840         719.026          20.000  
E36                    110322.409        1417.620          21.000                       25408.010        1068.603          15.000  
J 1                    181636.288        1289.545          20.000                                                                  
J 2                     42492.423         534.996          29.000                       14298.555         400.408          24.000  
J 3                    132279.625         968.225          32.000                                                                  
C 6                     47781.278        1319.729          25.000                                                                                                                                  
C 7                     31457.908         751.152          14.000                                                                                                                                  
C 9                     61528.580         774.412          28.000                                                                                                                                  
C10                     52789.737           0.003          14.000                                                                                                                                  
C11                   -301630.969       -2257.386          27.000                                                                                                                                  
C12                     14990.388         237.001          27.000                                                                                                                                  
C24                    112354.733        1402.188          35.000                                                                                       26036.773        1061.169          27.000  
C25                    -73020.753        -907.296          22.000                                                                                                                                  
C26                    239438.844        2768.935          24.000                                                                                                                                  
C34                   -105476.683       -1313.636          33.000                                                                                                                                  
> 2022  1 25  6 54 26.0000000  0 30                     
G 4                    134386.322           0.002          15.000                                                                  
G 8                   -336846.625       -2116.299          29.000                                                                  
G 9                   -157761.783       -1055.288          17.000                                                                  
G16                    252688.554        1654.627          25.000                                                                  
G18                    174184.072        1154.988          28.000                                                                  
G26                    412961.331        2733.470          31.000                                                                  
G27                    -45402.533        -294.603          24.000                                                                  
G31                    481939.251        3314.641          21.000                                                                  
R 3                                                        13.000  
R12                                                        20.000  
R13                                                        18.000  
R24                                                        23.000  
E 2                     89638.327        2223.181          24.000                       46565.190        1665.040          18.000  
E 7                     93003.832        1838.244          24.000                       44828.945        1374.490          20.000  
E 8                    311415.596        3588.329          24.000                                                                  
E15                   -119224.432       -2173.928          27.000                      -47863.260       -1623.569          16.000  
E30                     57165.308         964.105          26.000                       27704.665         719.904          20.000  
E36                    117773.690        1418.966          28.000                       29592.641        1065.480          19.000  
J 1                    188421.244        1292.506          23.000                                                                  
J 2                     45310.020         532.427          26.000                       15862.520         398.140          21.000  
J 3                    137371.370         965.922          24.000                                                                  
C 6                     54654.681        1319.868          22.000                                                                                                                                  
C 7                     35373.204         751.106          13.000                                                                                                                                  
C 9                     65562.897         774.895          25.000                                                                                                                                  
C11                   -313378.615       -2253.977          23.000                                                                                                                                  
C12                     16204.603         232.523          19.000                                                                                                                                  
C24                    119630.513        1398.950          27.000                                                                                       30196.682        1063.741          22.000  
C25                    -77747.236        -908.688          21.000                                                                                                                                  
C26                    253858.349        2768.288          22.000                                                                                                                                  
C34                   -112308.665       -1313.642          23.000                                                                                                                                  
> 2022  1 25  6 54 27.0000000  0 31                     
G 4                    139067.557           0.002          16.000                                                                  
G 8                   -347960.667       -2115.750          23.000                                                                  
G 9                   -163307.121       -1054.023          17.000                                                                  
G16                    261376.990        1655.357          26.000                                                                  
G18                    180266.785        1159.896          29.000                                                                  
G26                    427342.886        2734.463          31.000                                                                  
G27                    -46955.172        -295.537          24.000                       -1809.856        -221.148          15.000  
G31                    499365.637        3313.068          26.000                                                                  
R 3                                                        17.000  
R12                                                        18.000  
R13                                                        20.000  
R22                                                        20.000  
R24                                                        24.000  
E 2                    101337.580        2228.927          23.000                       53087.253        1661.088          17.000  
E 7                    102675.414        1839.757          22.000                       50223.554        1375.753          18.000  
E 8                    330270.040        3588.376          25.000                                                                  
E15                   -130646.183       -2170.084          22.000                      -54233.705       -1623.200          14.000  
E30                     62229.964         964.651          26.000                       30532.447         722.133          22.000  
E36                    125232.205        1415.439          26.000                       33768.800        1063.714          24.000  
J 1                    195217.070        1293.255          23.000                                                                  
J 2                     48118.464         533.677          26.000                       17428.167         399.915          22.000  
J 3                    142444.224         966.002          22.000                                                                  
C 6                     61519.956        1317.313          19.000                                                                                                                                  
C 7                     39291.625          -0.072          15.000                                                                                                                                  
C 9                     69594.000         774.669          21.000                                                                                                                                  
C11                   -325123.058       -2254.995          19.000                                                                                                                                  
C12                     17430.890         236.199          23.000                                                                                                                                  
C24                    126952.223        1405.527          27.000                                                                                       34360.031        1061.502          23.000  
C25                    -82474.425        -907.385          17.000                                                                                                                                  
C26                    268277.258        2769.021          20.000                                                                                                                                  
C34                   -119168.569       -1320.732          28.000                                                                                                                                  
> 2022  1 25  6 54 28.0000000  0 30                     
G 4                    143756.333         892.750          15.000                                                                  
G 8                   -359078.660       -2115.183          23.000                                                                  
G 9                   -168844.242       -1051.817          17.000                                                                  
G16                    270071.849        1655.194          33.000                                                                  
G18                    186359.893        1160.050          29.000                       12225.091         883.107          18.000  
G26                    441723.059        2737.170          30.000                                                                  
G27                    -48499.362        -293.792          20.000                       -2685.284        -223.024          14.000  
G31                    516789.143        3315.630          27.000                                                                  
R 3                                                        15.000  
R12                                                        18.000  
R13                                                        20.000  
R24                                                        25.000  
E 2                    113035.881        2224.790          28.000                                                                  
E 7                    112343.301        1838.587          19.000                       55624.317        1376.052          16.000  
E 8                    349127.416        3586.563          20.000                                                                  
E15                   -142050.528       -2172.870          21.000                                                                  
E30                     67300.918         964.522          30.000                       33356.533         719.905          23.000  
E36                    132682.260        1419.282          26.000                       37949.283        1064.036          24.000  
J 1                    202020.337        1294.752          25.000                                                                  
J 2                     50923.474         535.462          25.000                       19000.928         398.044          22.000  
J 3                    147523.084         967.014          23.000                                                                  
C 6                     68382.365        1318.735          18.000                                                                                                                                  
C 7                     43213.900          -0.072          14.000                                                                                                                                  
C 9                     73623.540         772.110          17.000                                                                                                                                  
C11                   -336867.580       -2255.721          21.000                                                                                                                                  
C12                     18664.320         237.299          21.000                                                                                                                                  
C24                    134273.690        1406.140          29.000                                                                                       38521.210        1061.179          24.000  
C25                    -87201.595        -908.266          15.000                                                                                                                                  
C26                    282691.130        2768.604          25.000                                                                                                                                  
C34                   -126035.708       -1318.743          24.000                                                                                                                                  
> 2022  1 25  6 54 29.0000000  0 30                     
G 4                    148447.802         892.922          14.000                                                                  
G 8                   -370187.479       -2109.188          32.000                       -3839.668       -1577.847          24.000  
G 9                   -174374.125       -1053.111          16.000                                                                  
G16                    278783.191        1657.472          30.000                                                                  
G18                    192453.732        1159.732          29.000                       15670.940         874.909          19.000  
G26                    456081.660        2737.151          31.000                                                                  
G27                    -50044.789        -292.249          23.000                       -3565.020        -224.393          18.000  
G31                    534231.961        3322.672          25.000                                                                  
R 3                                                        14.000  
R12                                                        19.000  
R13                                                        18.000  
R24                                                        26.000  
E 2                    124698.695        2217.536          25.000                       66131.409        1663.451          17.000  
E 7                    122006.931        1840.882          23.000                       61012.924        1369.982          17.000  
E 8                    367968.228        3584.208          20.000                                                                  
E15                   -153476.799       -2177.073          26.000                                                                  
E30                     72378.870         967.331          30.000                       36186.930         719.487          27.000  
E36                    140131.376        1418.799          27.000                       42108.861        1058.275          19.000  
J 1                    208830.887        1294.043          25.000                                                                  
J 2                     53739.811         535.318          24.000                       20564.342         397.027          22.000  
J 3                    152600.378         964.782          22.000                                                                  
C 6                     75244.210        1317.806          17.000                                                                                                                                  
C 7                     47150.986          -0.072          12.000                                                                                                                                  
C 9                     77634.537         768.962          17.000                                                                                                                                  
C11                   -348613.769       -2254.893          21.000                                                                                                                                  
C12                     19902.615         237.609          23.000                                                                                                                                  
C24                    141590.152        1401.592          28.000                                                                                       42680.802        1058.437          22.000  
C25                    -91924.808        -906.225          15.000                                                                                                                                  
C26                    297103.986        2767.288          22.000                                                                                                                                  
C34                   -132898.266       -1317.981          28.000                                                                                                                                  
> 2022  1 25  6 54 30.0000000  0 29                     
G 4                    153135.988         893.440          15.000                                                                  
G 8                   -381273.752       -2111.502          23.000                      -10026.195       -1576.634          23.000  
G 9                   -179900.840       -1051.745          14.000                                                                  
G16                    287473.766        1654.006          28.000                                                                  
G18                    198551.809        1159.188          24.000                       19105.481         877.974          23.000  
G26                    470486.327        2739.656          27.000                                                                  
G27                    -51587.759        -294.484          23.000                       -4439.736        -221.169          17.000  
G31                    551672.181        3317.260          28.000                                                                  
R 3                                                        11.000  
R12                                                        19.000  
R13                                                        19.000  
R24                                                        22.000  
E 2                    136362.164        2219.878          21.000                       72663.867        1664.710          17.000  
E 7                    131669.316        1839.763          27.000                       66390.397        1369.741          18.000  
E 8                    386803.812        3584.689          16.000                                                                  
E15                   -164899.986       -2172.913          23.000                      -73332.193       -1623.061          17.000  
E30                     77451.665         965.748          28.000                       39017.019         721.677          23.000  
E36                    147587.709        1419.088          29.000                       46268.225        1063.877          23.000  
J 1                    215613.233        1290.730          23.000                                                                  
J 2                     56545.105         533.035          26.000                       22134.157         397.329          19.000  
C 6                     82111.119        1319.211          19.000                                                                                                                                  
C 7                     51106.254          -0.072          13.000                                                                                                                                  
C 9                     81649.227         773.894          18.000                                                                                                                                  
C11                   -360360.600       -2257.475          23.000                                                                                                                                  
C12                     21135.135         236.664          21.000                                                                                                                                  
C24                    148890.033        1403.599          27.000                                                                                       46841.673        1055.405          25.000  
C25                    -96638.515        -904.697          15.000                                                                                                                                  
C26                    311517.428        2769.182          30.000                                                                                                                                  
C34                   -139763.874       -1317.969          25.000                                                                                                                                  
> 2022  1 25  6 54 31.0000000  0 28                     
G 4                    157830.122           0.002          17.000                                                                  
G 8                   -392374.877       -2111.529          28.000                      -16212.978       -1578.007          19.000  
G 9                   -185431.288       -1053.217          15.000                                                                  
G16                    296165.297        1652.866          28.000                                                                  
G18                    204654.775        1160.519          27.000                       22533.208         871.242          20.000  
G26                    484868.043        2733.181          28.000                                                                  
G27                    -53138.716        -296.003          28.000                       -5304.117        -219.841          20.000  
G31                    569102.015        3319.984          27.000                                                                  
R 3                                                        14.000  
R13                                                        18.000  
R24                                                        25.000  
E 2                    148034.459        2222.018          20.000                       79181.210        1656.028          19.000  
E 7                    141333.100        1839.591          23.000                       71776.368        1377.092          21.000  
E 8                    405640.760        3584.820          16.000                                                                  
E15                   -176325.527       -2172.395          22.000                      -79700.353       -1621.217          20.000  
E30                     82522.304         963.719          28.000                       41853.575         720.257          24.000  
E36                    155061.522        1422.659          22.000                       50465.399        1066.502          20.000  
J 1                    222381.574        1285.161          22.000                                                                  
J 2                     59334.816         530.760          25.000                       23697.065         398.491          20.000  
C 6                     88982.339        1319.016          22.000                                                                                                                                  
C 7                     55061.918          -0.072          17.000                                                                                                                                  
C 9                     85676.059         773.726          23.000                                                                                                                                  
C11                   -372126.967       -2262.319          22.000                                                                                                                                  
C12                     22372.697         237.082          20.000                                                                                                                                  
C24                    156195.319        1403.070          28.000                                                                                       50985.548        1055.573          23.000  
C25                   -101342.104        -902.184          15.000                                                                                                                                  
C26                    325951.032        2769.885          35.000                                                                                                                                  
C34                   -146620.792       -1315.327          32.000                                                                                                                                  
> 2022  1 25  6 54 32.0000000  0 29                     
G 4                    162524.815           0.002          18.000                                                                  
G 8                   -403467.368       -2109.606          25.000                      -22397.609       -1576.268          16.000  
G 9                   -190973.565       -1055.421          16.000                                                                  
G16                    304859.715        1656.757          28.000                                                                  
G18                    210774.900        1165.460          27.000                       25969.190         872.714          20.000  
G26                    499250.745        2735.995          31.000                                                                  
G27                    -54698.699        -296.006          27.000                       -6164.183        -220.335          18.000  
G31                    586564.975        3323.305          25.000                                                                  
R 3                                                        15.000  
R12                                                        20.000  
R13                                                        17.000  
R24                                                        26.000  
E 2                    159715.611        2221.448          25.000                       85689.530        1659.041          18.000  
E 7                    150998.170        1840.959          25.000                       77166.376        1372.108          20.000  
E 8                    424493.565        3587.089          16.000                                                                  
E15                   -187747.009       -2169.750          24.000                      -86052.940       -1621.422          17.000  
E30                     87587.509         963.709          26.000                       44685.314         719.121          23.000  
E36                    162535.775        1424.856          25.000                       54651.746        1064.829          20.000  
J 1                    229147.176        1288.234          22.000                                                                  
J 2                     62120.140         531.061          25.000                       25263.114         397.628          20.000  
C 6                     95845.913        1318.276          20.000                                                                                                                                  
C 7                     59020.882          -0.072          13.000                                                                                                                                  
C 9                     89704.256         773.381          24.000                                                                                                                                  
C11                   -383899.713       -2258.682          25.000                                                                                                                                  
C12                     23607.910         237.015          20.000                                                                                                                                  
C24                    163509.633        1404.203          27.000                                                                                       55155.787        1060.002          24.000  
C25                   -106047.592        -904.497          15.000                                                                                                                                  
C26                    340397.880        2772.642          28.000                                                                                                                                  
C34                   -153497.314       -1317.965          25.000                                                                                                                                  
> 2022  1 25  6 54 33.0000000  0 30                     
G 4                    167212.873         893.524          17.000                                                                  
G 8                   -414550.440       -2110.386          23.000                                                                  
G 9                   -196511.362           0.001          16.000                                                                  
G16                    313574.737        1656.276          35.000                                                                  
G18                    216899.961        1165.782          23.000                       29401.569         871.552          20.000  
G26                    513624.553        2734.086          25.000                                                                  
G27                    -56248.284        -294.697          21.000                       -7029.989        -219.743          20.000  
G31                    603999.304        3311.583          33.000                                                                  
R 3                                                        14.000  
R12                                                        20.000  
R13                                                        18.000  
R24                                                        21.000  
E 2                    171380.465        2219.844          23.000                       92207.395        1660.555          17.000  
E 7                    160671.588        1843.279          22.000                       82533.933        1371.688          23.000  
E 8                    443347.384        3587.910          12.000                                                                  
E15                   -199153.419       -2172.314          24.000                      -92411.606       -1619.967          18.000  
E30                     92658.092         964.044          32.000                       47508.358         718.605          23.000  
E36                    170016.162        1424.316          24.000                       58834.614        1063.130          17.000  
J 1                    235917.992        1290.289          23.000                                                                  
J 2                     64917.083         532.002          25.000                       26817.535         395.842          20.000  
J 3                    172849.828         963.185          26.000                                                                  
C 6                    102713.165        1316.492          18.000                                                                                                                                  
C 7                     62987.183          -0.072          15.000                                                                                                                                  
C 9                     93737.442         773.639          20.000                                                                                                                                  
C11                   -395659.942       -2257.223          22.000                                                                                                                                  
C12                     24846.214         238.793          19.000                                                                                                                                  
C24                    170827.567        1403.632          23.000                                                                                       59330.844        1062.678          23.000  
C25                   -110770.928        -907.636          15.000                                                                                                                                  
C26                    354829.140        2775.807          25.000                                                                                                                                  
C34                   -160354.251       -1315.941          24.000                                                                                                                                  
> 2022  1 25  6 54 34.0000000  0 30                     
G 4                    171908.670         894.300          17.000                                                                  
G 8                   -425651.289       -2113.143          24.000                                                                  
G 9                   -202036.875           0.001          16.000                                                                  
G16                    322284.510        1657.925          33.000                                                                  
G18                    223033.552        1167.633          24.000                       32848.667         873.898          17.000  
G26                    528008.821        2736.050          23.000                                                                  
G27                    -57799.745        -295.501          24.000                       -7907.974        -224.128          23.000  
G31                    621399.539        3311.213          29.000                                                                  
R 3                                                        13.000  
R12                                                        20.000  
R13                                                        19.000  
R24                                                        20.000  
E 2                    183056.974        2224.463          23.000                       98726.345        1662.400          17.000  
E 7                    170346.149        1839.426          23.000                       87909.352        1370.557          23.000  
E 8                    462206.001        3589.008          12.000                                                                  
E15                   -210578.213       -2176.554          24.000                      -98769.243       -1620.553          18.000  
E30                     97729.289         964.421          32.000                       50342.801         718.549          20.000  
E36                    177485.751        1423.876          22.000                       63014.021        1065.595          17.000  
J 1                    242697.262        1288.153          21.000                                                                  
J 2                     67712.036         531.630          22.000                       28370.236         393.533          19.000  
J 3                    177909.020         960.345          35.000                                                                  
C 6                    109565.920        1315.961          19.000                                                                                                                                  
C 7                     66949.664          -0.072          13.000                                                                                                                                  
C 9                     97762.198         772.915          26.000                                                                                                                                  
C11                   -407418.697       -2257.602          21.000                                                                                                                                  
C12                     26083.734         236.808          22.000                                                                                                                                  
C24                    178141.818        1403.402          23.000                                                                                       63503.780        1062.377          20.000  
C25                   -115498.985           0.009          17.000                                                                                                                                  
C26                    369262.787        2769.803          30.000                                                                                                                                  
C34                   -167202.882       -1314.626          22.000                                                                                                                                  
> 2022  1 25  6 54 35.0000000  0 30                     
G 4                    176613.442         895.799          17.000                                                                  
G 8                   -436750.509       -2112.331          24.000                                                                  
G 9                   -207558.310           0.001          13.000                                                                  
G16                    331008.605        1659.653          29.000                                                                  
G18                    229164.130        1168.803          25.000                       36278.682         873.587          18.000  
G26                    542379.094        2734.584          29.000                                                                  
G27                    -59354.475        -296.046          20.000                       -8767.067        -218.905          27.000  
G31                    638818.872        3317.156          25.000                                                                  
R 3                                                        12.000  
R12                                                        19.000  
R13                                                        18.000  
R24                                                        18.000  
E 2                    194755.119        2225.755          27.000                      105250.859        1661.717          18.000  
E 7                    180016.709        1839.513          27.000                       93292.129        1368.748          23.000  
E 8                    481062.555        3587.925          12.000                                                                  
E15                   -222014.511       -2175.234          23.000                                                                  
E30                    102795.146         964.489          29.000                       53161.837         716.045          22.000  
E36                    184969.303        1423.461          23.000                       67204.401        1070.169          21.000  
J 1                    249462.398        1288.730          21.000                                                                  
J 2                     70502.750         531.066          21.000                       29913.877         399.389          21.000  
J 3                    182968.573         960.951          26.000                                                                  
C 6                    116416.480        1315.618          20.000                                                                                                                                  
C 7                     70906.692          -0.072          12.000                                                                                                                                  
C 9                    101794.919         774.358          24.000                                                                                                                                  
C11                   -419182.338       -2261.770          25.000                                                                                                                                  
C12                     27319.642         237.925          25.000                                                                                                                                  
C24                    185454.410        1406.009          28.000                                                                                       67668.656        1062.153          22.000  
C25                   -120224.580           0.009          17.000                                                                                                                                  
C26                    383693.285        2765.580          29.000                                                                                                                                  
C34                   -174050.631       -1313.995          27.000                                                                                                                                  
> 2022  1 25  6 54 36.0000000  0 30                     
G 4                    181318.477         895.200          18.000                                                                  
G 8                   -447843.430       -2112.811          28.000                                                                  
G 9                   -213078.410           0.001          16.000                                                                  
G16                    339720.031        1658.486          34.000                                                                  
G18                    235298.109        1166.074          23.000                       39712.741         875.378          21.000  
G26                    556751.923        2737.950          29.000                                                                  
G27                    -60899.815        -294.564          28.000                       -9626.327        -216.314          23.000  
G31                    656241.965        3315.190          31.000                                                                  
R 3                                                        13.000  
R12                                                        19.000  
R13                                                        19.000  
R24                                                        22.000  
E 2                    206428.412        2215.113          31.000                      111764.865        1658.641          20.000  
E 7                    189675.349        1838.127          24.000                       98674.706        1371.188          22.000  
E 8                    499918.445        3588.368          13.000                                                                  
E15                   -233441.912       -2173.622          21.000                     -111493.548       -1620.688          19.000  
E30                    107869.803         965.854          32.000                       55983.573         721.993          21.000  
E36                    192455.503        1425.974          24.000                       71414.036        1071.074          18.000  
J 1                    256243.259        1294.700          23.000                                                                  
J 2                     73291.454         529.800          24.000                       31472.855         394.506          20.000  
J 3                    188022.649         963.949          23.000                                                                  
C 6                    123266.219        1316.398          22.000                                                                                                                                  
C 7                     74863.141          -0.072          13.000                                                                                                                                  
C 9                    105809.504         770.744          24.000                                                                                                                                  
C11                   -430949.923       -2257.381          25.000                                                                                                                                  
C12                     28555.572         238.023          25.000                                                                                                                                  
C24                    192765.937        1402.755          25.000                                                                                       71836.465        1063.388          24.000  
C25                   -124947.218           0.009          17.000                                                                                                                                  
C26                    398100.072        2767.363          24.000                                                                                                                                  
C34                   -180896.463       -1314.579          26.000                                                                                                                                  
> 2022  1 25  6 54 37.0000000  0 30                     
G 4                    186021.003         893.376          20.000                                                                  
G 8                   -458953.603       -2113.164          30.000                                                                  
G 9                   -218611.328           0.001          17.000                                                                  
G16                    348446.605        1659.677          26.000                                                                  
G18                    241435.796        1169.323          20.000                       43149.069         881.777          21.000  
G26                    571118.262        2729.522          30.000                                                                  
G27                    -62434.341        -290.070          26.000                      -10479.017        -222.977          22.000  
G31                    673669.825        3318.193          29.000                                                                  
R 3                                                        16.000  
R12                                                        19.000  
R13                                                        17.000  
R24                                                        23.000  
E 2                    218068.169        2218.179          27.000                      118280.339        1659.479          19.000  
E 7                    199330.063        1837.044          27.000                      104044.369        1369.027          21.000  
E 8                    518778.291        3589.188          12.000                                                                  
E15                   -244866.644       -2179.323          21.000                                                                  
E30                    112942.232         964.853          22.000                       58817.980         721.459          18.000  
E36                    199954.832        1427.660          21.000                       75624.111        1071.103          16.000  
J 1                    263035.831        1292.977          23.000                                                                  
J 2                     76080.655         531.038          26.000                       33025.644         402.184          21.000  
J 3                    193080.891         961.408          25.000                                                                  
C 6                    130124.345        1318.356          19.000                                                                                                                                  
C 7                     78819.837          -0.072          16.000                                                                                                                                  
C 9                    109829.755         774.057          22.000                                                                                                                                  
C11                   -442716.753       -2261.353          20.000                                                                                                                                  
C12                     29798.145         239.173          28.000                                                                                                                                  
C24                    200080.699        1407.992          27.000                                                                                       75999.749        1062.089          22.000  
C25                   -129683.240        -912.238          16.000                                                                                                                                  
C26                    412511.626        2767.069          26.000                                                                                                                                  
C34                   -187756.802       -1319.284          24.000                                                                                                                                  
> 2022  1 25  6 54 38.0000000  0 30                     
G 4                    190717.524         893.069          24.000                                                                  
G 8                   -470062.265       -2111.537          29.000                                                                  
G 9                   -224144.780       -1051.331          18.000                                                                  
G16                    357169.383        1658.526          19.000                                                                  
G18                    247568.759        1164.693          21.000                       46598.343         879.636          20.000  
G26                    585442.870        2726.215          29.000                                                                  
G27                    -63971.157        -291.586          30.000                      -11354.368        -220.636          22.000  
G31                    691098.647        3316.419          26.000                                                                  
R 3                                                        14.000  
R12                                                        21.000  
R13                                                        20.000  
R24                                                        26.000  
E 2                    229737.072        2221.986          23.000                      124796.356        1660.517          16.000  
E 7                    208994.631        1837.795          25.000                      109422.049        1365.020          21.000  
E 8                    537637.907        3589.312          14.000                                                                  
E15                   -256306.405       -2176.119          25.000                     -124209.241       -1622.167          17.000  
E30                    118004.744         965.493          18.000                       61641.645         717.573          15.000  
E36                    207461.582        1427.165          23.000                       79830.873        1071.608          17.000  
J 1                    269816.581        1289.771          24.000                                                                  
J 2                     78857.633         531.571          25.000                       34611.675         400.665          19.000  
J 3                    198142.912         961.142          25.000                                                                  
C 6                    136993.378        1320.234          22.000                                                                                                                                  
C 7                     82776.735          -0.072          14.000                                                                                                                                  
C 9                    113853.172         771.452          21.000                                                                                                                                  
C11                   -454480.084       -2256.565          20.000                                                                                                                                  
C12                     31036.325         238.277          23.000                                                                                                                                  
C24                    207404.152        1406.633          28.000                                                                                       80167.286        1061.658          23.000  
C25                   -134433.353        -911.567          20.000                                                                                                                                  
C26                    426924.956        2769.437          25.000                                                                                                                                  
C34                   -194608.471       -1314.804          26.000                                                                                                                                  
> 2022  1 25  6 54 39.0000000  0 31                     
G 4                    195422.583         894.986          24.000                                                                  
G 8                   -481150.519       -2110.584          23.000                                                                  
G 9                   -229671.237       -1051.836          17.000                                                                  
G16                    365873.763        1656.245          17.000                                                                  
G18                    253694.816        1166.605          23.000                       50051.642         882.189          23.000  
G26                    599790.954        2738.512          28.000                                                                  
G27                    -65498.524        -286.287          28.000                      -12213.604        -220.491          26.000  
G31                    708527.408        3317.448          27.000                                                                  
R 3                                                        16.000  
R12                                                        20.000  
R13                                                        20.000  
R24                                                        25.000  
E 2                    241412.855        2223.618          21.000                      131315.216        1661.456          17.000  
E 7                    218667.718        1839.747          26.000                      114792.918        1369.543          20.000  
E 8                    556508.323        3591.028          11.000                                                                  
E15                   -267741.118       -2172.966          25.000                     -130571.515       -1622.676          18.000  
E27                    -18279.102        -560.007          20.000                                                                  
E30                    123082.317         964.187          16.000                       64459.784         720.143          13.000  
E36                    214956.850        1424.624          21.000                       84031.932        1066.585          20.000  
J 1                    276597.535        1292.911          21.000                                                                  
J 2                     81653.580         532.430          22.000                       36181.721         397.752          19.000  
J 3                    203193.326         961.675          23.000                                                                  
C 6                    143858.095        1314.590          24.000                                                                                                                                  
C 7                     86733.699          -0.072          14.000                                                                                                                                  
C 9                    117875.303         772.653          24.000                                                                                                                                  
C11                   -466230.122       -2256.533          17.000                                                                                                                                  
C12                     32268.221         235.485          20.000                                                                                                                                  
C24                    214727.349        1406.270          28.000                                                                                       84317.856        1057.817          23.000  
C25                   -139179.630        -911.429          18.000                                                                                                                                  
C26                    441347.643        2770.045          23.000                                                                                                                                  
C34                   -201445.523       -1312.889          23.000                                                                                                                                  
> 2022  1 25  6 54 40.0000000  0 31                     
G 4                    200128.809         891.203          25.000                                                                  
G 8                   -492251.076       -2116.164          24.000                                                                  
G 9                   -235199.491       -1051.056          17.000                                                                  
G16                    374586.545        1658.390          15.000                                                                  
G18                    259830.339        1167.100          20.000                       53492.820         884.099          21.000  
G26                    614173.452        2740.683          27.000                                                                  
G27                    -67037.752        -289.507          27.000                      -13070.099        -219.304          23.000  
G31                    725962.538        3321.691          28.000                                                                  
R 3                                                        12.000  
R12                                                        20.000  
R13                                                        20.000  
R24                                                        24.000  
E 2                    253083.764        2221.948          25.000                      137824.948        1657.716          17.000  
E 7                    228347.054        1842.375          26.000                      120177.054        1372.383          20.000  
E 8                    575381.150        3591.986          10.000                                                                  
E15                   -279163.998       -2170.890          29.000                     -136929.146       -1618.468          18.000  
E27                    -21216.509        -557.704          18.000                                                                  
E30                    128159.342         968.201          14.000                       67288.846         721.067          13.000  
E36                    222440.103        1425.899          18.000                       88220.221        1066.129          19.000  
J 1                    283379.959        1292.208          18.000                                                                  
J 2                     84447.844         532.245          21.000                       37733.239         394.293          19.000  
J 3                    208249.202         963.953          23.000                                                                  
C 6                    150706.158        1315.755          20.000                                                                                                                                  
C 7                     90688.602          -0.072          17.000                                                                                                                                  
C 9                    121898.641         772.357          24.000                                                                                                                                  
C11                   -477986.600       -2257.786          16.000                                                                                                                                  
C12                     33516.426         242.778          19.000                                                                                                                                  
C24                    222053.805        1407.748          26.000                                                                                       88482.408        1061.781          20.000  
C25                   -143923.817        -910.998          18.000                                                                                                                                  
C26                    455766.320        2767.473          25.000                                                                                                                                  
C34                   -208276.541       -1309.011          31.000                                                                                       -9703.652        -991.753          19.000  
> 2022  1 25  6 54 41.0000000  0 31                     
G 4                    204837.474         896.693          23.000                                                                  
G 8                   -503362.607       -2111.658          24.000                                                                  
G 9                   -240717.558       -1050.468          16.000                                                                  
G16                    383297.170        1657.944          14.000                                                                  
G18                    265962.049        1167.077          21.000                       56944.725         876.119          21.000  
G26                    628562.779        2735.395          24.000                                                                  
G27                    -68568.893        -286.928          30.000                      -13922.306        -217.352          22.000  
G31                    743413.861        3320.893          25.000                                                                  
R 3                                                        17.000  
R12                                                        19.000  
R13                                                        19.000  
R24                                                        25.000  
E 2                    264759.155        2223.412          27.000                      144349.903        1664.867          21.000  
E 7                    238033.408        1843.965          28.000                      125563.266        1369.801          22.000  
E 8                    594257.174        3592.675          13.000                                                                  
E15                   -290589.055       -2176.231          26.000                     -143285.931       -1617.135          20.000  
E27                    -24139.415        -555.602          17.000                                                                  
E30                    133244.860         967.945          11.000                       70120.806         722.704          13.000  
E36                    229921.435        1425.706          20.000                       92403.342        1065.056          20.000  
J 1                    290163.476        1291.121          17.000                                                                  
J 2                     87246.457         532.744          22.000                       39284.394         395.648          20.000  
J 3                    213314.000         960.832          21.000                                                                  
C 6                    157555.297        1315.199          23.000                                                                                                                                  
C 7                     94638.312          -0.072          17.000                                                                                                                                  
C 9                    125924.400         774.501          23.000                                                                                                                                  
C11                   -489755.721       -2258.634          17.000                                                                                                                                  
C12                     34777.893         241.611          19.000                                                                                                                                  
C24                    229373.511        1404.959          23.000                                                                                       92639.436        1063.404          20.000  
C25                   -148667.715        -912.142          19.000                                                                                                                                  
C26                    470176.692        2770.164          24.000                                                                                                                                  
C34                   -215116.383       -1314.892          28.000                                                                                      -13576.185        -986.850          20.000  
> 2022  1 25  6 54 42.0000000  0 31                     
G 4                    209547.310         895.304          26.000                                                                  
G 8                   -514458.361       -2110.254          29.000                                                                  
G 9                   -246232.465       -1049.113          15.000                                                                  
G16                    392010.028        1657.014          14.000                                                                  
G18                    272090.896        1166.750          21.000                       60376.289         879.213          20.000  
G26                    642944.291        2745.819          25.000                                                                  
G27                    -70081.035        -285.374          29.000                      -14771.958        -216.481          24.000  
G31                    760863.759        3319.393          23.000                                                                  
R 3                                                        19.000  
R12                                                        19.000  
R13                                                        18.000  
R24                                                        27.000  
E 2                    276434.339        2222.650          24.000                      150883.364        1662.860          20.000  
E 7                    247710.317        1838.427          26.000                      130953.368        1369.858          21.000  
E 8                    613131.330        3591.457          11.000                                                                  
E15                   -302011.003       -2169.592          30.000                     -149642.342       -1619.612          30.000  
E27                    -27063.846        -556.564          18.000                                                                  
E30                    138328.978         967.323          11.000                                                                  
E36                    237407.388        1429.375          20.000                       96592.542        1068.467          19.000  
J 1                    296945.729        1290.982          15.000                                                                  
J 2                      3024.276         527.072          20.000                       40840.291         393.396          21.000  
J 3                    218373.404         963.036          22.000                                                                  
C 6                    164417.666        1321.269          23.000                                                                                                                                  
C 7                     98597.273          -0.072          17.000                                                                                                                                  
C 9                    129961.536         774.835          24.000                                                                                                                                  
C11                   -501517.496       -2258.800          18.000                                                                                                                                  
C12                     36041.860         242.998          20.000                                                                                                                                  
C24                    236689.227        1404.225          24.000                                                                                       96811.196        1066.011          20.000  
C25                   -153420.579        -912.392          19.000                                                                                                                                  
C26                    484607.900        2770.069          24.000                                                                                                                                  
C34                   -221953.607       -1309.527          27.000                                                                                      -17441.700        -986.337          19.000  
> 2022  1 25  6 54 43.0000000  0 31                     
G 4                    214267.825         897.601          29.000                       12505.802         678.608          28.000  
G 8                   -525545.082       -2110.747          27.000                                                                  
G 9                   -251737.648       -1048.088          17.000                                                                  
G16                    400715.835          -0.013          15.000                                                                  
G18                    278226.096        1169.753          21.000                       63824.812         879.222          19.000  
G26                    657345.557        2736.646          23.000                                                                  
G27                    -71591.198        -288.780          30.000                      -15613.160        -215.317          21.000  
G31                    778307.600        3319.849          24.000                                                                  
R 3                                                        18.000  
R12                                                        17.000  
R13                                                        18.000  
R22                                                        20.000  
R24                                                        30.000  
E 2                    288099.426        2218.941          19.000                      157412.792        1662.586          17.000  
E 7                    257393.321        1841.885          29.000                      136331.736        1368.042          20.000  
E 8                    632003.742        3591.849           9.000                                                                  
E15                   -313428.743       -2174.839          27.000                     -156006.782       -1618.410          22.000  
E30                    143410.374         967.326          11.000                                                                  
E36                    244912.638        1428.169          20.000                      100782.453        1068.026          18.000  
J 1                    303721.175        1288.714          14.000                                                                  
J 2                      5798.784         535.857          20.000                       42396.954         397.709          18.000  
J 3                    223427.662         961.481          26.000                                                                  
C 6                    171294.240        1317.775          24.000                                                                                                                                  
C 7                    102539.895         754.459          19.000                                                                                                                                  
C 9                    133992.740         772.933          25.000                                                                                                                                  
C11                   -513280.460       -2258.479          17.000                                                                                                                                  
C12                     37314.186         244.770          19.000                                                                                                                                  
C24                    244003.114        1405.851          20.000                                                                                      100978.972        1057.002          19.000  
C25                   -158174.213        -913.353          19.000                                                                                                                                  
C26                    499018.429        2764.835          26.000                                                                                                                                  
C34                   -228782.391       -1312.432          27.000                                                                                      -21319.320        -987.853          19.000  
> 2022  1 25  6 54 44.0000000  0 31                     
G 4                    218981.110         897.039          24.000                       14980.145         621.826          12.000  
G 8                   -536643.840       -2111.798          19.000                                                                  
G 9                   -257247.332       -1049.087          15.000                                                                  
G16                    409424.381          -0.013          16.000                                                                  
G18                    284373.207        1170.725          18.000                       67277.196         880.575          13.000  
G26                    671719.646        2733.097          19.000                                                                  
G27                    -73120.473        -291.219          35.000                      -16461.171        -216.149          22.000  
G31                    795749.035        3318.722          23.000                                                                  
R 3                                                        13.000  
R12                                                        18.000  
R13                                                        16.000  
R24                                                        21.000  
E 2                    299766.438        2222.314          18.000                      163942.638        1664.720          15.000  
E 7                                                                                    141720.879        1375.106          25.000  
E 8                    650878.991        3592.234           7.000                                                                  
E15                                                                                   -162384.224       -1627.239          15.000  
E30                    148488.716         966.106          11.000                                                                  
E36                    252410.113        1426.425          15.000                      104978.845        1069.167          12.000  
J 1                    310490.067        1289.250          12.000                                                                  
J 2                      8588.318         529.199          34.000                       43950.211         392.637          20.000  
J 3                    228479.724         962.898          26.000                                                                  
C 6                    178150.328        1316.032          26.000                                                                                                                                  
C 7                    106460.285         750.733          28.000                                                                                                                                  
C 9                    138014.172         772.316          29.000                                                                                                                                  
C10                      5836.306         687.688          20.000                                                                                                                                  
C11                   -525043.877       -2260.485          15.000                                                                                                                                  
C12                     38578.753         241.533          27.000                                                                                                                                  
C24                    251324.522        1406.617          29.000                                                                                      105132.105        1061.002          19.000  
C25                   -162934.669        -914.208          17.000                                                                                                                                  
C26                    513410.300        2764.296          24.000                                                                                                                                  
C34                   -235622.270       -1309.255          19.000                                                                                      -25199.288        -990.703          17.000  
> 2022  1 25  6 54 45.0000000  0 31                     
G 4                    223695.127         904.212          29.000                       17451.603         636.650          11.000  
G 8                   -547744.688       -2112.104          24.000                                                                  
G 9                   -262761.383       -1049.515          16.000                                                                  
G16                    418135.898          -0.013          15.000                                                                  
G18                    290532.520        1173.077          20.000                                                                  
G26                    686077.015        2732.477          19.000                                                                  
G27                    -74638.689        -289.888          27.000                      -17307.452        -216.749          22.000  
G31                    813192.082        3318.827          22.000                                                                  
R 3                                                        13.000  
R12                                                        17.000  
R13                                                        16.000  
R24                                                        28.000  
E 2                    311434.723        2221.845          17.000                      170475.987        1662.669          13.000  
E 7                    276742.581        1843.522          30.000                      147115.742        1374.157          22.000  
E 8                    669758.200        3593.100           6.000                                                                  
E15                   -336270.825       -2172.814          20.000                                                                  
E30                    153563.763         965.927          11.000                                                                  
E36                    259894.073        1423.891          18.000                                                                  
J 1                    317258.513        1285.565          13.000                                                                  
J 2                     11368.852         526.044          24.000                       45499.995         394.312          20.000  
J 3                    233534.665         964.316          29.000                                                                  
C 6                    185004.739        1317.226          25.000                                                                                                                                  
C 7                    110384.436         755.511          27.000                                                                                                                                  
C 9                    142047.178         778.367          26.000                                                                                                                                  
C10                      9429.607         693.009          25.000                                                                                                                                  
C11                   -536815.137       -2260.940          16.000                                                                                                                                  
C12                     39845.637         242.456          21.000                                                                                                                                  
C24                    258647.008        1403.932          22.000                                                                                      109300.547        1064.219          17.000  
C25                   -167690.477        -915.322          18.000                                                                                                                                  
C26                    527791.280          -0.008          24.000                                                                                                                                  
C34                   -242445.709       -1310.368          26.000                                                                                      -29085.237        -987.183          15.000  
> 2022  1 25  6 54 46.0000000  0 31                     
G 4                    228449.995         903.060          26.000                       19970.821         643.549          13.000  
G 8                   -558845.781       -2114.103          23.000                                                                  
G 9                   -268281.101       -1051.202          16.000                                                                  
G16                    426846.419          -0.013          16.000                                                                  
G18                    296692.723        1172.024          23.000                       74175.117         878.011          18.000  
G26                    700452.700        2735.354          27.000                                                                  
G27                    -76157.562        -288.425          25.000                      -18155.540        -219.812          19.000  
G31                    830631.545        3318.986          26.000                                                                  
R 3                                                        11.000  
R12                                                        17.000  
R13                                                        18.000  
R24                                                        24.000  
E 2                    323113.941        2222.875          18.000                      177004.766        1663.371          16.000  
E 7                    286424.307        1842.689          27.000                      152507.995        1372.874          19.000  
E 8                    688639.696        3592.756           7.000                                                                  
E15                   -347697.390       -2172.130          18.000                                                                  
E30                    158637.755         964.445          12.000                                                                  
E36                    267395.836        1429.065          22.000                      113371.867        1065.075          21.000  
J 1                    324013.575        1284.029          16.000                                                                  
J 2                     14145.941         530.252          24.000                       47041.600         391.119          18.000  
J 3                    238591.901         963.657          23.000                                                                  
C 6                    191866.036        1316.777          20.000                                                                                                                                  
C 7                    114314.772         754.978          20.000                                                                                                                                  
C 9                    146092.570         776.315          23.000                                                                                                                                  
C10                     13047.891         693.846          20.000                                                                                                                                  
C11                   -548586.357       -2262.125          17.000                                                                                                                                  
C12                     41104.672         241.217          20.000                                                                                                                                  
C24                    265963.998        1405.960          20.000                                                                                      113466.829        1059.998          19.000  
C25                   -172449.185        -913.908          19.000                                                                                                                                  
C26                    542180.517        2763.159          22.000                                                                                                                                  
C34                   -249273.427       -1312.109          24.000                                                                                      -32966.250        -990.086          18.000  
> 2022  1 25  6 54 47.0000000  0 30                     
G 4                    233199.942         902.251          25.000                       22505.534         646.637          13.000  
G 8                   -569947.566       -2113.696          24.000                                                                  
G 9                   -273806.586       -1050.690          17.000                                                                  
G16                    435549.939          -0.013          15.000                                                                  
G18                    302856.845        1174.318          22.000                       77628.106         881.562          20.000  
G26                    714834.136        2740.475          23.000                                                                  
G27                    -77675.770        -291.150          26.000                      -19005.542        -215.442          17.000  
G31                    848061.723        3318.392          24.000                                                                  
R 3                                                        13.000  
R12                                                        17.000  
R13                                                        18.000  
R24                                                        23.000  
E 2                    334800.692        2223.092          20.000                      183535.086        1664.294          16.000  
E 7                    296113.839        1844.094          26.000                      157890.537        1368.728          19.000  
E 8                    707521.996        3593.444           9.000                                                                  
E15                   -359125.874       -2176.029          15.000                                                                  
E30                    163704.105         963.583          10.000                                                                  
E36                    274899.229        1427.045          22.000                      117571.861        1072.940          19.000  
J 1                    330769.930        1287.127          16.000                                                                  
J 2                     16920.822         528.102          20.000                       48588.009         398.195          20.000  
J 3                    243650.566         962.425          24.000                                                                  
C 6                    198729.606        1318.759          19.000                                                                                                                                  
C 7                    118238.313         752.444          20.000                                                                                                                                  
C 9                    150133.176         776.438          21.000                                                                                                                                  
C11                   -560361.325       -2260.734          16.000                                                                                                                                  
C12                     42365.082         242.186          18.000                                                                                                                                  
C24                    273284.583        1406.809          20.000                                                                                      117635.701        1063.775          17.000  
C25                   -177208.904        -914.881          20.000                                                                                                                                  
C26                    556575.549        2765.118          21.000                                                                                                                                  
C34                   -256100.257       -1311.232          29.000                                                                                      -36847.799        -987.866          20.000  
> 2022  1 25  6 54 48.0000000  0 31                     
G 4                    237926.437         898.820          25.000                       25042.016         646.523          11.000  
G 8                   -581054.395       -2112.616          28.000                                                                  
G 9                   -279328.285       -1050.426          16.000                                                                  
G16                    444255.681        1655.588          15.000                                                                  
G18                    309027.448        1175.369          20.000                       81070.386         872.557          20.000  
G26                    729225.612        2738.810          25.000                                                                  
G27                    -79199.031        -288.900          23.000                      -19854.464        -217.090          19.000  
G31                    865473.082        3310.376          22.000                                                                  
R 3                                                        16.000  
R12                                                        17.000  
R13                                                        18.000  
R24                                                        27.000  
E 2                    346478.627        2218.932          20.000                      190066.595        1663.198          16.000  
E 7                    305799.189        1841.320          26.000                      163273.019        1377.143          19.000  
E 8                    726402.703        3592.538           8.000                                                                  
E15                   -370564.979       -2176.723          15.000                                                                  
E30                    168767.265         963.252          10.000                                                                  
E36                    282408.819        1428.641          19.000                      121770.172        1061.851          20.000  
J 1                    337537.962        1289.365          14.000                                                                  
J 2                     19697.331         525.395          21.000                       50141.458         397.503          19.000  
J 3                    248701.648         960.217          34.000                                                                  
C 6                    205587.702        1317.300          21.000                                                                                                                                  
C 7                    122149.493         752.730          20.000                                                                                                                                  
C 9                    154167.304         772.807          23.000                                                                                                                                  
C10                      6496.763         693.674          19.000                                                                                                                                  
C11                   -572126.143       -2257.410          17.000                                                                                                                                  
C12                     43638.904         245.931          20.000                                                                                                                                  
C24                    280605.099        1408.917          20.000                                                                                      121800.572        1059.353          18.000  
C25                   -181970.373        -915.100          19.000                                                                                                                                  
C26                    570982.055          -0.008          20.000                                                                                                                                  
C34                   -262944.911       -1315.971          25.000                                                                                      -40733.794        -986.793          20.000  
> 2022  1 25  6 54 49.0000000  0 32                     
G 4                    242648.752         899.949          25.000                                                                  
G 8                   -592168.129       -2112.535          26.000                                                                  
G 9                   -284851.723       -1050.368          17.000                                                                  
G16                    452955.122        1654.068          14.000                                                                  
G18                    315201.579        1173.830          21.000                       84522.293         878.518          21.000  
G26                    743620.835        2739.780          29.000                                                                  
G27                    -80721.571        -289.007          27.000                      -20702.827        -217.437          17.000  
G31                    882896.450        3314.637          28.000                                                                  
R 3                                                        17.000  
R12                                                        18.000  
R13                                                        18.000  
R24                                                        25.000  
E 2                    358155.149        2222.054          20.000                      196579.007        1656.762          17.000  
E 7                    315476.199        1839.306          24.000                      168686.046        1380.614          18.000  
E 8                    745281.360        3592.614           8.000                                                                  
E15                   -381993.858       -2171.932          15.000                                                                  
E27                    -19169.185        -559.239          13.000                                                                  
E30                    173826.902         962.347           9.000                                                                  
E36                    289924.497        1429.614          23.000                      125969.771        1068.306          22.000  
J 1                    344316.589        1288.022          14.000                                                                  
J 2                     22456.295         524.973          22.000                       51702.720         397.830          18.000  
J 3                    253753.804         959.327          32.000                                                                  
C 6                    212458.071        1317.462          20.000                                                                                                                                  
C 7                    126059.754         749.944          21.000                                                                                                                                  
C 9                    158195.344         773.810          23.000                                                                                                                                  
C10                     10100.723         691.691          22.000                                                                                                                                  
C11                   -583888.988       -2260.006          18.000                                                                                                                                  
C12                     44927.411         248.592          18.000                                                                                                                                  
C24                    287941.610        1408.596          22.000                                                                                      125947.736        1055.707          19.000  
C25                   -186728.105        -911.837          19.000                                                                                                                                  
C26                    585392.217        2765.551          18.000                                                                                                                                  
C34                   -269792.992       -1314.278          35.000                                                                                      -44611.606        -989.116          20.000  
> 2022  1 25  6 54 50.0000000  0 32                     
G 4                    247382.050         902.011          26.000                                                                  
G 8                   -603259.162       -2111.049          26.000                                                                  
G 9                   -290368.061       -1050.269          14.000                                                                  
G16                    461650.163        1654.132          17.000                                                                  
G18                    321380.639        1175.867          18.000                       87982.051         882.210          23.000  
G26                    758007.997        2736.048          31.000                                                                  
G27                    -82244.607        -289.507          24.000                      -21549.474        -215.065          18.000  
G31                    900326.791        3317.704          34.000                                                                  
R 3                                                        18.000  
R12                                                        20.000  
R13                                                        17.000  
R24                                                        30.000  
E 2                    369829.281        2219.715          22.000                      203084.166        1656.585          17.000  
E 7                    325143.867        1841.481          27.000                      174097.593        1377.061          19.000  
E 8                    764161.096        3592.585           7.000                                                                  
E15                   -393414.847       -2174.873          14.000                                                                  
E27                    -22117.796        -562.293          13.000                                                                  
E30                    178883.894         962.036           9.000                                                                  
E36                    297436.340        1428.550          20.000                      130165.037        1071.161          20.000  
J 1                    351086.929        1288.462          14.000                                                                  
J 2                     25219.564         525.844          21.000                       53259.126         396.240          17.000  
J 3                    258804.042         959.372          27.000                                                                  
C 6                    219316.023        1317.610          21.000                                                                                                                                  
C 7                    129963.812         750.193          20.000                                                                                                                                  
C 9                    162226.229         773.807          20.000                                                                                                                                  
C10                     13697.830         691.296          20.000                                                                                                                                  
C11                   -595664.109       -2261.660          21.000                                                                                                                                  
C12                     46212.615         244.648          20.000                                                                                                                                  
C24                    295281.973        1408.499          21.000                                                                                      130109.339        1059.463          19.000  
C25                   -191478.557        -912.453          19.000                                                                                                                                  
C26                    599793.728        2766.468          25.000                                                                                                                                  
C34                   -276618.143       -1312.579          28.000                                                                                      -48476.455        -980.734          18.000  
> 2022  1 25  6 54 51.0000000  0 32                     
G 4                    252112.501         901.488          23.000                                                                  
G 8                   -614354.713       -2111.541          28.000                                                                  
G 9                   -295890.125       -1050.242          17.000                                                                  
G16                    470339.611        1653.821          17.000                                                                  
G18                    327553.844        1172.828          28.000                       91433.058         874.975          28.000  
G26                    772378.431        2732.299          32.000                                                                  
G27                    -83771.040        -288.953          24.000                      -22389.038        -214.706          17.000  
G31                    917777.633        3321.412          25.000                                                                  
R 3                                                        19.000  
R12                                                        19.000  
R13                                                        15.000  
R24                                                        22.000  
E 2                    381495.560        2218.363          24.000                      209587.616        1657.244          18.000  
E 7                    334806.759        1841.825          22.000                      179500.866        1377.417          18.000  
E 8                    783038.453        3591.575           8.000                                                                  
E15                   -404843.367       -2174.668          14.000                                                                  
E27                    -25076.263        -563.272          14.000                                                                  
E30                    183937.308         961.165          11.000                                                                  
E36                    304939.348        1427.011          22.000                      134362.039        1064.826          22.000  
J 1                    357863.275        1289.637          16.000                                                                  
J 2                     27984.678         526.448          21.000                       54816.517         395.874          18.000  
J 3                    263858.561         961.649          24.000                                                                  
C 6                    226179.144        1318.423          18.000                                                                                                                                  
C 7                    133877.948         752.115          20.000                                                                                                                                  
C 9                    166252.164         773.154          20.000                                                                                                                                  
C10                     17293.976         691.679          19.000                                                                                                                                  
C11                   -607442.873       -2262.589          19.000                                                                                                                                  
C12                     47494.648         245.753          23.000                                                                                                                                  
C24                    302612.718        1405.776          23.000                                                                                      134273.697        1057.664          22.000  
C25                   -196235.858        -914.822          18.000                                                                                                                                  
C26                    614216.146        2770.523          22.000                                                                                                                                  
C34                   -283457.480       -1314.469          23.000                                                                                      -52332.840        -985.774          18.000  
> 2022  1 25  6 54 52.0000000  0 32                     
G 4                    256846.782         901.176          25.000                                                                  
G 8                   -625460.746       -2113.084          22.000                                                                  
G 9                   -301406.056       -1048.412          18.000                                                                  
G16                    479032.803        1653.295          16.000                                                                  
G18                    333724.888        1169.534          26.000                       94874.702         875.796          24.000  
G26                    786754.847        2731.724          35.000                                                                  
G27                    -85274.651        -286.474          23.000                      -23231.001        -215.524          19.000  
G31                    935224.237        3316.502          22.000                                                                  
R 3                                                        16.000  
R12                                                        21.000  
R13                                                        16.000  
R24                                                        25.000  
E 2                    393165.035        2219.419          24.000                      216091.408        1655.444          20.000  
E 7                    344489.330        1843.919          21.000                      184906.738        1378.559          18.000  
E 8                    801909.396        3590.552           7.000                                                                  
E15                   -416271.412       -2174.345          14.000                                                                  
E27                    -28038.388        -563.691          15.000                                                                  
E30                    188989.678         961.492          12.000                                                                  
E36                    312445.192        1427.608          25.000                      138568.823        1069.829          22.000  
J 1                    364622.985        1285.738          14.000                                                                  
J 2                     30754.906         528.344          25.000                       56368.032         395.749          17.000  
J 3                    268922.112         962.384          30.000                                                                  
C 6                    233043.081        1319.228          17.000                                                                                                                                  
C 7                    137787.253         748.835          22.000                                                                                                                                  
C 9                    170276.486         771.630          21.000                                                                                                                                  
C10                     20894.013         691.650          19.000                                                                                                                                  
C11                   -619225.469       -2262.024          19.000                                                                                                                                  
C12                     48773.848         246.873          20.000                                                                                                                                  
C24                    309936.293        1406.351          27.000                                                                                      138430.344        1057.917          22.000  
C25                   -200999.332        -915.216          17.000                                                                                                                                  
C26                    628642.891        2770.351          22.000                                                                                                                                  
C34                   -290297.069       -1313.284          24.000                                                                                      -56200.631        -987.888          20.000  
> 2022  1 25  6 54 53.0000000  0 32                     
G 4                    261576.981         900.382          24.000                                                                  
G 8                   -636563.344       -2111.393          24.000                                                                  
G 9                   -306909.333       -1045.866          16.000                                                                  
G16                    487717.876        1652.536          16.000                                                                  
G18                    339880.620        1170.680          21.000                       98336.189         876.740          22.000  
G26                    801129.647        2732.515          37.000                                                                  
G27                    -86770.681        -285.949          24.000                      -24074.771        -214.203          18.000  
G31                    952666.146        3319.475          26.000                                                                  
R 3                                                        15.000  
R12                                                        20.000  
R13                                                        17.000  
R24                                                        21.000  
E 2                    404832.452        2217.619          22.000                      222616.299        1659.040          18.000  
E 7                    354166.420        1841.031          22.000                      190314.063        1378.362          19.000  
E 8                    820776.643        3589.507           8.000                                                                  
E15                   -427696.475       -2173.893          13.000                                                                  
E27                    -31000.932        -563.489          15.000                                                                  
E30                    194041.596         961.261          11.000                                                                  
E36                    319970.030        1429.543          24.000                      142778.036        1067.225          25.000  
J 1                    371387.914        1287.398          15.000                                                                  
J 2                     33532.738         528.415          23.000                       57916.577         393.872          17.000  
J 3                    273978.362         959.022          36.000                                                                  
C 6                    239911.969        1318.648          19.000                                                                                                                                  
C 7                    141682.400         748.616          21.000                                                                                                                                  
C 9                    174294.857         771.778          23.000                                                                                                                                  
C10                     24480.390         690.012          20.000                                                                                                                                  
C11                   -631000.166       -2260.804          17.000                                                                                                                                  
C12                     50051.030         245.314          24.000                                                                                                                                  
C24                    317273.626        1409.602          25.000                                                                                      142595.393        1059.433          22.000  
C25                   -205753.157        -911.586          18.000                                                                                                                                  
C26                    643067.960        2770.665          23.000                                                                                                                                  
C34                   -297129.847       -1312.087          35.000                                                                                      -60079.343        -990.461          19.000  
> 2022  1 25  6 54 54.0000000  0 32                     
G 4                    266310.221         901.567          22.000                                                                  
G 8                   -647651.529       -2110.768          30.000                                                                  
G 9                   -312410.550       -1046.443          16.000                                                                  
G16                    496405.412        1653.788          17.000                                                                  
G18                    346037.234        1172.139          21.000                      101783.738         876.263          23.000  
G26                    815486.146        2733.128          33.000                                                                  
G27                    -88250.435        -281.120          21.000                      -24918.855        -216.300          19.000  
G31                    970108.765        3317.905          30.000                                                                  
R 3                                                        12.000  
R12                                                        18.000  
R13                                                        17.000  
R24                                                        27.000  
E 2                    416491.574        2220.009          23.000                      229129.576        1658.356          20.000  
E 7                    363856.745        1844.559          22.000                      195715.186        1374.942          21.000  
E 8                    839638.643        3589.000          10.000                                                                  
E15                   -439117.255       -2173.074          15.000                                                                  
E27                    -33966.456        -564.304          16.000                                                                  
E30                    199089.078         959.966          14.000                                                                  
E36                    327498.703        1431.776          20.000                      146975.419        1071.109          23.000  
J 1                    378150.179        1285.507          14.000                                                                  
J 2                     36308.871         527.805          22.000                       59466.505         394.587          18.000  
J 3                    279015.981         956.429          28.000                                                                  
C 6                    246775.615        1318.986          19.000                                                                                                                                  
C 7                    145583.473         751.130          21.000                                                                                                                                  
C 9                    178313.370         772.850          21.000                                                                                                                                  
C10                     28066.836         688.789          19.000                                                                                                                                  
C11                   -642774.376       -2261.103          16.000                                                                                                                                  
C12                     51332.644         247.940          20.000                                                                                                                                  
C24                    324612.185        1407.834          23.000                                                                                      146769.418        1060.701          22.000  
C25                   -210507.999        -912.219          17.000                                                                                                                                  
C26                    657494.490        2769.954          22.000                                                                                                                                  
C34                   -303960.216       -1311.147          27.000                                                                                      -63954.886        -983.660          20.000  
> 2022  1 25  6 54 55.0000000  0 32                     
G 4                    271052.562         903.695          24.000                                                                  
G 8                   -658741.235       -2110.380          24.000                                                                  
G 9                   -317905.884       -1044.281          16.000                                                                  
G16                    505092.945        1652.344          17.000                                                                  
G18                    352189.693        1171.495          20.000                      105233.098         877.471          25.000  
G26                    829871.284        2734.328          31.000                                                                  
G27                    -89732.159        -282.731          23.000                      -25777.435        -216.844          19.000  
G31                    987554.487        3320.781          27.000                                                                  
R 3                                                        11.000  
R12                                                        18.000  
R13                                                        17.000  
R24                                                        25.000  
E 2                    428159.678        2220.457          22.000                      235646.176        1661.803          19.000  
E 7                    373535.649        1841.001          20.000                      201096.292        1373.929          19.000  
E 8                    858499.140        3588.652           8.000                                                                  
E15                   -450534.493       -2172.534          14.000                                                                  
E27                    -36930.739        -564.174          15.000                                                                  
E30                    204132.558         959.621          14.000                                                                  
E36                    335023.424        1431.479          19.000                      151173.457        1075.070          20.000  
J 1                    384885.046        1283.234          15.000                                                                  
J 2                     39084.618         528.202          22.000                       61010.356         393.342          18.000  
J 3                    284042.760         958.106          27.000                                                                  
C 6                    253644.736        1319.677          18.000                                                                                                                                  
C 7                    149493.040         748.535          21.000                                                                                                                                  
C 9                    182331.701         771.354          22.000                                                                                                                                  
C10                     31646.399         687.055          21.000                                                                                                                                  
C11                   -654553.053       -2260.592          19.000                                                                                                                                  
C12                     52620.041         247.092          22.000                                                                                                                                  
C24                    331940.116        1408.505          23.000                                                                                      150938.786        1061.489          22.000  
C25                   -215255.352        -911.398          18.000                                                                                                                                  
C26                    671920.649        2767.881          21.000                                                                                                                                  
C34                   -310787.418       -1310.424          29.000                                                                                      -67825.626        -991.996          20.000  
> 2022  1 25  6 54 56.0000000  0 31                     
G 4                    275806.123         903.694          25.000                                                                  
G 8                   -669844.603       -2114.861          28.000                                                                  
G 9                   -323391.217       -1044.416          17.000                                                                  
G16                    513778.250        1654.977          17.000                                                                  
G18                    358345.971        1172.741          24.000                      108682.625         875.347          29.000  
G26                    844251.556        2733.700          28.000                                                                  
G27                    -91220.426        -281.123          25.000                      -26624.324        -215.589          19.000  
G31                   1004987.831        3316.829          26.000                                                                  
R 3                                                        12.000  
R12                                                        17.000  
R24                                                        25.000  
E 2                    439827.020        2219.900          22.000                      242156.107        1656.277          18.000  
E 7                    383216.100        1842.400          22.000                      206488.326        1373.971          19.000  
E 8                    877355.821        3587.738           9.000                                                                  
E15                   -461950.132       -2172.433          10.000                                                                  
E27                    -39892.796        -563.547          14.000                                                                  
E30                    209174.038         959.395          14.000                                                                  
E36                    342554.172        1433.091          18.000                      155380.577        1071.210          19.000  
J 1                    391639.453        1286.312          13.000                                                                  
J 2                     41861.222         527.775          24.000                       62552.861         394.828          20.000  
J 3                    289083.269         959.790          29.000                                                                  
C 6                    260516.681        1319.731          17.000                                                                                                                                  
C 7                    153391.902         748.932          24.000                                                                                                                                  
C 9                    186343.374         770.164          21.000                                                                                                                                  
C10                     35229.069         687.783          20.000                                                                                                                                  
C11                   -666325.923       -2260.753          17.000                                                                                                                                  
C12                     53903.062         246.558          20.000                                                                                                                                  
C24                    339274.604        1408.048          23.000                                                                                      155096.372        1062.364          21.000  
C25                   -220002.551        -910.755          17.000                                                                                                                                  
C26                    686328.455        2766.312          24.000                                                                                                                                  
C34                   -317615.624       -1309.201          25.000                                                                                      -71721.172        -989.775          20.000  
> 2022  1 25  6 54 57.0000000  0 31                     
G 4                    280565.971         909.353          25.000                                                                  
G 8                   -680944.734       -2108.751          24.000                                                                  
G 9                   -328883.315       -1045.406          16.000                                                                  
G16                    522478.512        1656.262          15.000                                                                  
G18                    364511.842        1174.999          24.000                      112131.135         884.870          27.000  
G26                    858621.408        2734.800          25.000                                                                  
G27                    -92694.927        -280.980          24.000                      -27457.074        -207.145          20.000  
G31                   1022415.679        3316.428          20.000                                                                  
R 3                                                        11.000  
R12                                                        18.000  
R24                                                        24.000  
E 2                    451488.560        2218.661          23.000                      248655.823        1657.841          18.000  
E 7                    392905.193        1841.928          22.000                      211884.499        1376.669          17.000  
E 8                    896206.379        3586.441          10.000                                                                  
E15                   -473364.340       -2171.805          11.000                                                                  
E27                    -42852.088        -563.208          14.000                                                                  
E30                    214214.554         959.236          14.000                                                                  
E36                    350090.928        1431.223          18.000                      159579.041        1069.977          18.000  
J 1                    398402.243        1282.980          15.000                                                                  
J 2                     44630.533         523.580          23.000                       64103.674         393.318          17.000  
J 3                    294130.478         961.598          30.000                                                                  
C 6                    267388.890        1319.313          17.000                                                                                                                                  
C 7                    157296.190         751.005          21.000                                                                                                                                  
C 9                    190354.657         770.494          23.000                                                                                                                                  
C10                     38822.561         692.177          19.000                                                                                                                                  
C11                   -678104.852       -2261.023          18.000                                                                                                                                  
C12                     55186.332         247.538          19.000                                                                                                                                  
C24                    346608.684        1409.629          25.000                                                                                      159254.562        1059.282          23.000  
C25                   -224751.413        -910.911          20.000                                                                                                                                  
C26                    700739.028        2768.480          20.000                                                                                                                                  
C34                   -324438.891       -1309.026          35.000                                                                                      -75598.588        -989.854          17.000  
> 2022  1 25  6 54 58.0000000  0 31                     
G 4                    285339.789         906.970          24.000                                                                  
G 8                   -692033.167       -2110.705          23.000                                                                  
G 9                   -334371.354       -1043.945          17.000                                                                  
G16                    531178.871        1653.467          17.000                                                                  
G18                    370683.124        1174.783          22.000                      115599.446         883.622          20.000  
G26                    872983.449        2732.465          23.000                                                                  
G27                    -94176.426        -281.994          24.000                      -28289.484        -211.600          19.000  
G31                   1039853.064        3319.538          25.000                                                                  
R 3                                                        11.000  
R12                                                        19.000  
R24                                                        28.000  
E 2                    463152.365        2221.953          22.000                      255149.928        1651.099          18.000  
E 7                    402600.114        1843.312          24.000                      217288.692        1376.661          19.000  
E 8                    915050.423        3585.934           9.000                                                                  
E15                   -484779.095       -2171.494           8.000                                                                  
E27                    -45812.258        -563.563          15.000                                                                  
E30                    219254.536         959.207          14.000                                                                  
E36                    357614.814        1432.307          16.000                      163781.291        1071.725          15.000  
J 1                    405135.362        1281.022          14.000                                                                  
J 2                     47383.115         522.711          22.000                       65648.916         394.162          19.000  
J 3                    299176.013         961.744          29.000                                                                  
C 6                    274253.383        1317.124          18.000                                                                                                                                  
C 7                    161215.173         751.711          19.000                                                                                                                                  
C 9                    194362.692         768.876          23.000                                                                                                                                  
C10                     42412.748         688.458          19.000                                                                                                                                  
C11                   -689874.264       -2260.787          19.000                                                                                                                                  
C12                     56479.434         249.025          22.000                                                                                                                                  
C24                    353940.379        1409.923          26.000                                                                                      163410.177        1056.518          21.000  
C25                   -229498.014        -911.433          19.000                                                                                                                                  
C26                    715144.901        2766.638          22.000                                                                                                                                  
C34                   -331249.400       -1310.328          25.000                                                                                                                                  
> 2022  1 25  6 54 59.0000000  0 29                     
G 4                    290103.576         906.484          24.000                                                                  
G 8                   -703123.153       -2110.711          26.000                                                                  
G 9                   -339859.367       -1044.942          16.000                                                                  
G16                    539871.362        1656.273          17.000                                                                  
G18                    376861.505        1177.728          23.000                      119048.958         878.434          21.000  
G26                    887334.379        2730.526          22.000                                                                  
G27                    -95661.897        -279.302          23.000                      -29119.054        -210.884          18.000  
G31                   1057291.838        3319.174          27.000                                                                  
R12                                                        18.000  
R24                                                        25.000  
E 2                    474819.652        2223.606          22.000                      261631.064        1652.441          16.000  
E 7                    412288.082        1840.192          25.000                      222695.477        1379.055          18.000  
E 8                    933891.556        3584.926          11.000                                                                  
E15                   -496191.454       -2171.604           8.000                                                                  
E27                    -48771.591        -563.110          15.000                                                                  
E30                    224294.249         958.716          13.000                                                                  
E36                    365140.749        1428.984          16.000                      167993.102        1073.041          13.000  
J 1                    411865.300        1282.858          13.000                                                                  
J 2                     50130.640         523.622          23.000                       67193.859         393.230          18.000  
C 6                    281110.652        1316.337          18.000                                                                                                                                  
C 7                    165121.707         748.554          22.000                                                                                                                                  
C 9                    198363.947         769.160          20.000                                                                                                                                  
C10                     46002.742         688.837          19.000                                                                                                                                  
C11                   -701635.201       -2255.927          17.000                                                                                                                                  
C12                     57775.304         248.367          21.000                                                                                                                                  
C24                    361272.428        1411.149          26.000                                                                                      167552.602        1060.981          19.000  
C25                   -234241.511        -913.288          19.000                                                                                                                                  
C26                    729545.179        2764.413          24.000                                                                                                                                  
C34                   -338075.735       -1309.333          24.000                                                                                      -83370.277        -988.792          17.000  
> 2022  1 25  6 55  0.0000000  0 20                     
G 4                    294862.105         904.468          26.000                                                                  
G 8                   -714210.269       -2111.153          27.000                                                                  
G 9                   -345353.393       -1046.454          16.000                                                                  
G16                    548568.015        1653.364          18.000                                                                  
G18                    383043.439        1176.292          21.000                      122504.168         880.472          21.000  
G26                    901676.281        2728.647          19.000                                                                  
G27                    -97134.715        -279.972          26.000                      -29947.402        -210.875          17.000  
G31                   1074735.187        3318.824          24.000                                                                  
R12                                                        20.000  
R24                                                        25.000  
E 2                     10650.092        2219.004          20.000                      268118.090        1654.058          18.000  
E 7                                                                                    228092.746        1368.661          19.000  
E 8                    952727.676        3583.916          11.000                                                                  
E27                    -51732.070        -563.566          15.000                                                                  
E36                    372651.425        1429.593          12.000                                                                  
J 1                    418614.321        1284.082          16.000                                                                  
J 2                     52879.754         523.219          22.000                       68730.869         391.312          20.000  
C25                   -238989.019        -911.338          22.000                                                                                                                                  
C26                    743949.348        2768.780          23.000                                                                                                                                  
C34                   -344890.022       -1307.809          26.000                                                                                      -87243.968        -987.949          18.000  
> 2022  1 25  6 55  1.0000000  0 21                     
G 4                    299626.198         906.872          28.000                                                                  
G 8                   -725305.000       -2111.238          24.000                                                                  
G 9                   -350850.501       -1046.179          16.000                                                                  
G16                    557256.254        1651.720          17.000                                                                  
G18                    389224.519        1176.034          21.000                      125965.896         886.003          19.000  
G26                    916027.028        2732.042          18.000                                                                  
G27                    -98598.804        -276.673          24.000                      -30782.275        -215.948          19.000  
G31                   1092177.044        3321.891          26.000                                                                  
R12                                                        19.000  
R24                                                        23.000  
E 2                     22315.721        2224.406          23.000                      274615.243        1656.877          18.000  
E 7                                                                                    233476.597        1374.004          20.000  
E 8                    971558.500        3582.944          12.000                                                                  
E27                    -54692.718        -563.466          15.000                                                                  
E36                    380166.793        1430.885          14.000                                                                  
J 1                    425373.471        1286.976          15.000                                                                  
J 2                     55628.034         522.952          22.000                       70254.530         389.221          18.000  
J 3                    314299.291         957.878          24.000                                                                  
C25                   -243738.265        -913.687          18.000                                                                                                                                  
C26                    758382.322        2773.573          26.000                                                                                                                                  
C34                   -351711.433       -1311.195          27.000                                                                                      -91119.637        -986.948          20.000  
> 2022  1 25  6 55  2.0000000  0 21                     
G 4                    304387.982         905.580          25.000                       10667.883         651.806          16.000  
G 8                   -736390.468       -2106.916          22.000                                                                  
G 9                   -356345.219       -1045.999          17.000                                                                  
G16                    565943.139        1654.325          18.000                                                                  
G18                    395404.085        1177.024          19.000                      129430.458         881.531          17.000  
G26                    930383.845        2732.068          17.000                                                                  
G27                   -100061.741        -280.515          23.000                      -31626.246        -213.917          17.000  
G31                   1109636.670        3322.999          30.000                                                                  
R12                                                        17.000  
R24                                                        23.000  
E 2                     33984.422        2220.620          21.000                      281119.795        1658.129          19.000  
E 7                      8118.116        1841.478          27.000                      238902.155        1382.954          18.000  
E 8                    990384.415        3582.077          12.000                                                                  
E27                    -57654.463        -563.273          15.000                                                                  
E36                    387691.256        1432.210          13.000                                                                  
J 1                    432143.790        1289.581          14.000                                                                  
J 2                     58374.621         522.634          22.000                       71782.454         386.943          20.000  
J 3                    319341.412         960.403          24.000                                                                  
C25                   -248491.003        -912.760          18.000                                                                                                                                  
C26                    772807.146        2768.027          23.000                                                                                                                                  
C34                   -358528.655       -1307.124          29.000                                                                                      -94989.035        -985.310          20.000  
> 2022  1 25  6 55  3.0000000  0 21                     
G 4                    309146.070         905.990          21.000                       13253.914         663.702          19.000  
G 8                   -747453.887       -2104.061          23.000                                                                  
G 9                   -361838.544       -1046.176          16.000                                                                  
G16                    574644.250        1656.579          18.000                                                                  
G18                    401597.633        1180.543          18.000                      132891.658         883.219          17.000  
G26                    944739.076        2730.269          18.000                                                                  
G27                   -101530.549        -278.101          22.000                      -32456.481        -207.912          19.000  
G31                   1127067.156        3315.400          26.000                                                                  
R12                                                        17.000  
R24                                                        27.000  
E 2                     45642.479        2218.386          27.000                      287625.828        1654.816          20.000  
E 7                     17802.101        1842.035          22.000                      244310.744        1375.291          18.000  
E 8                   1009203.893        3580.664          12.000                                                                  
E27                    -60615.718        -563.430          15.000                                                                  
E36                    395215.058        1431.504          13.000                                                                  
J 1                    438908.460        1283.705          14.000                                                                  
J 2                     61119.827         523.525          20.000                       73310.247         390.723          19.000  
J 3                    324377.666         957.928          28.000                                                                  
C25                   -253252.605        -913.672          18.000                                                                                                                                  
C26                    787228.698        2769.765          24.000                                                                                                                                  
C34                   -365337.903       -1307.399          25.000                                                                                      -98852.449        -984.752          24.000  
> 2022  1 25  6 55  4.0000000  0 21                     
G 4                    313914.697         909.226          26.000                       15875.283         666.409          20.000  
G 8                   -758516.621       -2104.520          31.000                                                                  
G 9                   -367332.625       -1044.517          17.000                                                                  
G16                    583346.910        1655.793          17.000                                                                  
G18                    407803.988          -0.011          17.000                      136355.604         883.680          18.000  
G26                    959077.684        2728.356          17.000                                                                  
G27                   -102997.711        -280.972          27.000                      -33268.141        -207.108          19.000  
G31                   1144513.051        3321.994          25.000                                                                  
R12                                                        17.000  
R24                                                        21.000  
E 2                     57299.385        2217.711          27.000                      294119.181        1658.228          21.000  
E 7                     27483.408        1842.193          24.000                      249703.731        1371.503          20.000  
E 8                   1028017.531        3579.833          12.000                                                                  
E27                    -63572.628        -562.427          15.000                                                                  
E36                    402743.564        1433.504          12.000                                                                  
J 1                    445669.620        1287.055          14.000                                                                  
J 2                     63875.086         525.567          22.000                       74856.984         395.329          21.000  
J 3                    329414.551         961.866          23.000                                                                  
C25                   -258010.134        -913.816          22.000                                                                                                                                  
C26                    801655.139        2770.416          24.000                                                                                                                                  
C34                   -372151.771       -1305.387          30.000                                                                                     -102721.299        -987.417          20.000  
> 2022  1 25  6 55  5.0000000  0 21                     
G 4                    318691.728         912.088          29.000                       18508.099         673.904          19.000  
G 8                   -769596.847       -2108.642          27.000                                                                  
G 9                   -372822.803       -1044.220          17.000                                                                  
G16                    592045.672        1655.353          19.000                                                                  
G18                    413995.809          -0.011          17.000                      139823.855         883.522          17.000  
G26                    973418.154        2729.804          16.000                                                                  
G27                   -104460.077        -276.940          27.000                      -34086.027        -207.702          20.000  
G31                   1161970.116        3321.545          21.000                                                                  
R12                                                        17.000  
R24                                                        30.000  
E 2                     68953.587        2216.737          26.000                      300628.571        1659.167          20.000  
E 7                     37181.541        1846.733          25.000                      255089.918        1375.030          17.000  
E 8                   1046828.590        3579.450          12.000                                                                  
E27                    -66528.861        -562.052          14.000                                                                  
E36                    410284.879        1435.905          12.000                                                                  
J 1                    452427.185        1286.826          14.000                                                                  
J 2                     66632.776         523.928          24.000                       76392.795         395.534          21.000  
J 3                    334463.554         958.962          33.000                                                                  
C25                   -262767.005        -913.796          18.000                                                                                                                                  
C26                    816076.343        2768.133          22.000                                                                                                                                  
C34                   -378959.924       -1310.626          31.000                                                                                     -106593.887        -980.142          20.000  
> 2022  1 25  6 55  6.0000000  0 21                     
G 4                    323470.482         908.613          26.000                       21152.871         678.774          23.000  
G 8                   -780670.186       -2105.482          27.000                      -26281.017       -1574.439          23.000  
G 9                   -378308.236       -1043.791          17.000                                                                  
G16                    600743.703        1654.389          17.000                                                                  
G18                    420187.038        1178.743          17.000                      143290.032         882.630          17.000  
G26                    987761.036        2729.010          17.000                                                                  
G27                   -105912.914        -276.137          24.000                      -34901.143        -206.250          21.000  
G31                   1179424.128        3321.026          24.000                                                                  
R12                                                        18.000  
R24                                                        27.000  
E 2                     80612.413        2217.002          24.000                      307135.189        1656.639          18.000  
E 7                     46883.046        1846.798          25.000                      260488.268        1377.792          20.000  
E 8                   1065636.218        3578.899          12.000                                                                  
E27                    -69486.889        -563.063          15.000                                                                  
E36                    417832.530        1436.469          12.000                                                                  
J 1                    459180.835        1284.421          13.000                                                                  
J 2                     69381.778         522.906          21.000                       77910.442         387.330          20.000  
J 3                    339495.851         957.540          23.000                                                                  
C25                   -267527.757        -913.269          19.000                                                                                                                                  
C26                    830493.445        2767.692          24.000                                                                                                                                  
C34                   -385760.585       -1306.814          34.000                                                                                     -110459.740        -986.556          22.000  
> 2022  1 25  6 55  7.0000000  0 22                     
G 4                    328249.512         912.274          26.000                       23807.158         677.810          23.000  
G 8                   -791748.736       -2105.782          35.000                      -32457.693       -1573.451          17.000  
G 9                   -383791.073       -1043.452          17.000                                                                  
G16                    609438.099        1654.503          17.000                                                                  
G18                    426386.067        1179.979          17.000                      146760.068         884.724          16.000  
G26                   1002098.989        2729.726          16.000                                                                  
G27                   -107366.019        -276.180          25.000                      -35723.949        -211.465          21.000  
G31                   1196879.776        3320.957          21.000                                                                  
R12                                                        18.000  
R24                                                        24.000  
E 2                     92258.322        2215.007          25.000                      313636.052        1654.677          19.000  
E 7                     56580.495        1848.671          23.000                      265886.386        1375.378          17.000  
E 8                   1084442.528        3578.469          13.000                                                                  
E27                    -72444.187        -562.705          15.000                                                                  
E36                    425386.159        1438.203          11.000                                                                  
J 1                    465937.537        1285.753          14.000                                                                  
J 2                     72130.144         522.267          27.000                       79425.593         386.684          18.000  
J 3                    344535.259         958.999          25.000                                                                  
C25                   -272283.924        -914.432          19.000                                                                                                                                  
C26                    844909.416        2767.629          23.000                                                                                                                                  
C33                     88344.827        3199.194          15.000                                                                                                                                  
C34                   -392584.345       -1309.537          31.000                                                                                     -114327.393        -987.397          25.000  
> 2022  1 25  6 55  8.0000000  0 23                     
G 4                    333047.728         916.334          23.000                       26461.535         680.877          25.000  
G 8                   -802815.702       -2106.211          25.000                      -38639.235       -1575.412          16.000  
G 9                   -389272.468       -1042.849          14.000                                                                  
G16                    618125.392        1652.687          16.000                                                                  
G18                    432584.247        1177.793          16.000                      150234.222         885.376          13.000  
G26                   1016437.725        2726.799          18.000                                                                  
G27                   -108809.223        -276.308          23.000                      -36545.489        -209.030          20.000  
G31                   1214333.828        3321.030          21.000                                                                  
R12                                                        17.000  
R24                                                        20.000  
E 2                    103909.893        2215.178          23.000                      320124.299        1652.994          17.000  
E 7                     66286.631        1848.832          27.000                      271299.559        1383.725          20.000  
E 8                   1103246.705        3578.126          12.000                                                                  
E27                    -75399.173        -561.914          15.000                                                                  
E30                     45070.814         957.501          17.000                                                                  
E36                    432946.549        1439.118           8.000                                                                  
J 1                    472696.821        1288.075          15.000                                                                  
J 2                     74882.919         523.110          27.000                       80935.855         386.686          20.000  
J 3                    349582.285         961.397          24.000                                                                  
C25                   -277050.963        -915.277          21.000                                                                                                                                  
C26                    859328.906        2770.367          24.000                                                                                                                                  
C33                    104993.996        3196.960          15.000                                                                                                                                  
C34                   -399392.808       -1306.280          30.000                                                                                     -118179.795        -978.829          18.000  
> 2022  1 25  6 55  9.0000000  0 23                     
G 4                    337842.714         909.985          24.000                       29131.271         682.663          23.000  
G 8                   -813887.763       -2106.171          24.000                      -44819.657       -1572.657          18.000  
G 9                   -394750.353       -1042.143          14.000                                                                  
G16                    626814.808        1653.901          18.000                                                                  
G18                    438774.555        1177.417          18.000                      153707.545         884.295          13.000  
G26                   1030777.341        2729.837          16.000                                                                  
G27                   -110265.019           0.026          23.000                      -37367.005        -209.602          18.000  
G31                   1231775.357        3319.240          26.000                                                                  
R12                                                        17.000  
R24                                                        22.000  
E 2                    115538.455        2214.338          24.000                      326603.460        1650.399          16.000  
E 7                     75989.580        1846.534          23.000                      276711.117        1380.089          18.000  
E 8                   1122049.131        3577.951          12.000                                                                  
E27                    -78350.739        -561.322          13.000                                                                  
E30                     50098.924         956.128          16.000                                                                  
E36                    440509.903        1439.168           8.000                                                                  
J 1                    479447.402        1283.317          13.000                                                                  
J 2                     77647.157         524.170          30.000                       82458.527         390.446          18.000  
J 3                    354633.640         958.049          26.000                                                                  
C25                   -281809.341        -914.631          18.000                                                                                                                                  
C26                    873757.739        2769.161          26.000                                                                                                                                  
C33                    121649.059        3198.998          14.000                                                                                                                                  
C34                   -406193.209       -1307.988          36.000                                                                                     -122025.204        -978.994          15.000  
> 2022  1 25  6 55 10.0000000  0 23                     
G 4                    342624.503         910.106          24.000                       31792.367         679.858          22.000  
G 8                   -824964.356       -2105.733          28.000                      -50987.225       -1570.447          17.000  
G 9                   -400222.321           0.001          15.000                                                                  
G16                    635512.980        1655.061          20.000                                                                  
G18                    444965.173        1177.803          16.000                      157172.711         882.872          14.000  
G26                   1045132.958        2731.948          16.000                                                                  
G27                   -111720.474        -275.505          25.000                      -38184.752        -207.563          17.000  
G31                   1249228.996        3321.513          25.000                                                                  
R12                                                        17.000  
R24                                                        23.000  
E 2                    127170.028        2213.092          18.000                      333083.837        1651.218          14.000  
E 7                     85694.483        1848.234          21.000                      282104.972        1375.951          18.000  
E 8                   1140852.217        3578.401          12.000                                                                  
E27                    -81299.760        -560.980          13.000                                                                  
E30                     55123.129         956.077          15.000                                                                  
E36                    448074.416        1439.555           9.000                                                                  
J 1                    486180.993        1282.252          16.000                                                                  
J 2                     80392.947         520.111          23.000                       83992.553         390.847          19.000  
J 3                    359674.831         959.116          29.000                                                                  
C25                   -286567.134        -913.876          20.000                                                                                                                                  
C26                    888168.063        2765.748          20.000                                                                                       38103.355        2090.781          14.000  
C33                    138312.223        3205.464          14.000                                                                                                                                  
C34                   -412986.821       -1306.128          28.000                                                                                     -125872.794        -979.484          19.000  
> 2022  1 25  6 55 11.0000000  0 23                     
G 4                    347401.760         908.300          25.000                       34452.990         680.077          22.000  
G 8                   -836022.219       -2105.410          30.000                      -57151.012       -1571.098          17.000  
G 9                   -405699.722           0.001          15.000                                                                  
G16                    644210.936        1655.778          16.000                                                                  
G18                    451153.523        1177.566          16.000                                                                  
G26                   1059489.208        2732.140          17.000                                                                  
G27                   -113167.085        -274.536          22.000                      -39001.333        -208.543          18.000  
G31                   1266685.126        3321.086          25.000                                                                  
R12                                                        17.000  
R24                                                        25.000  
E 2                    138814.141        2217.020          18.000                      339554.055        1647.702          14.000  
E 7                     95400.611        1848.268          23.000                      287507.685        1377.718          18.000  
E 8                   1159657.006        3578.277          11.000                                                                  
E27                    -84245.846        -560.359          15.000                                                                  
E30                     60141.193         954.209          15.000                                                                  
E36                    455640.002        1439.591           7.000                                                                  
J 1                    492923.924        1282.006          16.000                                                                  
J 2                     83130.690         519.261          26.000                       85524.669         389.496          20.000  
J 3                    364719.866         960.204          30.000                                                                  
C25                   -291332.176        -915.720          17.000                                                                                                                                  
C26                    902578.815        2768.426          24.000                                                                                       46305.791        2089.455          15.000  
C33                    155017.782        3206.808          13.000                                                                                                                                  
C34                   -419782.163       -1298.952          29.000                                                                                     -129735.683        -985.979          21.000  
> 2022  1 25  6 55 12.0000000  0 23                     
G 4                    352185.135         911.391          26.000                       37126.197         681.259          21.000  
G 8                   -847086.089       -2107.245          28.000                      -63318.988       -1572.079          17.000  
G 9                   -411177.671       -1043.766          15.000                                                                  
G16                    652916.310        1657.052          18.000                                                                  
G18                    457344.965        1178.813          15.000                                                                  
G26                   1073850.317        2733.206          16.000                                                                  
G27                   -114612.160        -274.875          22.000                      -39822.810        -208.607          19.000  
G31                   1284134.279        3316.211          19.000                                                                  
R12                                                        17.000  
R24                                                        27.000  
E 2                    150465.141        2216.866          18.000                      346025.325        1650.589          14.000  
E 7                    105111.543        1848.865          21.000                      292907.127        1377.072          17.000  
E 8                   1178459.204        3577.902          11.000                                                                  
E27                    -87192.381        -560.884          15.000                                                                  
E30                     65150.032         953.157          15.000                                                                  
E36                    463204.738        1439.643           8.000                                                                  
J 1                    499657.584        1280.194          14.000                                                                  
J 2                     85866.919         521.628          28.000                       87054.672         389.548          22.000  
J 3                    369750.792         957.942          30.000                                                                  
C25                   -296101.450        -914.900          19.000                                                                                                                                  
C26                    916992.018        2766.152          23.000                                                                                       54504.998        2089.360          14.000  
C33                    171725.246          -0.000          13.000                                                                                                                                  
C34                   -426558.489       -1302.736          27.000                                                                                     -133596.507        -981.376          21.000  
> 2022  1 25  6 55 13.0000000  0 23                     
G 4                    356973.070         910.725          24.000                       39783.951         676.927          21.000  
G 8                   -858152.305       -2102.190          24.000                      -69493.159       -1575.459          21.000  
G 9                   -416654.925       -1042.846          15.000                                                                  
G16                    661626.117        1657.947          19.000                                                                  
G18                    463537.658        1178.368          16.000                                                                  
G26                   1088213.636        2733.040          17.000                                                                  
G27                   -116050.394        -272.999          24.000                      -40628.743        -205.511          19.000  
G31                   1301585.545        3321.558          21.000                                                                  
R12                                                        18.000  
R24                                                        27.000  
E 2                    162113.702        2216.358          17.000                      352502.228        1649.889          13.000  
E 7                    114823.804        1848.035          23.000                      298305.925        1375.095          17.000  
E 8                   1197260.760        3577.557          10.000                                                                  
E27                    -90142.006        -561.708          16.000                                                                  
E30                     70160.806         954.006          15.000                                                                  
E36                    470770.329        1439.546           8.000                                                                  
J 1                    506394.522        1283.567          16.000                                                                  
J 2                     88604.931         522.446          25.000                       88585.078         388.866          20.000  
J 3                    374792.040         959.421          30.000                                                                  
C25                   -300865.884        -915.706          20.000                                                                                                                                  
C26                    931399.274        2765.058          19.000                                                                                       62712.292        2092.815          14.000  
C33                    188440.501          -0.000          12.000                                                                                                                                  
C34                   -433352.307       -1307.887          29.000                                                                                     -137456.149        -983.317          17.000  
> 2022  1 25  6 55 14.0000000  0 23                     
G 4                    361755.186         909.977          26.000                       42457.434         678.324          23.000  
G 8                   -869199.733       -2102.548          23.000                      -75674.064       -1576.585          20.000  
G 9                   -422135.434       -1043.144          14.000                                                                  
G16                    670343.696        1659.164          17.000                                                                  
G18                    469728.402        1177.894          15.000                                                                  
G26                   1102568.768        2730.874          16.000                                                                  
G27                   -117483.268        -272.047          22.000                      -41432.853        -205.790          20.000  
G31                   1319040.276        3321.771          19.000                                                                  
R12                                                        19.000  
R24                                                        26.000  
E 2                    173765.373        2216.491          16.000                      358976.550        1650.609          11.000  
E 7                    124529.943        1846.213          22.000                      303707.993        1379.766          17.000  
E 8                   1216061.917        3577.747          10.000                                                                  
E27                    -93091.679        -561.204          15.000                                                                  
E30                     75174.697         953.910          16.000                                                                  
E36                    478333.467        1438.897           9.000                                                                  
J 1                    513136.844        1285.272          15.000                                                                  
J 2                     91347.072         520.841          24.000                       90113.498         387.587          20.000  
J 3                    379837.256         957.948          28.000                                                                  
C25                   -305624.407        -911.561          18.000                                                                                                                                  
C26                    945815.977        2766.797          22.000                                                                                       70920.512        2092.501          15.000  
C33                    205164.904          -0.000          12.000                                                                                                                                  
C34                   -440154.427       -1309.097          31.000                                                                                     -141318.241        -985.826          20.000  
> 2022  1 25  6 55 15.0000000  0 23                     
G 4                    366534.200         911.709          24.000                       45105.512         678.653          24.000  
G 8                   -880247.814       -2104.289          25.000                      -81863.415       -1576.972          19.000  
G 9                   -427615.133           0.001          16.000                                                                  
G16                    679057.089        1656.323          20.000                                                                  
G18                    475921.384        1180.353          17.000                                                                  
G26                   1116914.528        2728.083          16.000                                                                  
G27                   -118913.966        -272.572          22.000                      -42232.421        -203.604          19.000  
G31                   1336497.873        3323.517          21.000                                                                  
R12                                                        18.000  
R24                                                        24.000  
E 2                    185421.264        2219.864          15.000                      365450.152        1649.518          14.000  
E 7                    134233.323        1846.011          23.000                      309119.509        1377.815          19.000  
E 8                   1234862.799        3577.503          12.000                                                                  
E27                    -96041.488        -562.264          18.000                                                                  
E30                     80191.698         955.610          17.000                                                                  
E36                    485893.111        1438.537          10.000                                                                  
J 1                    519878.615        1280.198          16.000                                                                  
J 2                     94083.917         519.651          23.000                       91633.602         385.139          20.000  
J 3                    384879.148         960.972          29.000                                                                  
C25                   -310373.277        -912.388          21.000                                                                                                                                  
C26                    960225.259        2769.673          18.000                                                                                       79130.082        2093.822          14.000  
C33                    221895.366          -0.000          10.000                                                                                                                                  
C34                   -446956.337       -1299.367          30.000                                                                                     -145178.350        -982.167          22.000  
> 2022  1 25  6 55 16.0000000  0 23                     
G 4                    371330.281         913.315          23.000                       47773.141         676.529          21.000  
G 8                   -891303.230       -2102.259          25.000                      -88052.745       -1576.922          18.000  
G 9                   -433091.628           0.001          15.000                                                                  
G16                    687761.611        1656.491          20.000                                                                  
G18                    482115.938        1178.143          15.000                                                                  
G26                   1131250.815        2727.700          14.000                                                                  
G27                   -120347.350        -273.350          22.000                      -43029.997        -203.828          18.000  
G31                   1353957.143        3320.995          20.000                                                                  
R12                                                        17.000  
R24                                                        22.000  
E 2                    197107.813        2223.106          17.000                                                                  
E 7                    143944.055        1845.719          24.000                      314529.361        1379.588          16.000  
E 8                   1253663.161        3577.582          12.000                                                                  
E27                    -98996.352        -562.924          18.000                                                                  
E30                     85215.124         956.458          19.000                                                                  
E36                    493452.770        1438.341          10.000                                                                  
J 1                    526612.008        1282.601          12.000                                                                  
J 2                     96820.320         522.884          24.000                       93151.787         387.636          19.000  
J 3                    389923.285         957.564          27.000                                                                  
C25                   -315128.592        -912.680          19.000                                                                                                                                  
C26                    974641.264        2766.525          18.000                                                                                       87341.052        2092.596          15.000  
C33                    238606.036          -0.000          13.000                                                                                                                                  
C34                   -453732.544       -1305.633          28.000                                                                                     -149029.280        -981.305          20.000  
> 2022  1 25  6 55 17.0000000  0 23                     
G 4                    376125.570         912.213          24.000                       50432.518         683.564          20.000  
G 8                   -902346.429       -2103.246          26.000                      -94240.272       -1576.006          17.000  
G 9                   -438559.770       -1040.958          17.000                                                                  
G16                    696475.837        1658.336          19.000                                                                  
G18                    488302.829        1179.532          14.000                                                                  
G26                   1145588.461        2728.354          16.000                                                                  
G27                   -121774.305        -267.258          23.000                      -43833.040        -207.381          20.000  
G31                   1371408.412        3322.658          19.000                                                                  
R12                                                        18.000  
R24                                                        20.000  
E 2                    208785.069        2222.294          14.000                                                                  
E 7                    153656.984        1847.601          23.000                      319934.316        1376.763          17.000  
E 8                   1272464.525        3577.814          12.000                                                                  
E27                   -101953.537        -562.279          17.000                                                                  
E30                     90251.264         956.010          17.000                                                                  
E36                    501012.272        1438.360          12.000                                                                  
J 1                    533363.760        1287.088          13.000                                                                  
J 2                     99569.507         523.738          22.000                       94682.676         388.035          19.000  
J 3                    394960.022         959.132          30.000                                                                  
C25                   -319879.178        -912.956          21.000                                                                                                                                  
C26                    989044.781        2768.386          18.000                                                                                       95543.848        2090.605          17.000  
C33                    255312.079          -0.000          14.000                                                                                                                                  
C34                   -460541.102       -1305.899          26.000                                                                                     -152883.112        -982.226          18.000  
> 2022  1 25  6 55 18.0000000  0 23                     
G 4                    380929.209         913.931          28.000                       53107.685         680.415          20.000  
G 8                   -913390.435       -2104.661          26.000                     -100409.860       -1564.885          21.000  
G 9                   -444021.136       -1038.313          16.000                                                                  
G16                    705189.581        1657.783          17.000                                                                  
G18                    494501.757        1178.254          16.000                                                                  
G26                   1159924.783        2727.252          18.000                                                                  
G27                   -123193.967        -272.660          21.000                                                                  
G31                   1388868.701        3321.687          18.000                                                                  
R12                                                        18.000  
R22                                                        19.000  
R24                                                        20.000  
E 2                    220459.705        2221.449          13.000                                                                  
E 7                    163372.828        1848.898          21.000                      325334.519        1375.713          17.000  
E 8                   1291267.986        3578.625          12.000                                                                  
E27                   -104904.060        -560.544          18.000                                                                  
E30                     95292.444         958.704          16.000                                                                  
E36                    508571.709        1438.340          10.000                                                                  
J 1                    540118.508        1284.632          15.000                                                                  
J 2                    102299.588         520.946          20.000                       96208.314         386.473          20.000  
J 3                    400005.565         961.588          27.000                                                                  
C25                   -324639.189        -917.007          19.000                                                                                                                                  
C26                   1003459.187        2768.892          20.000                                                                                      103742.244        2088.861          17.000  
C34                   -467332.180       -1302.024          26.000                                                                                     -156736.278        -981.726          21.000  
> 2022  1 25  6 55 19.0000000  0 22                     
G 4                    385738.735         913.655          29.000                       55782.750         681.214          20.000  
G 8                   -924435.105       -2097.147          23.000                     -106561.187       -1568.487          20.000  
G 9                   -449481.946       -1039.496          15.000                                                                  
G16                    713904.113        1657.261          19.000                                                                  
G18                    500702.479        1180.092          17.000                                                                  
G26                   1174252.497        2724.504          17.000                                                                  
G27                   -124628.584        -274.156          23.000                      -45436.654        -205.150          17.000  
G31                   1406310.006        3316.431          18.000                                                                  
R12                                                        19.000  
R24                                                        19.000  
E 2                    232129.173        2219.809          12.000                                                                  
E 7                    173092.095        1850.792          20.000                      330740.037        1377.797          15.000  
E 8                   1310075.199        3579.052          12.000                                                                  
E27                   -107854.458        -563.257          17.000                                                                  
E30                    100327.336         955.880          17.000                                                                  
E36                    516128.366        1438.002          11.000                                                                  
J 1                    546867.619        1281.635          15.000                                                                  
J 2                    105039.416         521.109          28.000                       97732.148         387.761          20.000  
J 3                    405050.219         962.282          25.000                                                                  
C25                   -329409.429        -915.897          18.000                                                                                                                                  
C26                   1017881.103        2770.236          23.000                                                                                      111940.726        2090.049          15.000  
C34                   -474119.552       -1307.576          25.000                                                                                     -160591.466        -981.162          18.000  
