     3.03           OBSERVATION DATA    M: Mixed            RINEX VERSION / TYPE
Geo++ RINEX Logger  Geo++               20201113 025942 UTC PGM / RUN BY / DATE
************************************************************COMMENT
This file was generated by the Geo++ RINEX Logger App       COMMENT
for Android devices (Version 2.1.6). If you encounter       COMMENT
any issues, please send an email to android@geopp.de        COMMENT
Filtering Mode: BEST                                        COMMENT
************************************************************COMMENT
Geo++                                                       MARKER NAME
GEODETIC                                                    MARKER TYPE
Geo++               Geo++                                   OBSERVER / AGENCY
unknown             HUAWEI              ELS-AN00            REC # / TYPE / VERS
unknown             ELS-AN00                                ANT # / TYPE
 -2417921.8652  5386104.4968  2405258.9681                  APPROX POSITION XYZ
        0.0000        0.0000        0.0000                  ANTENNA: DELTA H/E/N
G    8 C1C L1C D1C S1C C5Q L5Q D5Q S5Q                      SYS / # / OBS TYPES
R    4 C1C L1C D1C S1C                                      SYS / # / OBS TYPES
E   12 C1B L1B D1B S1B C1C L1C D1C S1C C5Q L5Q D5Q S5Q      SYS / # / OBS TYPES
C    4 C2I L2I D2I S2I                                      SYS / # / OBS TYPES
J    8 C1C L1C D1C S1C C5Q L5Q D5Q S5Q                      SYS / # / OBS TYPES
  2020    11    13     3     0    0.9995576     GPS         TIME OF FIRST OBS
 24 R01  1 R02 -4 R03  5 R04  6 R05  1 R06 -4 R07  5 R08  6 GLONASS SLOT / FRQ #
    R09 -2 R10 -5 R11  0 R12 -1 R13 -2 R14 -7 R15  0 R16 -1 GLONASS SLOT / FRQ #
    R17  4 R18 -3 R19  3 R20  2 R21  4 R22 -3 R23  3 R24  2 GLONASS SLOT / FRQ #
G L1C                                                       SYS / PHASE SHIFT
G L5Q -0.25000                                              SYS / PHASE SHIFT
R L1C                                                       SYS / PHASE SHIFT
E L1B                                                       SYS / PHASE SHIFT
E L1C +0.50000                                              SYS / PHASE SHIFT
E L5Q -0.25000                                              SYS / PHASE SHIFT
C L2I                                                       SYS / PHASE SHIFT
J L1C                                                       SYS / PHASE SHIFT
J L5Q -0.25000                                              SYS / PHASE SHIFT
 C1C    0.000 C1P    0.000 C2C    0.000 C2P    0.000        GLONASS COD/PHS/BIS
                                                            END OF HEADER
> 2020 11 13  3  0  0.9995576  0 15
C06  36237940.995   188700476.462       -1523.678          37.000  
C08  36070211.912   187827056.772        -930.817          35.000  
C13  35783361.195   186333344.925        -578.438          33.000  
C16  36232885.595   188674138.577       -1439.727          37.000  
C29  23965162.363   124792826.681         -17.153          28.000  
C32  23591164.677   122845386.663       -2124.597          29.000  
G02  23650137.151   124282295.437       -4290.559          22.000  
G05  23185287.060   121839454.320       -2647.650          33.000  
G13  22132189.004   116305496.441       -4015.362          30.000  
G15  20422003.741   107318356.504       -2307.663          27.000  
G18  21712299.388   114099042.4281       1435.773          19.000  
G24  21258690.915   111715112.741        1374.388          30.000  
J01  40027833.907   210347716.285       -1137.044          29.000    40027842.002   157077853.737        -849.788          31.000  
J02  37216780.459   195575346.840       -1065.552          32.000  
J03  36087314.772   189639961.222       -1515.840          29.000  
> 2020 11 13  3  0  1.9995571  0 15
C06  36238083.996   188701225.431       -1530.304          35.000  
C08  36070240.392   187827206.102        -929.767          32.000  
C13  35783319.224   186333142.468        -577.332          32.000  
C16  36233014.206   188674797.297       -1439.209          37.000  
C29  23965017.863   124792065.420         -21.868          23.000  
C32  23591421.599   122846729.303       -2121.403          32.000  
G02  23650809.885   124285798.490       -4288.285          21.000  
G05  23185642.614   121841321.235       -2654.599          32.000  
G13  22132802.680   116308722.395       -4010.930          32.000  
G15  20422290.942   107319878.971       -2310.007          27.000  
G18  21711873.683   114096819.869        1433.032          16.000  
G24  21258281.998   111712954.421        1365.803          28.000  
J01  40027898.962   210348065.291       -1135.568          32.000    40027907.956   157078114.736        -847.583          28.000  
J02  37216833.822   195575626.618       -1070.401          29.000  
J03  36087455.974   189640692.035       -1520.285          28.000  
> 2020 11 13  3  0  2.9995561  0 15
C06  36238078.300   188701194.068       -1529.562          36.000  
C08  36070118.077   187826575.120        -930.146          31.000  
C13  35783130.954   186332156.807        -573.882          32.000  
C16  36232992.621   188674682.412       -1446.891          33.000  
C29  23964721.369   124790529.207         -27.749          15.000  
C32  23591527.725   122847291.049       -2126.443          33.000  
G02  23651326.727   124288517.132       -4300.064          23.000  
G05  23185847.072   121842398.163       -2651.378          31.000  
G13  22133265.859   116311156.784       -4009.209          32.000  
G15  20422429.746   107320610.388       -2301.874          29.000  
G18  21711295.083   114093813.523        1428.887          17.000  
G24  21257725.283   111710015.414        1359.954          32.000  
J01  40027815.320   210347625.146       -1135.631          31.000    40027824.014   157077785.011        -847.177          29.000  
J02  37216736.989   195575123.074       -1073.035          34.000  
J03  36087450.578   189640638.638       -1524.318          30.000  
> 2020 11 13  3  0  3.9995553  0 11
C06  36238133.762   188701475.038       -1532.911          39.000  
C08  36070056.320   187826256.078        -929.470          31.000  
C13  35782999.945   186331481.607        -574.298          32.000  
C16  36233028.896   188674877.507       -1442.385          27.000  
C32  23591694.410   122848164.464       -2119.677          31.000  
G05  23186112.089   121843787.005       -2648.009          29.000  
G13  22133788.397   116313907.677       -4011.345          29.000  
G15  20422627.010   107321650.111       -2298.645          27.000  
J01  40027792.236   210347501.128       -1136.767          30.000    40027799.731   157077690.903        -845.958          32.000  
J02  37216700.414   195574935.181       -1069.855          31.000  
J03  36087502.742   189640902.649       -1524.842          29.000  
> 2020 11 13  3  0  4.9995546  0 14
C06  36238218.004   188701912.213       -1529.965          39.000  
C08  36070024.242   187826093.659        -931.102          31.000  
C13  35782898.015   186330963.233        -573.987          32.000  
C16  36233094.551   188675225.582       -1439.769          31.000  
C32  23591891.673   122849191.443       -2118.749          31.000  
G02  23652531.293   124294796.0901      -4334.993          26.000  
G05  23186406.485   121845327.942       -2641.645          30.000  
G13  22134340.615   116316815.788       -4009.514          31.000  
G15  20422852.453   107322845.291       -2297.816          26.000  
G18  21710306.368   114088595.6751       1431.054          16.000  
G24  21256759.951   111704923.0351       1366.682          29.000  
J01  40027797.333   210347534.217       -1135.507          30.000    40027804.827   157077713.864        -846.879          29.000  
J02  37216692.020   195574898.827       -1067.039          30.000  
J03  36087584.885   189641323.882       -1525.613          27.000  
> 2020 11 13  3  0  5.9995538  0 14
C06  36238269.868   188702193.712       -1530.840          38.000  
C08  36069964.283   187825776.823        -932.545          32.000  
C13  35782768.205   186330288.826        -574.497          32.000  
C16  36233129.926   188675415.981       -1439.178          33.000  
C32  23592056.859   122850059.160       -2115.121          32.000  
G02  23653118.587   124297871.704       -4336.746          28.000  
G05  23186668.803   121846707.977       -2638.871          32.000  
G13  22134861.654   116319562.666       -4005.896          36.000  
G15  20423047.319   107323882.037       -2296.961          31.000  
G18  21709785.029   114085899.864        1436.154          16.000  
G24  21256261.396   111702297.360        1362.540          28.000  
J01  40027773.349   210347409.126       -1133.476          33.000    40027780.844   157077618.443        -845.889          31.000  
J02  37216654.246   195574706.598       -1070.001          35.000  
J03  36087634.650   189641590.466       -1528.792          30.000  
> 2020 11 13  3  0  6.9995533  0 14
C06  36238414.368   188702943.418       -1530.692          38.000  
C08  36069995.162   187825929.287        -932.384          35.000  
C13  35782727.433   186330083.243        -575.867          33.000  
C16  36233260.636   188676075.657       -1441.066          35.000  
C32  23592311.083   122851392.909       -2117.250          35.000  
G02  23653796.118   124301420.090       -4336.168          30.000  
G05  23187023.158   121848559.936       -2642.760          31.000  
G13  22135472.331   116322780.397       -4004.910          29.000  
G15  20423332.721   107325391.096       -2296.867          36.000  
G18  21709351.529   114083412.036        1435.791          18.000  
G24  21255853.379   111700150.354        1356.623          29.000  
J01  40027838.704   210347754.305       -1131.816          33.000  
J02  37216707.909   195574989.591       -1071.434          36.000  
J03  36087776.452   189642332.786       -1530.316          29.000  
> 2020 11 13  3  0  7.9995523  0 14
C06  36238408.672   188702912.701       -1530.305          38.000  
C08  36069876.144   187825302.066        -939.165          31.000  
C13  35782541.562                        -574.439          34.000  
C16  36233236.053   188675956.293       -1441.637          28.000  
C32  23592416.310   122851948.180       -2115.523          32.000  
G02  23654320.155   124304180.709       -4336.293          31.000  
G05  23187229.115   121849629.599       -2646.887          30.000  
G13  22135934.012   116325211.404       -4006.879          29.000  
G15  20423468.527   107326112.567       -2297.197          35.000  
G18  21708772.629   114080396.911        1443.229          18.000  
G24  21255296.365   111697217.052        1358.473          29.000  
J01  40027755.362   210347312.158       -1133.695          29.000  
J02  37216617.072   195574486.902       -1069.255          37.000  
J03  36087769.557   189642285.927       -1527.921          26.000  
> 2020 11 13  3  0  8.9995515  0 13
C06  36238463.234   188703194.427       -1531.401          37.000  
C08  36069815.286   187824986.621        -932.321          31.000  
C13  35782410.852   186328409.2381       -577.944          32.000  
C16  36233272.028   188676149.427       -1442.525          39.000  
C32  23592581.795   122852812.911       -2112.408          33.000  
G02  23654905.949   124307257.370       -4336.049          33.000  
G13  22136454.751   116327956.521       -4004.878          33.000  
G15  20423671.187   107327151.371       -2300.958          35.000  
G18  21708243.496   114077690.482        1450.295          19.000  
G24  21254799.908   111694599.087        1358.125          27.000  
J01  40027730.479   210347184.786       -1131.962          32.000  
J02  37216580.198   195574296.651       -1071.580          31.000  
J03  36087821.121   189642552.604       -1527.298          27.000  
> 2020 11 13  3  0  9.9995507  0 13
C06  36238519.295   188703476.293       -1529.264          38.000  
C08  36069753.829   187824669.611        -931.726          32.000  
C13  35782282.241   186327735.016        -576.149          32.000  
C16  36233307.703   188676343.352       -1442.914          39.000  
C32  23592747.881   122853676.985       -2112.891          34.000  
G02  23655489.945   124310332.511       -4334.640          30.000  
G05  23187760.348   121852398.2381      -2639.988          26.000  
G13  22136976.390   116330700.960       -4008.083          32.000  
G15  20423869.949                       -2298.481          36.000  
G24  21254303.452   111691981.319        1358.060          25.000  
J01  40027704.697   210347056.267       -1132.356          33.000  
J02  37216544.522   195574108.409       -1072.683          31.000  
J03  36087872.086   189642818.773       -1526.467          26.000  
> 2020 11 13  3  0 10.9995502  0 13
C06  36238662.596   188704226.822       -1530.089          37.000  
C08  36069784.108   187824820.385        -929.767          34.000  
C13  35782242.669   186327529.304        -579.753          34.000  
C16  36233434.815   188677005.551       -1442.717          39.000  
C32  23593003.903   122855009.338       -2113.016          33.000  
G02  23656162.979   124313878.620       -4334.170          28.000  
G05  23188114.103   121854250.186       -2639.106          27.000  
G13  22137588.566   116333920.342       -4005.707          31.000  
G15  20424158.949   107329671.8431      -2297.088          33.000  
G24  21253896.034   111689837.664        1355.650          28.000  
J01  40027769.152   210347398.257       -1129.327          32.000  
J02  37216598.185   195574393.877       -1073.504          34.000  
J03  36088016.886   189643560.036       -1528.703          27.000  
> 2020 11 13  3  0 11.9995494  0 11
C06  36238717.458   188704509.151       -1533.032          37.000  
C08  36069722.351   187824501.947        -931.386          34.000  
C13  35782112.559   186326855.746        -574.839          32.000  
C16  36233474.987   188677199.034       -1442.893          39.000  
C32  23593169.389   122855874.047       -2114.325          31.000  
G02  23656743.078   124316951.381       -4329.241          27.000  
G05  23188378.520   121855626.952       -2637.205          27.000  
G15  20424356.212   107330711.303       -2298.790          35.000  
G24  21253400.177   111687220.474        1358.947          27.000  
J01  40027742.171   210347268.523       -1131.570          31.000  
J03  36088066.951   189643828.167       -1527.067          26.000  
> 2020 11 13  3  0 12.9995484  0 14
C06  36238710.563   188704479.960       -1532.377          37.000  
C08  36069602.134   187823874.399        -934.710          30.000  
C13  35781921.591   186325870.555        -578.677          32.000  
C16  36233452.803                       -1443.011          40.000  
C32  23593275.515   122856430.265       -2119.636          30.000  
G02  23657262.018   124319703.978       -4328.703          29.000  
G05  23188582.079   121856691.766       -2644.690          31.000  
G13  22138572.785   116339098.1091      -4010.184          30.000  
G15  20424492.318   107331439.228       -2306.989          34.000  
G18  21706162.037   114066651.0621       1439.056          20.000  
G24  21252841.664   111684285.434        1359.653          28.000  
J01  40027657.629   210346823.259       -1132.466          30.000  
J02  37216469.574   195573702.7901      -1071.111          31.000  
J03  36088057.658   189643779.144       -1524.567          26.000  
> 2020 11 13  3  0 13.9995476  0 13
C06  36238766.624   188704763.268       -1531.137          36.000  
C08  36069541.576   187823560.365        -934.697          30.000  
C13  35781792.980   186325200.715        -580.321          31.000  
C16  36233487.579                       -1444.930          39.000  
C32  23593442.799   122857302.683       -2122.475          31.000  
G05  23188844.097   121858076.900       -2647.005          29.000  
G13  22139096.223   116341849.462       -4013.863          30.000  
G15  20424690.781   107332486.203       -2310.254          25.000  
G18  21705642.796   114063951.979        1439.591          19.000  
G24  21252343.409   111681664.718        1361.324          31.000  
J01  40027635.145   210346698.978       -1137.789          29.000  
J02  37216435.098   195573513.612       -1070.287          31.000  
J03  36088108.322   189644042.555       -1522.692          28.000  
> 2020 11 13  3  0 14.9995469  0 12
C06  36238850.866   188705204.596       -1534.047          32.000  
C08  36069510.997   187823402.187        -934.964          30.000  
C13  35781695.548   186324687.927        -580.621          30.000  
C16  36233553.533   188677640.6391      -1442.650          35.000  
C32  23593641.262   122858335.388       -2128.974          33.000  
G05  23189137.294   121859622.490       -2651.419          29.000  
G13  22139650.539   116344763.716       -4020.523          30.000  
G15  20424919.522   107333686.351       -2300.815          25.000  
G24  21251874.833   111679200.272        1361.937          29.000  
J01  40027640.541   210346736.626       -1142.335          34.000  
J02  37216428.203   195573476.132       -1063.297          28.000  
J03  36088190.166   189644460.544       -1518.099          27.000  
> 2020 11 13  3  0 15.9995464  0 12
C06  36238992.967   188705957.902       -1534.048          36.000  
C08  36069539.477   187823556.685        -935.157          33.000  
C13  35781661.071                        -577.631          34.000  
C16  36233681.244   188678303.616       -1446.351          36.000  
G02  23659142.317   124329533.9031      -4316.235          28.000  
G05  23189492.548   121861488.842       -2657.269          32.000  
G13  22140269.610   116348001.183       -4028.548          28.000  
G15  20425208.522   107335203.007       -2307.243          29.000  
G18  21704723.033   114059183.2381       1444.688          19.000  
G24  21251465.916   111677049.690        1363.306          30.000  
J01  40027708.294   210347093.540       -1148.392          30.000  
J03  36088330.768   189645458.183       -1513.472          28.000  
> 2020 11 13  3  0 16.9995453  0 12
C06  36238956.393   188705772.966       -1531.987          33.000  
C08  36069388.382   187822775.130        -936.320          32.000  
C13  35781443.422   186323363.5741       -583.538          30.000  
C16  36233629.380   188678030.902       -1443.319          28.000  
G02  23659632.777   124332115.741       -4312.958          25.000  
G05  23189668.826   121862416.599       -2665.687          33.000  
G13  22140709.406   116350300.045       -4034.605          30.000  
G18  21704110.257   114056005.608        1444.162          20.000  
G24  21250876.524   111673947.648        1372.116          29.000  
J01  40027598.570   210346510.118       -1151.575          30.000  
J02  37216348.158   195573074.9641      -1056.381          33.000  
J03  36088286.999   189645235.674       -1508.045          32.000  
> 2020 11 13  3  0 17.9995446  0 13
C06  36239040.334   188706213.557       -1534.761          32.000  
C08  36069358.703   187822618.922        -936.710          32.000  
C13  35781344.491   186322855.501        -586.323          31.000  
C16  36233697.133   188678380.853       -1442.767          27.000  
G02  23660242.255   124335320.413       -4306.427          26.000  
G05  23189966.220   121863978.479       -2664.730          35.000  
G13  22141268.519   116353237.123       -4044.692          31.000  
G15  20425550.286   107336992.8231      -2318.482          35.000  
G18  21703615.899   114053460.597        1439.336          26.000  
G24  21250406.150   111671467.420        1380.498          29.000  
J01  40027608.163   210346560.287       -1154.351          31.000  
J02  37216342.462                       -1057.813          37.000  
J03  36088363.146   189645637.745       -1502.227          32.000  
> 2020 11 13  3  0 18.9995438  0 12
C06  36239095.196   188706500.796       -1536.237          34.000  
C08  36069299.943   187822306.796        -936.984          31.000  
C13  35781216.779   186322194.169        -588.948          33.000  
C16  36233733.708   188678573.771       -1441.952          29.000  
G02  23660822.354   124338364.735       -4303.932          27.000  
G05  23190232.136   121865385.707       -2668.004          34.000  
G13  22141799.751   116356023.324       -4048.656          32.000  
G15  20425756.243   107338051.518       -2320.797          34.000  
G18  21703093.661   114050763.219        1434.367          34.000  
G24  21249905.796   111668825.022        1380.654          29.000  
J02  37216301.391   195572992.3841      -1053.935          39.000  
J03  36088406.916   189645875.728       -1498.110          29.000  
> 2020 11 13  3  0 19.9995433  0 14
C01  37489890.789   195219543.2831      -1197.928          30.000  
C06  36239239.696   188707256.000       -1535.328          35.000  
C08  36069331.721   187822463.543        -937.611          31.000  
C13  35781178.406   186322002.707        -590.467          33.000  
C16  36233860.221   188679234.448       -1440.645          30.000  
G02  23661493.289   124341881.545       -4304.544          30.000  
G05  23190589.789   121867266.007       -2667.704          36.000  
G13  22142419.122   116359282.164       -4045.426          30.000  
G15  20426047.042   107339585.127       -2320.329          33.000  
G18  21702667.356   114048542.702        1432.678          36.000  
G24  21249494.781   111666657.133        1378.990          29.000  
J01  40027663.325   210346823.8781      -1156.770          33.000  
J02  37216348.158   195573252.147       -1048.455          33.000  
J03  36088540.923   189646584.690       -1497.063          30.000  
> 2020 11 13  3  0 20.9995425  0 15
C01  37489880.896   195219491.874       -1197.289          30.000  
C04  38357741.988   199738875.2721      -1209.686          30.000  
C06  36239297.257   188707542.447       -1536.337          35.000  
C08  36069272.962   187822153.185        -938.809          34.000  
C13  35781051.294   186321343.635        -590.121          33.000  
C16  36233898.294   188679426.738       -1441.642          28.000  
G02  23662073.387   124344926.029       -4304.407          30.000  
G05  23190855.705   121868674.128       -2669.962          34.000  
G13  22142950.354   116362067.067       -4045.568          31.000  
G18  21702155.311   114045851.312        1429.559          36.000  
G24  21248994.427   111664018.404        1376.897          31.000  
J01  40027644.738   210346720.952       -1158.521          32.000  
J02  37216308.885   195573041.518       -1051.432          32.000  
J03  36088584.693   189646821.436       -1496.797          30.000  
R23  20929620.125   111959353.8651       1308.314          42.000  
> 2020 11 13  3  0 21.9995415  0 16
C04  38357677.532   199738523.821       -1209.815          34.000  
C06  36239290.661                       -1534.261          34.000  
C08  36069154.244   187821530.605        -939.028          26.000  
C13  35780866.921   186320373.040        -590.555          29.000  
C16  36233876.110   188679308.076       -1443.127          30.000  
C20  23527764.268   122515241.7241       -693.495          38.000  
C23  24891798.367   129618125.8831      -1150.217          30.000  
G05  23191067.658   121869769.364       -2671.225          34.000  
G13  22143420.429   116364538.176       -4047.419          34.000  
G15  20426388.805   107341392.1381      -2323.106          35.000  
G18  21701585.105                        1427.376          34.000  
G24  21248431.417   111661066.103        1378.641          32.000  
J01  40027566.792   210346304.348       -1159.269          29.000  
J02  37216209.354   195572516.047       -1049.762          30.000  
J03  36088568.504   189646741.975       -1495.086          29.000  
R23  20929076.902   111956443.106        1304.691          41.000  
> 2020 11 13  3  0 22.9995407  0 15
C04  38357673.036   199738484.588       -1209.701          37.000  
C06  36239352.718   188707783.3311      -1537.282          34.000  
C08  36069096.084   187821220.885        -939.987          32.000  
C16  36233913.883   188679502.710       -1443.915          34.000  
C20  23527653.944                        -693.402          38.000  
C23  24891782.178   129618026.403       -1149.834          29.000  
G05  23191335.672                       -2672.356          37.000  
G13  22143949.563   116367326.678       -4049.830          36.000  
G15  20426591.765   107342455.481       -2325.089          30.000  
G18  21701077.856   114039911.7681       1425.868          36.000  
G24  21247929.265                        1375.985          36.000  
J01  40027546.406   210346202.972       -1158.655          34.000  
J02  37216167.683   195572305.104       -1048.710          31.000  
J03  36088610.775   189646976.058       -1493.908          31.000  
R23  20928590.039   111953856.133        1303.686          40.000  
> 2020 11 13  3  0 23.9995400  0 15
C04  38357700.916   199738602.071       -1211.517          35.000  
C06  36239439.058   188708227.345       -1538.044          37.000  
C08  36069068.204   187821067.970        -938.627          32.000  
C16  36233981.936   188679853.896       -1444.246          34.000  
C20  23527578.696   122514268.2801       -693.501          38.000  
C23  24891795.369   129618083.541       -1150.082          32.000  
G05  23191632.167   121872860.6841      -2672.774          37.000  
G13  22144512.873   116370274.286       -4049.893          38.000  
G15  20426824.404   107343678.188       -2326.235          29.000  
G18  21700596.090   114037382.121        1425.951          41.000  
G24  21247457.391   111656142.7051       1376.203          38.000  
J01  40027556.299   210346258.514       -1158.213          33.000  
J02  37216154.492   195572251.138       -1048.827          29.000  
J03  36088683.924   189647366.618       -1493.045          30.000  
R23  20928136.453   111951429.622        1303.741          41.000  
> 2020 11 13  3  0 24.9995395  0 16
C04  38357784.259   199739033.568       -1212.229          35.000  
C06  36239584.458   188708983.633       -1537.361          37.000  
C08  36069102.980                        -940.280          32.000  
C13  35780595.909   186319027.7321       -593.503          28.000  
C16  36234108.449   188680517.714       -1443.905          34.000  
C20  23527561.908   122514181.401        -693.335          38.000  
C23  24891867.918   129618453.163       -1148.798          33.000  
G05  23191988.920   121874745.770       -2672.855          36.000  
G13  22145136.141                       -4050.419          38.000  
G15  20427119.400   107345218.051       -2328.536          28.000  
G18  21700175.781   114035167.920        1426.479          41.000  
G24  21247045.476   111653979.130        1376.271          38.000  
J01  40027624.052   210346629.582       -1158.313          34.000    40027630.948   157077024.0251       -865.568          33.000  
J02  37216202.759   195572512.101       -1048.832          29.000  
J03  36088817.631   189648072.130       -1493.871          31.000  
R23  20927745.523   111949324.576        1302.242          40.000  
> 2020 11 13  3  0 25.9995387  0 17
C04  38357777.064   199738997.023       -1212.513          35.000  
C06  36239638.420   188709271.657       -1536.913          37.000  
C08  36069043.321   187820974.4541       -940.507          33.000  
C13  35780469.097   186318372.044        -593.029          29.000  
C16  36234145.623                       -1440.287          34.000  
C20  23527455.182   122513626.197        -693.456          39.000  
C23  24891845.434                       -1151.739          32.000  
G02  23665050.626   124360471.2811      -4307.471          30.000  
G05  23192253.037   121876158.266       -2671.862          37.000  
G13  22145668.273                       -4050.095          38.000  
G15  20427322.659   107346286.291       -2328.485          29.000  
G18  21699662.836   114032481.347        1425.693          41.000  
G24  21246542.725                        1375.468          37.000  
J01  40027605.166                       -1158.001          35.000    40027611.161   157076947.733        -863.822          34.000  
J02  37216161.687   195572300.676       -1049.115          29.000  
J03  36088862.301   189648306.154       -1494.694          32.000  
R23  20927260.159   111946739.395        1301.714          41.000  
> 2020 11 13  3  0 26.9995377  0 17
C04  38357710.210   199738648.571       -1212.830          35.000  
C06  36239634.223   188709247.503       -1537.769          37.000  
C08  36068919.207                        -939.271          33.000  
C13  35780282.926   186317403.772        -592.026          28.000  
C16  36234120.740                       -1444.319          34.000  
C20  23527289.696   122512758.750        -694.771          39.000  
C23  24891767.788                       -1148.324          30.000  
G02  23665573.764   124363203.510       -4308.643          31.000  
G05  23192462.892   121877255.774       -2673.437          36.000  
G13  22146136.848   116378740.9861      -4051.932          37.000  
G15  20427464.461   107347039.554       -2329.401          27.000  
G18  21699092.031   114029479.975        1425.701          41.000  
G24  21245983.012   111648392.2451       1374.168          37.000  
J01  40027530.517   210346066.9161      -1156.377          35.000    40027531.417                        -865.510          34.000  
J02  37216059.458   195571774.553       -1049.057          29.000  
J03  36088846.112   189648226.257       -1494.218          31.000  
R23  20926715.137   111943833.750        1301.558          40.000  
> 2020 11 13  3  0 27.9995369  0 22
C04  38357704.514   199738612.575       -1212.946          36.000  
C06  36239689.085   188709535.642       -1537.797          37.000  
C08  36068863.745   187820044.0641       -940.359          32.000  
C09  36525051.333   190195526.1621      -1074.386          24.000  
C13  35780155.514   186316747.057        -592.279          28.000  
C16  36234159.713   188680783.8271      -1444.359          34.000  
C20  23527183.570   122512203.553        -694.340          38.000  
C23  24891750.400   129617862.7521      -1152.349          29.000  
C27  24914904.570   129738445.7671      -4377.662          29.000  
C30  22526351.032   117300620.1781      -2821.169          30.000  
C32  23596016.218   122870648.2361      -2151.252          30.000  
C37  24166163.313   125839553.7711        905.037          35.000  
G02  23666157.760   124366251.984       -4309.027          31.000  
G05  23192733.005   121878668.386       -2674.041          37.000  
G13  22146667.781   116381531.399       -4051.687          38.000  
G15  20427668.319   107348108.236       -2329.035          29.000  
G18  21698581.485   114026793.976        1425.718          41.000  
G24  21245482.359   111645757.203        1373.968          37.000  
J01  40027508.932   210345964.223       -1157.453          34.000    40027512.230   157076553.4161       -864.539          34.000  
J02  37216018.087   195571563.495       -1049.544          29.000  
J03  36088890.181                       -1495.284          32.000  
R23  20926233.370   111941249.701        1300.952          41.000  
> 2020 11 13  3  0 28.9995364  0 23
C04  38357787.556   199739044.901       -1212.946          36.000  
C06  36239833.885   188710292.035       -1537.598          37.000  
C08  36068893.425   187820203.628        -940.167          33.000  
C09  36525107.095   190195818.281       -1072.255          24.000  
C13  35780118.639   186316558.366        -591.459          28.000  
C16  36234289.823   188681447.535       -1444.576          34.000  
C20  23527167.081   122512116.573        -693.409          38.000  
C23  24891825.648   129618233.638       -1152.617          30.000  
C27  24915598.890   129742043.100       -4377.750          30.000  
C30  22526744.060   117302660.696       -2821.151          30.000  
C32  23596276.738   122872020.332       -2153.343          30.000  
C37  24165835.640   125837868.774         904.955          34.000  
G02  23666831.094   124370036.636       -4309.409          31.000  
G05  23193090.657   121880553.609       -2673.316          36.000  
G13  22147288.351   116384794.544       -4051.603          37.000  
G15  20427961.816   107349649.263       -2329.089          28.000  
G18  21698158.777   114024580.785        1425.150          41.000  
G20  23548998.568   123750822.4641        993.574          30.000  
G24  21245069.844   111643595.090        1373.978          38.000  
J01  40027578.784   210346333.873       -1157.617          33.000    40027583.281   157076829.427        -864.787          33.000  
J02  37216066.953   195571824.629       -1047.812          29.000  
J03  36089025.987   189649104.8461      -1494.271          32.000  
R23  20925838.843   111939147.005        1300.232          40.000  
> 2020 11 13  3  0 29.9995356  0 23
C04  38357780.661   199739008.699       -1212.694          36.000  
C06  36239890.846   188710580.168       -1537.673          36.000  
C08  36068829.569   187819894.964        -940.713          33.000  
C09  36525075.616   190195643.010       -1074.506          24.000  
C13  35779992.726   186315900.638        -591.202          29.000  
C16  36234326.398   188681643.013       -1443.441          34.000  
C20  23527063.053   122511561.293        -693.680          39.000  
C23  24891807.061   129618136.593       -1151.376          30.000  
C27  24916202.372   129745171.748       -4376.459          29.000  
C30  22527046.250   117304233.661       -2822.558          30.000  
C32  23596447.619   122872924.169       -2152.436          31.000  
C37  24165422.526   125835715.651         904.213          34.000  
G02  23667406.995   124373085.865       -4309.365          31.000  
G05  23193356.573   121881966.284       -2673.751          36.000  
G13  22147819.584   116387585.165       -4051.693          37.000  
G15  20428165.675   107350717.864       -2328.800          29.000  
G18  21697647.931   114021895.271        1424.977          41.000  
G20  23548568.365   123748568.485         993.728          29.000  
G24  21244568.891   111640960.749        1373.496          37.000  
J01  40027557.798   210346230.741       -1157.596          33.000    40027563.494   157076752.485        -864.081          34.000  
J02  37216024.982   195571612.510       -1049.006          30.000  
J03  36089075.453   189649339.438       -1496.164          31.000  
R23  20925355.578   111936563.985        1299.549          40.000  
> 2020 11 13  3  0 30.9995348  0 23
C04  38357774.066   199738972.309       -1212.568          35.000  
C06  36239945.408   188710868.328       -1536.791          37.000  
C08  36068774.407   187819586.379        -940.800          33.000  
C09  36525041.440   190195470.303       -1077.164          23.000  
C13  35779865.914   186315243.080        -591.476          28.000  
C16  36234367.170   188681838.509       -1443.496          34.000  
C20  23526954.828   122511005.955        -692.520          39.000  
C23  24891786.075   129618039.984       -1153.768          31.000  
C27  24916805.255   129748298.987       -4375.882          29.000  
C30  22527349.341   117305807.072       -2822.087          30.000  
C32  23596622.098   122873827.667       -2152.911          31.000  
C37  24165011.211   125833562.672         904.334          35.000  
G02  23667981.098   124376133.917       -4307.914          30.000  
G05  23193628.485   121883379.014       -2673.961          36.000  
G13  22148349.317   116390375.909       -4051.100          39.000  
G15  20428369.834   107351786.222       -2328.391          30.000  
G18  21697137.085   114019210.019        1424.133          42.000  
G20  23548136.364   123746313.846         994.010          30.000  
G24  21244064.040   111638326.726        1372.636          37.000    21244067.638    83366283.6851       1024.980          33.000  
J01  40027537.412   210346127.485       -1157.092          33.000    40027543.408   157076675.354        -864.164          33.000  
J02                                                                  37216021.984   146043663.1991       -785.270          26.000  
J03  36089116.525   189649573.876       -1495.839          31.000  
R23  20924877.109   111933981.571        1299.354          41.000  
> 2020 11 13  3  0 31.9995338  0 22
C04  38357706.612   199738623.710       -1212.568          35.000  
C06  36239942.410   188710844.492       -1536.632          37.000  
C08  36068655.090   187818965.940        -939.913          32.000  
C09  36524949.404   190194987.775       -1078.861          25.000  
C13  35779679.743   186314274.387        -593.323          28.000  
C16  36234338.989   188681722.025       -1443.737          33.000  
C20  23526783.946   122510138.578        -694.099          38.000  
C23  24891706.030   129617631.716       -1153.151          30.000  
C27  24917347.879   129751114.376       -4376.706          27.000  
C30  22527590.973   117307068.321       -2823.266          31.000  
C32  23596734.820   122874419.314       -2153.357          30.000  
C37  24164534.541   125831097.828         903.642          34.000  
G02  23668498.240   124378866.343       -4308.143          29.000  
G05  23193834.443   121884476.870       -2673.044          37.000  
G13  22148819.991   116392851.865       -4050.551          37.000  
G15  20428511.935   107352539.110       -2328.560          29.000  
G18  21696566.879   114016210.115        1423.806          41.000  
G24  21243504.628   111635378.259        1371.935          36.000    21243506.427    83364081.880        1025.969          33.000  
J01  40027458.567   210345709.134       -1157.548          33.000    40027464.563   157076362.976        -865.312          33.000  
J02                                                                  37215923.053   146043271.891        -784.375          27.000  
J03  36089100.636   189649493.496       -1495.280          31.000  
R23  20924337.483   111931079.622        1297.629          41.000  
> 2020 11 13  3  0 32.9995331  0 21
C04  38357729.097   199738743.500       -1212.689          35.000  
C06  36240026.652   188711289.171       -1537.582          37.000  
C08  36068625.410   187818813.960        -941.086          33.000  
C09  36524947.305   190194972.957       -1078.874          24.000  
C13  35779583.210   186313775.239        -594.142          28.000  
C16  36234409.740   188682074.080       -1444.181          33.000  
C20  23526709.298   122509739.608        -693.858          38.000  
C23  24891713.226   129617692.160       -1153.610          30.000  
C27  24917979.242   129754398.932       -4376.827          28.000  
C30  22527922.544   117308799.047       -2823.972          30.000  
C32  23596935.681   122875479.240       -2152.332          31.000  
C37  24164146.909   125829101.572         903.497          34.000  
G05  23194137.233   121886047.475       -2674.099          37.000  
G13  22149380.003   116395800.705       -4051.444          38.000  
G18  21696084.813   114013683.235        1423.570          42.000  
G20  23547241.484   123741647.7421        994.030          29.000  
G24  21243032.155   111632902.825        1371.941          38.000    21243035.752    83362233.381        1025.298          34.000  
J01  40027472.957   210345763.340       -1156.097          33.000    40027474.156   157076403.439        -864.690          34.000  
J02                                                                  37215910.461   146043230.915        -781.362          27.000  
J03  36089177.982   189649886.005       -1495.764          31.000  
R23  20923884.196   111928659.446        1297.549          41.000  
> 2020 11 13  3  0 33.9995325  0 21
C04  38357782.160   199739019.615       -1212.973          34.000  
C06  36240143.271   188711890.044       -1538.062          37.000  
C08  36068628.408   187818818.296        -939.448          33.000  
C09  36524972.488   190195115.503       -1079.251          23.000  
C13  35779517.855   186313432.533        -593.386          28.000  
C16  36234508.072   188682582.336       -1446.475          34.000  
C20  23526662.830   122509496.809        -693.999          39.000  
C23  24891748.301   129617909.299       -1153.548          29.000  
C27  24918640.284   129757839.263       -4376.943          28.000  
C30  22528284.093   117310686.679       -2824.597          30.000  
C32  23597170.119   122876695.348       -2151.207          31.000  
C37  24163778.164   125827261.653         901.873          33.000  
G02  23669749.573   124385436.6431      -4310.038          30.000  
G05  23194463.707   121887775.754       -2673.141          38.000  
G13  22149970.295   116398907.239       -4051.983          38.000  
G18  21695635.424   114011314.228        1424.262          41.000  
G20  23546871.240   123739708.691         993.084          29.000  
G24  21242593.558   111630585.492        1371.703          37.000    21242595.657    83360502.936        1023.321          34.000  
J01  40027514.928   210345974.956       -1155.594          34.000    40027514.928   157076561.543        -863.435          34.000  
J02                                                                  37215927.849   146043307.781        -782.711          26.000  
R23  20923465.986   111926400.565        1296.226          41.000  
> 2020 11 13  3  0 34.9995318  0 21
C04  38357804.944   199739139.826       -1213.098          33.000  
C06  36240226.014   188712334.646       -1537.132          37.000  
C08  36068597.829   187818666.496        -940.583          31.000  
C13  35779424.920   186312932.668        -593.166          30.000  
C16  36234573.427   188682934.503       -1444.559          34.000  
C20  23526581.287   122509097.867        -693.559          40.000  
C23  24891764.790   129617970.583       -1153.901          31.000  
C27  24919271.347   129761124.392       -4380.344          28.000  
C30  22528615.964   117312418.437       -2823.882          31.000  
C32  23597370.680   122877754.854       -2152.988          32.000  
G02  23670359.051   124388644.299       -4310.912          31.000  
G05  23194767.696   121889346.456       -2673.942          40.000  
G13  22150531.806   116401856.070       -4051.905          36.000  
G15  20429241.930   107356376.2921      -2329.961          36.000  
G18  21695147.662   114008787.728        1422.935          40.000  
G20  23546472.216   123737613.077         992.206          30.000  
G24  21242115.090   111628111.234        1370.868          35.000    21242122.884    83358655.231        1023.967          33.000  
J01                                                                  40027524.821   157076601.673        -863.592          34.000  
J02                                                                  37215916.157   146043266.981        -779.175          25.000  
J03  36089373.147   189650828.8661      -1496.879          36.000  
R23  20923013.299   111923981.818        1295.491          42.000  
> 2020 11 13  3  0 35.9995310  0 18
C04  38357798.948   199739103.848       -1214.684          32.000  
C06  36240279.377   188712623.510       -1538.867          33.000  
C08  36068535.472   187818358.968        -942.073          31.000  
C13  35779303.504   186312276.986        -592.884          31.000  
C16  36234619.895   188683130.877       -1445.050          33.000  
C20  23526476.359   122508542.880        -694.186          41.000  
C23  24891741.706   129617876.257       -1155.682          36.000  
C30  22528916.955   117313994.674       -2825.438          26.000  
G02  23670937.951   124391694.977       -4311.350          34.000  
G05  23195038.709   121890759.506       -2671.578          39.000  
G13  22151065.137   116404647.401       -4051.585          34.000  
G15  20429441.292                       -2330.584          35.000  
G18  21694636.815   114006104.184        1422.145          36.000  
G24  21241617.434   111625480.085        1371.196          35.000    21241623.730    83356690.267        1023.610          33.000  
J01  40027495.142   210345924.8531      -1155.368          38.000    40027503.836   157076524.058        -864.139          32.000  
J02                                                                  37215873.287   146043104.969        -779.933          19.000  
J03  36089412.420   189651064.330       -1497.994          30.000  
R23  20922521.340   111921403.508        1295.211          40.000  
> 2020 11 13  3  0 36.9995300  0 19
C06  36240268.584   188712600.207       -1537.020          33.000  
C08  36068416.155   187817739.380        -941.132          32.000  
C09  36524841.179   190194444.4121      -1076.636          22.000  
C13  35779120.630   186311308.689        -592.640          31.000  
C16  36234592.314   188683015.142       -1446.523          37.000  
C20  23526312.673   122507675.592        -693.746          42.000  
C23  24891660.762   129617468.799       -1150.568          33.000  
C30  22529162.485   117315259.820       -2827.170          30.000  
C32  23597667.775   122879250.3741      -2153.333          27.000  
G02  23671463.187   124394430.686       -4310.570          35.000  
G05  23195250.962   121891857.716       -2674.263          36.000  
G13  22151531.614   116407123.867       -4052.498          40.000  
G15  20429587.891   107358193.5531      -2330.429          36.000  
G18  21694060.015   114003106.116        1420.747          38.000  
G20  23545559.948   123732792.6221        992.469          26.000  
G24  21241059.820   111622534.228        1369.632          36.000    21241062.219    83354490.507        1023.156          34.000  
J01  40027415.697   210345505.758       -1155.138          35.000    40027424.990   157076211.159        -864.537          30.000  
J03  36089396.231   189650986.347       -1497.053          34.000  
R23  20921975.118   111918504.687        1294.482          41.000  
> 2020 11 13  3  0 37.9995295  0 17
C06  36240419.979   188713357.710       -1537.294          35.000  
C08  36068445.835   187817900.539        -940.213          30.000  
C09  36524900.538   190194741.041       -1077.090          24.000  
C13  35779085.854   186311120.806        -593.041          33.000  
C16  36234722.124   188683680.203       -1445.491          34.000  
C20  23526298.582   122507589.146        -694.725          39.000  
C30  22529554.614   117317305.978       -2826.139          30.000  
C32  23597927.395   122880622.575       -2152.786          30.000  
G02  23672134.722   124397954.772       -4311.873          30.000  
G05  23195605.017   121893743.734       -2674.315          37.000  
G13  22152152.184   116410388.574       -4051.137          36.000  
G18  21693639.106   114000896.246        1422.025          31.000  
G20  23545216.086   123731012.150         992.600          27.000  
G24  21240655.700   111620376.579        1368.872          38.000    21240653.302    83352879.451        1022.791          32.000  
J01  40027490.045   210345874.472       -1156.677          31.000    40027494.842   157076486.492        -862.972          32.000  
J03  36089529.938   189651695.153       -1496.064          34.000  
R23  20921591.084   111916408.817        1293.447          43.000  
> 2020 11 13  3  0 38.9995287  0 18
C06  36240475.441   188713647.092       -1536.557          36.000  
C08  36068386.476   187817593.576        -941.587          36.000  
C13  35778963.539   186310465.023        -592.357          35.000  
C16  36234755.101   188683876.993       -1446.064          31.000  
C20  23526188.259   122507034.205        -694.420          37.000  
C23  24891718.022   129617750.6401      -1156.384          35.000  
C30  22529853.507   117318884.173       -2827.778          27.000  
C32  23598099.476   122881526.129       -2151.758          37.000  
C37  24161778.849   125816819.1631        901.498          26.000  
G02  23672714.521   124401006.591       -4312.522          30.000  
G05  23195877.528   121895157.719       -2675.862          36.000  
G13  22152684.016   116413178.260       -4046.764          31.000  
G15  20430093.341   107360807.6941      -2332.002          32.000  
G20  23544785.584   123728758.857         992.865          29.000  
G24  21240152.648   111617747.742        1368.940          40.000    21240153.847    83350916.223        1019.666          33.000  
J01  40027471.758   210345770.015       -1155.504          35.000    40027473.856   157076408.446        -861.878          33.000  
J03  36089576.106   189651932.174       -1498.183          32.000  
R23  20921108.418   111913832.380        1293.735          40.000  
> 2020 11 13  3  0 39.9995279  0 21
C06  36240532.401   188713935.889       -1538.182          37.000  
C08  36068331.614   187817286.442        -942.011          33.000  
C09  36524837.581   190194400.5781      -1080.758          20.000  
C13  35778837.626   186309809.525        -592.922          32.000  
C16  36234797.372   188684073.699       -1445.341          34.000  
C20  23526080.933   122506476.942        -688.241          38.000  
C23  24891699.435   129617657.842       -1155.131          29.000  
C27  24922279.465   129776933.5931      -4380.910          29.000  
C30  22530158.396   117320463.886       -2828.209          28.000  
C32  23598269.758   122882427.709       -2149.269          34.000  
C37  24161365.735   125814669.707         899.283          33.000  
G02  23673294.619   124404059.638       -4315.133          30.000  
G05  23196145.842   121896571.756       -2672.962          36.000  
G13  22153213.150   116415969.680       -4050.142          33.000  
G15  20430293.602   107361876.611       -2330.913          35.000  
G18  21692627.307   113995530.5681       1423.548          33.000  
G20  23544354.782   123726505.510         993.063          27.000  
G24  21239649.597   111615122.038        1361.784          37.000    21239654.393    83348955.774        1017.673          33.000  
J01  40027450.173   210345662.140       -1149.801          35.000    40027453.770   157076328.014        -858.063          33.000  
J03  36089620.176                       -1500.709          33.000  
R23  20920629.649   111911254.751        1295.536          40.000  
> 2020 11 13  3  0 40.9995269  0 19
C04  38357730.596   199738778.1851      -1216.370          30.000  
C06  36240527.005   188713912.554       -1537.651          38.000  
C08  36068213.495   187816666.825        -939.505          33.000  
C09  36524749.442   190193920.390       -1080.527          20.000  
C13  35778649.956   186308840.566        -589.744          32.000  
C16  36234774.288   188683958.822       -1446.162          38.000  
C20  23525914.548                        -693.339          38.000  
C23  24891620.889   129617251.468       -1153.844          33.000  
C27  24922815.494   129779755.729       -4386.151          29.000  
C32  23598381.580   122883014.484       -2146.521          33.000  
C37  24160892.962   125812211.145         894.715          38.000  
G02  23673808.763   124406800.771       -4320.287          27.000  
G15  20430434.804   107362628.786       -2328.104          37.000  
G18  21692056.502   113992530.586        1425.203          34.000  
G20  23543865.521   123723937.144         993.171          28.000  
G24                                                                  21239093.781    83346761.278        1018.376          27.000  
J01  40027368.330   210345240.639       -1154.686          32.000    40027373.426   157076011.953        -860.757          31.000  
J03  36089603.387   189652156.8441      -1498.768          31.000  
R23  20920089.423   111908354.407        1296.591          41.000  
> 2020 11 13  3  0 41.9995261  0 21
C04  38357721.602   199738744.799       -1215.077          34.000  
C06  36240582.467   188714201.072       -1536.230          38.000  
C08  36068152.638   187816359.965        -942.113          34.000  
C13  35778522.244   186308181.973        -590.345          33.000  
C16  36234811.162   188684156.346       -1446.963          41.000  
C20  23525808.422   122505052.8201       -687.065          38.000  
C23  24891602.302   129617156.090       -1154.419          32.000  
C27  24923415.079   129782894.550       -4390.799          31.000  
C30  22530710.014   117323316.1261      -2836.437          24.000  
C32  23598547.965   122883908.237       -2141.593          33.000  
C37  24160481.347   125810065.647         897.321          31.000  
G02  23674392.759   124409861.711       -4323.212          26.000  
G05  23196621.613   121899077.9021      -2670.741          31.000  
G13  22154211.758   116421224.2471      -4039.129          35.000  
G15  20430636.565   107363693.748       -2324.654          38.000  
G18  21691546.255   113989844.840        1425.951          34.000  
G20  23543437.118   123721683.503         992.649          27.000  
G24  21238593.128   111609557.8801       1361.536          30.000    21238594.327    83344802.140        1016.169          29.000  
J01  40027346.445   210345131.510       -1149.164          31.000    40027351.541   157075929.529        -856.254          31.000  
J03  36089648.656   189652395.838       -1501.398          27.000  
R23  20919607.057   111905773.623        1298.603          40.000  
> 2020 11 13  3  0 42.9995256  0 22
C04  38357803.145   199739178.543       -1213.892          35.000  
C06  36240727.566   188714957.716       -1536.792          38.000  
C08  36068182.317   187816520.645        -940.804          34.000  
C09  36524779.421   190194048.8671      -1079.630          18.000  
C13  35778485.370   186307991.407        -587.992          33.000  
C16  36234938.274   188684822.495       -1446.670          40.000  
C20  23525790.734   122504959.477        -686.155          38.000  
C23  24891672.154   129617530.174       -1154.125          28.000  
C27  24924107.300   129786505.245       -4392.166          32.000  
C30  22531107.839   117325374.322       -2840.894          26.000  
C32  23598807.885   122885267.932       -2137.833          34.000  
C37  24160159.670   125808388.742         894.629          31.000  
G02  23675063.095   124413399.554       -4328.422          27.000  
G05  23196977.766   121900960.939       -2670.813          29.000  
G15  20430929.462   107365230.010       -2323.023          37.000  
G18  21691124.447   113987632.438        1423.932          35.000  
G20  23543097.453   123719902.333         995.250          27.000  
G24  21238185.110   111607410.417        1358.512          32.000    21238186.310    83343200.594        1011.501          28.000  
J01  40027410.300   210345489.215       -1143.754          35.000    40027418.695   157076196.658        -853.761          34.000  
J02  37215645.445   195569521.8131      -1057.494          33.000  
J03  36089785.661   189653113.001       -1508.862          27.000  
R23  20919210.132   111903672.534        1300.169          39.000  
> 2020 11 13  3  0 43.9995249  0 20
C04  38357824.131   199739299.236       -1212.963          32.000  
C06  36240812.707   188715401.933       -1537.942          37.000  
C08  36068151.738   187816368.561        -940.615          35.000  
C09  36524775.824   190194039.709       -1085.690          18.000  
C13  35778391.535                        -588.811          34.000  
C16  36235005.428   188685176.599       -1448.079          40.000  
C20  23525712.488   122504553.511        -685.712          34.000  
C27  24924739.862   129789806.021       -4396.328          28.000  
C32  23599008.446   122886310.515       -2133.657          34.000  
C37  24159780.132   125806403.674         888.739          32.000  
G02  23675675.271   124416627.009       -4332.437          25.000  
G05  23197276.360   121902530.453       -2672.447          27.000  
G13  22155389.943   116427408.9091      -4032.937          35.000  
G15  20431160.902   107366448.896       -2320.753          35.000  
G18  21690641.781   113985099.948        1430.779          33.000  
G24  21237719.533   111604951.991        1353.909          30.000    21237717.734    83341366.161        1011.104          29.000  
J01  40027415.997   210345527.884       -1142.153          32.000    40027426.189   157076226.347        -853.174          34.000  
J02  37215637.051   195569478.468       -1060.496          31.000  
J03  36089863.308   189653522.176       -1515.296          30.000  
R23  20918756.246   111901250.275        1298.559          38.000  
> 2020 11 13  3  0 44.9995241  0 22
C04  38357815.437   199739262.819       -1212.010          32.000  
C06  36240866.670   188715690.272       -1536.650          37.000  
C08  36068093.279                        -941.221          36.000  
C09  36524742.847   190193877.796       -1088.718          19.000  
C13  35778263.524                        -586.070          33.000  
C16  36235045.600   188685375.174       -1447.978          41.000  
C20  23525603.663                        -688.664          37.000  
C23  24891666.758   129617495.5501      -1151.613          24.000  
C27  24925345.143   129792955.874       -4401.426          29.000  
C30  22531755.990   117328713.6631      -2839.826          20.000  
C32  23599181.127                       -2136.119          35.000  
C37  24159367.318   125804267.342         887.673          32.000  
G02  23676260.466   124419700.820       -4335.691          29.000  
G05  23197543.775   121903941.791       -2668.438          27.000  
G13  22155916.978   116430181.350       -4032.508          31.000  
G15  20431363.262                       -2323.537          37.000  
G18  21690132.134                        1426.157          32.000  
G24  21237222.477   111602338.016        1352.351          30.000    21237221.577    83339415.642        1007.773          28.000  
J01  40027393.812   210345409.012       -1140.300          35.000    40027403.705                        -852.959          33.000  
J02  37215598.377   195569280.266       -1063.126          35.000  
J03  36089911.874   189653778.331       -1517.841          28.000  
R23  20918275.979   111898667.327        1300.600          37.000  
> 2020 11 13  3  0 45.9995231  0 22
C04  38357747.084   199738913.503       -1212.552          33.000  
C06  36240861.873   188715666.315       -1536.534          38.000  
C08  36067975.460   187815405.0421       -938.216          36.000  
C09  36524648.412   190193408.570       -1094.288          31.000  
C13  35778071.656   186305833.6541       -589.447          35.000  
C16  36235023.115   188685261.715       -1447.896          40.000  
C20  23525434.281   122503115.5011       -686.551          37.000  
C23  24891587.912   129617084.033       -1147.783          26.000  
C27  24925891.065   129795799.076       -4407.527          31.000  
C30  22532004.518   117329994.805       -2845.883          22.000  
C32  23599291.450   122887699.1581      -2131.486          32.000  
C37  24158893.046   125801818.330         888.796          31.000  
G02  23676788.700   124422460.856       -4334.975          28.000  
G05  23197748.233   121905031.511       -2659.797          27.000  
G13  22156382.855   116432637.349       -4029.342          33.000  
G15  20431505.663   107368283.4911      -2321.259          39.000  
G18  21689566.126   113979420.9851       1413.175          31.000  
G20  23541763.676   123712965.4991        999.593          32.000  
G24  21236666.662   111599411.558        1350.023          30.000    21236665.762    83337232.781        1005.578          29.000  
J01  40027311.069   210344973.657       -1140.026          30.000    40027320.363   157075803.6221       -851.349          33.000  
J02  37215499.746   195568769.240       -1065.234          39.000  
R23  20917741.749   111895764.186        1299.194          37.000  
> 2020 11 13  3  0 46.9995226  0 21
C06  36241007.872   188716423.123       -1537.912          37.000  
C08  36068005.140   187815564.066        -940.310          34.000  
C09  36524705.073   190193724.425       -1097.334          37.000  
C13  35778036.880   186305638.097        -586.663          35.000  
C16  36235150.827   188685929.498       -1447.768          40.000  
C20  23525413.895   122503020.509        -684.495          36.000  
C23  24891656.565   129617448.676       -1144.432          27.000  
C27  24926588.082   129799428.885       -4412.269          33.000  
C30  22532402.342   117332062.900       -2850.672          23.000  
C32  23599548.373   122889047.638       -2124.324          33.000  
C37  24158570.470   125800153.171         884.518          32.000  
G02  23677465.032   124426008.864       -4336.914          26.000  
G05  23198101.688   121906901.826       -2654.893          31.000  
G13  22156997.430   116435876.707       -4025.095          34.000  
G15  20431798.560   107369816.235       -2319.854          39.000  
G18  21689147.316   113977217.177        1419.787          30.000  
G24  21236261.642   111597273.840        1347.751          30.000    21236259.543    83335640.108        1003.421          31.000  
J01                                                                  40027386.617   157076065.309        -848.497          30.000  
J02  37215554.608   195569046.562       -1066.353          32.000  
J03  36090041.684   189654442.2991      -1514.070          29.000  
R23  20917342.425   111893662.509        1299.477          38.000  
> 2020 11 13  3  0 47.9995218  0 20
C06  36241064.233   188716711.871       -1537.694          38.000  
C08  36067946.680   187815255.780        -940.837          33.000  
C09  36524669.997   190193573.974       -1099.254          36.000  
C13  35777910.968   186304974.062        -584.569          36.000  
C16  36235189.201   188686129.430       -1448.859          40.000  
C20  23525304.471   122502457.203        -687.476          35.000  
C23  24891633.181   129617342.113       -1141.482          27.000  
C27  24927197.260   129802594.131       -4414.959          32.000  
C30  22532709.930   117333669.297       -2858.043          32.000  
C32  23599713.258   122889920.799       -2121.855          35.000  
C37  24158159.154   125798018.763         886.311          32.000  
G05  23198365.506   121908295.497       -2652.392          31.000  
G13  22157521.467   116438639.912       -4022.731          34.000  
G15  20432000.620   107370876.129       -2321.605          41.000  
G18  21688635.270   113974531.898        1429.158          28.000  
G24  21235766.685   111594667.340        1343.038          28.000    21235764.886    83333695.185        1003.427          27.000  
J01  40027352.740   210345199.4231      -1134.920          33.000    40027362.334   157075971.254        -846.500          35.000  
J02  37215515.934   195568852.924       -1066.492          25.000  
J03  36090095.347   189654700.434       -1523.151          26.000  
R23  20916860.359   111891080.778        1298.557          38.000  
> 2020 11 13  3  0 48.9995210  0 21
C06  36241118.496   188717000.935       -1538.151          38.000  
C08  36067887.321                        -941.565          37.000  
C09  36524640.617                       -1098.891          35.000  
C13  35777785.055   186304310.019        -585.791          37.000  
C16  36235228.773   188686329.899       -1450.384          41.000  
C20  23525195.946   122501894.767        -687.224          34.000  
C23  24891614.294   129617233.352       -1140.075          28.000  
C27  24927804.340   129805760.057       -4414.240          30.000  
C30  22533015.118   117335278.962       -2857.801          40.000  
C32  23599880.543   122890793.565       -2121.065          37.000  
C37  24157749.638                         885.196          33.000  
G02  23678640.518   124432158.2461      -4330.824          21.000  
G05  23198629.023   121909686.289       -2649.912          33.000  
G15  20432201.481   107371936.374       -2321.039          41.000  
G18  21688119.627   113971839.046        1434.360          31.000  
G20  23540576.198   123706681.1191        984.610          22.000  
G24                                                                  21235270.828    83331751.730        1002.738          33.000  
J01                                                                  40027338.050   157075876.304        -846.822          35.000  
J02  37215476.961   195568658.309       -1065.119          31.000  
J03  36090146.012   189654965.551       -1527.705          29.000  
R23  20916377.093   111888500.156        1296.342          38.000  
> 2020 11 13  3  0 49.9995203  0 20
C01  37489873.401   195219608.7841      -1198.944          39.000  
C06  36241205.436   188717446.684       -1539.610          38.000  
C08  36067857.342   187814800.7821       -938.802          37.000  
C09  36524641.517   190193395.3631      -1100.088          35.000  
C13  35777688.222   186303802.888        -585.796          38.000  
C16  36235298.025   188686687.089       -1449.584          41.000  
C20  23525120.998   122501489.745        -687.309          37.000  
C23  24891623.887   129617280.459       -1140.600          29.000  
C27  24928444.397   129809079.342       -4410.552          29.000  
C30  22533348.487                       -2857.562          40.000  
C32  23600076.007                       -2123.779          36.000  
C37  24157368.002   125793761.5581        889.166          39.000  
G02  23679254.493   124435386.737       -4332.385          21.000  
G05  23198921.921   121911232.602       -2648.646          37.000  
G13  22158602.219   116444320.9921      -4024.657          35.000  
G15  20432431.722   107373155.283       -2323.069          41.000  
G24  21234803.751   111589620.1151       1343.957          34.000    21234806.449    83329926.117        1001.902          32.000  
J01  40027340.449                       -1132.863          33.000    40027344.946                        -846.165          34.000  
J03  36090228.155   189655390.918       -1529.474          29.000  
R23  20915928.904   111886081.848        1295.272          34.000  
> 2020 11 13  3  0 50.9995192  0 21
C01  37489778.067   195219090.785       -1199.480          42.000  
C06  36241171.559   188717268.601       -1538.789          37.000  
C08  36067708.045                        -939.703          37.000  
C09  36524526.097   190192777.844       -1099.004          35.000  
C13  35777470.573   186302672.149        -587.922          38.000  
C16  36235246.461   188686420.360       -1449.637          41.000  
C20  23524924.334   122500461.401        -687.882          38.000  
C23  24891511.765   129616703.776       -1141.086          29.000  
C27  24928961.839   129811772.181       -4408.990          23.000  
C30  22533565.837   117338198.9251      -2857.177          39.000  
C32  23600152.754                       -2121.822          34.000  
C37  24156867.349                         887.489          36.000  
G02  23679753.348   124437986.885       -4333.080          24.000  
G05  23199090.704   121912150.033       -2652.612          38.000  
G13  22159038.417   116446612.254       -4024.563          32.000  
G15  20432544.744   107373745.366       -2324.345          41.000  
G18  21687026.284   113966134.0951       1433.649          26.000  
G24  21234216.158                        1342.552          36.000    21234221.255                        1004.962          33.000  
J01  40027225.029   210344494.7851      -1133.119          34.000    40027231.025   157075451.8661       -849.639          34.000  
R09  22851299.075   122024661.5281       -866.546          36.000  
R23  20915359.898   111883023.006        1294.004          34.000  
> 2020 11 13  3  0 51.9995187  0 21
C01  37489859.610   195219509.999       -1200.251          43.000  
C06  36241317.558   188718027.788       -1541.095          37.000  
C08  36067740.423   187814184.4451       -941.101          37.000  
C09  36524585.755   190193097.105       -1101.120          35.000  
C13  35777433.398   186302478.961        -588.417          38.000  
C16  36235375.671   188687090.809       -1451.858          42.000  
C20  23524906.946   122500370.690        -693.703          39.000  
C23  24891579.518   129617065.428       -1143.446          28.000  
C30  22533965.760   117340276.350       -2858.163          38.000  
C32  23600410.276   122893539.3511      -2124.982          34.000  
C37  24156546.871   125789489.2721        885.091          32.000  
G02  23680431.778   124441535.095       -4338.787          24.000  
G05  23199442.660                       -2651.545          39.000  
G13  22159653.291   116449849.246       -4026.347          34.000  
G15  20432836.442   107375281.984       -2324.908          41.000  
G18  21686601.778   113963913.785        1430.904          24.000  
G24  21233808.740   111584427.5471       1343.259          38.000    21233815.336    83326052.7511       1006.034          32.000  
J01  40027292.482   210344842.469       -1133.620          34.000    40027296.979   157075711.476        -849.284          34.000  
J03  36090337.279   189655928.6271      -1526.777          26.000  
R09  22851309.268   122024715.667        -869.343          37.000  
R23  20914971.367   111880928.195        1292.362          34.000  
> 2020 11 13  3  0 52.9995180  0 21
C01  37489879.097   195219616.870       -1199.198          42.000  
C06  36241403.898   188718475.752       -1540.350          38.000  
C08  36067711.043   187814033.532        -942.082          37.000  
C09  36524586.655   190193104.462       -1099.638          35.000  
C13  35777337.465   186301974.866        -590.313          39.000  
C16  36235444.324   188687449.948       -1451.938          42.000  
C20  23524830.499   122499969.461        -691.645          38.000  
C23  24891585.214   129617115.783       -1143.206          29.000  
C30  22534303.926   117342041.835       -2857.926          38.000  
C32  23600610.537   122894572.781       -2127.552          36.000  
C37  24156167.034   125787508.167         890.259          34.000  
G02  23681050.850   124444772.963       -4341.637          28.000  
G05  23199734.058   121915443.9821      -2648.762          39.000  
G13  22160209.706                       -4028.270          34.000  
G15  20433069.680   107376505.395       -2328.204          40.000  
G18  21686121.510   113961381.404        1427.052          29.000  
G24  21233343.462   111581981.150        1343.745          38.000    21233350.657    83324225.890        1004.358          32.000  
J01  40027297.579   210344876.175       -1138.937          34.000    40027303.275   157075736.653        -848.494          34.000  
J03  36090416.425   189656350.944       -1523.412          26.000  
R09  22851273.592   122024525.529        -871.934          37.000  
R23  20914521.678   111878515.152        1289.321          35.000  
> 2020 11 13  3  0 53.9995172  0 21
C01  37489868.604   195219566.317       -1197.394          43.000  
C06  36241459.660   188718768.151       -1543.396          39.000  
C08  36067652.584   187813726.727        -942.416          37.000  
C09  36524556.676   190192954.099       -1097.341          35.000  
C13  35777208.554   186301316.191        -591.435          40.000  
C16  36235483.896   188687653.196       -1452.147          42.000  
C20  23524720.475   122499414.492        -696.401          37.000  
C23  24891561.231   129617010.171       -1143.778          36.000  
C30  22534613.911   117343649.158       -2854.526          36.000  
C32  23600782.318   122895453.670       -2131.502          36.000  
C37  24155759.915   125785368.590         891.555          35.000  
G02  23681637.543   124447854.793       -4342.406          28.000  
G13  22160738.840   116455458.4701      -4036.130          33.000  
G15  20433272.340   107377573.704       -2330.615          40.000  
G18  21685609.765   113958696.099        1422.177          30.000  
G24  21232845.507   111579374.369        1348.997          38.000    21232855.400    83322279.388        1007.638          32.000  
J01  40027275.094   210344754.414       -1137.453          33.000    40027279.591   157075645.726        -851.618          34.000  
J02  37215369.336   195568012.0681      -1064.607          26.000  
J03  36090464.991   189656613.281       -1522.000          28.000  
R09  22851214.533   122024210.709        -875.049          35.000  
R23  20914043.209   111875944.576        1284.349          35.000  
> 2020 11 13  3  0 54.9995164  0 20
C01  37489858.711   195219512.870       -1193.434          44.000  
C06  36241514.821   188719061.766       -1544.288          39.000  
C08  36067592.625   187813419.402        -941.042          38.000  
C09  36524527.596   190192802.726       -1098.597          34.000  
C13  35777083.241   186300659.851        -594.150          40.000  
C16  36235522.870   188687857.463       -1454.005          41.000  
C20  23524615.847   122498863.881        -701.147          34.000  
C23  24891536.348   129616904.978       -1143.963          36.000  
C30  22534924.496   117345254.463       -2854.394          38.000  
C32  23600951.401   122896338.463       -2135.603          38.000  
C37  24155348.600   125783227.625         892.752          29.000  
G02  23682222.738   124450932.555       -4334.975          22.000  
G13  22161268.573   116458233.360       -4036.783          36.000  
G15  20433477.398   107378645.693       -2335.849          39.000  
G18  21685099.818   113956015.663        1417.304          32.000  
G24  21232348.151   111576763.110        1351.897          37.000    21232358.044    83320329.601        1009.816          33.000  
J01  40027254.408   210344635.052       -1140.418          31.000    40027256.807   157075556.545        -853.236          35.000  
J02  37215331.262   195567812.912       -1056.372          24.000  
R09  22851132.390   122023772.007        -874.839          37.000  
R23  20913560.543   111873379.232        1278.131          36.000  
> 2020 11 13  3  0 55.9995156  0 21
C01  37489847.619   195219454.633       -1187.812          40.000  
C06  36241573.281   188719357.334       -1545.659          40.000  
C08  36067531.767   187813111.691        -940.553          37.000  
C09  36524498.816   190192650.312       -1097.999          33.000  
C13  35776957.927   186300006.518        -597.155          41.000  
C16  36235563.042   188688063.617       -1456.636          41.000  
C20  23524510.920   122498319.603        -706.074          38.000  
C23  24891514.763   129616798.225       -1142.486          36.000  
C30  22535232.983   117346859.383       -2851.576          38.000  
C32  23601121.683   122897227.181       -2139.384          40.000  
C37  24154934.587   125781083.487         896.438          28.000  
G02  23682809.432   124454001.310       -4323.605          20.000  
G05  23200535.104                       -2654.355          36.000  
G13  22161798.306                       -4040.508          42.000  
G15  20433681.856   107379722.064       -2338.292          39.000  
G18  21684592.269   113953341.583        1409.026          35.000  
G24  21231853.494   111574148.308        1355.859          35.000    21231860.389    83318377.949        1014.842          34.000  
J01  40027231.624                       -1142.938          33.000    40027234.322   157075468.707        -854.129          38.000  
J03  36090558.826   189657121.0421      -1505.302          35.000  
R09  22851052.945   122023347.718        -875.304          36.000  
R23  20913081.175   111870821.685        1270.050          37.000  
> 2020 11 13  3  0 56.9995149  0 22
C01  37489865.306   195219546.829       -1182.699          43.000  
C06  36241659.921   188719810.966       -1546.567          39.000  
C08  36067502.388   187812959.736        -939.125          37.000  
C09  36524500.015   190192654.791       -1097.104          24.000  
C13  35776863.493   186299512.092        -600.429          39.000  
C16  36235631.394   188688427.640       -1457.275          39.000  
C20  23524438.970   122497937.288        -715.266          41.000  
C23  24891523.757   129616848.147       -1142.400          38.000  
C29  23952271.587   124725763.3251        -46.068          36.000  
C30  22535570.549                       -2852.276          36.000  
C32  23601321.345   122898275.769       -2143.095          38.000  
C37  24154552.651   125779092.329         902.713          27.000  
G05  23200830.999   121921185.9241      -2650.788          35.000  
G13  22162354.421   116463952.7011      -4046.319          36.000  
G15  20433917.793   107380960.259       -2343.320          37.000  
G18  21684119.496                        1400.558          40.000  
G24  21231387.017   111571688.211        1359.490          30.000    21231390.314    83316539.021        1016.145          29.000  
J01  40027237.620   210344558.8881      -1143.646          35.000    40027242.417   157075500.100        -855.607          39.000  
J02  37215282.096   195567560.2781      -1053.085          18.000  
J03  36090629.877   189657522.152       -1502.907          31.000  
R09  22851003.479   122023082.761        -875.881          36.000  
R23  20912633.585   111868432.271        1262.838          38.000  
> 2020 11 13  3  0 57.9995141  0 22
C01  37489852.415   195219478.028       -1177.840          40.000  
C06  36241717.181   188720110.423       -1550.697          39.000  
C08  36067442.429   187812650.628        -939.739          35.000  
C09  36524472.734   190192502.966       -1097.848          26.000  
C13  35776739.379   186298864.469        -601.069          37.000  
C16  36235670.967   188688637.407       -1459.313          40.000  
C20  23524337.940   122497405.506        -719.532          41.000  
C23  24891502.471                       -1136.841          38.000  
C29  23952038.649   124724563.075         -51.006          38.000  
C30  22535880.535   117350221.5501      -2852.039          32.000  
C32  23601493.726   122899171.589       -2146.178          36.000  
C37  24154140.437   125776937.522         912.736          23.000  
G05  23201094.816   121922577.501       -2650.624          39.000  
G13  22162884.754   116466739.193       -4048.840          35.000  
G15  20434122.851   107382045.230       -2347.483          37.000  
G18  21683613.747   113948159.3071       1395.352          39.000  
G24  21230888.162   111569066.220        1364.557          41.000    21230890.860    83314580.220        1020.171          33.000  
J01  40027216.635   210344444.611       -1147.252          36.000    40027219.932   157075414.767        -857.240          38.000  
J02  37215243.423   195567349.937       -1047.543          18.000  
J03  36090672.747   189657760.692       -1493.711          37.000  
R09  22850924.034   122022659.241        -874.946          37.000  
R23  20912150.919   111865889.970        1257.242          36.000  
> 2020 11 13  3  0 58.9995133  0 22
C01  37489838.025   195219405.036       -1175.391          40.000  
C06  36241773.542   188720411.460       -1550.137          37.000  
C08  36067383.670   187812340.947        -939.794          30.000  
C09  36524444.553   190192352.026       -1098.676          31.000  
C13  35776615.265   186298219.257        -605.300          37.000  
C16  36235711.139   188688848.676       -1460.311          40.000  
C20  23524236.310   122496878.752        -725.242          38.000  
C23  24891479.088   129616476.1421      -1140.169          32.000  
C29  23951809.907   124723368.354         -56.403          32.000  
C30  22536187.522   117351824.436       -2850.853          32.000  
C32  23601666.406   122900068.061       -2148.704          35.000  
C37  24153722.826   125774773.943         917.523          22.000  
G05  23201361.632   121923968.538       -2649.080          35.000  
G13  22163413.888   116469528.751       -4050.159          30.000  
G15  20434331.207   107383133.872       -2350.516          41.000  
G18  21683106.498   113945507.620        1388.406          40.000  
G20  23536371.909   123684468.6761        965.838          27.000  
G24  21230387.509   111566438.761        1369.588          43.000    21230390.207    83312617.328        1022.458          36.000  
J01  40027195.349   210344332.012       -1147.301          34.000    40027198.647   157075330.561        -856.262          35.000  
J03  36090717.716                       -1487.429          38.000  
R09  22850850.286   122022265.363        -879.149          33.000  
R23  20911677.247   111863350.991        1253.349          30.000  
> 2020 11 13  3  0 59.9995123  0 23
C01  37489764.276   195219017.500       -1171.172          36.000  
C06  36241772.343   188720401.247       -1550.777          39.000  
C08  36067261.954   187811718.580        -941.088          29.000  
C09  36524356.114   190191888.579       -1096.970          27.000  
C13  35776432.391   186297263.484        -606.432          40.000  
C16  36235691.353   188688748.713       -1461.161          39.000  
C20  23524075.022   122496043.979        -729.570          37.000  
C23  24891399.643   129616055.221       -1138.934          34.000  
C29  23951521.507   124721865.845         -57.562          37.000  
C30  22536433.052   117353114.381       -2851.921          32.000  
C32  23601778.529   122900656.018       -2149.909          32.000  
G02  23685071.366   124466014.2091      -4290.010          26.000  
G05  23201567.889   121925044.289       -2655.433          36.000  
G13  22163883.962   116472004.206       -4052.052          31.000  
G15  20434478.405   107383910.075       -2351.973          43.000  
G18  21682542.888   113942545.215        1385.318          36.000  
G20  23535891.641   123681932.545         955.219          27.000  
G24  21229822.100                        1373.239          45.000    21229830.194    83310418.682        1023.153          28.000  
J01  40027111.407   210343905.072       -1147.622          35.000    40027118.003   157075011.774        -858.766          35.000  
J02  37215103.720   195566590.1921      -1031.347          17.000  
J03  36090700.328   189657910.0191      -1481.633          40.000  
R09  22850705.186   122021490.116        -883.997          22.000  
R23  20911146.015   111860497.600        1246.580          34.000  
> 2020 11 13  3  1  0.9995118  0 22
C01  37489841.323   195219407.956       -1169.111          35.000  
C02  36999272.337   192664920.2041      -1206.587          33.000  
C06  36241921.340   188721172.309       -1552.539          40.000  
C08  36067292.233   187811875.944        -936.164          31.000  
C09  36524416.972   190192203.924       -1096.299          27.000  
C13  35776396.416   186297089.497        -607.304          41.000  
C16  36235822.362   188689430.019       -1463.044          37.000  
C20  23524064.529   122495992.583        -731.380          35.000  
C23  24891468.295   129616412.555       -1138.452          31.000  
C29  23951384.202   124721147.486         -65.944          36.000  
C30  22536829.378   117355184.644       -2850.272          34.000  
C32  23602041.746   122902024.710       -2149.150          37.000  
E04                                                                                                                                  24437765.087    95899038.2851       -780.700          35.000  
G05  23201918.946   121926912.215       -2653.913          32.000  
G13  22164504.833   116475269.869       -4054.970          30.000  
G15  20434776.998   107385476.158       -2354.833          43.000  
G18  21682130.074   113940373.877        1381.275          38.000  
G20  23535562.169   123680193.009         949.030          33.000  
G24  21229410.185   111561305.7441       1374.575          45.000    21229422.177    83308806.532        1024.191          21.000  
J01  40027182.458   210344266.435       -1149.876          34.000    40027187.255   157075281.704        -856.131          34.000  
J03  36090829.239   189658603.289       -1477.397          38.000  
R23  20910766.777   111858452.546        1240.624          38.000  
> 2020 11 13  3  1  1.9995110  0 22
C01  37489824.235   195219327.565       -1168.450          30.000  
C06  36241980.699   188721476.083       -1552.973          41.000  
C08  36067231.975   187811564.838        -938.564          31.000  
C09  36524386.993   190192052.297       -1098.092          28.000  
C13  35776273.201   186296448.207        -608.240          41.000  
C16  36235864.933   188689644.040       -1463.605          37.000  
C20  23523966.797   122495475.520        -733.086          36.000  
C29  23951157.858   124719964.119         -66.284          35.000  
C30  22537137.265   117356787.417       -2851.341          34.000  
C32  23602213.827   122902926.203       -2151.623          33.000  
E04                                                                                                                                  24437724.615    95898879.156        -782.548          35.000  
G05  23202181.564   121928304.100       -2651.172          28.000  
G13  22165036.365   116478064.167       -4055.457          30.000  
G15  20434984.155   107386571.247       -2355.250          43.000  
G18  21681628.521   113937732.774        1381.010          37.000  
G20  23535143.959   123677986.828         946.639          34.000  
G23  23731333.240                         637.385          34.000  
G24  21228909.232                        1375.885          44.000    21228920.324    83306837.981        1028.063          25.000  
G29  22378060.191   117597499.2901      -3332.588          40.000  
J01  40027159.674   210344155.192       -1148.131          33.000    40027165.970   157075199.320        -856.902          29.000  
J03  36090870.610   189658820.693       -1478.687          35.000  
R23  20910296.103   111855931.840        1236.403          35.000  
> 2020 11 13  3  1  2.9995103  0 20
C01  37489837.725   195219402.814       -1167.984          33.000  
C06  36242069.737   188721936.295       -1553.670          40.000  
C08  36067206.493   187811409.222        -933.785          31.000  
C09  36524389.092   190192058.864       -1099.821          31.000  
C13  35776179.366   186295963.473        -609.254          40.000  
C16  36235936.583   188690014.785       -1465.391          35.000  
C20  23523896.645   122495116.174        -736.693          38.000  
C29  23950962.094   124718939.378         -70.110          35.000  
C30  22537476.929   117358546.044       -2851.142          31.000  
C32  23602418.286   122903985.989       -2152.259          34.000  
E04                                                                                                                                  24437713.223    95898838.790        -783.797          35.000  
G15  20435222.790   107387824.840       -2357.856          42.000  
G18  21681156.648   113935250.867        1377.715          37.000  
G20  23534754.528                         949.477          38.000  
G23  23731003.168   124707258.5861        634.124          38.000  
G24  21228437.359   111556191.1931       1377.423          44.000    21228449.350    83304986.783        1027.533          27.000  
G29  22378485.597   117599729.111       -3333.140          38.000  
J01  40027169.267   210344201.460       -1150.039          26.000    40027173.764   157075230.395        -853.311          27.000  
J03  36090945.259   189659198.261       -1480.943          33.000  
R09  22850623.942   122021056.6351       -880.828          18.000  
> 2020 11 13  3  1  3.9995095  0 22
C01  37489820.937   195219321.761       -1169.580          34.000  
C06  36242126.998   188722241.328       -1554.532          41.000  
C08  36067146.234   187811099.244        -937.007          32.000  
C09  36524360.312   190191910.818       -1100.049          31.000  
C13  35776057.950   186295323.490        -610.028          38.000  
C16  36235977.055   188690230.340       -1465.466          36.000  
C20  23523798.313   122494603.004        -740.388          38.000  
C29  23950734.551   124717761.457         -72.235          34.000  
C30  22537783.917   117360147.694       -2849.799          32.000  
C32  23602593.065   122904889.085       -2152.022          26.000  
E04                                                                                                                                  24437674.250    95898682.284        -784.960          34.000  
G02  23687491.891   124478750.7881      -4282.080          17.000  
G15  20435432.944   107388921.968       -2355.517          38.000  
G18  21680655.694   113932614.124        1375.079          37.000  
G20  23534335.419                         942.676          38.000  
G23  23730642.218   124705365.176         632.707          39.000  
G24  21227936.106   111553554.593        1376.137          42.000    21227947.798    83303018.314        1026.824          28.000  
G29  22378880.124   117601802.978       -3333.951          38.000  
J01  40027146.783   210344090.324       -1149.262          29.000    40027151.580   157075143.790        -856.318          25.000  
J03  36090985.730   189659418.423       -1480.410          32.000  
R09  22850548.095   122020651.489        -876.479          20.000  
R23  20909385.933   111851057.3581       1232.865          30.000  
> 2020 11 13  3  1  4.9995087  0 24
C01  37489804.748   195219242.096       -1168.092          30.000  
C06  36242184.858   188722546.658       -1556.369          39.000  
C08  36067085.376   187810787.875        -936.203          29.000  
C09  36524331.831   190191762.940       -1101.791          31.000  
C13  35775935.935   186294683.849        -610.209          37.000  
C16  36236017.227   188690446.365       -1465.923          35.000  
C20  23523700.581   122494091.328        -734.566          33.000  
C23  24891434.419   129616149.2681      -1146.796          27.000  
C29  23950506.709   124716585.867         -74.985          34.000  
C30  22538090.305   117361748.602       -2849.729          30.000  
C32  23602767.844   122905793.270       -2153.057          30.000  
C37  24151281.915   125762044.5501        927.870          16.000  
E04                                                                                                                                  24437634.977    95898526.882        -786.250          35.000  
G05  23203018.285   121932639.6681      -2651.089          27.000  
G13  22166664.837   116486604.3251      -4056.061          27.000  
G15  20435641.899   107390020.311       -2359.697          38.000  
G18  21680154.142   113929975.777        1377.283          29.000  
G20  23533917.508   123671564.2021        938.280          37.000  
G23  23730282.168   124703473.909         629.494          38.000  
G24  21227434.553   111550917.158        1377.131          41.000    21227446.545    83301052.332        1023.829          31.000  
G29  22379274.051                       -3338.170          36.000  
J01  40027124.898   210343979.924       -1149.933          28.000    40027130.294   157075059.688        -856.952          24.000  
J03  36091025.903   189659635.804       -1475.506          35.000  
R09  22850473.746   122020254.693        -873.839          24.000  
> 2020 11 13  3  1  5.9995080  0 25
C01  37489818.838   195219316.759       -1167.058          36.000  
C06  36242273.296   188723008.948       -1555.753          41.000  
C08  36067054.498   187810631.318        -936.844          30.000  
C09  36524334.230   190191773.010       -1103.980          31.000  
C13  35775842.999   186294201.246        -609.791          38.000  
C16  36236088.878   188690819.365       -1467.139          36.000  
C20  23523633.128   122493734.545        -737.222          31.000  
C23  24891442.813   129616198.821       -1139.737          28.000  
C29  23950312.144   124715568.182         -72.353          31.000  
C30  22538429.670   117363503.916       -2845.132          28.000  
C32  23602971.403   122906854.071       -2154.213          29.000  
C37  24150894.284   125760023.603         927.962          17.000  
E04                                                                                                                                  24437624.784    95898489.997        -786.838          35.000  
G05  23203310.882   121934184.904       -2643.726          30.000  
G13  22167228.747   116489560.221       -4060.666          24.000  
G15  20435881.134   107391277.054       -2359.556          38.000  
G18  21679682.868   113927496.302        1375.709          29.000  
G20  23533525.679   123669519.584         947.177          35.000  
G23  23729954.195   124701740.964         631.263          37.000  
G24  21226958.782   111548439.639        1373.945          41.000    21226976.170    83299206.156        1021.951          26.000  
G29  22379698.257                       -3339.220          30.000  
J01  40027132.393   210344026.230       -1148.453          32.000    40027138.688   157075094.645        -859.362          26.000  
J03  36091093.956   189660009.722       -1482.467          35.000  
R09  22850424.580   122019991.687        -871.709          25.000  
R23  20908474.264   111846187.9671       1230.327          18.000  
> 2020 11 13  3  1  6.9995072  0 22
C01  37489802.050   195219234.226       -1166.016          34.000  
C06  36242332.655   188723315.516       -1555.244          40.000  
C08  36066994.539   187810319.549        -937.622          32.000  
C09  36524307.548   190191628.301       -1104.218          30.000  
C13  35775720.084   186293562.810        -610.755          39.000  
C16  36236129.649   188691036.749       -1466.951          36.000  
C20  23523533.297                        -740.945          34.000  
C23  24891419.429   129616088.937       -1139.596          29.000  
C29  23950087.599   124714395.568         -74.529          31.000  
C32  23603145.283   122907759.206       -2154.092          29.000  
C37  24150476.373   125757847.263         922.898          24.000  
E04                                                                                                                                  24437585.212    95898335.984        -788.205          34.000  
G02  23689246.276   124487974.6391      -4284.904          15.000  
G05  23203572.901   121935566.819       -2641.024          30.000  
G13  22167761.778   116492363.393       -4062.274          25.000  
G15  20436088.890   107392377.240       -2360.325          42.000  
G18  21679181.915   113924861.200        1373.591          31.000  
G20  23533107.768   123667314.478         943.429          28.000  
G23  23729592.945   124699849.186         630.536          26.000  
G29  22380092.784   117608187.3431      -3338.313          32.000  
J01  40027110.508   210343914.935       -1149.063          29.000    40027117.403   157075010.876        -856.886          25.000  
R09  22850348.133   122019583.587        -869.307          30.000  
> 2020 11 13  3  1  7.9995064  0 19
C01  37489785.562   195219150.676       -1165.062          33.000  
C06  36242391.115   188723622.092       -1554.929          40.000  
C08  36066934.581   187810007.688        -935.411          32.000  
C09  36524280.567   190191483.489       -1104.349          30.000  
C13  35775597.769   186292924.333        -609.411          39.000  
C16  36236171.920   188691254.225       -1466.619          36.000  
C20  23523434.965   122492700.9631       -737.932          33.000  
C23  24891398.743   129615981.803       -1143.937          24.000  
C29  23949862.755   124713223.828         -74.712          32.000  
C30  22539047.542   117366673.9311      -2837.751          31.000  
E04                                                                                                                                  24437546.838    95898182.432        -787.146          35.000  
G05  23203837.018   121936948.342       -2644.242          29.000  
G15  20436299.344   107393477.157       -2360.277          40.000  
G18  21678680.961   113922227.633        1372.888          34.000  
G20  23532689.258   123665112.055         940.453          26.000  
G23  23729235.892   124697958.831         629.372          24.000  
G24  21225959.874   111543179.2701       1368.591          22.000  
G29  22380489.110   117610264.916       -3337.061          37.000  
J01  40027088.623   210343802.892       -1147.268          31.000    40027095.818   157074926.576        -854.996          24.000  
> 2020 11 13  3  1  8.9995057  0 18
C06  36242480.153   188724084.113       -1553.633          40.000  
C08  36066902.803   187809850.637        -935.975          31.000  
C09  36524282.965   190191494.586       -1103.882          32.000  
C13  35775506.332   186292441.275        -608.983          41.000  
C16  36236244.770   188691627.262       -1465.560          35.000  
C20  23523367.512   122492348.407        -740.382          31.000  
C23  24891409.836   129616035.660       -1146.070          28.000  
C29  23949668.190   124712208.109         -78.307          32.000  
C30  22539386.907   117368422.237       -2846.219          26.000  
E04                                                                                                                                  24437537.845    95898146.107        -785.712          35.000  
G02  23690433.754   124494182.8391      -4282.883          14.000  
G15  20436538.579   107394734.248       -2360.964          40.000  
G18  21678209.388   113919750.523        1374.864          28.000  
G20  23532300.427   123663070.338         938.106          32.000  
G23  23728906.720   124696226.924         628.934          32.000  
G29  22380915.115   117612500.485       -3339.644          37.000  
J01                                                                  40027104.812   157074959.434        -857.096          29.000  
R09  22850228.816   122018946.8971       -867.378          28.000  
> 2020 11 13  3  1  9.9995049  0 19
C06  36242538.013   188724389.535       -1555.231          39.000  
C08  36066841.345   187809538.294        -936.827          26.000  
C09  36524256.284   190191349.737       -1104.295          33.000  
C13  35775382.518   186291801.291        -608.213          41.000  
C16  36236285.242   188691843.750       -1465.344          35.000  
C20  23523268.880   122491837.113        -735.656          28.000  
C23  24891387.651   129615929.324       -1139.427          23.000  
C29  23949442.746   124711036.345         -76.341          32.000  
C30  22539696.593   117370021.823       -2852.802          28.000  
C37  24149239.130   125751467.6061        933.367          39.000  
E04                                                                                                                                  24437499.171    95897991.691        -786.337          35.000  
G15  20436749.633   107395833.161       -2360.686          37.000  
G18  21677707.835   113917115.213        1375.365          31.000  
G20  23531883.416   123660871.457         939.808          29.000  
G23  23728546.969   124694336.929         630.402          32.000  
G24  21224994.242   111538066.8861       1381.456          18.000  
G29  22381311.141   117614579.390       -3340.933          38.000  
J01                                                                  40027082.927   157074874.322        -855.894          26.000  
R09  22850150.870   122018530.685        -867.730          31.000  
> 2020 11 13  3  1 10.9995041  0 20
C06  36242597.372   188724694.598       -1554.656          39.000  
C08  36066782.586   187809225.075        -937.152          22.000  
C09  36524226.904   190191202.162       -1101.068          31.000  
C13  35775258.104   186291162.180        -614.019          39.000  
C16  36236329.311   188692059.952       -1463.811          37.000  
C20  23523169.349   122491320.107        -728.449          29.000  
C23  24891366.665   129615820.375       -1142.096          26.000  
C29  23949214.904   124709862.900         -75.244          28.000  
C30  22540007.777   117371628.317       -2857.340          30.000  
C37  24148814.024   125749288.131         924.508          38.000  
E04                                                                                                                                  24437459.599    95897836.692        -785.180          35.000  
E12                                                                                                                                  21658257.900    84991638.5101      -1086.343          27.000  
G02  23691587.655   124500225.6311      -4284.330          17.000  
G15  20436957.689   107396931.006       -2356.567          40.000  
G18  21677206.882   113914480.724        1375.270          30.000  
G20  23531464.906   123658669.893         944.320          25.000  
G23  23728187.817   124692445.668         632.698          27.000  
G29  22381705.967   117616659.627       -3342.702          40.000  
J01                                                                  40027060.143   157074793.319        -863.662          27.000  
R09  22850074.123   122018120.888        -878.400          23.000  
> 2020 11 13  3  1 11.9995034  0 20
C01  37489779.266   195219124.9721      -1164.940          35.000  
C02  36999327.499   192665134.5241      -1212.809          30.000  
C06  36242686.111   188725155.140       -1555.052          39.000  
C08  36066755.305   187809069.235        -937.696          24.000  
C09  36524227.803   190191210.865       -1102.346          30.000  
C13  35775166.368                        -606.630          36.000  
C16  36236400.362   188692431.713       -1465.613          38.000  
C20  23523099.497   122490955.434        -727.861          30.000  
C23  24891377.758   129615869.509       -1142.089          21.000  
C29  23949018.240   124708843.608         -72.881          29.000  
C30  22540348.342   117373394.811       -2861.141          32.000  
C37  24148424.594                         924.233          35.000  
E04                                                                                                                                  24437449.706    95897798.439        -785.060          35.000  
E12                                                                                                                                  21658324.754    84991901.951       -1087.096          26.000  
G02  23692193.536   124503409.160       -4288.610          19.000  
G18  21676735.908   113911998.189        1381.265          30.000  
G20  23531077.874   123656619.433         949.915          24.000  
G23  23727857.446   124690709.015         635.043          26.000  
G24  21224019.017   111532937.9511       1379.489          19.000  
G29  22382131.373   117618898.052       -3343.464          41.000  
> 2020 11 13  3  1 12.9995026  0 19
C01  37489763.976   195219042.023       -1168.562          35.000  
C06  36242743.970   188725459.799       -1554.807          40.000  
C08  36066697.145   187808758.134        -938.718          24.000  
C09  36524198.424   190191064.598       -1102.750          29.000  
C13  35775043.753   186290036.7431       -607.206          35.000  
C16  36236441.733   188692647.579       -1462.838          38.000  
C20  23522999.966   122490435.170        -729.519          32.000  
C29  23948791.597   124707666.652         -71.467          32.000  
C30  22540660.425   117375008.803       -2863.511          33.000  
C37  24148006.083   125745010.2121        923.756          37.000  
E04                                                                                                                                  24437410.733    95897642.316        -785.721          35.000  
E12                                                                                                                                  21658361.628    84992048.033       -1085.933          26.000  
G05  23205233.451   121944200.5331      -2659.038          26.000  
G18  21676235.554   113909356.373        1382.487          32.000  
G20  23530656.965   123654408.871         950.042          28.000  
G23  23727496.796   124688812.673         637.093          24.000  
G24  21223518.364   111530304.409        1369.915          30.000  
G29  22382527.998   117620980.603       -3346.808          44.000  
R09  22849978.789   122017611.7111       -884.922          20.000  
> 2020 11 13  3  1 13.9995018  0 16
C01  37489749.586   195218963.824       -1174.053          37.000  
C06  36242801.531                       -1550.109          39.000  
C08  36066639.885   187808447.876        -938.945          26.000  
C09  36524170.243   190190919.297       -1103.968          25.000  
C13  35774919.039   186289395.097        -602.663          38.000  
C16  36236483.105   188692864.016       -1464.886          38.000  
C29  23948569.151   124706489.054         -71.723          34.000  
C30  22540971.910   117376623.984       -2865.454          25.000  
C37  24147590.271   125742835.107         927.124          37.000  
E04                                                                                                                                  24437370.560    95897486.095        -784.755          35.000  
E12                                                                                                                                  21658398.803    84992193.436       -1087.076          27.000  
G02  23693345.638   124509469.0151      -4291.736          23.000  
G20  23530237.556   123652198.205         951.270          34.000  
G23  23727133.447   124686914.320         638.633          33.000  
G24  21223019.809   111527678.103        1363.013          41.000  
R23  20904757.438   111826406.2101       1235.704          26.000  
> 2020 11 13  3  1 14.9995011  0 15
C01  37489766.375   195219047.215       -1178.997          36.000  
C06  36242890.569                       -1554.718          37.000  
C08  36066611.105   187808295.125        -940.689          26.000  
C13  35774826.703                        -607.329          36.000  
C16  36236554.755   188693236.354       -1467.023          35.000  
C23  24891363.368   129615749.4471      -1173.138          24.000  
C29  23948375.784                         -69.871          34.000  
C37  24147204.138                         917.787          36.000  
E04                                                                                                                                  24437360.367    95897447.260        -784.484          34.000  
E12                                                                                                                                  21658466.556    84992457.380       -1088.710          27.000  
G15  20437855.567                       -2357.937          39.000  
G20  23529847.226   123650144.099         951.874          25.000  
G23  23726799.179   124685172.099         640.833          27.000  
G24  21222550.034   111525213.201        1361.764          46.000  
R23  20904321.839   111824045.833        1239.910          24.000  
> 2020 11 13  3  1 15.9995003  0 17
C01  37489753.484   195218977.038       -1179.676          36.000  
C06  36242950.228   188726531.8981      -1555.170          39.000  
C08  36066550.846   187807988.341        -943.489          27.000  
C13  35774703.488   186288269.4881       -608.885          38.000  
C16  36236595.227   188693453.378       -1464.870          39.000  
C20  23522740.046   122489022.5301       -723.948          22.000  
C29  23948149.741   124704296.4731        -69.177          34.000  
C37  24146788.626   125738662.3751        914.562          38.000  
E04                                                                                                                                  24437320.795    95897289.938        -782.841          32.000  
E12                                                                                                                                  21658504.329    84992603.911       -1088.063          27.000  
G13  22172711.351   116518383.6361      -4080.104          27.000  
G15  20438059.726   107402753.0491      -2359.732          42.000  
G18  21674774.966   113901587.6971       1377.245          31.000  
G20  23529430.514   123647929.962         955.167          19.000  
G24  21222048.482   111522592.728        1358.644          46.000  
J01  40027018.472   210343350.9541      -1147.394          28.000  
R23  20903860.159   111821522.383        1239.314          25.000  
> 2020 11 13  3  1 16.9994995  0 18
C01  37489739.094   195218908.792       -1181.925          38.000  
C06  36243010.486   188726837.095       -1554.844          38.000  
C08  36066492.387   187807683.870        -944.932          25.000  
C09  36524114.182   190190627.3131      -1097.064          15.000  
C13  35774579.974   186287630.088        -608.441          35.000  
C16  36236638.397   188693669.256       -1461.395          38.000  
C20  23522638.416   122488497.478        -723.828          30.000  
C29  23947923.398   124703115.450         -65.182          23.000  
C37  24146373.114   125736501.612         908.413          42.000  
E04                                                                                                                                  24437280.323    95897130.094        -780.995          35.000  
E12                                                                                                                                  21658542.103    84992752.169       -1089.986          28.000  
G02  23695098.225   124518732.9731      -4303.934          26.000  
G05  23206369.365   121950048.1071      -2705.879          28.000  
G13  22173253.676   116521206.477       -4085.399          30.000  
G15  20438268.081   107403855.255       -2365.273          33.000  
G20  23529012.903   123645711.509         965.288          18.000  
G23  23726074.281   124681360.5191        649.677          15.000  
G24  21221549.927   111519975.267        1355.098          46.000  
> 2020 11 13  3  1 17.9994988  0 17
C01  37489756.781   195219000.960       -1188.285          39.000  
C06  36243098.025   188727297.432       -1554.201          34.000  
C08  36066463.007   187807537.140        -947.209          25.000  
C13  35774486.139   186287143.909        -605.322          23.000  
C16  36236710.048   188694039.871       -1462.146          34.000  
C20  23522569.164   122488126.720        -719.209          36.000  
C29  23947726.134   124702083.220         -57.286          19.000  
C37  24145988.480   125734503.026         903.397          40.000  
E04                                                                                                                                  24437268.631    95897084.608        -772.929          33.000  
E12                                                                                                                                  21658609.856    84993017.757       -1087.704          27.000  
G05  23206676.652   121951654.121       -2708.485          28.000  
G13  22173825.080   116524189.581       -4086.076          30.000  
G15  20438509.714   107405114.821       -2357.629          25.000  
G18  21673804.837   113896464.5181       1386.037          35.000  
G20  23528616.578   123643639.258         976.195          18.000  
G24  21221082.850                        1351.978          46.000  
R09  22849734.458   122016306.3721       -933.209          26.000  
> 2020 11 13  3  1 18.9994980  0 18
C01  37489745.689   195218942.639       -1193.054          40.000  
C03  36259525.153   188812862.1261      -1228.982          31.000  
C06  36243154.087   188727600.815       -1552.822          38.000  
C08  36066405.147   187807236.889        -950.536          25.000  
C13  35774362.025   186286500.005        -604.841          36.000  
C16  36236751.119   188694252.933       -1460.713          39.000  
C20  23522469.333   122487592.533        -711.655          27.000  
C29  23947497.692   124700885.075         -45.973          21.000  
C37  24145575.366   125732353.735         899.719          40.000  
E04                                                                                                                                  24437227.260    95896919.091        -775.442          26.000  
E12                                                                                                                                  21658647.930    84993165.725       -1090.437          27.000  
G05  23206952.461   121953099.927       -2704.388          27.000  
G15  20438716.271   107406209.877       -2353.975          37.000  
G18  21673302.085                        1392.442          36.000  
G20  23528200.166   123641396.773         989.374          17.000  
G24  21220585.794   111514931.2131       1348.653          44.000  
G29  22384988.995   117633801.1281      -3335.141          11.000  
J02                                                                  37214464.562   146037551.4141       -780.305          34.000  
> 2020 11 13  3  1 19.9994972  0 20
C01  37489734.897   195218888.452       -1196.478          41.000  
C03  36259520.956   188812842.037       -1228.673          30.000  
C06  36243213.146   188727902.978       -1549.957          39.000  
C08  36066347.287   187806939.665        -952.775          28.000  
C09  36524055.722   190190300.9941      -1083.713          19.000  
C13  35774237.611   186285856.186        -604.977          35.000  
C16  36236790.392   188694464.329       -1461.302          39.000  
C20  23522367.704   122487052.977        -707.388          29.000  
C29  23947267.452   124699674.824         -31.820          23.000  
C37  24145164.950   125730209.420         891.283          41.000  
E04                                                                                                                                  24437183.790    95896750.417        -770.189          31.000  
E12                                                                                                                                  21658685.404    84993314.111       -1087.975          28.000  
G02  23696859.206   124528054.5051      -4324.036          36.000  
G13  22174899.237   116529836.3791      -4078.243          31.000  
G15  20438922.528   107407302.375       -2352.507          34.000  
G18  21672801.432   113891317.7711       1394.354          37.000  
G20  23527783.454   123639144.112         997.056          17.000  
G24  21220090.537                        1348.860          44.000  
G29  22385381.123   117635874.375       -3332.226          12.000  
J02  37214417.195   195563214.6971      -1049.828          36.000    37214424.690   146037393.106        -784.308          32.000  
> 2020 11 13  3  1 20.9994964  0 16
C01  37489726.502   195218837.664       -1199.494          41.000  
C06  36243271.305   188728204.179       -1549.587          39.000  
C08  36066289.727   187806644.565        -954.730          31.000  
C13  35774118.293                        -603.710          36.000  
C16  36236830.264   188694674.297       -1458.481          39.000  
C20  23522263.076   122486509.372        -702.992          31.000  
C29  23947034.813   124698456.739         -29.580          22.000  
C37  24144753.035                         892.421          40.000  
E12                                                                                                                                  21658722.578    84993460.764       -1087.367          29.000  
G02  23697441.702                       -4327.308          35.000  
G13  22175437.664   116532650.669       -4072.447          30.000  
G15  20439130.285   107408396.303       -2355.281          38.000  
G24  21219594.081   111509716.2491       1345.603          43.000  
G29  22385775.650   117637945.131       -3328.561          17.000  
J02  37214381.520   195563007.900       -1054.679          32.000    37214384.518   146037236.927        -786.962          25.000  
R08  20969772.828   112292180.9031      -1798.382          33.000  
> 2020 11 13  3  1 21.9994957  0 18
C01  37489746.588   195218944.691       -1200.294          41.000  
C06  36243359.145   188728661.073       -1549.849          39.000  
C08  36066262.746   187806507.199        -955.868          31.000  
C09  36524029.041   190190134.0331      -1089.713          25.000  
C13  35774027.156   186284733.1371       -605.680          35.000  
C16  36236901.615   188695039.914       -1458.588          39.000  
C20  23522188.128   122486119.270        -702.400          32.000  
C32  23605966.929                       -2160.679          32.000  
C37  24144371.999   125726086.8451        889.069          38.000  
E12                                                                                                                                  21658789.732    84993724.717       -1087.510          30.000  
G02  23698049.682   124534121.3511      -4328.045          35.000  
G05  23207792.779   121957542.1561      -2682.742          30.000  
G15  20439372.217   107409647.388       -2352.585          31.000  
G20  23526961.424   123634776.1271       1005.789          17.000  
G24  21219127.304   111507267.843        1344.708          43.000  
G29  22386197.458   117640169.914       -3325.778          18.000  
J02  37214370.727   195562959.108       -1053.497          35.000    37214374.625   146037200.234        -787.052          27.000  
R09  22849499.421   122015051.4121       -925.951          27.000  
> 2020 11 13  3  1 22.9994949  0 16
C01  37489734.597   195218896.354       -1200.909          40.000  
C06  36243416.405   188728961.851       -1548.809          38.000  
C08  36066206.685   187806214.611        -956.411          33.000  
C09  36524002.659   190189975.463       -1090.987          25.000  
C13  35773904.841   186284089.314        -605.843          36.000  
C16  36236942.986   188695249.098       -1457.712          39.000  
C20  23522083.201   122485572.253        -701.087          29.000  
C32  23606144.706   122923375.9711      -2160.676          34.000  
C37  24143964.281   125723949.414         886.436          38.000  
E12                                                                                                                                  21658826.606    84993870.297       -1085.746          29.000  
G02  23698633.078   124537190.050       -4330.971          37.000  
G15  20439579.074   107410740.832       -2354.617          28.000  
G24  21218631.747   111504662.915        1344.709          43.000  
G29  22386588.088   117642233.313       -3322.626          19.000  
J01  40026972.603   210342999.7141      -1160.045          28.000  
J02  37214327.557   195562753.425       -1056.349          35.000    37214336.551   146037046.700        -789.745          27.000  
> 2020 11 13  3  1 23.9994941  0 16
C01  37489724.704   195218848.673       -1201.335          41.000  
C06  36243475.164   188729262.273       -1549.992          37.000  
C08  36066150.024   187805922.019        -956.518          33.000  
C09  36523973.879   190189816.905       -1090.353          25.000  
C13  35773778.329   186283445.703        -604.470          31.000  
C16  36236982.259   188695457.967       -1456.958          40.000  
C32  23606323.083   122924286.937       -2160.230          34.000  
E12                                                                                                                                  21658864.080    84994015.579       -1086.817          28.000  
G02  23699220.671   124540259.884       -4330.618          36.000  
G15  20439785.031   107411835.407       -2355.263          30.000  
G18  21670793.122   113880835.8701       1400.863          29.000  
G24  21218136.190   111502058.507        1343.430          43.000  
G29  22386976.918   117644294.958       -3321.582          23.000  
J01  40026955.515   210342898.515       -1158.671          31.000  
J02  37214287.085   195562548.914       -1055.461          31.000    37214296.978   146036893.956        -787.295          29.000  
R08  20970104.399   112293956.0011      -1795.386          32.000  
> 2020 11 13  3  1 24.9994934  0 19
C01  37489751.385   195218957.202       -1201.689          41.000  
C06  36243560.006   188729718.542       -1549.100          39.000  
C08  36066123.342   187805785.240        -955.989          34.000  
C09  36523974.479   190189814.920       -1091.304          27.000  
C13  35773686.292   186282957.800        -604.850          32.000  
C16  36237051.811   188695822.560       -1457.079          41.000  
C20  23521904.824   122484632.2671       -698.400          30.000  
C32  23606525.143   122925352.933       -2157.894          36.000  
C37  24143180.324   125719834.2491        886.092          30.000  
E12                                                                                                                                  21658932.133    84994279.539       -1087.863          30.000  
G02  23699835.545   124543488.442       -4331.083          40.000  
G05  23208630.999   121961968.4921      -2684.607          28.000  
G15  20440020.668   107413088.091       -2355.563          32.000  
G18  21670316.152   113878332.798        1400.011          31.000  
G20  23525717.884   123628481.4431       1002.821          17.000  
G24  21217670.013   111499612.412        1342.817          41.000    21217679.306    83262730.6081       1001.621          35.000  
G29  22387399.326   117646514.771       -3322.721          24.000  
J02  37214278.991   195562501.497       -1056.758          31.000  
R08  20970229.112   112294623.958       -1793.778          29.000  
> 2020 11 13  3  1 25.9994926  0 17
C01  37489742.991   195218910.380       -1202.585          43.000  
C06  36243617.865   188730018.871       -1548.594          39.000  
C08  36066066.382   187805491.644        -955.772          31.000  
C09  36523945.399   190189657.173       -1091.498          28.000  
C13  35773560.979   186282313.870        -605.239          33.000  
C16  36237091.983   188696031.170       -1457.349          40.000  
C32  23606700.222   122926262.507       -2158.364          35.000  
C37  24142770.208   125717699.229         886.126          35.000  
E12                                                                                                                                  21658969.607    84994426.069       -1088.484          29.000  
G02  23700421.340                       -4331.465          41.000  
G15  20440227.525   107414183.141       -2355.543          32.000  
G18  21669809.803   113875673.151        1399.040          30.000  
G20  23525289.181   123626217.849        1000.352          16.000  
G24  21217174.456   111497009.237        1342.931          42.000    21217183.450    83260786.671        1002.039          36.000  
J02  37214239.718   195562300.494       -1059.114          31.000  
J03  36092187.898   189665631.3451      -1507.001          36.000  
R08  20970325.046   112295137.698       -1794.612          30.000  
> 2020 11 13  3  1 26.9994918  0 21
C01  37489729.800   195218863.268       -1201.150          39.000  
C06  36243676.925   188730319.513       -1549.256          39.000  
C08  36066009.421   187805198.652        -955.915          29.000  
C09  36523913.921   190189499.795       -1091.518          25.000  
C13  35773431.169   186281670.317        -606.632          31.000  
C16  36237132.455   188696240.234       -1458.555          39.000  
C20  23521686.575   122483532.6631       -701.306          26.000  
C32  23606872.003   122927172.968       -2162.286          36.000  
C37  24142357.394   125715564.025         886.916          33.000  
E12                                                                                                                                  21659007.981    84994573.296       -1088.563          27.000  
G02  23701008.034   124549630.3931      -4330.734          41.000  
G13  22178687.414   116549808.3521      -4067.088          31.000  
G15  20440437.080   107415278.693       -2356.079          33.000  
G18  21669304.653   113873013.823        1398.526          34.000  
G24  21216681.897   111494406.256        1343.157          43.000    21216687.593    83258842.935        1002.287          35.000  
G29  22388185.082   117650638.2301      -3321.720          26.000  
J01  40026939.327   210342748.9601      -1157.288          29.000  
J02  37214198.946   195562098.220       -1057.017          32.000  
J03  36092237.664   189665876.736       -1505.356          29.000  
R08  20970419.481   112295643.251       -1796.046          28.000  
R23  20898791.568   111794442.0211       1250.996          34.000  
> 2020 11 13  3  1 27.9994911  0 18
C01  37489750.786   195218970.678       -1199.840          39.000  
C06  36243765.663   188730776.592       -1550.410          37.000  
C08  36065983.039   187805061.565        -955.837          35.000  
C13  35773340.931   186281183.023        -607.060          30.000  
C16  36237200.808   188696605.843       -1458.437          39.000  
C20  23521613.726   122483142.568        -703.367          35.000  
C32  23607075.262   122928240.674       -2160.018          32.000  
C37  24141975.458   125713585.415         885.588          36.000  
E12                                                                                                                                  21659075.734    84994838.601       -1088.727          29.000  
G02  23701622.908   124552858.517       -4332.415          41.000  
G05  23209479.112   121966400.7421      -2685.518          31.000  
G13  22179251.324   116552773.814       -4069.315          29.000  
G18  21668831.580   113870512.907        1398.806          34.000  
G24  21216212.722   111491961.073        1341.603          42.000    21216221.715    83257017.006        1002.426          34.000  
G29  22388605.691   117652859.087       -3324.054          22.000  
J02  37214189.653   195562050.699       -1053.979          31.000  
J03  36092315.310   189666279.350       -1505.555          29.000  
R23  20898348.175   111792069.300        1248.926          33.000  
> 2020 11 13  3  1 28.9994903  0 19
C01  37489743.291   195218921.890       -1201.454          38.000  
C06  36243822.324   188731077.911       -1551.381          37.000  
C08  36065929.077   187804768.228        -955.768          35.000  
C13  35773218.016                        -604.784          31.000  
C16  36237240.680   188696815.588       -1458.965          39.000  
C32  23607254.838   122929151.531       -2157.150          31.000  
C37  24141567.740   125711450.555         886.483          31.000  
E12                                                                                                                                  21659112.908    84994986.929       -1090.862          29.000  
G02  23702207.803   124555930.109       -4331.250          33.000  
G13  22179785.254   116555583.229       -4069.826          33.000  
G15  20440883.771   107417626.4391      -2355.308          28.000  
G18  21668329.128   113867854.410        1397.760          29.000  
G24  21215718.963   111489359.094        1341.333          39.000    21215727.058    83255073.825        1001.671          33.000  
G29  22388999.019   117654923.111       -3324.606          21.000  
J01  40026929.733   210342702.8921      -1159.322          31.000  
J02  37214149.480   195561844.537       -1054.209          31.000  
J03  36092362.078   189666524.568       -1506.017          32.000  
R08  20970652.719   112296892.3741      -1796.054          26.000  
R23  20897878.999   111789538.092        1247.266          36.000  
> 2020 11 13  3  1 29.9994895  0 17
C01  37489733.398   195218874.342       -1201.454          37.000  
C06  36243881.683   188731379.603       -1550.784          36.000  
C08  36065872.116                        -953.970          36.000  
C13  35773096.001   186279896.7871       -605.622          28.000  
C16  36237284.750   188697025.895       -1458.974          37.000  
C20  23521412.865   122482053.2611       -705.057          29.000  
C32  23607428.417   122930060.501       -2159.396          34.000  
C37  24141158.224   125709314.980         886.996          31.000  
E12                                                                                                                                  21659150.682    84995136.574       -1091.370          29.000  
G02  23702792.398   124559000.324       -4334.990          37.000  
G13  22180319.185   116558393.245       -4070.960          31.000  
G15  20441092.726   107418721.523       -2355.139          28.000  
G20  23523637.625   123617366.4311        986.051          24.000  
G24  21215223.107   111486756.839        1340.938          39.000    21215230.002    83253130.782        1000.502          33.000  
J01  40026911.146   210342602.389       -1159.344          31.000  
J02  37214109.908   195561638.066       -1053.805          37.000  
J03  36092408.246   189666770.241       -1506.001          32.000  
> 2020 11 13  3  1 30.9994888  0 17
C01  37489752.285   195218980.323       -1194.667          36.000  
C06  36243969.822   188731837.982       -1551.419          37.000  
C08  36065846.334   187804322.1011       -953.548          33.000  
C13  35773001.267   186279408.079        -603.739          27.000  
C16  36237354.002   188697393.458       -1463.315          36.000  
C20  23521336.118   122481666.305        -707.401          33.000  
C32  23607634.375   122931128.978       -2164.985          32.000  
C37  24140775.689   125707334.591         888.550          36.000  
E12                                                                                                                                  21659218.135    84995403.887       -1090.346          29.000  
G02  23703403.076   124562226.390       -4329.296          35.000  
G13  22180883.694   116561362.748       -4073.745          32.000  
G15  20441330.162   107419974.855       -2357.049          30.000  
G18  21667353.603   113862699.7591       1390.623          34.000  
G24  21214757.829   111484312.476        1341.461          38.000    21214765.623    83251305.370        1000.620          32.000  
J02                                                                  37214114.704   146036178.0701       -786.129          33.000  
J03  36092481.695   189667171.821       -1503.782          35.000  
R23  20896969.729   111784642.8251       1241.839          34.000  
> 2020 11 13  3  1 31.9994880  0 20
C01  37489742.092   195218925.801       -1194.799          33.000  
C06  36244027.382   188732141.791       -1555.541          37.000  
C08  36065792.971   187804026.759        -952.070          34.000  
C13  35772875.953   186278763.456        -606.329          30.000  
C16  36237394.174   188697606.773       -1461.317          36.000  
C20  23521231.190   122481125.825        -708.810          32.000  
C32  23607809.753   122932044.428       -2164.669          32.000  
C37  24140358.078                         894.145          33.000  
E12                                                                                                                                  21659256.209    84995552.846       -1091.437          30.000  
G02  23703983.474                       -4324.862          35.000  
G13  22181417.624   116564176.788       -4074.784          30.000  
G15  20441539.417   107421072.084       -2357.899          30.000  
G20  23522829.084   123613300.4031        980.404          20.000  
G24  21214263.771   111481709.327        1343.794          37.000    21214269.167    83249362.150        1001.993          29.000  
G29  22390207.182   117661280.8901      -3327.470          18.000  
J01  40026895.257   210342554.8321      -1157.501          29.000  
J02  37214061.641   195561377.2161      -1045.945          39.000    37214073.333   146036020.952        -780.929          33.000  
J03  36092526.064   189667414.989       -1508.651          34.000  
R08  20970975.596   112298621.8441      -1792.509          26.000  
R23  20896497.256   111782120.861        1235.984          36.000  
> 2020 11 13  3  1 32.9994872  0 19
C01  37489732.498   195218871.002       -1193.522          29.000  
C06  36244086.741   188732446.824       -1555.275          38.000  
C08  36065736.310   187803730.256        -952.782          35.000  
C13  35772751.839   186278121.481        -607.979          35.000  
C16  36237433.747   188697821.812       -1465.649          37.000  
C20  23521126.863   122480586.904        -712.010          31.000  
C32  23607985.132   122932957.747       -2161.051          29.000  
C37  24139941.366   125703035.0561        893.514          35.000  
E12                                                                                                                                  21659294.882    84995703.960       -1094.423          30.000  
G02  23704563.872   124568335.1701      -4321.900          38.000  
G05  23210849.763   121973683.6591      -2681.219          30.000  
G13  22181950.355   116566991.463       -4073.457          27.000  
G15  20441749.571   107422171.262       -2361.045          31.000  
G18  21666344.802   113857402.1721       1388.375          31.000  
G24  21213768.813   111479106.141        1343.767          40.000    21213773.910    83247418.490        1002.780          29.000  
J02  37214022.668   195561160.862       -1043.989          37.000    37214031.662   146035858.936        -780.284          32.000  
J03  36092577.628                       -1520.320          34.000  
R08  20971076.626   112299162.454       -1799.123          25.000  
R23  20896025.083   111779605.354        1230.558          38.000  
> 2020 11 13  3  1 33.9994865  0 20
C01  37489751.385   195218971.367       -1192.917          31.000  
C06  36244174.880   188732908.205       -1554.272          34.000  
C08  36065707.230   187803589.940        -951.022          36.000  
C09  36523794.603   190188892.0581      -1102.016          29.000  
C13  35772658.304   186277636.998        -608.465          32.000  
C16  36237506.896   188698193.506       -1464.901          35.000  
C20  23521053.414   122480207.833        -715.295          31.000  
C32  23608189.890   122934027.457       -2163.674          28.000  
C37  24139560.330   125701048.178         894.308          33.000  
E12                                                                                                                                  21659364.734    84995975.973       -1096.766          29.000  
G02  23705176.947   124571554.597       -4323.955          34.000  
G13  22182514.265   116569960.258       -4069.928          31.000  
G15  20441991.504   107423430.118       -2362.653          34.000  
G18  21665872.928   113854910.041        1388.877          28.000  
G20  23522016.347   123608972.5171        985.464          21.000  
G24                                                                  21213307.733    83245592.660        1002.056          34.000  
J02                                                                  37214020.869   146035815.904        -780.842          28.000  
J03  36092664.868   189668192.8191      -1517.971          30.000  
R08  20971211.832   112299887.096       -1796.546          26.000  
R23  20895584.088   111777252.578        1230.126          33.000  
> 2020 11 13  3  1 34.9994857  0 17
C01  37489739.094   195218914.694       -1191.837          38.000  
C06  36244233.339   188733214.314       -1555.966          35.000  
C08  36065651.469   187803293.408        -951.950          36.000  
C09  36523768.521   190188743.626       -1098.887          28.000  
C13  35772534.789   186276996.704        -609.086          32.000  
C16  36237549.766   188698409.885       -1467.805          34.000  
C37  24139149.914   125698902.615         901.245          32.000  
E12                                                                                                                                  21659404.606    84996132.009       -1097.341          30.000  
G02  23705759.444   124574618.768       -4325.302          30.000  
G13  22183048.795   116572769.856       -4069.942          30.000  
G15  20442202.258   107424532.313       -2362.950          36.000  
G18  21665369.577   113852262.038        1386.297          27.000  
G24  21212829.264   111474072.2321       1335.729          36.000    21212811.876    83243649.445        1002.769          31.000  
G29  22391425.239   117667638.2191      -3325.450          18.000  
J02  37213967.506   195560887.5841      -1044.867          31.000    37213980.397   146035655.350        -781.348          26.000  
J03  36092711.636   189668448.845       -1515.964          28.000  
R23  20895110.416   111774740.841        1226.039          31.000  
> 2020 11 13  3  1 35.9994849  0 20
C01  37489726.802   195218856.883       -1190.683          40.000  
C04  38357798.349   199739121.1541      -1204.799          35.000  
C06  36244292.998   188733521.488       -1557.260          40.000  
C08  36065595.708   187802996.241        -949.807          35.000  
C09  36523742.439   190188594.376       -1099.880          27.000  
C13  35772414.573   186276357.070        -609.548          39.000  
C16  36237590.238   188698627.718       -1468.602          37.000  
C32  23608549.941   122935861.4381      -2168.429          25.000  
C37  24138737.100   125696753.743         899.211          33.000  
E12                                                                                                                                  21659442.680    84996287.252       -1096.256          29.000  
G02  23706342.840   124577684.479       -4326.801          28.000  
G13  22183587.222   116575578.911       -4069.418          25.000  
G15  20442411.513   107425636.397       -2364.582          32.000  
G18  21664868.923   113849615.635        1385.835          26.000  
G20  23521171.832   123604479.2181        987.399          19.000  
G24                                                                  21212320.216    83241705.548        1002.321          33.000  
J02  37213924.936   195560671.235       -1043.283          31.000    37213939.326   146035493.842        -777.760          31.000  
J03  36092758.403   189668704.615       -1517.112          33.000  
R08  20971406.697   112300929.9131      -1808.912          29.000  
R23  20894636.744   111772231.552        1227.641          31.000  
> 2020 11 13  3  1 36.9994842  0 18
C01  37489744.790   195218951.989       -1185.487          41.000  
C06  36244382.636   188733985.577       -1557.989          39.000  
C08  36065565.129   187802854.891        -951.278          36.000  
C09  36523746.636   190188600.245       -1099.072          27.000  
C13  35772324.035                        -610.931          40.000  
C16  36237662.188   188699002.430       -1471.185          36.000  
C37  24138357.863   125694760.342         903.031          33.000  
E12                                                                                                                                  21659512.232    84996560.603       -1096.207          30.000  
G02  23706956.216   124580907.647       -4325.153          30.000  
G15  20442649.848   107426897.933       -2365.090          31.000  
G18  21664397.949   113847128.457        1381.751          25.000  
G24  21211843.846                        1344.532          40.000    21211855.538    83239878.219        1004.760          35.000  
G29  22392244.871   117671931.1701      -3327.847          19.000  
J01  40026829.602   210342356.3751      -1151.594          23.000  
J02  37213912.944   195560610.464       -1040.878          32.000  
J03  36092836.649   189669119.729       -1517.311          31.000  
R08  20971527.813   112301578.769       -1815.246          26.000  
R23  20894199.047   111769881.552        1226.320          24.000  
> 2020 11 13  3  1 37.9994834  0 16
C01  37489730.999   195218886.579       -1182.961          38.000  
C06  36244442.595   188734294.984       -1559.498          39.000  
C08  36065508.468   187802557.020        -950.870          35.000  
C09  36523719.355   190188451.199       -1100.100          29.000  
C13  35772200.821   186275242.6131       -614.954          40.000  
C16  36237704.459   188699222.490       -1468.372          37.000  
C37  24137944.149                         905.217          35.000  
E12                                                                                                                                  21659552.704    84996716.024       -1098.197          30.000  
G02  23707541.710   124583971.345       -4320.017          27.000  
G05  23212146.965   121980654.8581      -2661.474          32.000  
G15  20442863.000   107428003.604       -2366.473          33.000  
G18  21663899.395   113844489.203        1378.102          20.000  
G24  21211346.790                        1349.928          43.000    21211359.381    83237932.188        1005.732          35.000  
J02  37213868.575   195560386.746       -1034.321          31.000  
R08  20971621.948   112302083.021       -1816.645          25.000  
R23  20893734.369   111767374.079        1226.617          25.000  
> 2020 11 13  3  1 38.9994826  0 16
C01  37489718.708   195218820.892       -1184.173          33.000  
C06  36244501.654   188734606.381       -1560.930          37.000  
C08  36065451.807   187802259.914        -952.553          37.000  
C09  36523690.875   190188304.029       -1102.613          30.000  
C13  35772079.405                        -617.076          39.000  
C16  36237746.130   188699444.041       -1471.469          38.000  
C32  23609100.660   122938774.6221      -2167.332          26.000  
C37  24137530.435                         913.926          37.000  
E12                                                                                                                                  21659593.176    84996873.753       -1099.056          29.000  
G02  23708121.809   124587030.047       -4318.099          28.000  
G13  22185211.797   116584155.8991      -4066.904          28.000  
G15  20443072.256   107429111.629       -2372.433          39.000  
G18  21663401.439   113841848.758        1378.880          22.000  
G20  23519923.196   123597894.3801        985.335          19.000  
G24  21210851.233   111463772.4481       1354.689          42.000    21210862.026    83235984.320        1007.872          27.000  
G29  22393035.424   117676058.2671      -3329.039          27.000  
> 2020 11 13  3  1 39.9994819  0 16
C01  37489735.196   195218912.116       -1184.536          32.000  
C06  36244591.292   188735074.763       -1559.328          37.000  
C08  36065426.325   187802119.831        -953.181          37.000  
C09  36523695.072   190188314.116       -1103.205          28.000  
C13  35771989.167   186274136.0991       -619.791          38.000  
C16  36237820.179   188699822.145       -1472.492          36.000  
C20  23520528.177   122477345.0391       -717.338          27.000  
C37  24137144.603   125688443.0951        915.187          35.000  
E12                                                                                                                                  21659663.627    84997149.262       -1098.081          28.000  
G02  23708730.987   124590244.850       -4314.907          26.000  
G13  22185754.122   116587120.902       -4066.276          32.000  
G15  20443318.685   107430384.628       -2378.947          40.000  
G24  21210386.855   111461315.022        1360.017          40.000    21210394.649    83234151.809        1011.971          27.000  
G29  22393459.930   117678287.412       -3332.784          30.000  
R08  20971855.786   112303334.4761      -1793.976          26.000  
R23  20892820.301   111762503.4621       1238.221          27.000  
> 2020 11 13  3  1 40.9994811  0 16
C01  37489721.406   195218847.193       -1184.544          33.000  
C06  36244649.451   188735386.895       -1560.499          38.000  
C08  36065368.165   187801825.118        -955.314          38.000  
C09  36523665.692   190188166.858       -1099.138          31.000  
C13  35771867.751   186273507.535        -621.432          38.000  
C16  36237862.750   188700042.772       -1470.308          37.000  
C20  23520425.648   122476815.620        -723.466          27.000  
C37  24136728.790   125686280.343         910.588          31.000  
E12                                                                                                                                  21659703.199    84997306.192       -1097.284          27.000  
G02  23709311.085   124593297.991       -4308.485          23.000  
G15  20443531.238                       -2381.338          39.000  
G24  21209890.698   111458697.816        1355.359          40.000    21209895.795    83232197.358        1013.201          35.000  
G29  22393855.956   117680358.206       -3331.675          28.000  
J01  40026739.965   210342081.4521      -1160.970          33.000  
J02  37213763.648   195559852.5461      -1031.492          21.000  
R23  20892352.325   111759980.887        1240.966          29.000  
> 2020 11 13  3  1 41.9994803  0 14
C06  36244712.108                       -1553.484          38.000  
C08  36065313.603   187801531.601        -960.173          38.000  
C09  36523637.512   190188014.443       -1093.640          31.000  
C13  35771746.635   186272878.128        -619.157          35.000  
C16  36237904.721   188700261.289       -1466.239          35.000  
C37  24136315.377   125684120.654         908.813          24.000  
E12                                                                                                                                  21659742.772    84997461.219       -1094.547          25.000  
G02  23709887.886   124596341.488       -4302.446          27.000  
G15  20443744.390   107432600.0961      -2377.146          37.000  
G24  21209395.441   111456082.742        1356.279          26.000    21209398.139    83230240.259        1017.853          27.000  
G29  22394255.280   117682432.446       -3338.533          26.000  
J01  40026721.377   210341986.210       -1167.932          34.000  
J02  37213721.976   195559622.704       -1030.649          23.000  
R23  20891881.651   111757465.803        1224.225          31.000  
> 2020 11 13  3  1 42.9994796  0  9
C13  35771657.297   186272404.480        -618.877          29.000  
C16  36237976.671   188700635.118       -1465.721          22.000  
C20  23520250.270   122475927.5451       -723.872          32.000  
C37  24135931.642   125682121.009         903.667          23.000  
G02  23710495.266   124599542.432       -4305.112          28.000  
G05  23213556.589   121988047.4051      -2687.848          25.000  
G15  20443988.721   107433877.033       -2378.681          30.000  
G24  21208930.763   111453623.325        1356.491          25.000    21208930.763    83228400.626        1013.492          23.000  
G29  22394682.184   117684670.137       -3341.843          19.000  
> 2020 11 13  3  1 43.9994788  0 10
C06  36244862.304   188736458.2641      -1551.279          18.000  
C08  36065234.758   187801109.6151       -959.103          29.000  
C09  36523605.434   190187853.6231      -1087.570          18.000  
C16  36238017.143   188700850.297       -1463.198          18.000  
C20  23520146.841   122475400.831        -718.250          27.000  
C37  24135514.631   125679970.672         899.207          30.000  
G02  23711076.563   124602592.767       -4314.294          30.000  
G05  23213828.801   121989472.107       -2680.097          21.000  
G15  20444204.871   107434993.387       -2372.849          24.000  
G24                                                                  21208432.208    83226447.437        1010.170          34.000  
> 2020 11 13  3  1 44.9994778  0 12
C01  37489652.154   195218503.0911      -1193.463          33.000  
C06  36244859.306   188736450.920       -1555.183          32.000  
C08  36065117.838   187800507.135        -958.074          29.000  
C09  36523513.398   190187378.524       -1085.270          32.000  
C13  35771358.404   186270828.5551       -615.318          28.000  
C16  36237997.956   188700751.657       -1461.719          36.000  
G02  23711598.502   124605335.247       -4322.130          29.000  
G05  23214041.653   121990575.317       -2678.761          24.000  
G15  20444356.566   107435789.923       -2371.939          27.000  
G24                                                                  21207874.594    83224261.223        1009.619          39.000  
J02  37213559.789   195558799.4911      -1049.783          32.000  
R23  20890439.650   111749794.9351       1238.924          24.000  
> 2020 11 13  3  1 45.9994772  0 14
C01  37489699.221   195218757.437       -1189.121          32.000  
C06  36244975.925   188737069.479       -1555.079          36.000  
C08  36065120.836   187800528.101        -957.329          37.000  
C09  36523539.780   190187526.749       -1086.122          42.000  
C13  35771295.447   186270506.665        -614.577          39.000  
C16  36238098.387   188701276.261       -1461.221          38.000  
C37  24134672.214   125675678.5071        897.567          35.000  
G02  23712245.754   124608715.368       -4327.318          26.000  
G15  20444626.679   107437217.372       -2373.556          35.000  
G18  21659934.639   113823695.0081       1393.934          24.000  
G24  21207427.004   111445783.5781       1350.522          35.000    21207437.197    83222545.474        1008.913          39.000  
G29  22395866.364   117690895.4651      -3326.772          17.000  
J02  37213578.975   195558906.130       -1052.604          34.000  
R23  20890028.035   111747591.390        1241.992          31.000  
> 2020 11 13  3  1 46.9994765  0 14
C06  36245063.165                       -1553.449          35.000  
C08  36065091.757   187800393.201        -959.604          36.000  
C09  36523536.482   190187521.039       -1087.366          43.000  
C13  35771200.713   186270028.286        -614.536          36.000  
C16  36238169.737   188701645.440       -1463.089          37.000  
C37  24134290.279   125673687.590         898.005          35.000  
G02  23712860.328   124611941.231       -4330.034          25.000  
G13  22189531.507   116606774.4521      -4070.792          26.000  
G15  20444867.713   107438488.618       -2374.807          35.000  
G18  21659459.168   113821195.987        1391.345          29.000  
G24  21206962.026                        1349.600          35.000    21206970.120    83220713.353        1009.108          40.000  
G29  22396286.374   117693114.606       -3316.124          18.000  
J02  37213566.084   195558855.065       -1049.326          34.000  
R23  20889586.740   111745229.317        1235.512          29.000  
> 2020 11 13  3  1 47.9994757  0 13
C01  37489701.020   195218789.0391      -1185.095          32.000  
C06  36245120.725                       -1555.721          34.000  
C08  36065036.595                        -959.956          35.000  
C09  36523501.706   190187359.311       -1084.157          36.000  
C13  35771076.599   186269394.703        -615.702          35.000  
C16  36238210.509                       -1463.095          34.000  
G02  23713444.324   124615011.156       -4329.104          25.000  
G13  22190058.542   116609589.918       -4083.744          31.000  
G15  20445079.966   107439601.769       -2372.249          33.000  
G18  21658952.519   113818547.608        1383.557          29.000  
G24  21206463.771   111440726.8721       1347.320          36.000    21206473.064                        1009.936          39.000  
G29  22396674.905   117695165.410       -3308.062          28.000  
R23  20889117.565   111742715.354        1227.065          31.000  
> 2020 11 13  3  1 48.9994749  0 14
C01  37489687.829   195218725.830       -1186.351          33.000  
C06  36245179.784   188738168.4661      -1555.761          31.000  
C08  36064982.332   187799819.5441       -960.347          37.000  
C09  36523470.827   190187198.663       -1087.885          26.000  
C13  35770953.384                        -616.028          35.000  
C16  36238250.981   188702084.9181      -1462.578          33.000  
C37  24133488.633   125669408.3021        891.070          32.000  
G02  23714028.020   124618079.627       -4327.346          25.000  
G13  22190590.074   116612416.610       -4090.706          36.000  
G15  20445295.816   107440714.836       -2370.288          34.000  
G18  21658447.069   113815905.474        1380.196          32.000  
G24  21205970.912   111438118.610        1346.085          36.000    21205977.207    83216806.8661       1005.756          40.000  
G29  22397064.335   117697211.984       -3306.497          23.000  
R23  20888651.088   111740207.301        1224.336          31.000  
> 2020 11 13  3  1 49.9994742  0 14
C06  36245272.720   188738630.552       -1554.321          32.000  
C08  36064956.250   187799686.540        -960.397          38.000  
C09  36523471.127   190187193.373       -1086.677          19.000  
C13  35770861.348   186268262.8651       -614.934          35.000  
C16  36238321.732   188702454.378       -1461.840          32.000  
C37  24133108.197   125667420.671         894.020          29.000  
G02  23714643.194   124621302.684       -4324.194          27.000  
G13  22191155.183   116615405.760       -4093.202          36.000  
G15  20445541.646                       -2367.808          35.000  
G18  21657974.296   113813421.589        1382.692          31.000  
G24  21205503.835                        1350.128          37.000    21205511.030    83214977.953        1005.491          40.000  
G29  22397481.346   117699417.432       -3310.531          22.000  
J01  40026671.612   210341578.3301      -1165.962          39.000  
R23  20888211.892   111737861.900        1221.855          33.000  
> 2020 11 13  3  1 50.9994734  0 13
C06  36245332.079   188738937.009       -1553.946          32.000  
C08  36064899.889   187799398.367        -961.961          38.000  
C09  36523440.248   190187029.735       -1083.798          20.000  
C13  35770739.033   186267629.826        -617.682          35.000  
C16  36238361.604   188702667.849       -1460.453          31.000  
C37  24132700.179   125665279.791         891.456          28.000  
G13  22191693.610   116618235.059       -4087.450          35.000  
G15  20445751.801   107443157.6701      -2376.108          33.000  
G18  21657471.544   113810775.692        1387.826          30.000  
G24  21205008.578   111433063.1831       1345.078          36.000    21205015.473    83213031.457        1004.197          39.000  
G29  22397870.777   117701471.778       -3315.702          23.000  
J01  40026651.526   210341485.407       -1167.775          39.000  
R23  20887745.715   111735359.687        1217.242          36.000  
> 2020 11 13  3  1 51.9994726  0 16
C06  36245390.538   188739243.381       -1552.836          32.000  
C08  36064847.126   187799111.104        -962.169          37.000  
C09  36523409.670   190186865.827       -1086.250          23.000  
C13  35770619.415   186266997.012        -617.098          35.000  
C16  36238407.473   188702881.264       -1462.252          33.000  
C32  23611428.548   122950903.6541      -2175.468          35.000  
C37  24132291.562   125663139.582         890.347          30.000  
G02  23715806.988   124627430.0481      -4323.581          27.000  
G13  22192230.838                       -4091.908          34.000  
G15  20445961.955   107444273.031       -2375.621          32.000  
G18  21656968.193   113808125.962        1389.715          34.000  
G20  23514448.686   123569387.7581        978.927          35.000  
G24  21204514.220   111430458.560        1344.292          34.000    21204519.617    83211085.471        1004.950          41.000  
G29  22398259.008   117703528.303       -3318.127          31.000  
J01  40026637.136   210341393.369       -1171.053          35.000  
R23  20887276.539   111732859.673        1220.071          38.000  
> 2020 11 13  3  1 52.9994719  0 17
C06  36245476.579   188739706.595       -1555.923          33.000  
C08  36064820.145   187798981.506        -965.066          37.000  
C09  36523408.770   190186858.934       -1086.267          28.000  
C13  35770525.880   186266520.729        -620.114          33.000  
C16  36238477.324   188703251.203       -1462.733          35.000  
C32  23611641.401   122951988.401       -2179.171          33.000  
C37  24131914.423   125661157.845         886.755          28.000  
G05  23216397.123   122002741.4281      -2678.563          30.000  
G13  22192807.339   116623945.3091      -4080.712          31.000  
G15  20446202.988   107445545.234       -2374.315          29.000  
G18  21656494.221   113805635.263        1380.908          36.000  
G20  23514048.463                         981.639          40.000  
G24  21204051.341   111428011.987        1343.007          36.000    21204054.638    83209259.899        1002.352          39.000  
G29  22398675.420   117705743.770       -3317.976          37.000  
J01  40026651.226   210341460.028       -1169.761          33.000  
J02  37213389.806   195557874.9411      -1046.764          27.000  
R23  20886835.545   111730507.786        1227.929          39.000  
> 2020 11 13  3  1 53.9994708  0 17
C06  36245446.599   188739545.464       -1560.091          31.000  
C08  36064676.544   187798228.812        -963.732          37.000  
C09  36523287.954   190186228.520       -1087.093          35.000  
C13  35770313.627   186265420.415        -616.461          30.000  
C16  36238430.257   188702996.837       -1465.306          34.000  
C32  23611727.741   122952449.937       -2177.751          33.000  
C37  24131416.468   125658554.468         885.352          29.000  
G05  23216582.694   122003965.128       -2679.318          33.000  
G13  22193253.430                       -4095.649          32.000  
G15  20446324.104   107446186.390       -2374.134          31.000  
G18  21655901.831                        1377.867          37.000  
G20  23513529.522   123564443.1911        982.920          40.000  
G24  21203467.345   111424937.983        1339.872          28.000    21203470.343    83206965.709         997.670          26.000  
G29  22398972.214   117707328.708       -3317.417          43.000  
J01  40026541.802   210340897.657       -1172.073          36.000  
J02  37213261.795   195557190.129       -1050.105          30.000  
R23  20886273.434   111727523.014        1218.028          40.000  
> 2020 11 13  3  1 54.9994703  0 18
C06  36245597.995   188740319.605       -1554.994          31.000  
C08  36064710.720   187798412.819        -965.999          35.000  
C09  36523347.013   190186534.532       -1084.750          39.000  
C13  35770283.648   186265256.440        -615.042          25.000  
C16  36238560.666   188703677.706       -1462.515          37.000  
C32  23612001.452                       -2156.096          32.000  
C37  24131098.088   125656888.279         886.283          31.000  
G02  23717574.265   124636789.3521      -4333.620          31.000  
G05  23216948.441   122005862.196       -2687.540          29.000  
G13  22193885.393   116629640.5371      -4090.408          29.000  
G15  20446624.796   107447773.940       -2375.323          35.000  
G18  21655487.518   113800363.0951       1380.773          40.000  
G20  23513192.256   123562671.435         984.445          39.000  
G24                                                                  21203070.120    83205383.790         993.355          22.000  
G29  22399452.782                       -3316.748          47.000  
J01  40026614.052   210341280.079       -1166.906          34.000  
J02  37213311.560   195557453.611       -1052.579          35.000  
R23  20885891.198   111725500.425        1223.270          43.000  
> 2020 11 13  3  1 55.9994696  0 17
C06  36245687.932   188740779.565       -1552.749          37.000  
C08  36064685.838   187798283.445        -963.347          35.000  
C09  36523349.711                       -1084.398          38.000  
C13  35770191.312   186264777.212        -612.011          29.000  
C16  36238629.919   188704044.152       -1459.538          39.000  
C32  23612207.709   122954960.0971      -2181.221          33.000  
C37  24130718.551   125654909.098         885.381          33.000  
G02  23718188.240   124640022.431       -4336.887          27.000  
G05  23217253.330   122007448.312       -2689.861          33.000  
G13  22194452.001                       -4094.419          33.000  
G15  20446865.829   107449046.117       -2374.923          37.000  
G18  21655018.942   113797876.960        1381.719          36.000  
G24                                                                  21202608.739    83203567.346         990.677          13.000  
G29  22399873.091   117712130.3111      -3312.779          41.000  
J01  40026626.043   210341345.412       -1167.456          34.000  
J02  37213301.368   195557402.888       -1052.015          31.000  
R23  20885449.304   111723152.634        1225.912          31.000  
> 2020 11 13  3  1 56.9994688  0 16
C06  36245744.893   188741083.626       -1552.112          37.000  
C08  36064633.674   187797996.928        -963.446          28.000  
C09  36523316.434                       -1081.861          35.000  
C13  35770068.997   186264140.091        -611.467          30.000  
C16  36238669.191   188704254.237       -1459.168          40.000  
C32  23612384.586   122955897.602       -2185.990          34.000  
C37  24130307.536   125652777.255         880.673          32.000  
G02  23718772.535   124643100.114       -4339.126          33.000  
G05  23217528.539   122008879.135       -2691.480          31.000  
G13  22194988.929   116635466.1841      -4092.196          37.000  
G15  20447079.282   107450160.836       -2375.041          38.000  
G20  23512372.323   123558342.6321        978.582          18.000  
G24  21202120.078   111417775.9621       1335.032          24.000    21202116.780    83201636.757         990.975          14.000  
G29  22400266.718   117714183.653       -3310.554          38.000  
J01  40026610.454   210341255.501       -1171.248          33.000  
J02  37213265.392   195557198.413       -1057.282          30.000  
> 2020 11 13  3  1 57.9994678  0 19
C06  36245743.394   188741075.858       -1553.164          35.000  
C08  36064519.453   187797400.476        -965.585          24.000  
C09  36523224.997   190186019.6591      -1081.083          38.000  
C13  35769886.723   186263190.631        -612.253          31.000  
C16  36238649.705   188704152.508       -1459.139          38.000  
C30  22554915.857   117449364.8231      -2847.416          33.000  
C32  23612503.604   122956520.322       -2181.497          32.000  
C37  24129832.065   125650338.679         874.014          34.000  
G02  23719298.072   124645866.972       -4342.505          29.000  
G05  23217742.891   122010000.153       -2701.920          28.000  
G13  22195467.098                       -4103.465          33.000  
G15  20447231.576   107450961.445       -2377.540          38.000  
G18  21653955.578   113792272.9911       1386.551          20.000  
G20  23511890.857   123555788.513         975.540          16.000  
G24                                                                  21201565.162    83199470.424         991.662          14.000  
G29  22400597.689   117715920.007       -3313.669          34.000  
J01  40026532.508   210340851.412       -1171.947          29.000  
J02  37213164.063   195556680.641       -1058.256          31.000  
R23  20884447.998   111717813.3481       1232.882          20.000  
> 2020 11 13  3  1 58.9994670  0 17
C04  38357782.160   199739054.9321      -1235.131          35.000  
C06  36245801.854   188741380.956       -1554.783          40.000  
C08  36064466.689   187797119.755        -969.470          26.000  
C09  36523192.620   190185851.786       -1080.893          35.000  
C13  35769765.307   186262555.283        -614.429          34.000  
C16  36238691.376   188704363.248       -1459.362          37.000  
C30  22555221.045   117450963.688       -2847.280          34.000  
C32  23612680.781   122957454.379       -2184.421          34.000  
C37  24129424.047   125648215.137         874.723          35.000  
G05  23218022.298   122011446.072       -2712.346          27.000  
G13  22196009.123   116640806.9691      -4100.699          32.000  
G18  21653457.923   113789623.134        1391.901          18.000  
G20  23511469.348   123553550.670         980.547          15.000  
G24  21201080.397   111412268.6911       1335.451          23.000    21201072.603    83197534.628         996.786          14.000  
G29  22400988.918   117717970.989       -3310.744          34.000  
J01  40026516.020   210340762.524       -1170.821          26.000  
J02  37213124.490   195556479.540       -1060.180          33.000  
> 2020 11 13  3  1 59.9994665  0 15
C06  36245951.150   188742154.803       -1553.087          39.000  
C08  36064505.063   187797310.061        -971.586          22.000  
C09  36523248.981   190186151.685       -1078.855          35.000  
C13  35769735.328   186262390.243        -615.201          26.000  
C16  36238822.685   188705042.420       -1459.610          39.000  
C30  22555614.373   117453030.241       -2845.660          35.000  
C32  23612950.295                       -2185.635          35.000  
C37  24129113.462   125646559.675         874.665          38.000  
G05  23218388.344   122013374.296       -2720.511          29.000  
G13  22196640.186   116644122.078       -4102.208          29.000  
G15  20447758.611                       -2366.356          33.000  
G18  21653064.595   113787439.993        1397.767          18.000  
G20  23511150.069   123551777.455         989.345          17.000  
G24  21200678.975   111410146.509        1332.695          27.000    21200670.281    83195948.192         999.092          15.000  
G29  22401467.986   117720494.130       -3311.268          35.000  
> 2020 11 13  3  2  0.9994657  0 17
C04  38357872.098   199739500.3831      -1237.706          33.000  
C06  36246009.310   188742460.543       -1553.562          39.000  
C09  36523217.802   190185984.859       -1084.187          33.000  
C13  35769615.710   186261757.246        -616.136          26.000  
C16  36238862.258   188705253.600       -1459.709          40.000  
C30  22555922.860   117454627.883       -2849.071          33.000  
C32  23613128.072   122959764.9121      -2186.715          33.000  
C37  24128708.143   125644436.193         874.407          36.000  
E12                                                                                                                                  21660668.231    85001113.9401      -1096.736          29.000  
G02  23721155.286   124655600.7601      -4356.928          17.000  
G05  23218667.751   122014837.015       -2724.475          30.000  
G13  22197181.911   116646965.175       -4103.591          32.000  
G15  20447969.965   107454802.4591      -2367.036          25.000  
G20  23510737.255   123549525.136         993.022          24.000  
G24  21200188.215   111407556.371        1326.162          29.000    21200175.024    83194004.642        1002.891          17.000  
G29  22401858.316   117722544.838       -3310.885          29.000  
J01  40026570.282   210341045.9141      -1161.959          20.000  
> 2020 11 13  3  2  1.9994650  0 18
C04  38357899.379   199739644.240       -1236.123          35.000  
C06  36246099.248   188742923.235       -1554.074          33.000  
C08  36064428.316   187796909.0981       -966.280          18.000  
C09  36523214.805   190185975.984       -1082.996          28.000  
C13  35769528.171   186261279.878        -615.600          29.000  
C16  36238933.009   188705624.811       -1462.241          31.000  
C30  22556260.426   117456385.644       -2851.110          26.000  
C32  23613338.826   122960857.039       -2183.756          34.000  
C37  24128332.203   125642470.145         870.723          37.000  
E12                                                                                                                                  21660737.483    85001386.093       -1095.977          25.000  
G02  23721773.758   124658855.111       -4357.654          16.000  
G05  23218976.537   122016458.488       -2721.849          29.000  
G13  22197750.017   116649965.317       -4106.713          32.000  
G15  20448210.698   107456069.672       -2373.774          23.000  
G20  23510350.523   123547725.518        1000.464          18.000  
G24  21199726.535   111405129.678        1324.865          30.000    21199709.447    83192179.656         999.610          18.000  
G29  22402278.026   117724752.945       -3311.349          31.000  
J02  37213142.478   195556517.7041      -1068.641          22.000  
> 2020 11 13  3  2  2.9994639  0 14
C06  36246066.570   188742760.420       -1555.469          38.000  
C09  36523091.290   190185340.955       -1082.182          35.000  
C13  35769316.817   186260178.889        -616.946          32.000  
C16  36238883.243   188705369.005       -1461.572          36.000  
C30  22556478.075   117457520.097       -2852.957          33.000  
C32  23613431.462   122961321.339       -2180.015          33.000  
C37  24127833.349   125639879.877         874.720          22.000  
E12                                                                                                                                  21660686.519    85001188.770       -1098.408          29.000  
G05  23219165.706   122017445.231       -2715.761          24.000  
G15  20448331.814   107456713.219       -2380.129          33.000  
G20  23509839.677   123544986.347        1007.983          18.000  
G24                                                                  21199125.451    83189888.883         994.699          25.000  
G29  22402576.919   117726332.074       -3311.881          35.000  
J01  40026474.348   210340534.6341      -1161.135          22.000  
> 2020 11 13  3  2  3.9994634  0 16
C06  36246214.068                       -1554.801          39.000  
C08  36064322.489   187796339.9471       -963.974          19.000  
C09  36523148.251   190185643.800       -1084.929          33.000  
C13  35769285.039   186260015.292        -615.650          35.000  
C16  36239015.452                       -1461.918          40.000  
C30  22556877.099   117459592.950       -2854.537          28.000  
C32  23613699.476   122962721.434       -2180.913          29.000  
E12                                                                                                                                  21660816.928    85001700.856       -1100.903          29.000  
G02  23722950.443   124665052.5011      -4360.723          15.000  
G05  23219531.453   122019365.559       -2704.176          24.000  
G13  22198831.369   116655643.1511      -4098.957          30.000  
G15  20448632.806   107458306.602       -2382.175          35.000  
G20  23509515.001   123543193.189        1000.974          18.000  
G24                                                                  21198721.930    83188307.179         991.162          25.000  
G29  22403062.882   117728859.468       -3317.515          35.000  
R23  20881850.596   111703819.4661       1220.351          35.000  
> 2020 11 13  3  2  4.9994627  0 15
C06  36246304.605                       -1556.390          41.000  
C09  36523150.949                       -1088.720          36.000  
C13  35769193.603                        -614.562          33.000  
C16  36239083.205   188706431.7041      -1462.548          40.000  
C30  22557215.864   117461355.592       -2856.909          32.000  
C32  23613907.532   122963808.317       -2178.843          32.000  
E12                                                                                                                                  21660887.679    85001978.908       -1101.522          29.000  
G02  23723572.513   124668305.854       -4354.406          13.000  
G05  23219835.742   122020966.303       -2703.398          26.000  
G13  22199400.375   116658638.340       -4097.097          31.000  
G15  20448873.839   107459583.630       -2377.657          32.000  
G18  21650670.153   113775038.8691       1388.564          30.000  
G24                                                                  21198259.051    83186492.444         990.934          23.000  
G29  22403482.592   117731074.794       -3319.087          31.000  
R23  20881420.693   111701475.827        1221.434          34.000  
> 2020 11 13  3  2  5.9994619  0 15
C02  36999315.507   192665144.9181      -1185.344          29.000  
C06  36246362.765   188744317.3581      -1555.392          41.000  
C09  36523120.670   190185470.3351      -1090.605          34.000  
C13  35769069.488   186258942.2781       -613.821          35.000  
C16  36239126.075   188706645.328       -1463.773          40.000  
C30  22557525.850   117462964.984       -2859.773          30.000  
C32  23614085.609   122964737.385       -2177.057          29.000  
E12                                                                                                                                  21660928.451    85002139.179       -1100.749          29.000  
G05  23220108.853   122022407.861       -2701.542          28.000  
G13  22199940.901   116661473.723       -4093.009          26.000  
G15  20449086.392   107460700.333       -2377.227          26.000  
G18  21650170.999   113772391.920        1384.839          30.000  
G20  23508710.059   123539104.7741       1001.056          19.000  
G29  22403872.022   117733135.288       -3322.558          31.000  
R23  20880962.011   111698972.184        1219.375          32.000  
> 2020 11 13  3  2  6.9994609  0 10
C06  36246363.065   188744312.156       -1554.672          42.000  
C08  36064134.819   187795323.4081       -963.027          20.000  
C09  36523026.835   190185000.422       -1092.660          34.000  
C13  35768886.915   186257995.432        -614.996          33.000  
C16  36239103.591   188706547.492       -1461.310          32.000  
C30  22557774.678   117464264.972       -2862.853          30.000  
E12                                                                                                                                  21660909.564    85002063.972       -1100.971          27.000  
G15  20449240.186   107461500.759       -2374.485          23.000  
G29  22404205.391   117734884.984       -3327.352          29.000  
R23  20880443.670   111696150.715        1215.279          30.000  
> 2020 11 13  3  2  7.9994601  0 14
C06  36246421.225   188744619.508       -1555.160          37.000  
C08  36064079.357   187795038.958        -964.226          20.000  
C09  36522997.755   190184845.563       -1094.109          34.000  
C13  35768765.799   186257361.454        -614.700          34.000  
C16  36239146.461   188706762.316       -1463.204          30.000  
C30  22558084.963   117465880.954       -2866.722          32.000  
E12                                                                                                                                  21660951.235    85002225.117       -1103.731          29.000  
G02  23725281.929   124677227.6371      -4337.443          18.000  
G05  23220602.312   122024966.7241      -2693.107          26.000  
G15  20449452.139   107462615.298       -2374.496          25.000  
G20  23507809.482   123534268.9511        996.252          20.000  
G24  21196724.413   111389458.0991       1325.470          29.000  
G29  22404597.220   117736954.969       -3333.352          31.000  
R23  20879981.390   111693653.837        1214.257          26.000  
> 2020 11 13  3  2  8.9994596  0 16
C02  36999317.306   192665132.4781      -1198.943          29.000  
C06  36246569.622   188745395.176       -1557.687          32.000  
C08  36064117.731   187795223.465        -965.031          21.000  
C09  36523056.814   190185161.369       -1097.352          34.000  
C13  35768738.218                        -614.332          35.000  
C16  36239278.070   188707445.095       -1463.423          32.000  
C30  22558485.785   117467969.104       -2870.619          30.000  
E12                                                                                                                                  21661083.144    85002741.118       -1105.085          29.000  
G02  23725960.959   124680778.205       -4338.799          20.000  
G05  23220963.861   122026870.681       -2690.988          26.000  
G15  20449754.929   107464201.918       -2372.370          24.000  
G18  21648703.514   113764623.4921       1380.497          29.000  
G24  21196319.993   111387346.963        1320.934          30.000  
G29  22405081.385   117739501.925       -3337.767          31.000  
J01  40026530.410   210340667.9661      -1152.577          22.000  
R23  20879605.150   111691638.275        1212.098          23.000  
> 2020 11 13  3  2  9.9994588  0 13
C02  36999309.511   192665084.831       -1203.517          32.000  
C06  36246629.580   188745702.950       -1556.872          30.000  
C09  36523026.835   190185010.650       -1097.705          32.000  
C13  35768612.905   186256570.3761       -615.640          36.000  
C16  36239318.842   188707660.503       -1465.198          34.000  
C30  22558798.169   117469592.228       -2872.996          32.000  
E12                                                                                                                                  21661125.115    85002905.398       -1105.753          31.000  
G05  23221236.672   122028300.489       -2689.930          26.000  
G13  22202126.688   116672901.9611      -4072.368          28.000  
G15  20449968.381   107465314.628       -2373.760          24.000  
G24  21195826.535   111384766.318        1319.487          30.000  
G29  22405477.711   117741581.041       -3341.966          29.000  
J01  40026512.722   210340561.727       -1155.125          24.000  
> 2020 11 13  3  2 10.9994578  0 13
C02  36999241.458   192664728.162       -1204.705          32.000  
C06  36246628.681   188745698.736       -1557.741          31.000  
C09  36522938.696   190184548.640       -1098.734          31.000  
C13  35768431.830   186255623.028        -613.274          32.000  
C16  36239302.953   188707565.058       -1465.223          33.000  
C30  22559052.693   117470905.111       -2876.908          29.000  
E12                                                                                                                                  21661107.427    85002834.506       -1105.506          30.000  
G02  23727077.686   124686626.5391      -4348.052          20.000  
G05  23221452.823   122029415.130       -2689.954          25.000  
G15  20450120.076   107466113.208       -2374.358          28.000  
G24  21195274.317   111381872.074        1318.227          28.000  
J01  40026436.874   210340144.036       -1159.012          23.000  
R23  20878614.636   111686327.4581       1213.762          21.000  
> 2020 11 13  3  2 11.9994570  0 14
C02  36999232.165   192664683.959       -1204.631          32.000  
C06  36246690.438   188746006.939       -1555.091          29.000  
C09  36522908.417   190184399.932       -1101.733          32.000  
C13  35768316.410   186254987.752        -613.850          30.000  
C16  36239342.825                       -1465.355          31.000  
C30  22559365.077   117472533.487       -2878.435          24.000  
E12                                                                                                                                  21661149.398    85002999.964       -1106.967          28.000  
G05  23221728.332   122030845.091       -2690.064          22.000  
G15  20450332.330   107467227.784       -2375.443          29.000  
G18  21647137.399   113756385.2761       1380.623          20.000  
G24  21194781.758   111379293.923        1317.492          30.000  
G29  22406211.003   117745432.4861      -3343.638          24.000  
J01  40026422.784   210340042.473       -1159.861          24.000  
R23  20878154.155   111683829.808        1215.302          21.000  
> 2020 11 13  3  2 12.9994565  0 12
C02  36999313.708   192665107.562       -1203.816          31.000  
C06  36246840.035   188746783.694       -1556.919          27.000  
C09  36522974.671   190184720.259       -1102.260          32.000  
C13  35768284.332   186254820.932        -613.549          30.000  
C16  36239473.535   188708453.4581      -1463.708          28.000  
C30  22559766.199   117474631.058       -2877.683          29.000  
E12                                                                                                                                  21661281.907    85003520.208       -1109.494          27.000  
G02  23728355.701   124693281.2901      -4354.219          24.000  
G15  20450636.619   107468815.734       -2376.034          28.000  
G20  23505805.370   123523643.5951        991.048          17.000  
G29  22406696.367   117747989.272       -3344.822          30.000  
R23  20877798.901   111682145.974        1220.845          12.000  
> 2020 11 13  3  2 13.9994557  0 13
C02  36999305.614   192665062.247       -1203.225          32.000  
C06  36246903.291   188747092.553       -1557.355          27.000  
C09  36522948.289   190184572.446       -1101.105          33.000  
C13  35768159.618   186254185.890        -613.455          31.000  
C16  36239514.606   188708671.540       -1468.618          27.000  
C30  22560078.283   117476259.235       -2877.134          29.000  
E12                                                                                                                                  21661324.177    85003687.768       -1108.542          27.000  
G02  23728938.498   124696376.509       -4358.294          13.000  
G05  23222362.093   122034181.8121      -2695.226          26.000  
G15  20450850.970   107469931.608       -2376.345          29.000  
G20  23505379.065   123521392.690         989.251          17.000  
G24  21193888.676   111374612.8041       1315.540          20.000  
R23  20877332.124   111679641.822        1223.112          13.000  
> 2020 11 13  3  2 14.9994547  0 13
C02  36999237.861   192664704.200       -1202.900          31.000  
C06  36246900.893   188747088.742       -1558.079          27.000  
C09  36522856.852   190184112.522       -1101.707          33.000  
C13  35767980.043   186253238.695        -614.233          30.000  
C16  36239494.520   188708576.762       -1465.927          27.000  
C30  22560330.708   117477575.283       -2877.341          30.000  
E12                                                                                                                                  21661306.490    85003619.936       -1108.767          28.000  
G02  23729469.730   124699162.240       -4366.469          13.000  
G15  20451005.663   107470732.758       -2376.958          29.000  
G20  23504896.399   123518828.969         986.602          17.000  
G24  21193335.859   111371721.136        1315.900          18.000  
G29  22407429.659   117751844.8101      -3345.893          30.000  
R23  20876797.894   111676812.675        1226.281          13.000  
> 2020 11 13  3  2 15.9994540  0 16
C02  36999259.146   192664814.065       -1202.482          31.000  
C03  36259792.568   188814255.1271      -1237.606          31.000  
C06  36246987.233   188747553.800       -1557.315          26.000  
C08  36063743.890   187793246.0801       -963.784          24.000  
C09  36522857.752   190184121.076       -1101.513          33.000  
C13  35767887.407   186252759.938        -615.829          29.000  
C16  36239564.372   188708951.052       -1466.723          26.000  
C23  24891226.363   129615136.9971      -1211.906          28.000  
C30  22560672.471   117479359.853       -2877.120          30.000  
C32  23615936.527   122974378.5371      -2161.594          30.000  
E12                                                                                                                                  21661379.339    85003905.688       -1109.291          28.000  
G02  23730092.998   124702426.647       -4367.053          13.000  
G15  20451248.795   107472007.033       -2377.309          29.000  
G20  23504500.673   123516741.170         984.077          16.000  
G24  21192874.478   111369302.854        1315.071          20.000  
R23  20876367.092   111674464.847        1225.251          13.000  
> 2020 11 13  3  2 16.9994532  0 18
C02  36999251.351   192664767.529       -1202.306          31.000  
C03  36259794.367   188814243.674       -1237.750          31.000  
C06  36247043.894   188747862.859       -1558.524          27.000  
C08  36063693.524   187792961.748        -963.815          24.000  
C09  36522832.269   190183973.732       -1100.602          33.000  
C13  35767762.693   186252125.235        -615.413          30.000  
C16  36239604.244   188709167.874       -1465.523          27.000  
C23  24891219.767   129615100.443       -1211.741          28.000  
C30  22560984.555   117480988.387       -2877.654          29.000  
C32  23616115.503   122975291.131       -2161.005          31.000  
E12                                                                                                                                  21661421.910    85004072.259       -1108.136          28.000  
G02  23730686.288   124705531.590       -4362.255          14.000  
G13  22205930.754   116692953.1821      -4085.776          19.000  
G15  20451462.247   107473124.039       -2377.669          29.000  
G20  23504073.469   123514494.375         988.260          15.000  
G24  21192383.418   111366726.792        1315.651          20.000  
G29  22408252.889   117756173.2671      -3346.683          27.000  
R23  20875901.514   111671957.124        1224.385          12.000  
> 2020 11 13  3  2 17.9994527  0 17
C02  36999332.895   192665188.968       -1201.725          32.000  
C03  36259885.204   188814701.025       -1238.177          31.000  
C06  36247192.291   188748640.694       -1558.793          27.000  
C08  36063730.099   187793145.597        -966.048          23.000  
C09  36522891.928   190184294.939       -1101.426          33.000  
C13  35767733.613   186251959.061        -615.580          30.000  
C16  36239735.253   188709853.062       -1466.210          27.000  
C23  24891305.508   129615532.170       -1212.960          28.000  
C30  22561387.776   117483085.899       -2878.809          29.000  
C32  23616381.419   122976671.288       -2160.329          32.000  
E12                                                                                                                                  21661553.818    85004592.517       -1108.958          27.000  
G02  23731371.913   124709103.466       -4356.228          15.000  
G15  20451765.637   107474714.242       -2378.296          29.000  
G20  23503737.101   123512715.539         992.542          14.000  
G24  21191981.696   111364623.318        1315.710          21.000  
G29  22408741.551   117758731.826       -3346.673          27.000  
R23  20875525.874   111669931.543        1222.967          12.000  
> 2020 11 13  3  2 18.9994519  0 19
C02  36999324.800   192665141.654       -1201.456          32.000  
C03  36259885.204   188814690.328       -1238.083          31.000  
C06  36247250.451   188748950.668       -1558.943          27.000  
C08  36063675.537   187792863.217        -967.625          23.000  
C09  36522865.546   190184147.756       -1101.693          34.000  
C13  35767610.698   186251324.503        -616.249          30.000  
C16  36239777.824   188710071.163       -1467.472          27.000  
C23  24891298.313   129615496.501       -1213.952          26.000  
C30  22561701.659   117484715.455       -2879.047          29.000  
C32  23616555.299   122977583.354       -2160.865          30.000  
E12                                                                                                                                  21661596.389    85004761.337       -1110.428          27.000  
G13  22207106.240   116699075.5781      -4082.856          21.000  
G15  20451977.890   107475832.381       -2379.249          29.000  
G18  21643760.536   113738693.4961       1376.610          30.000  
G20  23503314.394   123510750.457         994.037          14.000  
G23  23703979.876   124565254.5221        679.085          26.000  
G24  21191487.339   111362045.137        1319.508          21.000    21191499.930    83159996.6991        982.027          32.000  
J01  40026474.648   210340543.3431      -1157.212          21.000    40026426.981   157072296.5821       -863.096          29.000  
J03                                                                  36095096.784   141644911.8821      -1132.458          28.000  
> 2020 11 13  3  2 19.9994509  0 19
C02  36999256.448   192664782.195       -1201.769          31.000  
C03  36259824.946   188814367.174       -1238.101          30.000  
C06  36247248.052   188748948.357       -1558.484          27.000  
C08  36063563.415   187792269.810        -968.555          25.000  
C09  36522776.208   190183688.441       -1101.619          34.000  
C13  35767431.722   186250377.788        -616.140          29.000  
C16  36239759.537   188709977.369       -1467.843          27.000  
C23  24891231.459   129615148.977       -1213.203          27.000  
C30  22561955.283   117486033.106       -2879.246          29.000  
C32  23616669.520   122978182.918       -2160.536          29.000  
E12                                                                                                                                  21661579.301    85004694.915       -1111.022          27.000  
G13  22207590.105   116701581.366       -4080.331          21.000  
G15  20452131.984   107476636.075       -2379.410          29.000  
G18  21643195.727   113735741.333        1376.647          31.000  
G20  23502829.330   123508181.420         992.004          14.000  
G23  23703546.376   124563001.376         678.258          26.000  
G24  21190937.219   111359150.847        1317.662          22.000    21190949.211    83157838.111         981.058          31.000  
J01  40026398.201   210340124.620       -1156.634          21.000    40026346.337   157071983.357        -862.934          29.000  
J03                                                                  36095085.392   141644867.798       -1132.308          28.000  
> 2020 11 13  3  2 20.9994501  0 20
C02  36999248.653   192664735.091       -1201.779          31.000  
C03  36259824.646   188814356.109       -1237.741          31.000  
C06  36247306.812   188749258.263       -1559.648          26.000  
C08  36063509.752   187791989.431        -968.697          24.000  
C09  36522746.829   190183541.417       -1101.850          34.000  
C13  35767308.807   186249743.304        -615.182          30.000  
C16  36239801.208   188710196.859       -1468.108          27.000  
C23  24891223.065   129615113.671       -1213.704          26.000  
C30  22562270.365   117487663.385       -2879.122          30.000  
C32  23616843.699   122979094.795       -2161.060          29.000  
E12                                                                                                                                  21661622.771    85004865.647       -1113.671          27.000  
E33                                                                                                                                  25558525.101   100297141.8961      -2816.272          28.000  
G05  23224242.691   122044232.3981      -2694.392          17.000  
G15  20452345.136   107477755.417       -2379.998          29.000  
G18  21642690.877   113733103.706        1378.775          31.000  
G23  23703171.936   124561062.193         678.999          24.000  
G24  21190445.860   111356574.675        1314.738          22.000    21190459.650    83155915.111         981.663          31.000  
J01  40026384.710   210340021.023       -1156.269          21.000    40026326.251   157071905.063        -862.392          28.000  
J03                                                                  36095133.059   141645057.287       -1129.370          28.000  
R08  20976215.668   112326681.5451      -1802.193          26.000  
> 2020 11 13  3  2 21.9994496  0 21
C02  36999329.897   192665156.290       -1201.909          32.000  
C03  36259912.185   188814812.767       -1237.103          31.000  
C06  36247456.708   188750036.467       -1557.123          26.000  
C08  36063545.727   187792177.373        -968.069          24.000  
C09  36522809.485   190183862.867       -1100.683          33.000  
C13  35767276.730   186249577.235        -615.907          30.000  
C16  36239933.116   188710883.109       -1465.973          27.000  
C23  24891304.009   129615547.627       -1215.441          27.000  
C30  22562674.485   117489762.155       -2879.700          30.000  
C32  23617107.517   122980474.823       -2160.455          28.000  
E12                                                                                                                                  21661755.579    85005389.430       -1110.266          28.000  
E33                                                                                                                                  25559092.309   100299369.204       -2816.154          28.000  
G05  23224600.644   122046139.763       -2695.261          17.000  
G15  20452648.526   107479347.238       -2379.923          29.000  
G18  21642279.262   113730939.108        1376.196          30.000  
G20  23502069.356   123504149.1031        990.908          17.000  
G23  23702891.630   124559595.311         678.773          24.000  
G24  21190044.737   111354472.605        1314.345          23.000    21190060.027    83154345.385         981.709          31.000  
J01  40026456.361   210340388.685       -1153.693          21.000    40026396.702   157072179.865        -863.982          28.000  
J03                                                                  36095270.964   141645599.554       -1131.119          28.000  
R08  20976404.537   112327693.005       -1802.566          29.000  
> 2020 11 13  3  2 22.9994488  0 20
C02  36999321.203   192665109.437       -1202.259          32.000  
C03  36259910.386   188814800.985       -1237.057          31.000  
C06  36247515.167   188750344.758       -1557.191          26.000  
C08  36063490.865   187791896.947        -968.393          24.000  
C09  36522782.804   190183716.158       -1102.533          34.000  
C13  35767155.014   186248943.031        -615.644          31.000  
C16  36239975.687   188711100.918       -1467.444          28.000  
C23  24891291.418   129615514.296       -1215.624          26.000  
C30  22562988.068   117491393.046       -2879.919          30.000  
C32  23617280.497   122981386.452       -2160.111          28.000  
E12                                                                                                                                  21661799.348    85005557.916       -1110.379          27.000  
E33                                                                                                                                  25559569.578   100301243.823       -2817.213          28.000  
G05  23224871.656   122047575.012       -2695.837          17.000  
G15  20452860.779   107480466.333       -2379.288          29.000  
G18  21641778.009   113728302.183        1376.359          29.000  
G24                                                                  21189570.466    83152423.109         980.769          31.000  
J01                                                                  40026376.916   157072102.004        -861.774          29.000  
J03                                                                  36095319.230   141645789.796       -1132.554          28.000  
R08  20976504.968   112328230.677       -1804.619          29.000  
R09  22846195.408   121997408.2461       -968.442          32.000  
> 2020 11 13  3  2 23.9994478  0 21
C02  36999252.850   192664750.965       -1202.790          32.000  
C03  36259848.030   188814476.895       -1236.824          31.000  
C06  36247513.069   188750341.164       -1558.281          25.000  
C08  36063376.344   187791304.499        -968.509          24.000  
C09  36522697.663   190183257.206       -1102.940          34.000  
C13  35766972.440   186247996.577        -611.442          31.000  
C16  36239958.299   188711006.439       -1466.106          28.000  
C23  24891220.367   129615168.249       -1217.243          25.000  
C30  22563240.793   117492711.417       -2879.504          31.000  
C32  23617393.519   122981986.418       -2160.862          27.000  
E12                                                                                                                                  21661782.560    85005492.835       -1111.262          28.000  
E33                                                                                                                                  25559986.589   100302884.201       -2815.854          27.000  
G05  23225094.402   122048694.591       -2694.296          17.000  
G13  22209796.578   116713016.4511      -4079.134          17.000  
G15  20453014.273   107481269.498       -2378.199          31.000  
G18  21641215.598   113725350.706        1375.552          28.000  
G20  23501157.687   123499331.8591        990.264          20.000  
G24  21189007.455   111349007.7841       1314.229          23.000    21189020.646    83150265.726         982.329          31.000  
J01                                                                  40026296.871   157071788.478        -863.478          28.000  
J03                                                                  36095307.838   141645744.709       -1131.119          27.000  
R08  20976539.444   112328415.734       -1804.676          31.000  
> 2020 11 13  3  2 24.9994470  0 21
C02  36999244.456   192664705.035       -1203.148          33.000  
C03  36259845.631   188814464.776       -1236.965          32.000  
C06  36247572.428   188750650.185       -1558.497          25.000  
C08  36063322.381   187791024.476        -969.841          25.000  
C09  36522667.683   190183110.450       -1103.741          34.000  
C13  35766852.223   186247362.303        -616.560          30.000  
C16  36240000.869   188711223.994       -1466.045          28.000  
C23  24891210.174   129615136.969       -1218.783          24.000  
C30  22563553.477   117494342.320       -2880.021          30.000  
C32  23617567.698   122982898.598       -2161.203          28.000  
E12                                                                                                                                  21661826.030    85005662.633       -1110.433          28.000  
E33                                                                                                                                  25560464.459   100304759.218       -2814.624          28.000  
G15  20453227.425   107482387.623       -2378.942          31.000  
G18  21640714.645   113722714.288        1376.524          28.000  
G20  23500731.982   123497081.058         989.457          21.000  
G23  23701723.338   124553462.3091        680.580          23.000  
G24  21188518.194   111346433.893        1312.820          24.000    21188530.785    83148343.914         980.829          31.000  
G29  22411464.266   117773185.3301      -3350.195          23.000  
J01  40026337.343   210339753.1531      -1155.898          23.000    40026277.085   157071710.494        -863.769          29.000  
J03  36095330.623   189682241.8661      -1515.630          28.000    36095356.405   141645936.832       -1132.289          27.000  
R08  20976633.879   112328921.099       -1804.530          30.000  
> 2020 11 13  3  2 25.9994463  0 20
C02  36999265.741   192664815.704       -1204.008          32.000  
C03  36259873.212   188814608.739       -1236.639          31.000  
C06  36247662.665   188751115.452       -1558.040          25.000  
C08  36063300.197   187790902.523        -969.717          25.000  
C09  36522668.283   190183120.076       -1103.118          34.000  
C13  35766758.388   186246884.412        -611.437          31.000  
C16  36240073.119   188711597.480       -1466.315          28.000  
C30  22563896.440   117496129.463       -2879.528          30.000  
C32  23617772.756   122983967.557       -2161.998          28.000  
E12                                                                                                                                  21661898.879    85005950.091       -1112.062          28.000  
E33                                                                                                                                  25560971.708   100306750.835       -2814.753          27.000  
G05  23225680.796   122051719.3941      -2694.772          18.000  
G13  22210908.508   116719111.6991      -4078.929          15.000  
G15  20453471.456   107483664.353       -2379.938          31.000  
G18  21640242.772   113720235.214        1375.953          27.000  
G24  21188058.612   111344018.335        1313.039          26.000    21188071.503    83146540.100         984.138          31.000  
G29  22411893.269   117775432.001       -3348.594          24.000  
J01  40026348.735   210339805.331       -1154.642          21.000    40026287.278   157071750.605        -862.752          29.000  
J03  36095409.768   189682653.848       -1514.306          25.000    36095435.250   141646245.008       -1131.305          26.000  
R08  20976757.693   112329584.606       -1805.400          30.000  
> 2020 11 13  3  2 26.9994458  0 20
C02  36999346.385   192665239.296       -1204.254          33.000  
C03  36259960.452   188815064.679       -1236.579          31.000  
C06  36247811.362   188751892.605       -1558.202          25.000  
C08  36063335.273   187791091.316        -968.329          25.000  
C09  36522729.740   190183441.781       -1103.102          34.000  
C13  35766726.610   186246718.494        -615.511          29.000  
C16  36240205.628   188712283.710       -1467.355          28.000  
C23  24891307.906   129615701.2751      -1216.763          23.000  
C30  22564299.361   117498229.406       -2880.508          29.000  
C32  23618037.773   122985348.164       -2161.178          29.000  
E12                                                                                                                                  21662031.987    85006473.342       -1111.366          29.000  
E33                                                                                                                                  25561539.514   100308977.797       -2815.615          28.000  
G05  23226046.243   122053626.038       -2695.019          18.000  
G15  20453773.947   107485257.081       -2380.667          32.000  
G18  21639829.358   113718072.154        1374.812          28.000  
G23  23701103.667   124550210.4341        680.216          25.000  
G24                                                                  21187671.280    83144971.752         979.796          31.000  
J01                                                                  40026356.830   157072025.130        -862.370          28.000  
J03                                                                  36095573.454   141646787.853       -1130.732          27.000  
R08  20976941.466   112330569.026       -1805.095          31.000  
> 2020 11 13  3  2 27.9994447  0 18
C02  36999248.353   192664726.212       -1204.224          33.000  
C03  36259867.816   188814583.729       -1236.197          31.000  
C06  36247780.784   188751734.248       -1560.095          24.000  
C08  36063192.272   187790342.229        -967.909          25.000  
C09  36522611.322   190182826.891       -1100.893          34.000  
C13  35766515.257   186245615.962        -614.122          29.000  
C16  36240159.460   188712033.471       -1466.793          28.000  
C23  24891209.574   129615200.617       -1216.360          24.000  
C30  22564523.006   117499392.858       -2881.138          30.000  
C32  23618123.214   122985792.142       -2160.476          28.000  
E12                                                                                                                                  21661985.519    85006290.685       -1112.424          29.000  
E33                                                                                                                                  25561927.746   100310499.508       -2815.177          29.000  
G15  20453898.661   107485904.037       -2380.784          31.000  
G18  21639236.069   113714964.191        1374.393          27.000  
G24                                                                  21187092.381    83142697.791         979.984          32.000  
J01  40026305.565   210339593.7981      -1153.299          21.000    40026246.806   157071592.006        -860.926          29.000  
J03                                                                  36095531.484   141646625.220       -1132.039          27.000  
R08  20976946.262   112330594.029       -1805.179          32.000  
> 2020 11 13  3  2 28.9994440  0 19
C02  36999269.938   192664837.598       -1204.111          32.000  
C03  36259894.797   188814727.538       -1236.971          30.000  
C06  36247869.822   188752201.451       -1559.619          25.000  
C08  36063168.288   187790217.905        -969.377          24.000  
C09  36522612.222   190182836.627       -1103.468          34.000  
C13  35766421.721   186245137.983        -617.362          29.000  
C16  36240232.009   188712407.364       -1466.496          29.000  
C30  22564865.968   117501181.710       -2881.391          30.000  
C32  23618330.070   122986859.645       -2159.899          27.000  
E12                                                                                                                                  21662059.268    85006579.977       -1112.004          28.000  
E33                                                                                                                                  25562435.294   100312492.209       -2817.429          29.000  
G13  22212538.779   116727728.3271      -4080.592          20.000  
G15  20454146.589                       -2381.297          32.000  
G18  21638760.298   113712487.037        1374.749          26.000  
G23  23700302.622   124546016.8631        677.492          25.000  
G24                                                                  21186631.900    83140894.786         979.694          31.000  
J01  40026320.555   210339643.671       -1150.609          18.000    40026256.100   157071630.143        -861.599          28.000  
J03  36095592.941   189683572.4371      -1514.087          27.000    36095610.029   141646932.994       -1130.547          27.000  
R08  20977070.676   112331260.003       -1805.107          32.000  
> 2020 11 13  3  2 29.9994432  0 20
C02  36999260.945   192664792.672       -1203.966          32.000  
C03  36259891.499   188814715.588       -1237.232          30.000  
C06  36247928.881   188752512.346       -1559.521          25.000  
C08  36063115.525   187789939.738        -972.056          25.000  
C09  36522585.240   190182690.484       -1102.078          34.000  
C13  35766294.310   186244504.279        -611.677          29.000  
C16  36240275.180   188712625.011       -1467.125          29.000  
C30  22565180.451   117502814.996       -2882.800          30.000  
C32  23618506.948   122987770.356       -2159.933          27.000  
E12                                                                                                                                  21662103.338    85006750.598       -1111.621          28.000  
E33                                                                                                                                  25562913.463   100314368.044       -2817.820          29.000  
G05  23226801.120   122057612.1861      -2691.262          17.000  
G15  20454357.643   107488386.5601      -2381.147          32.000  
G18  21638256.946   113709852.207        1374.469          27.000  
G23  23699932.978   124544078.095         679.671          26.000  
G24  21186132.745   111333888.8921       1310.072          30.000    21186142.639    83138974.571         980.475          31.000  
J01  40026302.268   210339533.659       -1150.049          19.000    40026236.313   157071551.855        -863.507          29.000  
J03  36095641.208   189683826.126       -1514.405          27.000    36095658.596   141647122.983       -1131.817          28.000  
R08  20977169.608   112331789.755       -1805.266          33.000  
R09  22845814.672   121995374.7821       -973.248          31.000  
> 2020 11 13  3  2 30.9994427  0 21
C02  36999342.188   192665215.838       -1203.523          32.000  
C03  36259978.439   188815172.142       -1237.464          30.000  
C06  36248077.578   188753291.840       -1560.686          24.000  
C08  36063151.200   187790130.005        -971.343          24.000  
C09  36522650.595   190183012.828       -1102.839          33.000  
C13  35766269.127   186244338.816        -616.737          28.000  
C16  36240408.287   188713311.640       -1467.841          30.000  
C30  22565583.671   117504917.586       -2883.521          30.000  
C32  23618774.363   122989149.527       -2160.208          25.000  
E12                                                                                                                                  21662236.746    85007275.158       -1114.397          28.000  
E33                                                                                                                                  25563481.570   100316597.177       -2817.094          29.000  
G05  23227165.368   122059512.393       -2686.575          16.000  
G13  22213696.278   116733843.3421      -4082.694          24.000  
G15  20454658.634   107489980.781       -2383.066          32.000  
G18  21637845.631   113707690.158        1374.239          28.000  
G23  23699654.171   124542610.414         680.762          26.000  
G24                                                                  21185743.915    83137407.553         979.266          32.000  
J01                                                                  40026306.465   157071827.254        -863.875          29.000  
J03  36095780.011   189684553.117       -1515.829          27.000    36095797.100   141647666.119       -1132.995          27.000  
R08  20977355.779   112332787.062       -1805.117          33.000  
R09  22845838.955   121995504.853        -974.207          29.000  
> 2020 11 13  3  2 31.9994417  0 21
C02  36999273.536   192664858.217       -1203.318          33.000  
C03  36259915.483   188814848.347       -1236.988          29.000  
C06  36248077.278   188753291.197       -1559.933          25.000  
C08  36063035.180   187789540.874        -971.061          24.000  
C09  36522562.156   190182554.759       -1103.119          33.000  
C13  35766090.151   186243392.958        -615.966          30.000  
C16  36240392.398   188713218.791       -1468.614          29.000  
C23  24891250.346   129615386.6421      -1219.039          26.000  
C30  22565837.895   117506240.096       -2883.569          30.000  
C32  23618891.282   122989748.104       -2160.431          27.000  
E12                                                                                                                                  21662220.857    85007212.591       -1114.391          27.000  
E33                                                                                                                                  25563899.780   100318237.220       -2816.452          28.000  
G05  23227375.822   122060625.281       -2689.632          15.000  
G15  20454813.327   107490787.627       -2382.022          32.000  
G18  21637281.722   113704740.316        1374.005          28.000  
G20  23497806.607   123481801.3691        990.310          23.000  
G23  23699225.168   124540353.178         681.855          27.000  
G24  21185193.796   111328905.2171       1309.838          30.000    21185195.294    83135252.688         978.366          31.000  
J01                                                                  40026226.420   157071513.798        -862.214          29.000  
J03  36095770.718   189684493.496       -1515.618          27.000    36095785.708   141647621.882       -1131.876          28.000  
R09  22845711.843   121994825.848        -975.421          28.000  
> 2020 11 13  3  2 32.9994409  0 20
C02  36999264.542   192664812.274       -1202.773          32.000  
C03  36259912.185   188814836.321       -1237.039          30.000  
C06  36248136.337   188753601.966       -1560.249          23.000  
C08  36062977.620   187789262.236        -969.197          24.000  
C09  36522531.278   190182409.072       -1102.994          32.000  
C13  35765968.135   186242759.577        -618.608          30.000  
C16  36240436.768   188713438.630       -1469.217          29.000  
C30  22566151.778   117507875.454       -2884.490          30.000  
C32  23619069.658   122990659.820       -2160.360          24.000  
E12                                                                                                                                  21662264.926    85007384.975       -1114.031          28.000  
E33                                                                                                                                  25564377.949   100320112.700       -2817.330          29.000  
G05  23227649.833   122062057.466       -2693.786          13.000  
G15  20455025.880   107491909.977       -2383.060          32.000  
G18  21636778.670   113702106.092        1373.569          28.000  
G20  23497374.306   123479550.852         990.454          23.000  
G23  23698856.123   124538411.271         681.279          28.000  
G24  21184705.733   111326334.733        1310.569          29.000    21184706.033    83133333.503         979.715          31.000  
J01                                                                  40026206.034   157071434.548        -861.604          29.000  
J03  36095818.984   189684749.185       -1516.071          27.000    36095834.873   141647811.981       -1131.453          27.000  
R09  22845655.182   121994523.776        -977.463          27.000  
> 2020 11 13  3  2 33.9994401  0 21
C02  36999254.949   192664765.912       -1202.584          33.000  
C03  36259909.187   188814824.516       -1237.081          30.000  
C06  36248195.696   188753913.012       -1559.509          24.000  
C09  36522499.200   190182263.509       -1103.117          33.000  
C13  35765846.720   186242126.256        -615.525          29.000  
C16  36240480.537   188713659.105       -1469.377          29.000  
C30  22566465.961   117509511.504       -2885.059          30.000  
C32  23619246.236   122991571.864       -2161.934          24.000  
E12                                                                                                                                  21662308.996    85007557.579       -1114.754          28.000  
E33                                                                                                                                  25564856.418   100321988.557       -2817.647          28.000  
G05  23227921.744   122063491.512       -2693.522          10.000  
G15  20455244.129   107493032.685       -2384.764          31.000  
G18  21636275.318   113699472.228        1373.470          27.000  
G20  23496943.804   123477300.579         990.009          24.000  
G23  23698489.177   124536469.912         680.672          28.000  
G24  21184218.271   111323764.082        1309.966          30.000    21184217.072    83131414.591         975.992          31.000  
G29  22415156.810   117792455.5331      -3351.120          30.000  
J01  40026244.707   210339266.1791      -1157.527          23.000    40026185.348   157071354.673        -860.406          29.000  
J03  36095867.551   189685003.517       -1513.485          27.000    36095883.140   141648002.346       -1132.780          28.000  
R08  20977593.814   112334061.4951      -1805.400          33.000  
R09  22845600.920   121994233.632        -977.982          27.000  
> 2020 11 13  3  2 34.9994394  0 21
C02  36999276.234   192664875.620       -1202.374          32.000  
C03  36259935.869   188814968.889       -1237.431          30.000  
C06  36248287.433   188754378.689       -1558.535          24.000  
C08  36062894.877   187788859.9381       -969.931          23.000  
C09  36522499.500   190182274.219       -1103.016          32.000  
C13  35765751.685   186241649.050        -617.207          29.000  
C16  36240554.886   188714036.006       -1470.605          29.000  
C30  22566809.523   117511303.826       -2885.299          30.000  
C32  23619452.493   122992640.841       -2161.525          25.000  
E12                                                                                                                                  21662383.644    85007849.542       -1115.234          28.000  
E33                                                                                                                                  25565364.566   100323982.626       -2817.582          29.000  
G02  23741443.741   124762143.8441      -4354.716          23.000  
G13  22215811.014   116744971.8651      -4081.140          23.000  
G15  20455489.060   107494313.263       -2381.705          31.000  
G18  21635802.546   113696995.634        1373.737          27.000  
G20  23496536.986   123475206.422         990.880          24.000  
G23  23698151.011   124534686.671         680.078          29.000  
G24  21183761.087   111321351.674        1309.650          30.000    21183757.490    83129613.721         977.757          31.000  
J01  40026253.701   210339318.896       -1154.299          24.000    40026194.942   157071391.083        -859.822          28.000  
J03  36095945.197   189685415.378       -1515.931          26.000    36095961.686   141648311.574       -1132.187          28.000  
R08  20977720.027   112334737.995       -1805.499          33.000  
> 2020 11 13  3  2 35.9994388  0 23
C02  36999328.398   192665141.303       -1202.300          32.000  
C03  36259992.530   188815269.520       -1237.314          29.000  
C06  36248407.949   188754999.659       -1557.667          24.000  
C08  36062901.773   187788891.997        -968.617          23.000  
C09  36522532.477   190182441.288       -1104.444          32.000  
C13  35765686.630   186241328.396        -615.514          29.000  
C16  36240657.415   188714569.347       -1469.537          29.000  
C23  24891319.598   129615736.5621      -1220.138          23.000  
C30  22567183.064   117513251.830       -2884.190          28.000  
C32  23619688.730   122993865.108       -2162.056          24.000  
E12                                                                                                                                  21662487.972    85008258.155       -1115.214          27.000  
E33                                                                                                                                  25565902.994   100326095.787       -2819.529          29.000  
G05  23228562.401   122066835.3661      -2697.791          16.000  
G15  20455757.074   107495751.940       -2383.724          31.000  
G18  21635360.951   113694677.779        1371.275          26.000  
G20  23496164.943   123473270.410         990.269          24.000  
G23  23697842.825   124533061.210         680.149          27.000  
G24  21183333.583   111319097.953        1307.925          31.000    21183330.286    83127930.884         977.483          30.000  
G29  22416047.193   117797109.9211      -3351.430          29.000  
J01                                                                  40026234.814   157071546.494        -863.425          28.000  
J03  36096054.621   189685985.906       -1516.079          28.000    36096070.510   141648737.098       -1131.777          28.000  
R08  20977880.116   112335595.193       -1805.647          33.000  
R09  22845595.224   121994203.2971       -977.408          28.000  
> 2020 11 13  3  2 36.9994378  0 19
C02  36999260.345   192664782.569       -1202.296          33.000  
C03  36259930.472   188814946.053       -1237.682          29.000  
C06  36248406.151   188754996.124       -1558.325          24.000  
C08  36062788.451   187788300.335        -970.088          22.000  
C09  36522447.036   190181984.144       -1105.244          32.000  
C13  35765506.455   186240383.429        -614.935          29.000  
C16  36240640.327   188714478.011       -1470.316          29.000  
C23  24891253.344   129615395.406       -1220.662          23.000  
C30  22567437.288   117514575.363       -2884.656          29.000  
E12                                                                                                                                  21662471.783    85008197.008       -1114.688          28.000  
E33                                                                                                                                  25566320.904   100327737.411       -2817.849          28.000  
G15  20455903.073   107496560.864       -2385.291          30.000  
G18  21634796.142   113691731.190        1371.256          27.000  
G20  23495675.682   123470704.464         990.462          22.000  
G23  23697412.922   124530805.601         680.008          27.000  
G24  21182784.364   111316214.796        1307.282          30.000    21182780.466    83125777.916         975.630          30.000  
J01  40026208.133   210339104.5361      -1152.775          23.000    40026155.069   157071233.271        -863.237          28.000  
J03  36096042.330   189685926.627       -1515.985          28.000    36096059.118   141648692.011       -1132.716          29.000  
R08  20977917.890   112335797.421       -1805.780          32.000  
> 2020 11 13  3  2 37.9994371  0 23
C02  36999281.630   192664891.894       -1201.928          33.000  
C03  36259958.053   188815091.592       -1238.286          29.000  
C06  36248494.889   188755462.984       -1560.598          24.000  
C08  36062763.868   187788177.587        -970.799          24.000  
C09  36522448.535   190181995.507       -1103.888          32.000  
C13  35765413.519   186239906.827        -616.021          29.000  
C16  36240712.877   188714854.544       -1468.614          29.000  
C23  24891274.329   129615523.732       -1221.492          22.000  
C30  22567781.750   117516367.139       -2884.991          28.000  
E12                                                                                                                                  21662546.731    85008489.033       -1117.206          28.000  
E33                                                                                                                                  25566829.352   100329732.278       -2819.796          29.000  
G05  23229096.931   122069553.6471      -2700.175          24.000  
G13  22217449.680   116753590.5071      -4082.506          25.000  
G15  20456146.504   107497842.663       -2384.678          30.000  
G18  21634325.168   113689257.330        1371.538          27.000  
G20  23495272.461   123468612.352         988.069          23.000  
G23  23697074.157   124529022.807         679.887          27.000  
G24  21182325.981   111313805.187        1306.903          30.000    21182321.184    83123978.185         974.927          30.000  
G29  22416820.358   117801135.7891      -3352.860          28.000  
J01                                                                  40026164.663   157071273.085        -862.733          28.000  
J03  36096120.876   189686339.702       -1515.554          29.000    36096138.263   141649000.368       -1131.461          28.000  
R08  20978045.301   112336479.405       -1806.021          31.000  
R09  22845457.019   121993465.6681       -978.350          29.000  
> 2020 11 13  3  2 38.9994363  0 23
C02  36999273.836   192664845.025       -1202.096          33.000  
C03  36259954.756   188815081.001       -1238.710          30.000  
C06  36248553.948   188755774.596       -1560.391          24.000  
C08  36062709.905   187787899.021        -969.820          24.000  
C09  36522418.256   190181850.731       -1103.886          32.000  
C13  35765291.804   186239274.145        -618.624          27.000  
C16  36240754.548   188715074.750       -1469.710          29.000  
C23  24891265.336   129615495.668       -1221.148          21.000  
C30  22568096.832   117518004.489       -2887.342          27.000  
E12                                                                                                                                  21662591.400    85008664.245       -1115.742          28.000  
E33                                                                                                                                  25567307.821   100331610.659       -2819.605          28.000  
G05  23229388.929   122071262.425       -2700.431          24.000  
G13  22217985.109   116756413.731       -4083.944          27.000  
G15  20456359.057   107498967.282       -2386.326          29.000  
G18  21633824.815   113686624.796        1372.642          27.000  
G20  23494841.360   123466362.563         990.919          21.000  
G23  23696703.314   124527082.422         680.007          27.000  
G24                                                                  21181832.822    83122061.004         975.286          31.000  
G29  22417221.780   117803228.330       -3352.910          29.000  
J01                                                                  40026144.277   157071194.134        -861.253          27.000  
J03  36096170.041   189686595.693       -1516.923          27.000    36096186.830   141649190.930       -1131.782          29.000  
R08  20978144.533   112337011.011       -1806.219          31.000  
R09  22845403.057   121993177.598        -980.431          29.000  
> 2020 11 13  3  2 39.9994358  0 22
C02  36999355.679   192665266.696       -1202.376          32.000  
C03  36260041.695   188815538.938       -1237.967          30.000  
C06  36248704.444   188756553.827       -1559.410          23.000  
C08  36062745.881   187788088.363        -970.933          24.000  
C09  36522483.611   190182174.555       -1102.581          31.000  
C13  35765258.227   186239109.927        -616.313          28.000  
C16  36240889.155   188715764.000       -1469.868          30.000  
C29  23929921.160   124609378.1501        -81.450          20.000  
C30  22568503.650   117520111.161       -2886.628          28.000  
E12                                                                                                                                  21662725.707    85009193.043       -1117.992          28.000  
E33                                                                                                                                  25567876.228   100333842.563       -2820.332          28.000  
G05  23229767.267   122073174.667       -2700.073          24.000  
G13  22218611.675   116759709.698       -4083.966          28.000  
G15  20456664.546   107500564.986       -2384.477          28.000  
G18  21633413.799   113684464.569        1372.460          25.000  
G23  23696421.509   124525614.728         679.982          27.000  
G24  21181434.698   111309143.5041       1305.908          31.000    21181433.799    83120497.291         977.919          30.000  
G29  22417711.941   117805793.734       -3353.328          29.000  
J01                                                                  40026212.929   157071466.048        -860.564          28.000  
J03  36096309.445   189687324.711       -1516.838          28.000    36096325.934   141649735.653       -1133.095          29.000  
R08  20978331.603   112338012.388       -1806.265          31.000  
R09  22845446.227   121993407.743        -981.039          29.000  
> 2020 11 13  3  2 40.9994348  0 24
C02  36999287.027   192664908.068       -1202.646          33.000  
C03  36259979.638   188815215.856       -1238.462          30.000  
C06  36248701.146   188756552.418       -1559.572          24.000  
C08  36062634.058   187787498.115        -970.958          24.000  
C09  36522393.973   190181717.925       -1104.438          31.000  
C13  35765074.754   186238165.739        -617.142          27.000  
C16  36240871.767   188715672.724       -1470.451          30.000  
C23  24891284.223   129615599.5871      -1223.776          24.000  
C29  23929635.458   124607899.889         -83.740          20.000  
C30  22568758.474   117521436.970       -2887.440          29.000  
C32  23620589.906   122998428.7471      -2160.595          23.000  
E12                                                                                                                                  21662710.418    85009133.369       -1117.153          28.000  
E33                                                                                                                                  25568294.138   100335485.759       -2819.302          28.000  
G05  23229994.210   122074298.500       -2698.316          24.000  
G13  22219087.746   116762218.155       -4084.262          29.000  
G15  20456816.840   107501375.306       -2388.240          27.000  
G18  21632852.888   113681516.921        1370.630          24.000  
G23  23695992.506   124523359.251         680.037          25.000  
G24  21180884.879   111306261.982        1305.957          31.000    21180886.977    83118345.575         975.573          30.000  
G29  22418050.706   117807571.712       -3353.473          29.000  
J01  40026183.850   210338993.1651      -1153.453          21.000    40026132.885   157071150.702        -860.940          28.000  
J03  36096299.852   189687266.337       -1517.183          28.000    36096315.141   141649692.128       -1132.647          28.000  
R08  20978369.077   112338213.141       -1806.408          31.000  
R09  22845338.901   121992834.815        -980.977          29.000  
> 2020 11 13  3  2 41.9994340  0 23
C02  36999278.033   192664861.809       -1202.786          33.000  
C03  36259977.540   188815205.182       -1237.995          31.000  
C06  36248760.805   188756863.323       -1559.205          24.000  
C08  36062580.995   187787219.838        -971.373          25.000  
C09  36522365.492   190181573.536       -1105.810          32.000  
C13  35764953.338   186237533.646        -616.656          27.000  
C16  36240915.536   188715893.485       -1469.643          30.000  
C23  24891280.025   129615574.578       -1225.882          23.000  
C29  23929410.914   124606734.062         -80.187          21.000  
C30  22569073.555   117523075.611       -2887.601          30.000  
E12                                                                                                                                  21662755.087    85009308.393       -1116.603          28.000  
E33                                                                                                                                  25568772.907   100337364.886       -2821.466          28.000  
G02  23745582.076   124784121.8971      -4349.451          16.000  
G13  22219622.875   116765042.112       -4084.469          30.000  
G18  21632355.232   113678885.015        1372.532          23.000  
G20  23493588.527   123459760.6441        992.084          19.000  
G23  23695624.361   124521418.429         680.560          26.000  
G24                                                                  21180398.615    83116429.429         974.771          30.000  
G29  22418450.030   117809664.801       -3353.409          29.000  
J01  40026165.262   210338886.881       -1154.710          22.000    40026113.098   157071071.954        -862.481          28.000  
J03  36096346.919   189687521.985       -1515.565          27.000    36096364.007   141649884.777       -1134.555          28.000  
R08  20978465.910   112338732.127       -1806.445          31.000  
R09  22845281.341   121992527.768        -981.947          29.000  
> 2020 11 13  3  2 42.9994332  0 23
C02  36999268.739   192664815.903       -1203.288          32.000  
C03  36259975.142   188815194.192       -1238.019          31.000  
C06  36248821.963   188757173.245       -1559.208          24.000  
C08  36062528.231   187786942.772        -972.334          24.000  
C09  36522339.411   190181429.220       -1105.269          31.000  
C13  35764830.123   186236901.249        -616.223          26.000  
C16  36240957.507   188716114.020       -1469.331          30.000  
C23  24891276.128   129615552.523       -1226.957          24.000  
C30  22569388.338   117524714.387       -2887.670          30.000  
C32  23620938.864   123000251.0441      -2160.556          23.000  
E12                                                                                                                                  21662800.355    85009484.727       -1118.281          28.000  
E33                                                                                                                                  25569251.376   100339243.219       -2818.340          27.000  
G02  23746170.568   124787214.376       -4354.216          15.000  
G05  23230558.419   122077172.4491      -2697.156          25.000  
G13  22220157.705   116767866.646       -4084.989          31.000  
G15  20457239.848   107503625.7181      -2385.966          23.000  
G18  21631859.076   113676253.452        1369.905          21.000  
G23  23695254.717   124519477.211         681.044          26.000  
G24  21179896.763                        1305.424          32.000    21179909.953    83114513.527         974.328          30.000  
G29  22418844.257   117811758.102       -3353.963          26.000  
J01  40026145.776   210338780.588       -1152.864          22.000    40026092.713   157070992.330        -861.436          29.000  
J03  36096396.385   189687776.990       -1514.635          29.000    36096412.873   141650077.560       -1132.145          26.000  
R09  22845240.869   121992310.930        -981.915          29.000  
> 2020 11 13  3  2 43.9994324  0 17
C02  36999259.446   192664770.398       -1203.646          32.000  
C03  36259972.144   188815183.288       -1238.098          31.000  
C06  36248878.624   188757483.491       -1559.505          22.000  
C08  36062475.468   187786667.699        -973.695          24.000  
C09  36522309.431   190181285.154       -1105.090          30.000  
C13  35764705.410   186236268.225        -615.950          26.000  
C16  36240999.778   188716334.456       -1469.572          31.000  
C30  22569703.419   117526353.192       -2888.859          29.000  
E12                                                                                                                                  21662846.224    85009661.488       -1118.072          28.000  
E33                                                                                                                                  25569729.245   100341120.513       -2818.010          28.000  
G02  23746762.658   124790311.403       -4358.562          15.000  
G05  23230827.633   122078608.695       -2696.937          19.000  
G18  21631359.921   113673621.909        1370.912          20.000  
G24  21179408.700   111298542.9611       1305.265          32.000    21179421.292    83112598.172         972.516          29.000  
J01  40026124.790   210338673.088       -1152.838          21.000    40026072.327   157070911.668        -860.340          28.000  
J03  36096444.352   189688032.035       -1516.316          28.000    36096460.840   141650268.630       -1132.082          26.000  
R08  20978658.677   112339764.0411      -1806.503          31.000  
> 2020 11 13  3  2 44.9994317  0 18
C02  36999280.131   192664881.350       -1203.724          31.000  
C03  36260000.324   188815328.146       -1237.478          30.000  
C06  36248968.561   188757950.892       -1560.280          21.000  
C08  36062453.583   187786548.340        -973.014          24.000  
C09  36522312.429   190181297.311       -1105.169          31.000  
C13  35764610.975   186235791.820        -617.507          26.000  
C16  36241072.028   188716711.118       -1469.500          30.000  
C30  22570048.780   117528149.838       -2889.510          29.000  
E12                                                                                                                                  21662920.872    85009955.904       -1117.971          28.000  
E33                                                                                                                                  25570237.693   100343116.440       -2821.463          27.000  
G02  23747384.428   124793567.875       -4360.649          15.000  
G13  22221256.444   116773672.9671      -4084.865          31.000  
G20  23492329.699   123453162.4221        992.894          20.000  
G23  23694545.108   124515751.5211        681.303          24.000  
G24  21178953.316   111296135.897        1302.384          33.000    21178962.909    83110800.664         974.573          29.000  
J01  40026132.285   210338723.672       -1155.259          20.000    40026081.920   157070948.805        -861.972          27.000  
J03  36096526.195   189688446.013       -1516.913          28.000    36096539.086   141650577.147       -1132.173          26.000  
R08  20978788.787   112340460.435       -1806.008          32.000  
> 2020 11 13  3  2 45.9994309  0 22
C02  36999271.437   192664836.271       -1203.933          32.000  
C03  36259997.926   188815316.650       -1237.241          30.000  
C06  36249030.918   188758261.667       -1558.792          23.000  
C08  36062398.721   187786271.927        -971.745          25.000  
C09  36522285.448   190181153.637       -1105.858          31.000  
C13  35764488.960   186235160.472        -617.896          25.000  
C16  36241114.898   188716932.030       -1470.395          30.000  
C20  23514316.477   122445215.6171       -710.891          24.000  
C29  23928541.515   124602208.7751        -80.947          19.000  
C30  22570364.462   117529790.514       -2889.366          30.000  
C32  23621488.983   123003142.7931      -2160.964          26.000  
E12                                                                                                                                  21662965.841    85010132.604       -1116.834          28.000  
E33                                                                                                                                  25570717.061   100344996.492       -2820.987          27.000  
G02  23747974.719   124796668.235       -4362.860          16.000  
G13  22221792.473   116776497.679       -4085.145          31.000  
G15  20457906.886   107507161.4261      -2387.450          24.000  
G20  23491900.096   123450909.342         994.238          19.000  
G23  23694174.264   124513810.354         680.364          25.000  
G24                                                                  21178476.046    83108886.042         971.820          29.000  
J01  40026113.398   210338618.310       -1155.730          19.000    40026062.134   157070868.811        -860.922          28.000  
J03  36096575.661   189688701.993       -1518.031          28.000    36096587.353   141650768.411       -1131.669          26.000  
R08  20978888.018   112340992.049       -1809.242          33.000  
> 2020 11 13  3  2 46.9994301  0 19
C02  36999262.743   192664791.386       -1204.035          32.000  
C03  36259996.727   188815304.971       -1237.288          31.000  
C06  36249091.476   188758571.098       -1559.180          24.000  
C08  36062344.458   187785994.508        -971.663          24.000  
C09  36522255.768   190181009.904       -1106.509          31.000  
C13  35764366.644   186234529.191        -617.133          26.000  
C16  36241156.869   188717153.833       -1470.921          30.000  
C20  23514216.647   122444676.104        -708.232          25.000  
C30  22570678.644   117531430.507       -2889.190          30.000  
E12                                                                                                                                  21663010.510    85010309.292       -1118.086          28.000  
E33                                                                                                                                  25571195.829   100346876.543       -2820.394          27.000  
G05  23231632.276   122083080.2911      -2698.183          25.000  
G13  22222328.502   116779322.326       -4084.959          32.000  
G15  20458117.640   107508288.929       -2388.237          25.000  
G23  23693803.421   124511869.373         680.728          23.000  
G24  21177987.984   111291008.1011       1302.825          34.000    21177987.984    83106971.512         973.187          28.000  
J01  40026094.212   210338512.033       -1152.822          18.000    40026042.347   157070787.736        -859.659          27.000  
J03  36096625.426   189688959.272       -1517.007          28.000    36096635.919   141650959.055       -1131.546          26.000  
R08  20978982.453   112341498.436       -1808.311          34.000  
> 2020 11 13  3  2 47.9994294  0 20
C02  36999283.729   192664902.504       -1203.932          32.000  
C03  36260025.507   188815449.480       -1237.419          31.000  
C06  36249183.213   188759038.328       -1558.814          22.000  
C08  36062321.075   187785873.398        -971.918          25.000  
C09  36522261.165   190181022.234       -1104.938          30.000  
C13  35764274.908   186234053.339        -617.174          27.000  
C16  36241229.119   188717531.638       -1470.832          31.000  
C20  23514147.394   122444291.302        -706.952          25.000  
C30  22571024.005   117533226.825       -2889.641          29.000  
E12                                                                                                                                  21663086.058    85010604.771       -1118.971          28.000  
E33                                                                                                                                  25571703.978   100348873.439       -2820.506          27.000  
G05  23231929.370   122084675.697       -2698.330          27.000  
G15  20458364.069   107509574.339       -2388.144          24.000  
G23  23693463.457   124510085.718         680.516          23.000  
G24  21177529.302   111288602.169        1303.824          34.000    21177529.601    83105174.891         974.045          28.000  
G29  22420880.148   117822544.9611      -3355.428          25.000  
J01                                                                  40026051.941   157070823.441        -859.690          28.000  
J03  36096705.471   189689373.396       -1517.839          27.000    36096714.465   141651266.405       -1130.905          27.000  
R08  20979110.464   112342183.063       -1806.504          33.000  
R09  22845012.427   121991090.9681       -984.646          29.000  
> 2020 11 13  3  2 48.9994286  0 19
C02  36999275.035   192664857.630       -1203.936          32.000  
C03  36260023.408   188815437.842       -1237.041          31.000  
C06  36249243.471   188759348.760       -1560.165          22.000  
C08  36062268.611   187785597.110        -973.349          26.000  
C09  36522235.383   190180878.663       -1104.710          31.000  
C13  35764153.492   186233420.558        -615.152          27.000  
C16  36241271.090   188717752.866       -1469.731          30.000  
C20  23514045.465   122443750.016        -707.922          24.000  
C30  22571338.787   117534868.318       -2890.674          29.000  
E12                                                                                                                                  21663132.226    85010783.389       -1119.899          28.000  
E33                                                                                                                                  25572182.746   100350753.055       -2820.656          27.000  
G13  22223424.244                       -4085.257          32.000  
G15  20458577.521   107510702.425       -2388.758          25.000  
G18  21628939.996   113660788.8151       1362.734          16.000  
G24  21177040.940   111286039.228        1301.730          35.000    21177041.539    83103261.019         972.105          27.000  
G29  22421277.373   117824640.422       -3356.864          27.000  
J01  40026090.014   210338453.7331      -1152.740          18.000    40026030.656   157070741.126        -860.260          28.000  
J03                                                                  36096763.331   141651456.584       -1131.669          26.000  
R08  20979208.796   112342709.892       -1806.390          34.000  
> 2020 11 13  3  2 49.9994278  0 19
C02  36999265.741   192664812.648       -1203.763          32.000  
C03  36260021.310   188815425.837       -1237.075          30.000  
C06  36249301.930   188759659.979       -1560.274          24.000  
C08  36062216.447   187785321.101        -972.437          26.000  
C09  36522208.401   190180735.240       -1107.693          31.000  
C13  35764032.675   186232788.729        -617.370          27.000  
C16  36241312.461   188717973.387       -1469.341          31.000  
C20  23513941.437   122443209.361        -707.132          23.000  
C29  23927681.411   124597686.6971        -80.331          15.000  
C30  22571654.469   117536510.895       -2891.829          29.000  
C32  23622206.986   123006943.4321      -2160.613          28.000  
E12                                                                                                                                  21663178.094    85010962.463       -1119.343          28.000  
E33                                                                                                                                  25572661.515   100352632.465       -2821.033          27.000  
G02  23750379.055   124809232.3301      -4360.685          19.000  
G15  20458787.676   107511830.892       -2388.093          24.000  
G24  21176551.079   111283476.706        1302.649          35.000    21176553.477    83101347.411         970.937          27.000  
J01  40026072.926   210338345.910       -1153.158          18.000    40026010.270   157070660.300        -860.403          27.000  
J03  36096803.803   189689887.7771      -1516.911          28.000    36096811.897   141651647.932       -1133.243          27.000  
R08  20979305.029   112343225.195       -1806.724          34.000  
> 2020 11 13  3  2 50.9994271  0 22
C02  36999286.427   192664923.565       -1203.707          32.000  
C03  36260049.190   188815570.159       -1237.140          30.000  
C06  36249391.868   188760126.865       -1560.324          23.000  
C08  36062193.663   187785200.654        -972.109          25.000  
C09  36522209.900   190180748.141       -1106.517          30.000  
C13  35763942.438   186232313.446        -617.067          28.000  
C16  36241385.311   188718350.148       -1469.769          31.000  
C20  23513866.189   122442824.912        -707.393          21.000  
C23  24891360.070   129615836.3911      -1229.092          28.000  
C29  23927489.244   124596678.155         -86.453          13.000  
C30  22571998.631   117538309.454       -2890.909          29.000  
E12                                                                                                                                  21663253.342    85011258.139       -1119.263          28.000  
E33                                                                                                                                  25573169.663   100354629.893       -2820.535          26.000  
G02  23751002.923   124812489.006       -4359.019          20.000  
G15  20459032.606   107513116.883       -2389.943          26.000  
G20  23489810.842   123439952.4331        992.788          17.000  
G24  21176091.797   111281072.258        1300.083          35.000    21176095.694    83099551.744         970.162          27.000  
J01                                                                  40026020.163   157070697.432        -860.034          28.000  
J03  36096882.948   189690301.440       -1516.375          28.000    36096891.942   141651957.711       -1132.724          26.000  
R08  20979431.842   112343904.880       -1807.699          34.000  
R09  22844858.933   121990271.6361       -987.272          28.000  
R21  23630172.772   126449826.7461      -5712.342          23.000  
> 2020 11 13  3  2 51.9994263  0 22
C02  36999277.133   192664878.356       -1203.772          32.000  
C03  36260046.492   188815558.736       -1237.639          30.000  
C08  36062140.600   187784924.210        -973.315          25.000  
C09  36522183.818   190180605.027       -1103.986          30.000  
C13  35763821.921   186231681.888        -617.266          26.000  
C16  36241426.682   188718571.048       -1470.592          30.000  
C23  24891358.571   129615815.943       -1228.417          28.000  
C27  25002923.936   130196785.2531      -4390.792          23.000  
C29  23927268.896   124595513.853         -85.872          13.000  
C30  22572314.012   117539951.972       -2891.914          30.000  
C32  23622578.129   123008924.3061      -2161.605          28.000  
C37  24108390.309   125538607.6991        862.182          26.000  
E12                                                                                                                                  21663299.210    85011436.624       -1119.616          28.000  
E33                                                                                                                                  25573648.731   100356508.830       -2820.387          27.000  
G15  20459248.757   107514246.923       -2390.198          26.000  
G20  23489377.342   123437699.151         992.178          18.000  
G24  21175604.034   111278510.686        1300.078          36.000    21175607.632    83097640.275         970.240          27.000  
J01                                                                  40025999.477   157070617.615        -861.770          27.000  
J03  36096932.414   189690558.473       -1517.626          28.000    36096941.108   141652149.815       -1132.761          27.000  
R08  20979529.574   112344427.964       -1807.523          34.000  
R09  22844796.876   121989940.612        -988.354          28.000  
R21  23630995.402   126454229.170       -5713.170          24.000  
> 2020 11 13  3  2 52.9994255  0 23
C02  36999268.439   192664833.228       -1203.571          32.000  
C03  36260044.394   188815547.337       -1237.615          30.000  
C06  36249508.487   188760748.9541      -1557.665          23.000  
C08  36062087.237   187784649.158        -974.472          24.000  
C09  36522156.237   190180461.973       -1106.046          31.000  
C13  35763701.105   186231050.677        -617.674          26.000  
C16  36241468.653   188718792.501       -1470.094          30.000  
C20  23513658.433   122441740.4341       -705.313          20.000  
C23  24891357.672   129615795.298       -1228.356          28.000  
C27  25003525.320   130199927.086       -4391.258          23.000  
C30  22572629.993   117541595.288       -2892.847          30.000  
C32  23622750.510   123009836.753       -2160.045          28.000  
C37  24107987.388   125536495.831         863.629          25.000  
E12                                                                                                                                  21663344.179    85011616.539       -1122.193          28.000  
E33                                                                                                                                  25574126.601   100358387.354       -2819.014          26.000  
G02  23752193.099   124818685.7641      -4359.068          21.000  
G15  20459463.708   107515376.891       -2390.345          26.000  
G20  23488945.342   123435445.616         994.530          17.000  
G23  23691645.815   124500533.9781        681.508          25.000  
G24  21175120.769   111275949.551        1300.059          35.000    21175120.169    83095727.926         970.022          27.000  
J01                                                                  40025978.492   157070536.577        -859.510          27.000  
J03  36096982.479   189690815.365       -1517.837          28.000    36096989.974   141652342.076       -1133.644          26.000  
R09  22844741.115   121989642.581        -989.156          29.000  
> 2020 11 13  3  2 53.9994248  0 22
C02  36999289.425   192664943.888       -1203.259          32.000  
C03  36260072.274   188815691.998       -1237.564          31.000  
C06  36249594.528   188761214.264       -1557.670          22.000  
C08  36062065.352   187784531.432        -974.561          26.000  
C09  36522162.233   190180475.103       -1107.275          31.000  
C13  35763611.467   186230576.367        -618.745          26.000  
C16  36241540.604   188719170.004       -1470.565          31.000  
C23  24891386.152   129615931.177       -1228.993          28.000  
C27  25004156.982   130203225.764       -4391.629          24.000  
C29  23926859.680   124593360.1251       -101.602          13.000  
C30  22572975.654   117543395.227       -2893.495          30.000  
C32  23622953.769   123010903.566       -2159.376          27.000  
C37  24107612.647   125534539.148         863.818          26.000  
E12                                                                                                                                  21663420.026    85011914.850       -1121.073          28.000  
E33                                                                                                                                  25574635.648   100360382.913       -2820.499          26.000  
G15  20459708.339   107516664.338       -2390.165          26.000  
G23  23691307.649   124498749.577         681.490          25.000  
G24  21174661.787   111273546.254        1301.122          36.000    21174662.386    83093933.578         971.770          26.000  
J01  40026042.347   210338233.1481      -1148.928          18.000    40025987.785   157070573.158        -860.927          28.000  
J03  36097060.725   189691230.073       -1516.887          28.000    36097069.419   141652651.872       -1132.310          27.000  
R08  20979753.519   112345626.8521      -1806.365          34.000  
R09  22844717.431   121989516.531        -989.861          28.000  
> 2020 11 13  3  2 54.9994240  0 21
C02  36999280.431   192664898.188       -1203.106          31.000  
C03  36260070.476   188815680.575       -1237.484          31.000  
C08  36062012.588   187784256.395        -973.993          26.000  
C09  36522132.854   190180332.442       -1107.239          31.000  
C13  35763490.051   186229945.889        -618.023          27.000  
C16  36241583.774   188719391.369       -1470.709          31.000  
C23  24891383.454   129615911.943       -1230.553          28.000  
C27  25004761.064   130206367.580       -4391.393          23.000  
C29  23926643.529   124592213.096        -104.133          12.000  
C30  22573290.436   117545039.738       -2893.285          29.000  
C32  23623127.649   123011814.132       -2159.832          28.000  
C37  24107210.326   125532426.366         865.158          26.000  
E12                                                                                                                                  21663466.194    85012094.745       -1121.818          29.000  
E33                                                                                                                                  25575115.616   100362264.882       -2822.995          26.000  
G15  20459925.089   107517794.091       -2390.815          26.000  
G23  23690939.204   124496808.355         681.333          26.000  
G24  21174175.523   111270986.051        1300.144          36.000    21174175.224    83092022.039         969.833          27.000  
J01  40026022.261   210338120.708       -1146.284          18.000    40025967.699   157070493.490        -861.060          27.000  
J03  36097109.291   189691486.871       -1517.252          29.000    36097117.685   141652843.861       -1133.489          26.000  
R08  20979851.251   112346149.971       -1806.702          33.000  
R09  22844661.970   121989220.032        -990.506          29.000  
> 2020 11 13  3  2 55.9994232  0 21
C02  36999272.037   192664852.225       -1202.817          32.000  
C03  36260067.777   188815668.932       -1236.799          31.000  
C06  36249711.447   188761834.0201      -1559.970          21.000  
C08  36061960.124   187783981.557        -973.906          25.000  
C09  36522105.872   190180189.844       -1106.313          30.000  
C13  35763369.235   186229315.182        -618.323          27.000  
C16  36241625.745   188719613.039       -1470.707          30.000  
C20  23513383.823   122440268.2071       -706.280          12.000  
C23  24891381.955   129615894.129       -1231.970          27.000  
C30  22573605.518   117546684.229       -2893.673          30.000  
C32  23623300.629   123012724.594       -2159.315          28.000  
C37  24106807.704   125530313.500         862.115          26.000  
E12                                                                                                                                  21663512.063    85012275.045       -1121.268          29.000  
E33                                                                                                                                  25575594.085   100364145.949       -2821.141          26.000  
G13  22227254.692   116804974.4281      -4086.158          33.000  
G15  20460140.939   107518924.874       -2391.844          27.000  
G24  21173687.461   111268426.257        1299.897          37.000    21173687.461    83090111.474         969.961          25.000  
J01  40026003.974   210338007.064       -1147.349          19.000    40025947.313   157070412.966        -860.825          28.000  
J03  36097157.558   189691743.608       -1516.983          28.000    36097167.151   141653036.462       -1132.488          27.000  
R08  20979950.183   112346680.376       -1808.418          33.000  
R09  22844606.808   121988924.938        -991.205          30.000  
> 2020 11 13  3  2 56.9994225  0 24
C02  36999293.022   192664961.788       -1202.109          32.000  
C03  36260095.059   188815812.709       -1236.320          30.000  
C06  36249801.684   188762301.617       -1559.991          22.000  
C08  36061937.040   187783862.090        -973.355          26.000  
C09  36522107.071   190180203.401       -1106.750          30.000  
C13  35763279.597   186228841.005        -618.208          27.000  
C16  36241698.894   188719990.633       -1471.216          30.000  
C27  25005994.710   130212807.2991      -4390.178          22.000  
C29  23926237.011   124590074.8431       -101.182          12.000  
C30  22573950.879   117548485.018       -2893.803          29.000  
C32  23623502.390   123013791.837       -2160.910          28.000  
C37  24106433.863   125528358.698         861.998          26.000  
E12                                                                                                                                  21663588.210    85012572.988       -1122.324          29.000  
E33                                                                                                                                  25576103.132   100366143.764       -2821.390          26.000  
G02  23754622.617   124831398.7861      -4360.127          22.000  
G13  22227822.798   116807957.913       -4085.707          33.000  
G15  20460385.870   107520212.698       -2390.603          26.000  
G18  21624996.826   113640249.5731       1367.874          24.000  
G20  23487294.684   123426736.2201        993.533          15.000  
G23  23690236.491   124493082.2191        680.190          27.000  
G24  21173234.175   111266024.389        1299.319          36.000    21173229.978    83088317.911         970.573          25.000  
J01                                                                  40025956.307   157070450.009        -860.533          27.000  
J03  36097236.103   189692157.958       -1516.995          28.000    36097245.697   141653345.379       -1133.536          26.000  
R09  22844580.126   121988782.603        -991.816          30.000  
> 2020 11 13  3  2 57.9994217  0 25
C02  36999284.328   192664915.056       -1202.255          32.000  
C03  36260092.360   188815800.176       -1236.792          31.000  
C06  36249861.043   188762613.038       -1560.982          20.000  
C08  36061883.078   187783586.880        -973.676          25.000  
C09  36522081.889   190180061.216       -1107.675          31.000  
C13  35763159.080   186228210.101        -618.125          28.000  
C16  36241740.865   188720212.748       -1470.725          30.000  
C23  24891402.641   129616012.2721      -1229.411          25.000  
C27  25006598.192   130215948.001       -4390.026          22.000  
C30  22574265.361   117550130.257       -2894.462          29.000  
C32  23623675.370   123014703.743       -2160.595          27.000  
C37  24106029.443   125526248.161         860.550          26.000  
E12                                                                                                                                  21663634.978    85012754.943       -1123.921          29.000  
E33                                                                                                                                  25576583.700   100368025.004       -2822.437          26.000  
G02  23755223.401   124834498.893       -4360.220          22.000  
G05  23234730.331   122099529.5751      -2698.648          23.000  
G13  22228363.624   116810784.159       -4087.096          33.000  
G15  20460603.519   107521342.698       -2391.604          25.000  
G18  21624493.475   113637622.161        1366.910          23.000  
G20  23486870.178   123424479.398         996.614          15.000  
G23  23689868.046   124491141.199         681.296          29.000  
G24  21172743.415   111263465.572        1298.983          36.000    21172741.916    83086406.417         970.393          25.000  
J01  40025984.488   210337938.2581      -1147.136          19.000    40025935.022   157070368.157        -859.582          28.000  
J03  36097284.970   189692415.598       -1518.774          28.000    36097294.563   141653538.227       -1133.578          26.000  
R08  20980176.226   112347890.7501      -1807.770          31.000  
> 2020 11 13  3  2 58.9994209  0 23
C02  36999276.534   192664868.394       -1202.423          32.000  
C03  36260090.262   188815787.990       -1236.951          30.000  
C06  36249922.801   188762925.564       -1561.749          21.000  
C08  36061829.415   187783311.704        -973.049          26.000  
C09  36522057.606   190179919.135       -1108.262          31.000  
C13  35763038.264   186227578.394        -617.901          27.000  
C16  36241783.136   188720434.978       -1471.491          30.000  
C23  24891397.544   129615992.372       -1230.923          25.000  
C30  22574580.743   117551775.501       -2894.408          30.000  
C37  24105624.124   125524137.893         861.500          26.000  
E12                                                                                                                                  21663680.846    85012937.152       -1123.746          29.000  
E33                                                                                                                                  25577061.569   100369906.685       -2823.099          26.000  
G02  23755814.892   124837598.601       -4360.226          21.000  
G05  23235005.840   122100967.436       -2698.177          25.000  
G13  22228906.848   116813610.612       -4085.675          32.000  
G15  20460821.168   107522474.206       -2392.357          25.000  
G18  21623989.224   113634995.065        1366.139          24.000  
G20  23486439.077   123422224.421         993.632          15.000  
G24  21172256.552   111260907.271        1298.684          36.000    21172255.053    83084496.130         969.054          25.000  
J01  40025964.701   210337824.633       -1146.519          20.000    40025913.737   157070286.330        -860.444          28.000  
J03  36097333.536   189692674.191       -1518.551          29.000    36097343.729   141653731.452       -1135.496          26.000  
R08  20980276.057   112348424.687       -1808.364          31.000  
R09  22844474.000   121988215.7741       -993.229          32.000  
> 2020 11 13  3  2 59.9994202  0 22
C02  36999298.119   192664978.004       -1202.381          32.000  
C03  36260118.143   188815932.295       -1237.450          30.000  
C06  36250015.437   188763393.314       -1559.987          22.000  
C08  36061805.132   187783192.001        -973.322          26.000  
C09  36522056.406   190179933.267       -1106.923          31.000  
C13  35762947.127   186227103.837        -618.159          28.000  
C16  36241856.285   188720813.479       -1471.271          30.000  
C23  24891423.326   129616130.650       -1230.932          26.000  
C27  25007836.335   130222384.6081      -4391.000          20.000  
C30  22574926.404   117553577.597       -2895.164          29.000  
C32  23624056.106   123016681.9701      -2159.737          24.000  
C37  24105249.383   125522183.275         862.297          26.000  
E12                                                                                                                                  21663757.293    85013237.532       -1124.104          28.000  
E33                                                                                                                                  25577572.115   100371907.536       -2825.168          25.000  
G05  23235311.329   122102563.330       -2699.044          25.000  
G13  22229474.055   116816594.701       -4086.033          31.000  
G23  23689166.831   124487413.4071        682.321          29.000  
G24  21171796.670   111258506.934        1297.396          36.000    21171797.869    83082705.090         966.755          25.000  
J01  40025976.693   210337868.760       -1147.564          19.000    40025923.330   157070323.498        -860.944          27.000  
J03  36097412.681   189693089.705       -1518.152          29.000    36097423.474   141654043.453       -1136.589          27.000  
R08  20980406.767   112349125.031       -1807.035          32.000  
R09  22844450.616   121988091.580        -994.116          31.000  
> 2020 11 13  3  3  0.9994194  0 21
C02  36999289.125   192664931.563       -1202.582          33.000  
C03  36260115.744   188815921.173       -1237.943          30.000  
C06  36250076.894   188763703.894       -1559.644          23.000  
C08  36061749.970   187782916.709        -973.506          25.000  
C09  36522030.624   190179791.422       -1107.648          31.000  
C13  35762826.311   186226472.854        -617.646          28.000  
C16  36241898.556   188721035.606       -1471.275          30.000  
C23  24891417.330   129616113.931       -1232.547          25.000  
C27  25008440.417   130225527.090       -4391.733          19.000  
C30  22575242.385   117555223.648       -2895.202          30.000  
C32  23624229.386   123017591.857       -2157.507          25.000  
C37  24104844.363   125520071.291         862.554          27.000  
E12                                                                                                                                  21663803.761    85013420.235       -1124.322          28.000  
E33                                                                                                                                  25578051.483   100373789.474       -2822.391          26.000  
G05  23235585.039   122104001.713       -2698.244          24.000  
G13  22230015.780   116819421.390       -4090.070          30.000  
G23  23688799.885   124485471.150         680.911          30.000  
G24  21171311.306   111255949.466        1296.881          36.000    21171309.807    83080796.692         968.474          25.000  
J01  40025954.808   210337756.601       -1150.826          19.000    40025902.344   157070242.504        -860.118          27.000  
J03  36097463.946   189693347.331       -1518.339          30.000    36097473.239   141654237.293       -1134.806          27.000  
R08  20980510.195   112349678.901       -1806.503          30.000  
> 2020 11 13  3  3  1.9994186  0 21
C02  36999280.131   192664885.390       -1202.973          32.000  
C03  36260114.245   188815910.190       -1237.956          31.000  
C06  36250137.452   188764015.074       -1561.969          22.000  
C08  36061696.007   187782642.593        -975.183          24.000  
C09  36522003.343   190179649.135       -1106.046          32.000  
C16  36241941.126   188721257.747       -1471.069          29.000  
C23  24891412.833   129616097.885       -1233.127          26.000  
C30  22575556.867   117556870.276       -2894.841          29.000  
C37  24104438.145   125517959.769         862.680          25.000  
E12                                                                                                                                  21663850.528    85013602.784       -1123.623          27.000  
E33                                                                                                                                  25578529.353   100375670.538       -2822.772          25.000  
G05  23235859.349   122105439.874       -2700.090          29.000  
G13  22230554.208   116822247.563       -4083.303          32.000  
G15  20461499.898   107526028.7531      -2393.676          26.000  
G20  23485175.451   123415621.2781        992.669          15.000  
G23  23688430.241   124483530.168         680.280          30.000  
G24  21170825.343   111253392.179        1295.557          36.000    21170821.745    83078885.554         970.239          25.000  
J01                                                                  40025881.959   157070162.597        -861.466          26.000  
J03  36097512.512   189693605.525       -1518.315          30.000    36097521.506   141654429.941       -1133.428          27.000  
R08  20980606.428   112350194.065       -1807.946          31.000  
R09  22844349.586   121987551.3801       -995.432          31.000  
> 2020 11 13  3  3  2.9994179  0 20
C02  36999301.417   192664993.185       -1199.790          30.000  
C03  36260142.126   188816055.028       -1237.261          32.000  
C06  36250230.088   188764484.255       -1561.938          26.000  
C08  36061672.024   187782525.615        -975.877          27.000  
C09  36522005.142   190179661.936       -1104.521          31.000  
C13  35762622.751   186225369.1511       -619.998          28.000  
C16  36242013.076   188721636.731       -1472.028          28.000  
C23  24891438.616   129616238.895       -1234.373          25.000  
C30  22575903.127   117558671.970       -2894.072          27.000  
C32  23624600.230   123019566.6501      -2159.178          23.000  
E12                                                                                                                                  21663926.376    85013902.884       -1124.170          27.000  
E33                                                                                                                                  25579038.700   100377670.387       -2823.559          26.000  
G20  23484778.226   123413528.029         986.591          17.000  
G23  23688087.578   124481746.714         680.643          27.000  
G24  21170372.356   111250993.308        1296.197          33.000    21170365.461    83077093.104         968.589          26.000  
G29  22427027.392   117854824.2811      -3358.196          30.000  
J01                                                                  40025890.652   157070199.917        -861.372          26.000  
J03                                                                  36097599.152   141654739.880       -1133.542          29.000  
R08  20980729.343   112350852.861       -1809.155          29.000  
R09  22844323.204   121987411.383        -993.492          31.000  
> 2020 11 13  3  3  3.9994171  0 19
C06  36250293.644   188764796.899       -1561.056          28.000  
C08  36061620.160   187782253.145        -974.620          22.000  
C09  36521979.060   190179514.271       -1102.465          31.000  
C16  36242055.047   188721859.470       -1471.344          31.000  
C23  24891433.819   129616225.206       -1236.753          25.000  
C27  25010272.748   130235105.2901      -4386.545          24.000  
C30  22576218.509   117560315.617       -2890.843          31.000  
E12                                                                                                                                  21663972.544    85014085.315       -1123.200          28.000  
E33                                                                                                                                  25579519.567   100379551.218       -2820.344          29.000  
G05  23236439.448   122108478.7311      -2703.975          26.000  
G13  22231647.551   116828047.8801      -4077.669          31.000  
G15  20461972.671   107528454.9141      -2397.149          20.000  
G18  21621568.999   113622184.2841       1361.284          25.000  
G23  23687719.733   124479804.047         682.723          21.000  
G24  21169887.292   111248436.411        1297.157          30.000    21169880.996    83075183.505         968.665          22.000  
G29  22427429.114   117856919.245       -3352.610          29.000  
J01                                                                  40025870.267   157070122.800        -865.115          25.000  
J03  36097642.022   189694278.7691      -1515.035          28.000    36097645.020   141654930.721       -1130.688          27.000  
R08  20980822.579   112351351.341       -1810.132          27.000  
> 2020 11 13  3  3  4.9994163  0 19
C06  36250355.101   188765109.581       -1562.654          31.000  
C08  36061570.694   187781979.427        -976.600          21.000  
C09  36521946.982   190179364.191       -1098.061          33.000  
C16  36242097.018   188722081.382       -1470.333          29.000  
C23  24891429.622   129616212.418       -1238.821          25.000  
C27  25010872.933   130238240.517       -4381.620          23.000  
C30  22576533.591   117561954.825       -2886.801          30.000  
C32  23624953.385   123021377.8111      -2152.644          31.000  
E12                                                                                                                                  21664020.211    85014268.100       -1123.235          25.000  
E33                                                                                                                                  25579999.235   100381429.705       -2819.183          31.000  
G05  23236713.458   122109924.535       -2710.323          28.000  
G13  22232181.181   116830864.089       -4075.637          30.000  
G18  21621074.342   113619562.513        1362.262          22.000  
G23  23687347.690   124477860.258         683.854          23.000  
G24  21169401.628   111245878.184        1297.766          30.000    21169394.733    83073273.741         969.674          22.000  
G29  22427825.440   117859007.493       -3346.480          26.000  
J01                                                                  40025851.080   157070046.898        -865.599          24.000  
J03  36097688.790   189694532.156       -1511.629          30.000    36097691.788   141655119.325       -1129.474          27.000  
R08  20980917.613   112351861.105       -1812.195          32.000  
> 2020 11 13  3  3  5.9994153  0 22
C06  36250357.200   188765110.995       -1562.382          30.000  
C08  36061459.171   187781396.020        -977.395          26.000  
C09  36521857.644   190178901.734       -1098.768          32.000  
C13  35762213.535   186223158.9131       -611.861          21.000  
C16  36242079.331   188721990.662       -1470.869          30.000  
C23  24891364.867   129615892.373       -1243.213          28.000  
C27  25011413.459   130241059.840       -4379.765          22.000  
C30  22576786.016   117563278.904       -2885.012          29.000  
C32  23625067.306   123021966.451       -2148.252          26.000  
C37  24102773.097   125509358.4861        860.096          30.000  
E12                                                                                                                                  21664005.821    85014215.491       -1123.983          24.000  
E33                                                                                                                                  25580418.645   100383071.958       -2818.989          31.000  
G05  23236929.608   122111061.143       -2713.061          31.000  
G13  22232656.652   116833363.785       -4074.467          31.000  
G15  20462357.904   107530408.3761      -2383.904          26.000  
G18  21620515.229   113616623.609        1363.146          20.000  
G23  23686920.486   124475599.920         683.693          23.000  
G24  21168854.507   111243004.161        1299.416          29.000    21168848.811    83071127.772         970.262          22.000  
G29  22428158.209   117860776.656       -3344.535          29.000  
J01  40025803.713   210337065.2481      -1156.973          23.000    40025772.834   157069737.407        -867.517          26.000  
J03  36097676.798   189694467.733       -1510.215          30.000    36097679.796   141655073.153       -1130.151          24.000  
R08  20980956.886   112352070.930       -1812.913          28.000  
> 2020 11 13  3  3  6.9994148  0 19
C06  36250507.996   188765892.124       -1561.901          27.000  
C08  36061496.945   187781592.991        -977.789          24.000  
C09  36521919.701   190179220.552       -1099.607          32.000  
C13  35762186.853   186222988.982        -609.225          21.000  
C16  36242210.640   188722680.500       -1469.805          30.000  
C23  24891451.507   129616357.100       -1247.268          30.000  
C27  25012100.883   130244657.928       -4378.933          24.000  
C30  22577189.837   117565383.810       -2884.984          28.000  
C32  23625332.623   123023333.769       -2148.767          31.000  
C37  24102452.619   125507717.439         861.052          32.000  
E12                                                                                                                                  21664141.627    85014750.535       -1121.957          28.000  
E33                                                                                                                                  25580989.450   100385303.916       -2820.431          27.000  
G02  23760585.189   124862890.6171      -4360.467          37.000  
G13  22233282.019   116836651.012       -4075.368          29.000  
G18  21620108.710   113614471.548        1365.357          21.000  
G20  23483070.309   123404366.7361        989.439          21.000  
G24  21168454.884   111240916.791        1299.339          31.000  
J01                                                                  40025844.784   157070018.502        -870.159          27.000  
J03  36097815.902   189695189.920       -1510.178          31.000    36097818.001   141655613.179       -1127.832          25.000  
> 2020 11 13  3  3  7.9994140  0 22
C06  36250567.654   188766204.183       -1560.677          27.000  
C08  36061447.180   187781322.868        -980.688          27.000  
C09  36521892.120   190179071.242       -1095.990          32.000  
C13  35762069.335   186222348.416        -607.114          24.000  
C16  36242252.311   188722901.548       -1470.207          36.000  
C23  24891450.607   129616352.285       -1240.375          28.000  
C27  25012701.367   130247789.281       -4379.941          23.000  
C30  22577503.420   117567020.520       -2886.150          29.000  
C32  23625505.303   123024233.964       -2150.816          30.000  
C37  24102043.103   125505607.295         861.351          27.000  
E12                                                                                                                                  21664188.095    85014933.251       -1124.105          26.000  
E33                                                                                                                                  25581468.218   100387182.834       -2819.045          27.000  
G02  23761173.982   124865990.095       -4359.369          29.000  
G13  22233816.849   116839466.554       -4077.640          28.000  
G15  20462884.940   107533122.6601      -2379.932          27.000  
G20  23482630.213   123402117.034         990.229          19.000  
G23  23686274.134   124472187.3401        682.547          24.000  
G24  21167970.419   111238360.838        1292.496          30.000  
G29  22429042.597   117865421.5901      -3347.286          24.000  
J01  40025847.482   210337332.0671      -1157.935          24.000    40025826.497   157069946.671        -868.470          28.000  
J03  36097862.370   189695439.336       -1509.169          34.000    36097865.368   141655800.235       -1127.422          29.000  
R08  20981249.783   112353639.5411      -1813.165          20.000  
> 2020 11 13  3  3  8.9994132  0 20
C06  36250632.709   188766516.425       -1560.620          30.000  
C08  36061395.915   187781055.736        -981.932          24.000  
C09  36521863.040   190178923.968       -1100.071          30.000  
C13  35761950.617   186221706.563        -607.683          25.000  
C16  36242294.282   188723123.468       -1471.260          32.000  
C23  24891449.408   129616339.370       -1236.147          27.000  
C27  25013301.552   130250918.838       -4375.736          24.000  
C32  23625679.482   123025136.212       -2151.816          27.000  
C37  24101634.186   125503494.675         864.998          32.000  
E12                                                                                                                                  21664233.963    85015116.846       -1123.250          23.000  
E33                                                                                                                                  25581945.488   100389058.826       -2815.719          33.000  
G02  23761762.774   124869087.998       -4356.760          34.000  
G13  22234352.578   116842283.963       -4077.990          30.000  
G15  20463101.090   107534243.882       -2383.768          28.000  
G20  23482184.422   123399867.621         987.084          27.000  
G23  23685877.508   124470246.675         675.339          30.000  
G24  21167483.556   111235808.086        1294.980          25.000  
G29  22429440.122   117867510.953       -3356.255          27.000  
J01  40025822.000   210337226.880       -1149.425          23.000    40025809.109   157069874.267        -870.068          22.000  
J03  36097908.238   189695685.848       -1505.565          38.000    36097912.135   141655983.866       -1124.018          33.000  
> 2020 11 13  3  3  9.9994125  0 15
C06  36250725.645   188766982.985       -1557.956          21.000  
C08  36061373.431   187780941.975        -976.967          31.000  
C13  35761862.478   186221221.682        -607.844          20.000  
C16  36242365.932   188723503.131       -1472.552          21.000  
C23  24891476.389   129616484.918       -1238.144          30.000  
C32  23625885.440   123026193.142       -2148.361          28.000  
C37  24101251.651   125501530.048         876.953          32.000  
E33                                                                                                                                  25582450.638   100391048.039       -2812.309          31.000  
G02  23762377.648   124872337.099       -4344.613          34.000  
G05  23238160.256   122117467.8111      -2698.108          30.000  
G13  22234920.385   116845259.200       -4077.786          24.000  
G29  22429867.926   117869768.916       -3360.550          25.000  
J01  40025828.895   210337271.208       -1145.411          20.000    40025820.801   157069916.421        -861.706          17.000  
J03  36097980.788   189696084.509       -1501.214          35.000    36097987.683   141656281.637       -1119.714          33.000  
R09  22843989.535   121985628.8421      -1001.137          30.000  
> 2020 11 13  3  3 10.9994115  0 16
C03  36260121.740   188815971.7131      -1237.321          32.000  
C06  36250724.745   188766982.226       -1564.715          27.000  
C08  36061259.809   187780355.234        -972.809          31.000  
C09  36521780.897   190178474.0491      -1106.051          29.000  
C13  35761681.103   186220273.050        -618.669          26.000  
C16  36242348.844   188723415.169       -1474.454          25.000  
C23  24891411.934   129616158.516       -1232.896          32.000  
C30  22578427.080   117571791.9381      -2897.546          31.000  
C37  24100780.077                         880.645          36.000  
E33                                                                                                                                  25582866.750   100392683.211       -2810.861          34.000  
G02  23762901.685   124875104.435       -4341.223          35.000  
G05  23238372.509   122118588.913       -2695.016          32.000  
G13  22235393.757   116847763.162       -4082.896          28.000  
J01                                                                  40025738.658   157069601.003        -860.322          25.000  
J03  36097965.199   189696013.031       -1502.755          33.000    36097972.694   141656225.278       -1121.111          29.000  
R09  22843875.614   121985020.955        -997.081          30.000  
> 2020 11 13  3  3 11.9994109  0 16
C01  37489713.911                       -1191.284          33.000  
C03  36260176.003   188816270.871       -1234.006          36.000  
C06  36250845.262   188767611.954       -1568.518          35.000  
C08  36061264.306   187780389.677        -970.025          37.000  
C09  36521815.074   190178646.241       -1110.481          35.000  
C16  36242451.973   188723954.179       -1476.920          30.000  
C23  24891467.396   129616454.783       -1233.821          30.000  
C37  24100429.320   125497266.9931        885.699          39.000  
E33                                                                                                                                  25583404.278   100394789.735       -2809.723          27.000  
G02  23763545.939                       -4338.115          39.000  
G05  23238705.879   122120338.312       -2694.465          30.000  
G24  21166039.756   111228279.4571       1305.037          32.000  
J01  40025774.633   210337049.3171      -1152.044          39.000    40025776.731   157069755.241        -859.729          33.000  
J03  36098068.627   189696570.250       -1501.649          31.000    36098078.520   141656640.847       -1121.736          27.000  
R08  20981643.710   112355748.7661      -1797.572          25.000  
R09  22843878.612   121985036.686        -997.982          31.000  
> 2020 11 13  3  3 12.9994102  0 14
C03  36260199.087   188816410.656       -1230.647          37.000  
C06  36250935.799   188768088.735       -1570.933          36.000  
C08  36061237.625   187780267.323        -971.173          36.000  
C16  36242525.722   188724339.786       -1479.329          31.000  
C32  23626427.165   123029087.0111      -2166.857          37.000  
C37  24100050.083   125495289.082         886.102          34.000  
E33                                                                                                                                  25583909.728   100396774.852       -2807.615          23.000  
G02  23764163.512   124881509.7461      -4335.287          44.000  
G20  23480484.299   123390777.6811        968.864          25.000  
G29  22431085.383   117876228.0461      -3348.201          21.000  
J01  40025782.128   210337098.614       -1152.655          39.000    40025784.226   157069791.148        -859.231          31.000  
J03                                                                  36098153.169   141656935.931       -1121.542          17.000  
R08  20981763.328   112356389.415       -1792.700          26.000  
R09  22843847.134   121984868.844        -995.082          34.000  
> 2020 11 13  3  3 13.9994094  0 16
C03  36260192.791   188816391.330       -1228.142          37.000  
C06  36250992.760   188768408.880       -1568.355          37.000  
C08  36061180.364                        -971.273          37.000  
C13  35761392.103   186218877.6081       -629.568          34.000  
C16  36242570.391   188724570.951       -1480.004          32.000  
C32  23626602.244   123030003.404       -2164.393          32.000  
C37  24099641.166   125493154.410         885.120          36.000  
G02  23764749.306                       -4336.086          42.000  
G13  22237089.983   116856735.6911      -4093.927          31.000  
G15  20464225.012                       -2410.996          38.000  
G20  23480059.193   123388547.998         968.258          22.000  
G24  21165081.619                        1309.987          33.000  
G29  22431504.792   117878309.749       -3338.703          23.000  
J01                                                                  40025762.941   157069709.505        -860.933          30.000  
J02  37210978.276   195545009.8291      -1034.364          38.000  
R08  20981858.062   112356897.194       -1797.670          25.000  
> 2020 11 13  3  3 14.9994084  0 15
C01  37489651.254   195218446.3861      -1190.431          35.000  
C03  36260124.738   188816056.034       -1224.890          37.000  
C06  36250993.959                       -1567.669          36.000  
C08  36061068.242                        -970.698          36.000  
C13  35761206.832                        -628.640          35.000  
C16  36242558.699   188724488.466       -1477.815          32.000  
C32  23626705.072   123030609.200       -2168.760          34.000  
C37  24099171.091                         880.415          37.000  
G02  23765273.943   124887347.0121      -4338.185          41.000  
G20  23479575.928   123386007.286         963.122          31.000  
G23  23683613.476   124458227.8761        651.000          25.000  
G24  21164528.502   111220369.5141       1306.164          40.000  
J01  40025680.498   210336568.0531      -1151.615          36.000    40025682.297   157069393.887        -860.551          31.000  
J02  37210878.145   195544469.684       -1036.658          36.000  
R08  20981894.037   112357089.602       -1800.035          26.000  
> 2020 11 13  3  3 15.9994079  0 19
C01  37489729.500   195218856.077       -1190.441          35.000  
C03  36260210.179   188816501.578       -1228.316          32.000  
C06  36251145.354   188769225.2711      -1568.141          36.000  
C08  36061105.416   187779629.0431       -972.601          36.000  
C13  35761181.349   186217834.5051       -628.222          34.000  
C16  36242692.106   188725185.845       -1477.895          30.000  
C27  25017587.684   130273242.0441      -4368.312          30.000  
C32  23626963.793                       -2167.909          37.000  
C37  24098854.510   125489048.0541        879.657          36.000  
G02  23765950.875   124890900.914       -4344.933          35.000  
G13  22238192.919   116862563.5741      -4096.346          36.000  
G15  20464697.485   107542683.4061      -2410.263          39.000  
G18  21615666.985   113591095.8711       1336.564          30.000  
G20  23479241.959   123384255.022         967.118          34.000  
G23  23683334.968   124456787.646         654.643          27.000  
G24  21164131.577   111218275.282        1304.474          37.000  
J01  40025748.551   210336931.854       -1151.207          38.000    40025750.949   157069665.209        -859.409          29.000  
J02  37210927.011   195544721.045       -1041.183          36.000  
R09  22843723.319   121984207.3031      -1013.415          20.000  
> 2020 11 13  3  3 16.9994071  0 21
C01  37489718.708   195218797.655       -1190.748          36.000  
C03  36260208.080   188816481.957       -1230.876          34.000  
C06  36251207.711   188769543.355       -1566.685          35.000  
C08  36061052.353   187779352.959        -973.448          35.000  
C09  36521762.010   190178243.4061      -1097.984          22.000  
C13  35761065.629   186217211.408        -624.891          34.000  
C16  36242734.677   188725414.992       -1477.501          29.000  
C30  22580486.355   117582259.0931      -2889.113          25.000  
C32  23627142.170   123032717.3161      -2165.127          36.000  
C37  24098444.994   125486923.596         873.742          35.000  
G02  23766537.269   124893987.769       -4347.946          42.000  
G13  22238722.653                       -4093.505          36.000  
G15  20464917.233   107543829.814       -2406.470          38.000  
G20  23478818.652   123382024.406         973.683          30.000  
G23  23682967.423   124454868.752         661.351          29.000  
G24  21163644.714                        1305.700          38.000  
G29  22432771.116   117885007.4931      -3351.232          28.000  
J01  40025723.668                       -1147.995          37.000    40025729.964   157069583.616        -859.728          30.000  
J02  37210885.640   195544504.723       -1045.749          37.000  
R08  20982184.836   112358646.8371      -1804.430          29.000  
R09  22843685.845   121984007.078       -1002.149          24.000  
> 2020 11 13  3  3 17.9994063  0 20
C01  37489707.615   195218740.676       -1193.129          36.000  
C03  36260206.282   188816464.610       -1232.641          34.000  
C06  36251269.468   188769860.937       -1566.417          36.000  
C08  36061001.088   187779077.420        -973.104          35.000  
C09  36521736.828   190178092.175       -1098.247          23.000  
C13  35760943.014   186216587.627        -625.761          36.000  
C16  36242777.847   188725642.934       -1476.961          30.000  
C32  23627310.653                       -2165.906          36.000  
C37  24098033.379   125484801.897         872.346          34.000  
G02  23767123.663   124897077.619       -4352.529          41.000  
G13  22239262.279                       -4095.067          37.000  
G15  20465135.781   107544975.152       -2405.556          39.000  
G18  21614664.179   113585893.5791       1345.819          35.000  
G20  23478392.347   123379788.571         978.394          35.000  
G23  23682596.280   124452942.761         667.250          28.000  
G24  21163165.046   111213143.8191       1298.029          34.000  
G29  22433172.538   117887101.438       -3357.711          30.000  
J01  40025707.779   210336487.5831      -1149.986          38.000    40025709.278   157069502.045        -858.721          29.000  
J02  37210846.067   195544290.894       -1046.271          37.000  
R09  22843660.963   121983874.663        -996.999          32.000  
> 2020 11 13  3  3 18.9994053  0 21
C01  37489639.263   195218373.100       -1193.080          36.000  
C03  36260144.225   188816136.783       -1234.099          40.000  
C06  36251270.368   188769866.247       -1566.412          37.000  
C08  36060887.467   187778489.912        -973.651          36.000  
C09  36521650.787   190177631.818       -1102.070          27.000  
C13  35760762.839   186215651.305        -624.303          36.000  
C16  36242761.358   188725558.356       -1476.542          28.000  
C32  23627426.973   123034208.5321      -2161.737          35.000  
C37  24097569.000   125482368.816         875.142          36.000  
G02  23767653.096   124899853.921       -4350.165          37.000  
G05  23240677.014   122130470.8751      -2695.723          27.000  
G13  22239741.048   116870628.9491      -4092.309          36.000  
G15  20465295.571   107545805.359       -2406.398          41.000  
G18  21614108.064                        1343.932          35.000  
G20  23477906.683   123377234.596         975.905          34.000  
G23  23682165.778   124450698.258         669.469          28.000  
G24  21162619.723   111210270.261        1298.188          33.000    21162619.124    83046662.0251        971.032          30.000  
J01  40025627.735   210336062.250       -1150.451          38.000    40025629.533   157069183.277        -855.851          30.000  
J02  37210746.836   195543763.083       -1046.085          39.000    37210755.230   146022995.7511       -780.503          35.000  
J03  36098410.091   189698257.3241      -1507.577          31.000  
R08  20982318.243   112359361.1971      -1821.337          34.000  
> 2020 11 13  3  3 19.9994045  0 19
C01  37489630.869   195218317.430       -1193.153          35.000  
C03  36260141.526   188816122.416       -1234.186          39.000  
C06  36251332.425   188770184.814       -1567.615          36.000  
C08  36060830.207   187778213.334        -972.716          35.000  
C09  36521622.907   190177487.954       -1108.454          34.000  
C13  35760643.522   186215028.595        -627.150          36.000  
C16  36242804.529   188725786.213       -1477.449          31.000  
C27  25019943.753   130285441.6781      -4380.371          24.000  
C32  23627610.745   123035123.752       -2161.734          36.000  
C37  24097159.484   125480243.009         881.051          37.000  
G13  22240280.374   116873464.755       -4098.275          36.000  
G15  20465514.719   107546953.021       -2408.898          41.000  
G18  21613611.608                        1336.807          36.000  
G20  23477478.280   123374996.423         980.517          33.000  
G23  23681797.633   124448769.302         667.184          29.000  
G24  21162131.661   111207710.019        1300.559          34.000    21162131.361    83044749.506         974.341          31.000  
J01  40025611.846   210335953.224       -1152.249          30.000    40025607.648   157069097.659        -855.747          29.000  
J02  37210704.265   195543544.606       -1038.367          40.000    37210714.159   146022832.622        -775.529          36.000  
R08  20982414.777   112359877.852       -1828.147          36.000  
