     3.03           OBSERVATION DATA    M: Mixed            RINEX VERSION / TYPE
Geo++ RINEX Logger  Geo++               20210930 115942 UTC PGM / RUN BY / DATE
************************************************************COMMENT
This file was generated by the Geo++ RINEX Logger App       COMMENT
for Android devices (Version 2.1.6). If you encounter       COMMENT
any issues, please send an email to android@geopp.de        COMMENT
Filtering Mode: MORE                                        COMMENT
************************************************************COMMENT
Geo++                                                       MARKER NAME
GEODETIC                                                    MARKER TYPE
Geo++               Geo++                                   OBSERVER / AGENCY
unknown             HUAWEI              ELS-AN00            REC # / TYPE / VERS
unknown             ELS-AN00                                ANT # / TYPE
 -2411094.0301  5386035.1321  2412211.6579                  APPROX POSITION XYZ
        0.0000        0.0000        0.0000                  ANTENNA: DELTA H/E/N
G    8 C1C L1C D1C S1C C5Q L5Q D5Q S5Q                      SYS / # / OBS TYPES
R    4 C1C L1C D1C S1C                                      SYS / # / OBS TYPES
E   12 C1B L1B D1B S1B C1C L1C D1C S1C C5Q L5Q D5Q S5Q      SYS / # / OBS TYPES
C    4 C2I L2I D2I S2I                                      SYS / # / OBS TYPES
J    8 C1C L1C D1C S1C C5Q L5Q D5Q S5Q                      SYS / # / OBS TYPES
  2021     9    30    12     0    0.9977948     GPS         TIME OF FIRST OBS
 24 R01  1 R02 -4 R03  5 R04  6 R05  1 R06 -4 R07  5 R08  6 GLONASS SLOT / FRQ #
    R09 -2 R10 -5 R11  0 R12 -1 R13 -2 R14 -7 R15  0 R16 -1 GLONASS SLOT / FRQ #
    R17  4 R18 -3 R19  3 R20  2 R21  4 R22 -3 R23  3 R24  2 GLONASS SLOT / FRQ #
G L1C                                                       SYS / PHASE SHIFT
G L5Q -0.25000                                              SYS / PHASE SHIFT
R L1C                                                       SYS / PHASE SHIFT
E L1B                                                       SYS / PHASE SHIFT
E L1C +0.50000                                              SYS / PHASE SHIFT
E L5Q -0.25000                                              SYS / PHASE SHIFT
C L2I                                                       SYS / PHASE SHIFT
J L1C                                                       SYS / PHASE SHIFT
J L5Q -0.25000                                              SYS / PHASE SHIFT
 C1C    0.000 C1P    0.000 C2C    0.000 C2P    0.000        GLONASS COD/PHS/BIS
                                                            END OF HEADER
> 2021  9 30 12  0  0.9977948  0  5
C06  36319059.139   189122883.446        -768.990          23.000  
E30  22865665.729   120159864.454       -2516.056          30.000  
G32  21111143.859   110939728.536       -2668.034          21.000  
J01  36252059.122   190505797.036        -783.746          25.000  
J02  39266801.459   206348422.835       -2104.808          28.000    39266807.155   154091352.6361      -1570.260          27.000  
> 2021  9 30 12  0  1.9977940  0  5
C06  36318965.903   189122403.188        -768.569          21.000  
E30  22865903.464   120161114.143       -2511.304          28.000  
G32  21111409.475   110941136.044       -2667.045          23.000  
J01  36251966.186   190505321.185        -784.451          26.000  
J02  39266961.548   206349267.479       -2104.649          28.000    39266966.645   154091981.870       -1570.591          29.000  
> 2021  9 30 12  0  2.9977933  0  5
C06  36318902.047   189122078.982        -768.931          25.000  
C16  36681501.625   191010159.6341       -734.364          28.000  
G32  21111705.071   110942700.458       -2666.983          28.000  
J01  36251901.431   190505003.174        -784.189          19.000  
J02  39267151.617   206350269.332       -2105.134          31.000    39267156.413   154092730.390       -1572.737          25.000  
> 2021  9 30 12  0  3.9977923  0  4
C06  36318749.153   189121285.600        -767.040          25.000  
C16  36681343.934   191009333.041        -734.635          29.000  
J01  36251747.637   190504211.964        -783.738          25.000  
J02  39267251.148   206350798.636       -2104.173          32.000    39267256.844   154093126.581       -1575.164          25.000  
> 2021  9 30 12  0  4.9977915  0  5
C06  36318655.918   189120803.178        -767.120          23.000  
C16  36681245.902   191008819.082        -735.000          29.000  
G32  21112171.848   110945199.1121      -2667.673          30.000  
J01  36251653.802   190503735.270        -783.912          24.000  
J02  39267413.036   206351643.131       -2104.034          32.000    39267417.533   154093759.471       -1571.962          26.000  
> 2021  9 30 12  0  5.9977905  0  4
C16  36681087.611   191007992.845        -734.498          22.000  
G32  21112380.203   110946292.369       -2670.650          29.000  
J01  36251503.606   190502944.222        -784.146          29.000  
J02  39267510.768   206352172.525       -2105.064          29.000    39267518.263   154094154.195       -1571.253          22.000  
> 2021  9 30 12  0  6.9977897  0  4
C16  36680989.879   191007478.296        -733.690          22.000  
G32  21112646.119   110947703.262       -2671.960          23.000  
J01  36251410.970   190502468.657        -784.967          25.000  
J02  39267670.258   206353017.571       -2105.833          25.000  
> 2021  9 30 12  0  7.9977889  0  3
G29  23725274.734   124677160.1851      -1889.128          25.000  
J01  36251319.234   190501994.118        -786.269          22.000  
J02  39267830.347   206353862.130       -2104.750          26.000  
> 2021  9 30 12  0  8.9977879  0  3
C06  36318168.755   189118248.5711       -765.562          18.000  
G32  21113120.091   110950209.1771      -2670.981          26.000  
J02  39267928.679   206354390.650       -2104.689          30.000  
> 2021  9 30 12  0  9.9977869  0  4
C06  36318016.460   189117454.438        -768.791          17.000  
G32  21113326.049   110951304.247       -2670.608          27.000  
J01  36251022.140   190500413.0021       -784.929          20.000  
J02  39268030.308   206354919.413       -2103.827          28.000  
> 2021  9 30 12  0 10.9977864  0  3
G29  23725593.713   124678882.8911      -1886.710          18.000  
G32  21113683.701   110953187.303       -2671.300          29.000  
J01  36251023.639   190500410.193        -784.553          24.000  
> 2021  9 30 12  0 11.9977853  0  4
C16  36680377.403   191004252.8831       -731.238          19.000  
G32  21113862.977   110954125.493       -2671.412          29.000  
J01  36250843.163   190499461.113        -783.564          23.000  
J02  39268352.885   206356606.7671      -2102.022          23.000  
> 2021  9 30 12  0 12.9977846  0  3
C16  36680309.050   191003891.756        -731.894          24.000  
G32  21114163.369   110955694.519       -2672.603          30.000  
J02  39268543.553   206357606.020       -2101.976          20.000  
> 2021  9 30 12  0 13.9977836  0  6
C06  36317624.032   189115384.0571       -771.460          14.000  
C16  36680151.360   191003063.521        -734.590          23.000  
E07  24064018.027   126457286.9971         76.286          31.000  
G32  21114375.322   110956792.363       -2674.469          28.000  
J01  36250634.508   190498351.2671       -786.974          23.000  
J02  39268645.482   206358133.926       -2104.179          20.000  
> 2021  9 30 12  0 14.9977828  0  4
C16  36680055.126   191002551.536        -738.260          21.000  
E07  24063764.103   126455950.407          76.656          30.000  
G32  21114645.135   110958206.686       -2674.801          30.000  
J02  39268806.771   206358976.428       -2102.016          17.000  
> 2021  9 30 12  0 15.9977820  0  2
C16  36679958.593   191002040.875        -738.142          22.000  
G32  21114914.649   110959620.598       -2674.215          28.000  
> 2021  9 30 12  0 16.9977810  0  3
E07  24063196.596   126452962.4791         76.823          32.000  
G32  21115123.604   110960719.781       -2675.423          29.000  
J02  39269068.789   206360343.2131      -2104.295          26.000  
> 2021  9 30 12  0 17.9977800  0  2
C16  36679642.012   191000395.0601       -737.252          20.000  
E07  24062881.514   126451309.350          76.604          25.000  
> 2021  9 30 12  0 18.9977795  0  2
C06  36317132.672   189112820.0551       -770.127          17.000  
G32  21115694.709   110963707.8281      -2676.022          25.000  
> 2021  9 30 12  0 19.9977784  0  2
C16  36679442.950   190999368.7391       -737.018          18.000  
J02  39269501.690   206362569.0171      -2109.381          19.000  
> 2021  9 30 12  0 20.9977774  0  2
G32  21116088.936   110965752.7431      -2677.093          28.000  
J02  39269601.820   206363101.397       -2106.389          20.000  
> 2021  9 30 12  0 21.9977766  0  2
G32  21116357.850   110967170.511       -2679.447          26.000  
J02  39269763.109   206363948.115       -2107.939          20.000  
> 2021  9 30 12  0 22.9977759  0  2
C16  36679115.577   190997685.0841       -737.699          15.000  
G32  21116657.642   110968747.329       -2679.883          26.000  
> 2021  9 30 12  0 23.9977748  0  1
J02  39270023.329   206365324.1191      -2103.247          20.000  
> 2021  9 30 12  0 24.9977741  0  3
C16  36678857.755   190996347.9081       -731.675          13.000  
G32  21117133.713   110971272.9411      -2681.269          24.000  
J02  39270213.097   206366323.901       -2103.998          20.000  
> 2021  9 30 12  0 25.9977731  0  2
C16  36678698.266   190995516.953        -728.314          13.000  
G32  21117342.668   110972377.490       -2680.126          26.000  
> 2021  9 30 12  0 26.9977725  0  2
C16  36678657.494   190995308.207        -728.818          13.000  
G32  21117673.339   110974112.619       -2681.217          23.000  
> 2021  9 30 12  0 27.9977715  0  1
G32  21117882.894   110975219.950       -2683.677          25.000  
> 2021  9 30 12  0 28.9977705  0  1
G32  21118092.749   110976327.520       -2682.912          27.000  
> 2021  9 30 12  0 29.9977697  0  2
C16  36678239.583   190993129.8421       -732.704          16.000  
G32  21118368.558   110977750.433       -2682.988          22.000  
> 2021  9 30 12  0 30.9977690  0  1
G32  21118669.549   110979331.694       -2683.943          24.000  
> 2021  9 30 12  0 31.9977679  0  2
G32  21118853.622   110980282.854       -2684.046          24.000  
J02  39271162.540   206371270.3341      -2105.830          17.000  
> 2021  9 30 12  0 32.9977672  0  2
G32  21119155.813   110981864.229       -2684.289          24.000  
J02  39271353.208   206372274.927       -2107.291          18.000  
> 2021  9 30 12  0 33.9977661  0  2
G32  21119339.286   110982816.314       -2685.207          25.000  
J02  39271428.156   206372649.117       -2106.631          18.000  
> 2021  9 30 12  0 34.9977654  0  2
G32  21119641.177   110984398.542       -2685.046          27.000  
J02  39271619.723   206373652.491       -2107.021          19.000  
> 2021  9 30 12  0 35.9977646  0  1
G32  21119913.988   110985823.648       -2685.026          28.000  
> 2021  9 30 12  0 36.9977636  0  2
G32  21120126.840   110986934.231       -2685.959          29.000  
J02  39271878.144   206375024.9241      -2102.123          19.000  
> 2021  9 30 12  0 37.9977626  0  3
C16  36677236.777   190987904.9731       -730.160          17.000  
G32  21120339.393   110988045.329       -2687.000          27.000  
J02  39271978.275   206375550.003       -2099.123          19.000  
> 2021  9 30 12  0 38.9977620  0  2
C16  36677198.104   190987700.204        -733.682          18.000  
G32  21120670.064   110989787.516       -2686.705          26.000  
> 2021  9 30 12  0 39.9977610  0  2
G32  21120881.118   110990899.005       -2686.708          29.000  
J02  39272291.858   206377228.0141      -2099.287          18.000  
> 2021  9 30 12  0 40.9977603  0  2
G32  21121182.709   110992483.067       -2686.546          28.000  
J02  39272478.629   206378225.205       -2101.887          18.000  
> 2021  9 30 12  0 41.9977592  0  2
C16  36676783.791   190985534.1611       -736.982          19.000  
G32  21121365.883   110993437.222       -2687.922          25.000  
> 2021  9 30 12  0 42.9977585  0  1
G32  21121667.774   110995023.523       -2690.879          28.000  
> 2021  9 30 12  0 43.9977577  0  1
G32  21121939.086   110996452.504       -2688.521          26.000  
> 2021  9 30 12  0 44.9977567  0  1
G32  21122151.039   110997565.557       -2688.992          24.000  
> 2021  9 30 12  0 45.9977556  0  0
> 2021  9 30 12  0 46.9977551  0  1
G32  21122696.661   111000424.7561      -2690.071          23.000  
> 2021  9 30 12  0 47.9977541  0  1
G32  21122907.715   111001540.528       -2692.902          24.000  
> 2021  9 30 12  0 48.9977531  0  1
G32  21123120.868   111002658.948       -2693.881          25.000  
> 2021  9 30 12  0 49.9977523  0  1
G32  21123392.480   111004092.181       -2693.462          27.000  
> 2021  9 30 12  0 50.9977516  0  2
C16  36675785.782   190980297.3281       -733.836          18.000  
G32  21123696.469   111005682.313       -2693.161          27.000  
> 2021  9 30 12  0 51.9977505  0  1
G32  21123880.842   111006643.432       -2694.692          24.000  
> 2021  9 30 12  0 52.9977498  0  1
G32  21124182.733   111008234.490       -2694.575          24.000  
> 2021  9 30 12  0 53.9977487  0  1
G32  21124369.204   111009197.000       -2696.438          25.000  
> 2021  9 30 12  0 54.9977480  0  1
G32  21124671.994   111010790.170       -2695.665          24.000  
> 2021  9 30 12  0 55.9977472  0  1
G32  21124944.205   111012225.330       -2695.630          27.000  
> 2021  9 30 12  0 56.9977462  0  0
> 2021  9 30 12  0 57.9977454  0  1
G32  21125431.068   111014779.9171      -2694.884          22.000  
> 2021  9 30 12  0 58.9977446  0  1
G32  21125704.779   111016214.469       -2695.265          23.000  
> 2021  9 30 12  0 59.9977436  0  1
G32  21125918.831   111017334.495       -2696.221          21.000  
> 2021  9 30 12  1  0.9977428  0  1
G32  21126195.539   111018771.384       -2697.910          23.000  
> 2021  9 30 12  1  1.9977418  0  1
G32  21126410.490   111019893.819       -2698.937          28.000  
> 2021  9 30 12  1  2.9977411  0  1
G32  21126714.180   111021489.926       -2698.660          29.000  
> 2021  9 30 12  1  3.9977403  0  1
G32  21126991.188   111022928.843       -2700.333          26.000  
> 2021  9 30 12  1  4.9977393  0  1
G32  21127204.641   111024054.256       -2701.343          28.000  
> 2021  9 30 12  1  5.9977382  0  1
G32  21127389.313   111025022.437       -2701.288          26.000  
> 2021  9 30 12  1  6.9977377  0  0
> 2021  9 30 12  1  7.9977367  0  1
G32  21127966.713   111028059.2491      -2700.439          26.000  
> 2021  9 30 12  1  8.9977359  0  1
G32  21128241.023   111029499.390       -2701.559          27.000  
> 2021  9 30 12  1  9.9977349  0  1
G32  21128454.775   111030625.822       -2703.007          28.000  
> 2021  9 30 12  1 10.9977341  0  1
G32  21128730.584   111032067.696       -2702.690          28.000  
> 2021  9 30 12  1 11.9977334  0  1
G32  21129035.173   111033668.242       -2703.950          28.000  
> 2021  9 30 12  1 12.9977324  0  1
G32  21129248.925   111034796.407       -2702.128          26.000  
> 2021  9 30 12  1 13.9977313  0  1
G32  21129431.799   111035766.170       -2704.058          27.000  
> 2021  9 30 12  1 14.9977308  0  1
G32  21129794.548   111037683.382       -2705.421          30.000  
> 2021  9 30 12  1 15.9977298  0  1
G32  21130011.597   111038813.859       -2706.402          27.000  
> 2021  9 30 12  1 16.9977288  0  1
G32  21130227.448   111039946.226       -2706.745          27.000  
> 2021  9 30 12  1 17.9977280  0  1
G32  21130504.756   111041393.068       -2709.578          25.000  
> 2021  9 30 12  1 18.9977272  0  1
G32  21130782.064   111042842.079       -2709.546          26.000  
> 2021  9 30 12  1 19.9977262  0  1
G32  21130997.915   111043975.431       -2708.296          26.000  
> 2021  9 30 12  1 20.9977254  0  1
G32  21131273.124   111045423.287       -2707.693          29.000  
> 2021  9 30 12  1 21.9977244  0  1
G32  21131488.375   111046556.166       -2708.817          27.000  
> 2021  9 30 12  1 22.9977239  0  1
G32  21131855.021   111048477.376       -2708.896          29.000  
> 2021  9 30 12  1 23.9977229  0  1
G32  21132070.272   111049609.855       -2707.038          28.000  
> 2021  9 30 12  1 24.9977219  0  1
G32  21132286.123   111050742.702       -2708.727          27.000  
> 2021  9 30 12  1 25.9977211  0  1
G32  21132564.030   111052190.522       -2707.646          28.000  
> 2021  9 30 12  1 26.9977203  0  1
G32  21132839.240   111053638.537       -2708.379          22.000  
> 2021  9 30 12  1 27.9977193  0  1
G32  21133055.090   111054772.285       -2709.251          24.000  
> 2021  9 30 12  1 28.9977185  0  1
G32  21133330.300   111056220.771       -2707.945          23.000  
> 2021  9 30 12  1 29.9977175  0  1
G32  21133544.651   111057354.570       -2710.324          26.000  
> 2021  9 30 12  1 30.9977167  0  1
G32  21133819.561   111058806.167       -2713.013          27.000  
> 2021  9 30 12  1 31.9977160  0  1
G32  21134128.647   111060416.673       -2714.211          26.000  
> 2021  9 30 12  1 32.9977149  0  1
G32  21134313.319   111061397.842       -2713.238          26.000  
> 2021  9 30 12  1 33.9977142  0  1
G32  21134620.607   111063008.486       -2712.690          27.000  
> 2021  9 30 12  1 34.9977134  0  1
G32  21134896.715   111064461.398       -2714.075          28.000  
> 2021  9 30 12  1 35.9977124  0  1
G32  21135112.566   111065600.376       -2714.566          29.000  
> 2021  9 30 12  1 36.9977116  0  1
G32  21135389.574   111067054.306       -2714.293          29.000  
> 2021  9 30 12  1 37.9977106  0  1
G32  21135606.924   111068191.898       -2712.943          27.000  
> 2021  9 30 12  1 38.9977098  0  1
G32  21135882.733   111069645.250       -2714.188          29.000  
> 2021  9 30 12  1 39.9977091  0  1
G32  21136189.121   111071257.447       -2715.781          26.000  
> 2021  9 30 12  1 40.9977080  0  1
G32  21136377.390   111072241.728       -2718.239          28.000  
> 2021  9 30 12  1 41.9977070  0  1
G32  21136594.740   111073383.887       -2717.591          28.000  
> 2021  9 30 12  1 42.9977065  0  1
G32  21136960.487   111075313.785       -2718.293          27.000  
> 2021  9 30 12  1 43.9977055  0  1
G32  21137177.536   111076456.518       -2718.384          26.000  
> 2021  9 30 12  1 44.9977044  0  1
G32  21137367.905   111077443.407       -2720.552          24.000  
> 2021  9 30 12  1 45.9977037  0  1
G32  21137678.789   111079061.558       -2720.836          27.000  
> 2021  9 30 12  1 46.9977029  0  1
G32  21137958.196   111080522.815       -2722.228          31.000  
> 2021  9 30 12  1 47.9977019  0  1
G32  21138175.546   111081669.577       -2721.410          31.000  
> 2021  9 30 12  1 48.9977011  0  1
G32  21138452.254   111083129.650       -2717.525          30.000  
> 2021  9 30 12  1 49.9977001  0  0
> 2021  9 30 12  1 50.9976993  0  1
G32  21138946.012   111085728.3131      -2718.978          26.000  
> 2021  9 30 12  1 51.9976986  0  1
G32  21139252.400   111087345.956       -2721.596          24.000  
> 2021  9 30 12  1 52.9976975  0  0
> 2021  9 30 12  1 53.9976965  0  1
G32  21139658.319   111089482.0391      -2721.949          24.000  
> 2021  9 30 12  1 54.9976960  0  1
G32  21140025.565   111091417.159       -2723.368          28.000  
> 2021  9 30 12  1 55.9976950  0  1
G32  21140244.413   111092566.233       -2725.336          29.000  
> 2021  9 30 12  1 56.9976942  0  1
G32  21140524.120   111094031.662       -2725.471          30.000  
> 2021  9 30 12  1 57.9976932  0  1
G32  21140742.369   111095181.873       -2725.910          31.000  
> 2021  9 30 12  1 58.9976924  0  1
G32  21141019.677   111096646.369       -2722.063          32.000  
> 2021  9 30 12  1 59.9976916  0  1
G32  21141297.584   111098109.500       -2725.108          32.000  
> 2021  9 30 12  2  0.9976906  0  0
> 2021  9 30 12  2  1.9976896  0  1
G32  21141734.682   111100410.9901      -2726.653          28.000  
> 2021  9 30 12  2  2.9976891  0  1
G32  21142104.925   111102348.356       -2723.298          27.000  
> 2021  9 30 12  2  3.9976881  0  1
G32  21142325.273   111103495.461       -2723.627          24.000  
> 2021  9 30 12  2  4.9976870  0  1
G32  21142514.742   111104486.553       -2723.376          24.000  
> 2021  9 30 12  2  5.9976863  0  0
> 2021  9 30 12  2  6.9976855  0  1
G32  21143107.431   111107573.5941      -2725.822          27.000  
> 2021  9 30 12  2  7.9976847  0  2
G03  23528114.725                         223.167          32.000  
G32  21143387.437   111109040.519       -2727.944          28.000  
> 2021  9 30 12  2  8.9976837  0  2
G03  23527773.861                         222.768          33.000  
G32  21143606.886   111110192.814       -2728.306          28.000  
> 2021  9 30 12  2  9.9976827  0  2
G03  23527433.597   123637704.9861        220.979          34.000  
G32  21143824.835   111111346.435       -2729.938          27.000  
> 2021  9 30 12  2 10.9976822  0  2
G03  23527242.329   123636695.809         221.417          31.000  
G32  21144195.078   111113289.236       -2731.547          32.000  
> 2021  9 30 12  2 11.9976812  0  2
G03  23526901.165   123634898.957         220.669          31.000  
G32  21144415.426   111114445.575       -2731.705          32.000  
> 2021  9 30 12  2 12.9976801  0  2
G03  23526529.123   123632946.015         218.444          31.000  
G32  21144607.593   111115444.972       -2732.717          34.000  
> 2021  9 30 12  2 13.9976794  0  2
G03  23526319.268   123631843.221         218.444          28.000  
G32  21144918.178   111117074.812       -2731.320          32.000  
> 2021  9 30 12  2 14.9976786  0  2
G03  23525996.392                         218.161          26.000  
G32  21145195.186   111118544.034       -2728.130          31.000  
> 2021  9 30 12  2 15.9976776  0  2
G03  23525696.599                         218.161          22.000  
G32  21145413.435   111119698.501       -2730.651          28.000  
> 2021  9 30 12  2 16.9976768  0  2
G03  23525456.765                          50.194          21.000  
G32  21145693.141   111121170.014       -2733.454          28.000  
> 2021  9 30 12  2 17.9976758  0  2
G03  23525156.973                          50.194          22.000  
G32  21145913.489   111122328.351       -2735.413          28.000  
> 2021  9 30 12  2 18.9976753  0  2
G03  23525007.076                          50.194          20.000  
G32  21146283.732   111124276.042       -2736.092          30.000  
> 2021  9 30 12  2 19.9976742  0  1
G32  21146476.799   111125279.633       -2736.599          29.000  
> 2021  9 30 12  2 20.9976732  0  1
G32  21146698.046   111126440.952       -2736.800          30.000  
> 2021  9 30 12  2 21.9976724  0  2
G03  23524137.678                          50.194          16.000  
G32  21146979.251   111127917.283       -2737.041          32.000  
> 2021  9 30 12  2 22.9976717  0  2
G03  23523927.824                          50.194          14.000  
G32  21147291.335   111129552.014       -2738.049          30.000  
> 2021  9 30 12  2 23.9976707  0  2
G03  23523628.031                         222.768          13.000  
G32  21147511.682   111130714.758       -2738.594          32.000  
> 2021  9 30 12  2 24.9976699  0  2
G03  23523388.197                         222.768          12.000  
G32  21147794.387   111132192.902       -2738.473          30.000  
> 2021  9 30 12  2 25.9976689  0  1
G32  21148014.734   111133356.405       -2739.625          28.000  
> 2021  9 30 12  2 26.9976681  0  1
G32  21148296.239   111134835.831       -2740.408          31.000  
> 2021  9 30 12  2 27.9976673  0  1
G32  21148576.545   111136315.533       -2739.158          28.000  
> 2021  9 30 12  2 28.9976663  0  1
G32  21148798.092   111137478.260       -2737.545          29.000  
> 2021  9 30 12  2 29.9976655  0  1
G32  21149078.398   111138955.883       -2738.917          29.000  
> 2021  9 30 12  2 30.9976648  0  1
G32  21149392.880   111140591.604       -2738.754          30.000  
> 2021  9 30 12  2 31.9976637  0  1
G32  21149585.946   111141596.865       -2738.092          30.000  
> 2021  9 30 12  2 32.9976630  0  1
G32  21149898.630   111143232.565       -2739.320          27.000  
> 2021  9 30 12  2 33.9976620  0  1
G32  21150118.977   111144397.332       -2741.362          27.000  
> 2021  9 30 12  2 34.9976612  0  1
G32  21150400.482   111145879.038       -2742.768          28.000  
> 2021  9 30 12  2 35.9976604  0  1
G32  21150684.086   111147362.167       -2744.670          28.000  
> 2021  9 30 12  2 36.9976594  0  1
G32  21150907.731   111148532.141       -2745.980          32.000  
> 2021  9 30 12  2 37.9976584  0  1
G32  21151131.376   111149702.142       -2745.190          32.000  
> 2021  9 30 12  2 38.9976579  0  1
G32  21151503.119   111151659.025       -2744.672          32.000  
> 2021  9 30 12  2 39.9976568  0  1
G32  21151694.387   111152671.108       -2745.028          31.000  
> 2021  9 30 12  2 40.9976558  0  1
G32  21151916.533   111153840.833       -2745.507          32.000  
> 2021  9 30 12  2 41.9976550  0  1
G32  21152200.736   111155326.526       -2746.139          33.000  
> 2021  9 30 12  2 42.9976543  0  1
G32  21152512.820   111156970.630       -2747.495          34.000  
> 2021  9 30 12  2 43.9976535  0  1
G32  21152795.524   111158457.705       -2747.460          31.000  
> 2021  9 30 12  2 44.9976525  0  1
G32  21153017.371   111159629.337       -2746.897          31.000  
> 2021  9 30 12  2 45.9976515  0  1
G32  21153240.117   111160801.021       -2748.314          30.000  
> 2021  9 30 12  2 46.9976509  0  1
G32  21153582.779   111162603.510       -2747.342          32.000  
> 2021  9 30 12  2 47.9976499  0  1
G32  21153804.026   111163775.228       -2747.960          29.000  
> 2021  9 30 12  2 48.9976489  0  1
G32  21154026.172   111164947.956       -2748.882          30.000  
> 2021  9 30 12  2 49.9976481  0  1
G32  21154309.476   111166437.506       -2750.572          33.000  
> 2021  9 30 12  2 50.9976474  0  0
> 2021  9 30 12  2 51.9976466  0  1
G32  21154910.860   111169578.5451      -2751.598          31.000  
> 2021  9 30 12  2 52.9976456  0  1
G32  21155133.006   111170754.174       -2750.978          30.000  
> 2021  9 30 12  2 53.9976445  0  1
G32  21155324.873   111171772.422       -2751.359          30.000  
> 2021  9 30 12  2 54.9976440  0  0
> 2021  9 30 12  2 55.9976430  0  0
> 2021  9 30 12  2 56.9976420  0  0
> 2021  9 30 12  2 57.9976412  0  1
G32  21156427.810   111177580.4311      -2750.061          31.000  
> 2021  9 30 12  2 58.9976404  0  0
> 2021  9 30 12  2 59.9976394  0  0
> 2021  9 30 12  3  0.9976387  0  0
> 2021  9 30 12  3  1.9976376  0  0
> 2021  9 30 12  3  2.9976371  0  0
> 2021  9 30 12  3  3.9976361  0  1
G32  21158047.888   111186059.2561      -2754.266          29.000  
> 2021  9 30 12  3  4.9976351  0  0
> 2021  9 30 12  3  5.9976343  0  0
> 2021  9 30 12  3  6.9976335  0  1
G32  21158856.428   111190540.1331      -2750.330          31.000  
> 2021  9 30 12  3  7.9976325  0  1
G32  21159082.472   111191715.808       -2751.000          31.000  
> 2021  9 30 12  3  8.9976317  0  1
G32  21159366.675   111193207.896       -2754.803          27.000  
> 2021  9 30 12  3  9.9976307  0  1
G32  21159592.119   111194387.417       -2755.772          30.000  
> 2021  9 30 12  3 10.9976302  0  1
G32  21159969.558   111196354.278       -2754.679          30.000  
> 2021  9 30 12  3 11.9976292  0  1
G32  21160199.499   111197532.805       -2753.800          31.000  
> 2021  9 30 12  3 12.9976282  0  1
G32  21160427.641   111198711.268       -2754.611          28.000  
> 2021  9 30 12  3 13.9976274  0  1
G32  21160711.844   111200205.844       -2755.452          29.000  
> 2021  9 30 12  3 14.9976266  0  1
G32  21160995.747   111201700.974       -2755.502          29.000  
> 2021  9 30 12  3 15.9976256  0  3
C06  36296943.749   189007710.4541       -760.811          28.000  
C22  22171884.524   115454820.3291      -1544.307          28.000  
E30  22908971.949   120387459.1841      -2554.756          25.000  
> 2021  9 30 12  3 16.9976248  0  4
C06  36296849.614   189007222.140        -759.966          27.000  
C22  22171939.386   115455116.825       -1545.987          28.000  
E30  22909217.179   120388753.231       -2553.978          24.000  
G32  21161513.189   111204375.7871      -2756.166          24.000  
> 2021  9 30 12  3 17.9976238  0  2
C06  36296694.921   189006420.062        -758.299          26.000  
C22  22171935.788   115455102.143       -1546.275          26.000  
> 2021  9 30 12  3 18.9976230  0  3
C06  36296600.187   189005928.560        -757.404          25.000  
C22  22171993.049   115455399.931       -1546.584          26.000  
G32                                                                  21162016.241    83044296.5411      -2059.386          29.000  
> 2021  9 30 12  3 19.9976223  0  3
C22  22172079.389   115455853.232       -1547.130          26.000  
G26  20108802.766   105672471.0101      -1219.609          29.000  
G32                                                                  21162331.323    83045532.306       -2059.707          29.000  
> 2021  9 30 12  3 20.9976212  0  4
C06  36296351.359   189004634.7531       -759.698          23.000  
C22  22172046.412   115455682.839       -1545.723          27.000  
G26  20108706.532   105671957.857       -1220.540          30.000  
G32                                                                  21162526.788    83046297.101       -2060.732          28.000  
> 2021  9 30 12  3 21.9976205  0  4
C22  22172132.452   115456135.908       -1546.458          26.000  
E30  22910355.191   120394749.7881      -2554.746          27.000  
G26  20108729.916   105672075.850       -1220.624          30.000  
G32                                                                  21162842.469    83047534.111       -2060.715          29.000  
> 2021  9 30 12  3 22.9976197  0  4
C22  22172191.811   115456434.093       -1547.065          26.000  
E30  22910601.321   120396044.738       -2556.653          26.000  
G26  20108721.222   105672036.091       -1221.118          30.000  
G32                                                                  21163127.871    83048652.846       -2059.570          29.000  
> 2021  9 30 12  3 23.9976187  0  4
C22  22172190.012   115456419.951       -1547.027          26.000  
E30  22910785.993   120397024.219       -2552.847          26.000  
G26  20108654.068   105671681.860       -1221.589          31.000  
G32                                                                  21163353.016    83049536.299       -2059.573          29.000  
> 2021  9 30 12  3 24.9976179  0  5
C06  36295945.440   189002519.5191       -758.681          22.000  
C22  22172246.673   115456718.395       -1547.602          25.000  
E30  22911032.722   120398317.195       -2554.759          26.000  
G26  20108645.674   105671643.154       -1221.680          30.000  
G32                                                                  21163638.418    83050655.062       -2060.203          29.000  
> 2021  9 30 12  3 25.9976169  0  5
C06  36295790.747   189001717.154        -758.654          24.000  
C22  22172245.174   115456705.644       -1548.259          27.000  
E30  22911217.994   120399297.576       -2555.949          26.000  
G26  20108580.020   105671290.527       -1223.224          30.000  
G32                                                                  21163863.562    83051538.668       -2060.000          29.000  
> 2021  9 30 12  3 26.9976161  0  5
C06  36295696.013   189001226.847        -759.012          24.000  
C22  22172301.835   115457005.288       -1549.058          27.000  
E30  22911466.222   120400591.734       -2554.530          26.000  
G26  20108571.326   105671252.899       -1223.147          29.000  
G32                                                                  21164148.965    83052658.994       -2061.350          29.000  
> 2021  9 30 12  3 27.9976154  0  5
C06  36295630.958   189000892.818        -760.069          25.000  
C22  22172388.475   115457462.827       -1549.873          26.000  
G26  20108592.911   105671373.042       -1222.125          29.000  
G32  21164466.745   111219911.0591      -2761.004          23.000    21164464.646    83053897.005       -2061.519          29.000  
J01  36229827.712   190389028.7541       -801.288          25.000  
> 2021  9 30 12  3 28.9976143  0  4
C06  36295446.585   188999934.546        -757.951          21.000  
C22  22172356.697   115457295.543       -1550.029          26.000  
G26  20108494.879   105670862.963       -1223.623          29.000  
G32  21164659.211   111220939.588       -2761.985          28.000    21164660.710    83054664.357       -2060.555          29.000  
> 2021  9 30 12  3 29.9976136  0  5
C06  36295383.629   188999599.431        -756.588          20.000  
C22  22172444.236   115457752.836       -1549.314          27.000  
G26  20108517.363   105670984.452       -1225.467          25.000  
G32                                                                  21164978.490    83055903.913       -2064.810          25.000  
J01  36229597.472   190387797.9971       -800.914          22.000  
> 2021  9 30 12  3 30.9976128  0  3
C22  22172503.595   115458055.937       -1553.061          18.000  
E08                                                                                                                                  22113004.086    86776177.1691      -1831.950          25.000  
G32                                                                  21165263.893    83057027.523       -2064.076          24.000  
> 2021  9 30 12  3 31.9976120  0  6
C06  36295192.961   188998611.7651       -755.854          26.000  
C22  22172563.853   115458359.102       -1551.639          23.000  
E08                                                                                                                                  22113229.530    86777066.684       -1829.173          25.000  
G26  20108499.675   105670910.0911      -1223.714          21.000  
G32                                                                  21165551.693    83058149.249       -2062.733          24.000  
J02  39296248.273   206503178.1721      -2085.419          23.000  
> 2021  9 30 12  3 32.9976110  0  6
C06  36295037.668   188997806.441        -756.104          26.000  
C22  22172562.654   115458349.991       -1552.373          23.000  
E08                                                                                                                                  22113394.416    86777718.012       -1826.173          25.000  
G26  20108434.021   105670559.375       -1225.762          26.000  
G32  21165750.156   111226791.3031      -2763.039          19.000    21165777.137    83059034.864       -2061.559          23.000  
J01  36229275.195   190386105.3351       -801.638          21.000  
> 2021  9 30 12  3 33.9976100  0  6
C06  36294882.975   188997001.549        -756.482          26.000  
C22  22172560.856   115458340.962       -1551.512          25.000  
E08                                                                                                                                  22113558.702    86778368.479       -1828.251          27.000  
G26  20108368.366   105670209.837       -1226.502          27.000  
G32  21165972.602   111227979.085       -2763.504          28.000    21166002.581    83059921.112       -2063.776          26.000  
J02  39296439.841   206504200.1651      -2086.050          23.000  
> 2021  9 30 12  3 34.9976095  0  6
C06  36294876.980   188996977.171        -757.359          25.000  
C22  22172708.953   115459112.344       -1552.620          28.000  
E08                                                                                                                                  22113875.882    86779608.243       -1828.263          23.000  
G26  20108453.208   105670649.462       -1228.786          27.000  
G32                                                                  21166377.322    83061396.930       -2064.802          23.000  
J02  39296688.069   206505498.635       -2085.654          17.000  
> 2021  9 30 12  3 35.9976084  0  5
C06  36294693.507   188996017.635        -757.548          26.000  
C22  22172675.376   115458946.828       -1552.731          25.000  
G26  20108358.473   105670144.925       -1228.804          25.000  
G32  21166543.707   111230985.1531      -2763.427          28.000    21166572.787    83062168.272       -2065.875          25.000  
J02  39296757.621   206505851.333       -2085.100          24.000  
> 2021  9 30 12  3 36.9976074  0  5
C06  36294539.713   188995213.606        -757.162          26.000  
C22  22172677.775   115458939.871       -1554.732          18.000  
G32  21166767.951   111232173.964       -2764.729          26.000    21166797.631    83063057.485       -2065.116          27.000  
J01  36228822.808   190383648.1871       -802.923          22.000  
J02  39296854.154   206506361.476       -2085.431          25.000  
> 2021  9 30 12  3 37.9976067  0  5
C06  36294476.757   188994877.992        -757.675          28.000  
C22  22172768.312   115459401.890       -1554.334          27.000  
G26  20108314.104   105669927.3641      -1229.893          26.000  
G32  21167082.134   111233835.765       -2765.058          29.000    21167113.312    83064298.962       -2065.330          24.000  
J02  39297045.721   206507344.927       -2087.361          21.000  
> 2021  9 30 12  3 38.9976059  0  6
C06  36294382.322   188994385.928        -756.202          25.000  
C22  22172828.570   115459707.423       -1554.416          29.000  
G26  20108308.708   105669895.922       -1228.679          27.000  
G32                                                                  21167402.312    83065422.366       -2063.780          24.000  
J01  36228682.505   190382888.8201       -801.442          23.000  
J02  39297202.813   206508171.805       -2087.203          21.000  
> 2021  9 30 12  3 39.9976051  0  6
C06  36294288.787   188993894.414        -758.593          25.000  
C22  22172885.531   115460012.641       -1554.154          26.000  
G26  20108302.412   105669862.975       -1226.597          27.000  
G32                                                                  21167687.415    83066545.585       -2064.926          28.000  
J01  36228595.265   190382430.214        -802.978          24.000  
J02  39297359.904   206508998.806       -2087.335          25.000  
> 2021  9 30 12  3 40.9976041  0  6
C06  36294134.693   188993091.455        -758.472          25.000  
C22  22172883.132   115460005.788       -1554.582          26.000  
G26  20108234.959   105669515.550       -1228.151          25.000  
G32                                                                  21167912.559    83067434.981       -2065.423          28.000  
J01  36228450.166   190381657.645        -801.178          23.000  
J02  39297458.835   206509509.908       -2085.415          23.000  
> 2021  9 30 12  3 41.9976031  0  5
C06  36293979.401   188992287.880        -756.795          24.000  
C22  22172882.233   115459999.630       -1555.289          27.000  
G26  20108169.904   105669168.865       -1229.563          25.000  
G32                                                                  21168138.003    83068323.627       -2067.556          27.000  
J02  39297559.865   206510019.917       -2085.949          27.000  
> 2021  9 30 12  3 42.9976026  0  4
C22  22173030.031   115460774.447       -1555.262          28.000  
G26  20108254.745   105669611.120       -1230.617          27.000  
G32                                                                  21168513.943    83069802.427       -2066.822          28.000  
J02  39297808.993   206511317.590       -2084.449          27.000  
> 2021  9 30 12  3 43.9976015  0  5
C06  36293796.527   188991304.0881       -757.446          18.000  
G26  20108160.010   105669109.029       -1231.734          28.000  
G32                                                                  21168711.206    83070575.112       -2067.263          29.000  
J01  36228129.388   190379968.0191       -803.992          27.000  
J02  39297875.847   206511668.914       -2084.227          27.000  
> 2021  9 30 12  3 44.9976005  0  5
C06  36293643.034   188990499.278        -757.459          18.000  
C22  22172993.156   115460607.0441      -1556.449          21.000  
G26  20108095.255   105668766.082       -1232.555          29.000  
G32                                                                  21168937.549    83071465.262       -2065.566          29.000  
J02  39297971.780   206512177.459       -2084.444          26.000  
> 2021  9 30 12  3 45.9975997  0  7
C06  36293550.098   188990007.836        -757.720          19.000  
C19  23224070.011   120933826.3531      -4165.564          28.000  
C22  22173052.515   115460914.596       -1556.386          24.000  
C36  23136822.311   120479504.4111      -2675.477          19.000  
G26  20108089.559   105668738.272       -1232.943          28.000  
G32                                                                  21169224.451    83072591.104       -2068.824          29.000  
J02  39298130.670   206513001.996       -2084.931          26.000  
> 2021  9 30 12  3 46.9975990  0  6
C06  36293487.142   188989671.271        -754.866          25.000  
C19  23224658.803   120936899.420       -4166.056          29.000  
C22  22173141.853   115461379.860       -1559.515          24.000  
G26  20108114.142   105668868.484       -1233.561          28.000  
G32  21169527.241   111246605.8521      -2769.273          30.000    21169542.531    83073835.858       -2068.106          29.000  
J02  39298319.539   206513983.291       -2082.867          26.000  
> 2021  9 30 12  3 47.9975980  0  6
C06  36293331.250   188988865.366        -755.572          31.000  
C16  36654541.589   190869816.2751       -724.403          16.000  
C19  23225158.258   120939503.761       -4165.051          29.000  
C22  22173144.851   115461378.004       -1558.711          28.000  
G26  20108051.186   105668525.791       -1231.267          24.000  
G32  21169751.786   111247799.825       -2769.778          28.000    21169770.673    83074727.607       -2068.309          28.000  
> 2021  9 30 12  3 48.9975972  0  6
C06  36293235.316   188988371.436        -754.973          30.000  
C16  36654441.458   190869291.369        -724.203          32.000  
C19  23225717.370   120942419.492       -4164.572          27.000  
C22  22173206.009   115461688.386       -1559.127          30.000  
G32  21170038.088   111249308.297       -2768.797          30.000    21170057.874    83075854.478       -2067.130          29.000  
J02  39298573.164   206515315.0631      -2084.138          24.000  
> 2021  9 30 12  3 49.9975962  0  8
C06  36293079.424   188987566.074        -756.068          29.000  
C16  36654280.470   190868454.214        -724.282          33.000  
C19  23226216.525   120945022.670       -4163.679          30.000  
C22  22173207.808   115461687.313       -1560.578          31.000  
C36  23137838.008   120484742.9361      -2676.623          14.000  
G32  21170266.230   111250501.867       -2769.885          36.000    21170286.616    83076746.603       -2069.891          29.000  
J01  36227448.559   190376433.5761       -803.240          20.000  
J02  39298671.496   206515824.320       -2084.921          31.000  
> 2021  9 30 12  3 50.9975956  0  9
C06  36293042.849   188987385.027        -756.420          23.000  
C16  36654244.195                        -727.067          33.000  
C19  23226836.196   120948250.342       -4165.183          29.000  
C22  22173329.823   115462311.254       -1560.879          32.000  
G26  20108031.699   105668443.6521      -1233.054          18.000  
G32  21170618.786   111252326.696       -2771.910          34.000    21170634.675    83078110.283       -2068.905          27.000  
J01  36227421.278   190376292.932        -804.857          19.000  
J02  39298889.145   206516964.010       -2084.588          29.000  
R05  19204590.639   102659542.6981       -698.377          28.000  
> 2021  9 30 12  3 51.9975946  0 10
C06  36292886.957   188986580.913        -757.324          24.000  
C16  36654081.407                        -726.266          32.000  
C19  23227336.849   120950855.529       -4166.724          28.000  
C22  22173331.922   115462311.114       -1561.255          29.000  
C36  23138384.230   120487600.5221      -2680.450          11.000  
G26  20107970.242   105668101.643       -1234.888          26.000  
G32  21170852.923   111253522.566       -2771.318          32.000    21170862.817    83079002.781       -2068.223          28.000  
J01  36227272.281   190375522.567        -805.242          21.000  
J02  39298985.678   206517473.114       -2084.742          27.000  
R05  19204419.157   102658626.133        -701.466          26.000  
> 2021  9 30 12  3 52.9975936  0 11
C06  36292729.866   188985776.904        -757.446          22.000  
C16  36653920.419   190866595.4201       -726.317          32.000  
C19  23227836.603   120953460.504       -4165.307          27.000  
C22  22173334.920   115462311.625       -1562.451          28.000  
E08  22117485.683   116227937.1601      -2456.498          29.000  
E30  22917372.133                       -2561.495          32.000  
G26  20107905.786   105667761.808       -1237.454          29.000  
G32                                                                  21171089.160    83079894.979       -2069.420          28.000  
J01  36227122.985   190374752.497        -805.673          26.000  
J02  39299081.012   206517982.503       -2085.505          28.000  
R05  19204250.374   102657723.521        -702.826          24.000  
> 2021  9 30 12  3 53.9975928  0 10
C06  36292636.031   188985284.340        -756.609          26.000  
C16  36653819.689   190866072.492        -725.003          33.000  
C19  23228395.716   120956377.122       -4165.846          27.000  
C22  22173395.478   115462625.054       -1562.244          27.000  
E08  22117717.123   116229133.691       -2457.216          26.000  
E30  22917626.058   120432903.8721      -2563.273          32.000  
G26  20107899.191   105667739.161       -1237.987          27.000  
G32                                                                  21171375.462    83081023.537       -2067.924          26.000  
J02  39299239.303   206518807.894       -2085.296          30.000  
R05  19204141.549   102657142.218        -700.472          25.000  
> 2021  9 30 12  3 54.9975921  0  8
C06  36292570.976   188984947.590        -756.469          27.000  
C16  36653748.638   190865704.416        -724.125          26.000  
C19  23228985.708   120959450.129       -4165.657          25.000  
C22  22173484.816   115463094.847       -1563.072          34.000  
E30  22917903.965   120434361.802       -2563.546          27.000  
G26  20107924.074   105667874.321       -1238.028          33.000  
G32                                                                  21171691.443    83082268.452       -2067.819          23.000  
R05  19204055.509   102656682.186        -703.777          23.000  
> 2021  9 30 12  3 55.9975910  0  9
C06  36292385.704   188983987.264        -756.433          28.000  
C16  36653559.169   190864712.395        -725.475          24.000  
C19  23229456.382   120961898.770       -4166.733          27.000  
C22  22173453.637   115462940.794       -1564.117          32.000  
C36  23139365.151   120492716.4501      -2680.253          13.000  
E30  22918063.455   120435189.387       -2561.061          26.000  
G26  20107829.339   105667379.843       -1238.335          29.000  
G32  21171883.610   111258940.3251      -2772.255          27.000    21171886.908    83083042.633       -2068.420          23.000  
R05  19203850.751   102655587.852        -704.362          17.000  
> 2021  9 30 12  3 56.9975903  0  9
C06  36292320.050   188983650.738        -756.533          31.000  
C16  36653487.519   190864344.872        -725.268          31.000  
C19  23230047.573   120964973.316       -4167.820          30.000  
C22  22173536.080   115463411.770       -1563.365          32.000  
E30  22918342.562   120436647.907       -2560.930          32.000  
G26  20107853.922   105667516.372       -1239.124          22.000  
G32  21172195.694   111260610.517       -2773.957          22.000    21172203.788    83084288.071       -2070.377          24.000  
J01  36226759.636   190372783.1491       -807.809          19.000  
R05  19203765.310   102655130.582        -703.754          25.000  
> 2021  9 30 12  3 57.9975892  0  8
C06  36292134.478   188982689.679        -755.924          29.000  
C16  36653296.851   190863352.915        -725.640          32.000  
C19  23230519.146   120967423.919       -4167.410          29.000  
C22  22173504.902   115463259.973       -1564.394          31.000  
E30  22918497.554   120437475.803       -2559.454          33.000  
G32  21172386.062   111261652.046       -2774.650          25.000    21172401.651    83085064.325       -2071.829          24.000  
J01  36226584.258   190371858.124        -807.320          20.000  
R05  19203561.151   102654039.701        -704.176          24.000  
> 2021  9 30 12  3 58.9975887  0  7
C06  36292129.681   188982664.265        -755.701          28.000  
C16  36653284.859                        -723.749          33.000  
C19  23231169.996   120970810.985       -4167.963          31.000  
C22  22173654.798   115464043.263       -1563.502          28.000  
E30  22918829.724   120439249.422       -2561.184          33.000  
G26  20107848.226   105667474.6771      -1239.628          23.000  
G32  21172762.601   111263638.926       -2774.876          33.000    21172781.488    83086548.617       -2072.960          27.000  
> 2021  9 30 12  3 59.9975877  0 10
C06  36291975.288   188981858.490        -755.292          21.000  
C16  36653126.269   190862436.1001       -723.550          32.000  
C19  23231670.949   120973417.489       -4167.792          30.000  
C22  22173655.698   115464045.975       -1563.923          29.000  
C36  23140434.810   120498274.9361      -2668.652          14.000  
E30  22919013.797   120440235.516       -2561.720          33.000  
G26  20107783.471   105667138.743       -1239.307          27.000  
G32                                                                  21173011.429    83087444.508       -2072.962          27.000  
J01  36226437.059   190371106.3221       -805.100          25.000  
R05  19203377.079   102653055.1021       -706.424          26.000  
> 2021  9 30 12  4  0.9975867  0 10
C06  36291819.096   188981049.935        -749.460          16.000  
C16  36652966.479   190861599.131        -724.429          30.000  
C19  23232171.302   120976023.917       -4167.856          28.000  
C22  22173656.597   115464049.041       -1564.612          27.000  
C36  23140646.464   120499382.018       -2668.455          15.000  
E30  22919202.666   120441221.444       -2561.500          33.000  
G26  20107722.613   105666803.599       -1241.185          30.000  
G32  21173220.085   111266036.3811      -2774.725          32.000    21173239.571    83088340.261       -2072.234          28.000  
J01  36226288.063   190370335.467        -803.747          26.000  
R05  19203204.098   102652131.016        -706.907          24.000  
> 2021  9 30 12  4  1.9975859  0 11
C06  36291723.762   188980551.878        -751.740          18.000  
C16  36652864.250   190861074.484        -724.559          30.000  
C19  23232731.015   120978942.770       -4167.449          27.000  
C22  22173715.656   115464366.395       -1566.953          25.000  
C36  23140918.376   120500801.313       -2668.007          16.000  
E08  22119397.160   116238215.7841      -2457.732          27.000  
E30  22919453.892   120442522.767       -2562.119          33.000  
G26  20107721.114   105666784.315       -1241.356          27.000  
G32  21173506.387   111267551.536       -2776.507          30.000    21173527.972    83089471.185       -2071.543          28.000  
J02  39300344.638   206524618.0631      -2084.612          28.000  
R05  19203096.473   102651555.866        -706.577          23.000  
> 2021  9 30 12  4  2.9975852  0 10
C16  36652795.598   190860705.945        -724.657          30.000  
C19  23233321.007   120982018.186       -4169.625          27.000  
C22  22173809.191   115464841.312       -1567.445          25.000  
E08  22119655.881   116239571.479       -2459.378          27.000  
E30  22919729.102   120443981.875       -2560.985          33.000  
G26  20107749.595   105666922.654       -1240.734          27.000  
G32                                                                  21173847.251    83090720.258       -2072.311          27.000  
J01  36226139.965   190369579.8831       -804.789          26.000  
J02  39300530.809   206525599.742       -2083.822          28.000  
R05  19203022.424   102651159.817        -710.194          23.000  
> 2021  9 30 12  4  3.9975844  0  9
C16  36652695.767   190860181.047        -725.775          30.000  
C19  23233880.419   120984939.096       -4169.872          26.000  
C22  22173873.347   115465160.985       -1568.837          24.000  
E30  22919976.131   120445283.481       -2561.053          32.000  
G26  20107747.496   105666902.725       -1241.156          26.000  
G32                                                                  21174135.051    83091851.332       -2071.950          28.000  
J01  36226053.325   190369124.269        -805.708          25.000  
J02  39300687.001   206526422.881       -2083.319          28.000  
R05  19202910.602   102650561.723        -708.078          24.000  
> 2021  9 30 12  4  4.9975834  0  9
C16  36652533.879   190859344.524        -724.033          31.000  
C19  23234381.372   120987548.143       -4170.340          27.000  
C22  22173876.645   115465168.655       -1568.879          27.000  
E30  22920166.799   120446270.601       -2561.771          31.000  
G26  20107682.741   105666569.595       -1242.641          28.000  
G32                                                                  21174362.894    83092747.882       -2073.438          28.000  
J01  36225905.228   190368355.170        -806.299          23.000  
J02  39300785.332   206526931.484       -2084.280          28.000  
R05  19202743.317   102649667.212        -709.576          23.000  
> 2021  9 30 12  4  5.9975823  0  6
C16  36652341.112   190858351.729        -725.153          28.000  
E30  22920325.988   120447100.149       -2561.194          32.000  
G26  20107588.306   105666079.321       -1243.324          27.000  
G32  21174546.367                       -2778.274          34.000    21174561.656    83093527.342       -2075.469          26.000  
J01  36225726.851   190367427.379        -804.600          28.000  
J02  39300850.088   206527281.822       -2083.234          28.000  
> 2021  9 30 12  4  6.9975818  0  8
C06  36291221.010   188977914.1101       -757.123          19.000  
C16  36652328.521   190858296.077        -725.488          28.000  
C19  23235501.397   120993392.2061      -4170.361          25.000  
E30  22920667.152   120448875.973       -2564.711          33.000  
G26  20107675.546   105666534.410       -1243.580          25.000  
G32  21174921.407   111274982.2721      -2777.709          34.000    21174939.095    83095014.443       -2075.880          25.000  
J01  36225730.449   190367445.278        -807.418          27.000  
R05  19202546.654   102648616.7221       -711.474          26.000  
> 2021  9 30 12  4  7.9975808  0  8
C06  36291066.318   188977110.649        -758.522          29.000  
C16  36652168.132   190857460.253        -725.392          31.000  
C19  23236003.250   120996001.409       -4170.477          24.000  
C22  22174007.054   115465813.8901      -1568.543          19.000  
E30  22920854.822   120449864.071       -2563.242          33.000  
G26  20107611.690   105666202.998       -1244.836          29.000  
G32                                                                  21175168.436    83095914.006       -2077.791          18.000  
R05  19202385.965   102647757.559        -716.737          17.000  
> 2021  9 30 12  4  8.9975798  0  8
C06  36290914.023   188976308.133        -759.025          29.000  
C16  36652007.443   190856624.347        -725.327          33.000  
C22  22174008.853   115465821.860       -1570.029          20.000  
E30  22921040.694   120450852.593       -2562.847          31.000  
G26  20107547.834   105665873.195       -1246.536          27.000  
G32  21175383.687   111277389.5011      -2779.671          26.000    21175398.677    83096813.920       -2075.801          19.000  
J02  39301287.785   206529590.1851      -2083.973          20.000  
R05  19202224.976   102646897.252        -717.033          19.000  
> 2021  9 30 12  4  9.9975790  0  8
C16  36651907.313   190856100.747        -724.665          25.000  
C19  23237069.312   121001533.2041      -4169.698          25.000  
C22  22174070.311   115466143.434       -1571.086          28.000  
E30  22921286.524   120452155.336       -2563.157          28.000  
G26  20107545.436   105665859.310       -1246.372          29.000  
G32                                                                  21175687.077    83097947.511       -2076.240          24.000  
J01  36225345.515   190365458.3121       -804.960          21.000  
R05  19202122.747   102646350.425        -714.755          19.000  
> 2021  9 30 12  4 10.9975782  0  8
C06  36290726.953   188975328.0241       -758.873          23.000  
C16  36651807.182   190855576.500        -724.231          25.000  
C22  22174130.569   115466465.557       -1571.049          27.000  
E30  22921534.452   120453458.379       -2563.787          29.000  
G26  20107543.038   105665845.569       -1246.086          28.000  
G32  21175956.890   111280427.8961      -2779.280          32.000    21175974.878    83099082.628       -2078.288          24.000  
J01  36225258.276   190365002.654        -803.756          23.000  
R05  19202021.417   102645809.102        -715.913          24.000  
> 2021  9 30 12  4 11.9975775  0  8
C06  36290663.996   188974993.410        -758.010          23.000  
C16  36651735.831   190855207.944        -723.737          25.000  
C19  23238222.313   121007530.1571      -4171.180          25.000  
C22  22174222.605   115466944.743       -1572.519          28.000  
G26  20107570.918   105665989.028       -1247.184          28.000  
G32  21176274.370   111282104.224       -2778.628          23.000    21176293.557    83100336.609       -2074.772          24.000  
J02  39301778.845   206532214.6841      -2081.925          22.000  
R05  19201946.469   102645407.716        -716.021          18.000  
> 2021  9 30 12  4 12.9975764  0  8
C06  36290479.624   188974033.840        -758.391          18.000  
C16  36651546.662   190854213.695        -722.667          28.000  
C19  23238693.287   121009984.706       -4173.117          26.000  
C22  22174194.125   115466800.368       -1572.752          29.000  
E30  22921972.748   120455751.4821      -2564.139          27.000  
G26  20107478.282   105665502.946       -1246.625          30.000  
G32  21176494.418   111283150.572       -2780.467          20.000  
J02  39301845.399   206532564.289       -2082.736          25.000  
> 2021  9 30 12  4 13.9975754  0  5
C16  36651386.273   190853375.109        -723.303          28.000  
C19  23239196.039   121012596.261       -4172.519          25.000  
C22  22174195.324   115466811.965       -1572.784          29.000  
G26  20107415.026   105665174.136       -1247.046          29.000  
J02  39301943.731   206533071.446       -2082.352          24.000  
> 2021  9 30 12  4 14.9975749  0  6
C16  36651375.781   190853317.857        -723.438          29.000  
C19  23239846.289   121015988.286       -4172.213          25.000  
C22  22174347.319   115467604.634       -1573.487          29.000  
G26  20107502.865   105665634.145       -1248.377          28.000  
J01  36224885.034   190363019.2321       -804.339          21.000  
J02  39302190.460   206534366.887       -2083.947          24.000  
> 2021  9 30 12  4 15.9975739  0  7
C06  36290167.540   188972393.5041       -751.317          19.000  
C16  36651215.691   190852480.004        -722.934          28.000  
C19  23240346.643   121018600.042       -4173.821          25.000  
C22  22174350.017   115467617.573       -1574.814          28.000  
G26  20107440.209   105665308.050       -1250.424          29.000  
J01  36224739.035   190362248.031        -803.452          21.000  
J02  39302287.293   206534875.627       -2085.005          25.000  
> 2021  9 30 12  4 16.9975729  0  8
C16  36651055.003   190851642.098        -723.406          28.000  
C19  23240847.596   121021212.555       -4173.659          25.000  
C22  22174351.816   115467631.918       -1575.762          28.000  
G26  20107376.653   105664982.885       -1250.475          29.000  
G32  21177565.576   111288763.6021      -2782.816          23.000  
J01  36224594.835   190361477.180        -806.096          24.000  
J02  39302384.126   206535384.599       -2083.711          25.000  
R05  19201231.464   102641585.8681       -718.637          17.000  
> 2021  9 30 12  4 17.9975721  0  7
C16  36650955.472   190851117.348        -724.451          27.000  
C19  23241404.910   121024136.507       -4171.998          26.000  
C22  22174413.873   115467959.145       -1576.644          30.000  
E30  22923127.249   120461808.0871      -2566.237          29.000  
G26  20107373.055   105664973.085       -1250.634          31.000  
J02  39302543.915   206536209.327       -2085.061          24.000  
R05  19201124.138   102641012.688        -719.610          17.000  
> 2021  9 30 12  4 18.9975713  0  7
C16  36650854.741   190850593.004        -723.949          25.000  
C19  23241963.723   121027060.158       -4172.918          28.000  
C22  22174477.129   115468286.262       -1575.451          28.000  
E30  22923374.878   120463112.929       -2566.313          29.000  
G26  20107368.858   105664963.483       -1250.800          32.000  
J01  36224423.054   190360570.2681       -807.993          24.000  
J02  39302701.306   206537033.160       -2083.862          19.000  
> 2021  9 30 12  4 19.9975706  0  9
C06  36289760.721   188970246.4591       -751.909          18.000  
C16  36650785.789   190850224.697        -724.888          24.000  
C19  23242554.015   121030140.451       -4173.250          29.000  
C22  22174569.765   115468769.575       -1576.536          27.000  
E30  22923651.586   120464574.976       -2565.177          28.000  
G26  20107396.739   105665111.880       -1251.678          32.000  
G32  21178444.568   111293489.7081      -2783.322          18.000  
J02  39302885.978   206538014.508       -2084.490          24.000  
R05  19200936.468   102640009.5031       -716.808          16.000  
> 2021  9 30 12  4 20.9975695  0  8
C06  36289576.949   188969283.504        -754.716          19.000  
C16  36650593.322   190849232.141        -724.800          26.000  
C19  23243024.389   121032597.274       -4174.773          28.000  
C22  22174542.184   115468629.773       -1577.656          27.000  
E08                                                                                                                                  22123399.989    86816974.1521      -1841.200          26.000  
E30  22923807.778   120465407.651       -2567.029          30.000  
G26  20107306.202   105664630.852       -1251.873          31.000  
J02  39302952.832   206538365.526       -2083.711          24.000  
> 2021  9 30 12  4 21.9975685  0  8
C16  36650431.734   190848396.242        -725.679          26.000  
C19  23243525.642   121035211.142       -4175.329          28.000  
C22  22174543.683   115468646.157       -1578.141          28.000  
E08                                                                                                                                  22123570.871    86817639.938       -1844.452          24.000  
E30  22923995.448   120466399.527       -2568.274          29.000  
G26  20107245.643                       -1253.810          31.000  
G32  21178865.776   111295751.3611      -2786.109          21.000  
J02  39303048.166   206538873.574       -2083.374          25.000  
> 2021  9 30 12  4 22.9975680  0  8
C16  36650420.342   190848341.618        -726.177          24.000  
C19  23244177.990   121038605.509       -4175.520          27.000  
C22  22174697.177   115469443.129       -1577.498          26.000  
E08                                                                                                                                  22123891.049    86818896.423       -1844.944          24.000  
E30  22924333.914   120468179.776       -2567.799          28.000  
G26  20107337.680   105664753.8071      -1252.873          31.000  
G32  21179245.613   111297749.550       -2785.810          25.000  
J02  39303295.495   206540169.180       -2083.877          24.000  
> 2021  9 30 12  4 23.9975670  0  9
C06  36289267.863   188967654.9751       -758.279          20.000  
C16  36650259.353   190847506.973        -727.226          23.000  
C19  23244681.942   121041220.190       -4175.907          27.000  
C22  22174701.074   115469459.749       -1577.898          27.000  
E08                                                                                                                                  22124060.731    86819563.488       -1841.428          24.000  
E30  22924522.483   120469171.908       -2567.978          28.000  
G26  20107273.524   105664432.050       -1254.422          31.000  
G32  21179474.655   111298960.138       -2786.854          24.000  
J02  39303391.728   206540677.291       -2083.581          24.000  
> 2021  9 30 12  4 24.9975660  0 10
C06  36289114.669   188966851.209        -756.912          20.000  
C16  36650099.864   190846672.718        -725.827          25.000  
C19  23245185.893   121043834.054       -4173.946          26.000  
C22  22174705.271   115469477.156       -1579.355          27.000  
E08                                                                                                                                  22124231.014    86820228.624       -1843.537          24.000  
E30  22924711.053   120470164.098       -2567.616          29.000  
G26  20107211.767   105664110.947       -1253.868          31.000  
G32  21179703.696   111300171.846       -2787.064          26.000    21179733.675    83113835.7261      -2081.251          28.000  
J01  36223757.514   190357067.5441       -809.675          23.000  
J02  39303489.161   206541185.715       -2083.847          22.000  
> 2021  9 30 12  4 25.9975652  0 10
C06  36289022.333   188966359.090        -757.655          19.000  
C16  36649999.733   190846149.885        -726.101          25.000  
C19  23245750.702   121046758.691       -4174.116          24.000  
C22  22174770.026   115469808.244       -1580.780          28.000  
E08                                                                                                                                  22124460.954    86821130.028       -1841.548          25.000  
E30  22924961.080   120471471.742       -2567.966          29.000  
G26  20107212.067   105664105.543       -1257.211          32.000  
G32  21179993.895   111301698.707       -2787.211          25.000    21180023.875    83114975.664       -2081.324          27.000  
J01  36223672.373   190356616.655        -808.673          24.000  
J02  39303645.053   206542009.971       -2085.612          21.000  
> 2021  9 30 12  4 26.9975644  0 10
C06  36288929.097   188965868.302        -757.708          20.000  
C16  36649899.602   190845627.366        -726.612          25.000  
C19  23246313.112   121049683.762       -4174.427          22.000  
C22  22174835.980   115470140.118       -1580.640          28.000  
E08                                                                                                                                  22124690.595    86822030.460       -1841.364          24.000  
E30  22925210.807   120472779.710       -2569.274          28.000  
G26  20107213.865   105664100.695       -1255.147          32.000  
G32  21180284.694   111303225.609       -2788.167          23.000    21180315.273    83116116.536       -2082.299          28.000  
J01  36223586.333   190356165.763        -811.246          21.000  
J02  39303800.345   206542834.491       -2084.432          23.000  
> 2021  9 30 12  4 27.9975636  0  9
C16  36649796.774   190845103.745        -724.885          24.000  
C19  23246877.022   121052609.799       -4175.982          23.000  
C22  22174900.136   115470472.744       -1582.175          27.000  
E08                                                                                                                                  22124920.236    86822932.196       -1842.999          24.000  
E30  22925459.335   120474087.859       -2567.204          27.000  
G26  20107212.666   105664096.273       -1258.418          32.000  
G32  21180574.593   111304754.145       -2789.533          24.000    21180606.671    83117257.197       -2081.860          27.000  
J01  36223499.693   190355716.294        -810.536          22.000  
J02  39303957.137   206543658.301       -2084.141          23.000  
> 2021  9 30 12  4 28.9975626  0  9
C06  36288680.569   188964574.0761       -758.096          20.000  
C16  36649634.886   190844267.507        -724.142          24.000  
C19  23247379.474   121055224.549       -4175.742          27.000  
C22  22174903.134   115470493.179       -1582.123          26.000  
E08                                                                                                                                  22125090.818    86823598.381       -1843.861          25.000  
E30  22925648.804   120475081.024       -2567.931          27.000  
G26  20107150.609   105663777.412       -1256.162          31.000  
G32                                                                  21180837.811    83118163.712       -2083.219          28.000  
J02  39304053.070   206544165.841       -2083.268          23.000  
> 2021  9 30 12  4 29.9975616  0  8
C16  36649472.698   190843431.799        -725.000          23.000  
C19  23247880.127   121057840.136       -4177.523          26.000  
C22  22174906.132   115470513.984       -1581.421          27.000  
E08                                                                                                                                  22125261.400    86824266.415       -1845.110          24.000  
G26  20107089.152   105663459.065       -1257.334          32.000  
G32                                                                  21181068.951    83119070.440       -2083.289          28.000  
J01  36223208.295   190354182.2041       -805.398          22.000  
J02  39304150.803   206544674.118       -2083.346          24.000  
> 2021  9 30 12  4 30.9975611  0  9
C06  36288521.080   188963748.6391       -758.157          21.000  
C16  36649462.805   190843376.604        -725.621          24.000  
C19  23248528.878   121061236.693       -4177.326          25.000  
C22  22175059.925   115471315.873       -1583.058          28.000  
E08                                                                                                                                  22125583.377    86825523.934       -1846.798          24.000  
G26  20107174.593   105663928.994       -1256.866          31.000  
G32                                                                  21181449.688    83120565.760       -2084.877          28.000  
J01  36223210.393   190354200.158        -805.729          23.000  
J02  39304399.630   206545969.301       -2082.426          23.000  
> 2021  9 30 12  4 31.9975601  0  9
C06  36288366.387   188962946.182        -759.530          22.000  
C16  36649302.716   190842539.770        -724.075          22.000  
C19  23249030.731   121063853.138       -4178.134          27.000  
C22  22175063.223   115471337.614       -1583.060          27.000  
E08                                                                                                                                  22125754.859    86826193.234       -1844.712          24.000  
G26  20107117.033   105663611.926       -1259.922          31.000  
G32                                                                  21181680.827    83121473.916       -2085.132          28.000  
J01  36223062.596   190353430.436        -806.760          23.000  
J02  39304495.564   206546477.024       -2083.948          23.000  
> 2021  9 30 12  4 32.9975590  0  9
C06  36288180.815   188961988.125        -758.919          22.000  
C16  36649109.649   190841546.304        -724.537          21.000  
C19  23249504.103   121066313.696       -4178.044          27.000  
C22  22175037.141   115471203.945       -1583.668          27.000  
E08                                                                                                                                  22125895.162    86826744.571       -1843.227          23.000  
G26  20107025.296   105663137.762       -1261.177          31.000  
G32  21181857.705   111311455.1991      -2790.089          25.000    21181882.288    83122264.060       -2084.329          28.000  
J01  36222888.716   190352505.351        -808.590          24.000  
J02  39304560.919   206546827.258       -2081.883          24.000  
> 2021  9 30 12  4 33.9975583  0  8
C16  36649040.397   190841178.362        -725.390          23.000  
C19  23250095.294   121069398.684       -4177.915          27.000  
C22  22175131.576   115471695.293       -1584.222          27.000  
E08                                                                                                                                  22126153.283    86827763.235       -1843.775          24.000  
G26  20107056.175   105663294.452       -1261.160          31.000  
G32  21182180.881   111313142.894       -2790.593          25.000    21182204.265    83123525.451       -2086.221          28.000  
J01  36222832.955   190352212.962        -810.664          24.000  
J02  39304745.591   206547807.432       -2084.474          23.000  
> 2021  9 30 12  4 34.9975575  0  7
C16  36648941.166   190840656.052        -726.217          23.000  
C19  23250658.904   121072327.755       -4178.457          26.000  
C22  22175196.331   115472031.270       -1585.804          28.000  
E08                                                                                                                                  22126383.823    86828668.902       -1848.691          24.000  
G26  20107057.973   105663294.150       -1260.212          31.000  
G32                                                                  21182496.263    83124670.848       -2086.405          28.000  
J01  36222746.315   190351763.637        -811.933          25.000  
> 2021  9 30 12  4 35.9975567  0  8
C16  36648841.935   190840135.247        -729.374          24.000  
C19  23251225.512   121075257.493       -4178.422          27.000  
C22  22175261.686   115472368.736       -1586.956          28.000  
E08                                                                                                                                  22126614.963    86829574.712       -1847.229          24.000  
G26  20107058.273   105663294.523       -1262.970          31.000  
G32                                                                  21182787.062    83125815.030       -2086.024          27.000  
J01  36222659.675   190351314.715        -810.576          25.000  
J02  39305057.675   206549454.0851      -2083.162          23.000  
> 2021  9 30 12  4 36.9975557  0  6
C19  23251729.463   121077874.178       -4177.603          28.000  
C22  22175266.183   115472394.705       -1587.476          27.000  
E08                                                                                                                                  22126785.245    86830245.075       -1847.572          23.000  
G26  20106994.717   105662980.354       -1258.718          30.000  
G32                                                                  21183019.101    83126725.182       -2087.742          28.000  
J01  36222515.175   190350550.026        -810.392          24.000  
> 2021  9 30 12  4 37.9975547  0  9
C16  36648519.658   190838470.3691       -727.634          24.000  
C19  23252232.514   121080491.065       -4179.152          27.000  
C22  22175272.179   115472421.124       -1588.833          26.000  
E08                                                                                                                                  22126956.727    86830915.994       -1847.611          23.000  
E30  22927690.090   120485765.0581      -2570.952          27.000  
G26  20106935.059   105662666.768       -1262.066          30.000  
G32                                                                  21183250.841    83127635.214       -2086.368          28.000  
J01  36222369.775   190349784.611        -810.073          24.000  
J02  39305251.940   206550468.1881      -2082.676          23.000  
> 2021  9 30 12  4 38.9975542  0  8
C19  23252886.062   121083890.189       -4180.428          25.000  
C22  22175426.572   115473229.028       -1589.164          27.000  
E08                                                                                                                                  22127277.205    86832177.112       -1848.931          24.000  
E30  22928029.455   120487548.436       -2570.867          27.000  
G26  20107024.996   105663141.421       -1261.237          30.000  
G32  21183621.084   111320651.4631      -2795.471          29.000    21183633.076    83129133.698       -2087.409          28.000  
J01  36222376.071   190349806.837        -808.774          24.000  
J02  39305497.171   206551762.833       -2083.314          25.000  
> 2021  9 30 12  4 39.9975532  0 10
C06  36287445.424   188958225.1501       -756.633          21.000  
C16  36648344.579   190837581.7851       -724.558          23.000  
C19  23253390.613   121086509.523       -4181.015          23.000  
C22  22175431.069   115473257.316       -1590.072          28.000  
E08                                                                                                                                  22127448.686    86832848.775       -1847.629          22.000  
E30  22928217.126   120488544.371       -2571.653          27.000  
G26  20106968.635   105662828.921       -1264.305          30.000  
G32  21183853.723   111321871.319       -2795.597          27.000    21183864.816    83130044.031       -2086.932          29.000  
J01  36222233.370   190349039.886        -808.161          23.000  
J02  39305592.505   206552270.779       -2083.119          23.000  
> 2021  9 30 12  4 40.9975521  0  9
C16  36648153.012   190836589.104        -724.505          24.000  
C19  23253863.385   121088973.160       -4180.406          26.000  
C22  22175406.486   115473130.116       -1589.854          27.000  
E08                                                                                                                                  22127590.188    86833401.564       -1846.608          23.000  
E30  22928374.816   120489383.577       -2572.442          28.000  
G26  20106877.498   105662359.705       -1264.563          29.000  
G32                                                                  21184067.175    83130837.489       -2087.116          28.000  
J01  36222057.991   190348116.657        -811.021          22.000  
J02  39305658.459   206552620.731       -2082.659          22.000  
> 2021  9 30 12  4 41.9975514  0  9
C06  36287196.597   188956931.6091       -759.639          21.000  
C16  36648082.261   190836220.229        -723.983          23.000  
C19  23254453.977   121092060.466       -4178.957          28.000  
C22  22175501.820   115473626.465       -1589.083          26.000  
E08                                                                                                                                  22127851.307    86834425.229       -1847.469          23.000  
G26  20106905.379   105662521.151       -1265.374          30.000  
G32                                                                  21184389.153    83132102.013       -2088.142          28.000  
J01  36222001.330   190347824.908        -810.929          22.000  
J02  39305844.030   206553601.380       -2082.909          23.000  
> 2021  9 30 12  4 42.9975506  0  6
C19  23255014.588   121094991.011       -4179.878          29.000  
C22  22175566.875   115473967.764       -1590.535          27.000  
E08                                                                                                                                  22128083.347    86835334.450       -1850.644          23.000  
G26  20106905.979   105662525.716       -1265.044          27.000  
G32  21184668.259   111326160.9391      -2795.825          24.000    21184681.450    83133249.176       -2090.221          29.000  
J01  36221917.688   190347376.060        -812.489          22.000  
> 2021  9 30 12  4 43.9975498  0  8
C06  36287008.926   188955951.9581       -759.123          21.000  
C19  23255579.997   121097921.973       -4179.921          28.000  
C22  22175631.929   115474307.815       -1588.441          26.000  
E08                                                                                                                                  22128313.887    86836243.240       -1849.559          23.000  
G26  20106906.278   105662530.218       -1265.644          29.000  
G32  21184960.557   111327697.056       -2798.015          27.000    21184974.647    83134398.225       -2090.970          28.000  
J01  36221831.048   190346927.612        -810.876          23.000  
J02  39306160.012   206555248.0951      -2084.018          25.000  
> 2021  9 30 12  4 44.9975488  0  8
C06  36286854.533   188955148.280        -758.454          21.000  
C16  36647727.007   190834335.6391       -726.391          23.000  
C22  22175639.424   115474336.297       -1589.860          27.000  
E08                                                                                                                                  22128485.069    86836916.037       -1848.789          23.000  
G26  20106846.620   105662220.203       -1265.974          30.000  
G32                                                                  21185207.586    83135311.817       -2089.010          29.000  
J01  36221685.049   190346162.721        -810.509          25.000  
J02  39306257.744   206555755.941       -2082.789          25.000  
> 2021  9 30 12  4 45.9975478  0 10
C06  36286698.941   188954345.609        -758.799          24.000  
C16  36647568.716   190833501.828        -728.736          23.000  
C19  23256588.199   121103161.6871      -4181.402          23.000  
C22  22175647.219   115474366.305       -1592.415          27.000  
C36  23152103.033   120559101.5061      -2680.027          22.000  
E30  22929535.613   120495476.4221      -2573.448          27.000  
G26  20106786.961   105661911.269       -1266.872          30.000  
G32  21185427.034   111330144.9861      -2800.458          30.000    21185439.925    83136224.506       -2088.461          27.000  
J01  36221536.952   190345398.506        -811.704          24.000  
J02  39306353.078   206556262.851       -2082.754          25.000  
> 2021  9 30 12  4 46.9975473  0 10
C06  36286692.945   188954324.140        -757.932          20.000  
C16  36647560.922   190833449.842        -728.322          24.000  
C19  23257240.547   121106562.839       -4182.448          23.000  
C22  22175802.811   115475178.601       -1593.338          26.000  
C36  23152469.679   120561000.267       -2677.640          22.000  
E30  22929875.577   120497261.350       -2573.693          28.000  
G26  20106878.098   105662390.435       -1267.194          30.000  
G32  21185809.569   111332157.549       -2800.437          31.000    21185822.760    83137725.041       -2088.816          28.000  
J01  36221542.648   190345422.577        -812.745          25.000  
J02  39306600.707   206557557.794       -2083.120          24.000  
> 2021  9 30 12  4 47.9975462  0  9
C06  36286507.074   188953364.110        -756.228          24.000  
C16  36647372.052   190832460.847        -728.517          25.000  
C19  23257713.020   121109027.998       -4182.343          28.000  
C22  22175778.228   115475055.043       -1594.099          27.000  
C36  23152655.550   120561960.232       -2677.098          22.000  
G26  20106790.559   105661924.884       -1268.105          30.000  
G32  21186013.728   111333224.643       -2799.872          29.000    21186026.019    83138520.361       -2088.842          28.000  
J01  36221365.770   190344501.269        -811.024          23.000  
J02  39306667.860   206557908.079       -2083.803          23.000  
> 2021  9 30 12  4 48.9975455  0  8
C06  36286439.621   188953027.424        -755.638          25.000  
C22  22175874.761   115475556.246       -1593.865          26.000  
C36  23152961.638   120563545.348       -2677.671          22.000  
E30  22930320.170   120499572.4031      -2574.012          26.000  
G26  20106822.337   105662091.457       -1270.178          29.000  
G32  21186337.804   111334920.617       -2799.191          30.000    21186349.196    83139785.668       -2088.876          28.000  
J01  36221310.009   190344209.592        -811.285          24.000  
J02  39306852.832   206558888.103       -2082.793          24.000  
> 2021  9 30 12  4 49.9975444  0 10
C06  36286254.049   188952065.281        -756.457          24.000  
C16  36647118.428   190831105.8521       -725.955          21.000  
C19  23258775.785   121114582.0301      -4182.027          27.000  
C22  22175852.877   115475432.695       -1593.533          27.000  
C36  23153149.608   120564506.374       -2679.652          22.000  
E30  22930482.357   120500413.868       -2575.045          26.000  
G26  20106734.497   105661628.364       -1270.547          30.000  
G32  21186539.864   111335987.536       -2801.141          31.000    21186552.155    83140580.849       -2090.102          28.000  
J01  36221132.532   190343287.210        -811.894          25.000  
J02  39306920.585   206559237.993       -2082.766          24.000  
> 2021  9 30 12  4 50.9975437  0  8
C06  36286187.495   188951728.762        -756.649          28.000  
C16  36647047.977   190830738.081        -724.643          20.000  
C19  23259368.774   121117671.064       -4181.214          27.000  
C22  22175949.110   115475932.962       -1592.511          26.000  
G26  20106765.376   105661795.603       -1269.694          29.000  
G32  21186864.539   111337685.434       -2800.117          31.000    21186876.830    83141848.534       -2091.590          27.000  
J01  36221079.768   190342996.281        -812.393          26.000  
J02  39307106.756   206560217.967       -2082.117          24.000  
> 2021  9 30 12  4 51.9975429  0  7
C06  36286092.761   188951236.378        -756.413          31.000  
C16  36646944.848   190830213.805        -724.749          27.000  
C22  22176015.664   115476276.557       -1592.444          22.000  
G26  20106765.676   105661806.073       -1272.035          22.000  
G32                                                                  21187172.126    83142998.228       -2091.331          28.000  
J01  36220993.728   190342548.386        -812.811          27.000  
J02  39307262.349   206561039.272       -2082.333          22.000  
> 2021  9 30 12  4 52.9975419  0  6
C06  36285937.768   188950431.274        -756.205          31.000  
C16  36646783.260   190829377.545        -724.887          31.000  
C22  22176021.959   115476308.062       -1593.029          25.000  
G26  20106708.715   105661502.444       -1271.835          25.000  
G32  21187399.369                       -2800.796          34.000    21187406.564    83143913.865       -2092.638          27.000  
J02  39307359.181   206561545.586       -2081.132          25.000  
> 2021  9 30 12  4 53.9975409  0  6
C06  36285784.874   188949625.383        -755.601          31.000  
C16  36646621.072   190828542.031        -725.884          32.000  
C19  23260938.487   121125845.8631      -4183.957          22.000  
C22  22176028.255   115476340.394       -1594.122          24.000  
G32  21187632.307                       -2800.293          33.000    21187640.102    83144830.292       -2094.174          28.000  
J02  39307458.113   206562051.280       -2081.369          25.000  
> 2021  9 30 12  4 54.9975404  0  7
C06  36285779.178   188949600.589        -756.202          30.000  
C16  36646608.181   190828487.298        -725.456          32.000  
C19  23261591.136   121129247.744       -4181.777          25.000  
C22  22176185.346   115477153.915       -1593.101          23.000  
C36  23154516.961   120571643.7631      -2674.184          17.000  
G32  21188021.438   111343775.3681      -2803.306          35.000    21188023.537    83146335.515       -2093.362          28.000  
J02  39307706.941   206563344.531       -2082.100          26.000  
> 2021  9 30 12  4 55.9975393  0  7
C06  36285594.805   188948639.401        -755.616          30.000  
C16  36646408.519   190827495.099        -725.633          32.000  
C19  23262064.208   121131713.594       -4183.469          25.000  
C36  23154702.233   120572603.915       -2679.325          13.000  
G32  21188228.295   111344844.875       -2803.568          35.000    21188226.796    83147135.144       -2092.844          28.000  
J01  36220541.341   190340124.0531       -809.504          25.000  
J02  39307774.094   206563693.040       -2081.404          25.000  
> 2021  9 30 12  4 56.9975386  0  6
C06  36285530.050   188948303.062        -757.101          30.000  
C16  36646342.565                        -723.682          31.000  
C36  23155007.122   120574191.191       -2680.830          13.000  
G32  21188549.373   111346544.817       -2803.748          33.000    21188549.972    83148404.967       -2094.223          28.000  
J01  36220488.578   190339830.884        -809.594          25.000  
J02  39307962.064   206564671.507       -2080.332          24.000  
> 2021  9 30 12  4 57.9975375  0  7
C06  36285345.378   188947342.254        -756.249          30.000  
C16  36646147.700   190826129.8011       -724.332          32.000  
C22  22176229.716   115477410.7421      -1599.784          18.000  
C36  23155191.195   120575157.206       -2686.222          12.000  
E30  22932323.383                       -2576.039          33.000  
G32  21188748.734   111347615.079       -2804.461          35.000    21188752.932    83149204.795       -2092.379          28.000  
J02  39308029.517   206565019.156       -2080.448          25.000  
> 2021  9 30 12  4 58.9975368  0  5
C06  36285281.822   188947005.150        -755.397          29.000  
C16  36646081.146   190825761.902        -724.508          31.000  
E30  22932604.588   120511645.5321      -2575.567          34.000  
G32  21189073.410   111349315.959       -2803.791          35.000    21189076.108    83150474.597       -2093.999          28.000  
J02  39308215.988   206565997.118       -2081.537          24.000  
> 2021  9 30 12  4 59.9975360  0  5
C06  36285187.687   188946512.037        -756.712          26.000  
C16  36645981.315   190825237.856        -722.220          30.000  
E30  22932855.514   120512960.979       -2577.753          33.000  
G32  21189367.806   111350859.713       -2803.881          35.000    21189370.204    83151626.178       -2094.234          29.000  
J02  39308373.080   206566818.278       -2082.087          26.000  
> 2021  9 30 12  5  0.9975350  0  5
C06  36285034.493   188945707.308        -755.923          27.000  
C16  36645823.624   190824401.664        -725.052          31.000  
E30  22933046.782   120513961.584       -2575.527          34.000  
G32                                                                  21189604.042    83152544.509       -2094.855          30.000  
J02  39308470.812   206567324.999       -2081.942          25.000  
> 2021  9 30 12  5  1.9975340  0  6
C06  36284882.199   188944902.327        -757.033          27.000  
C16  36645662.336   190823565.420        -725.020          31.000  
E30  22933236.251   120514962.517       -2575.837          34.000  
G32  21189837.281   111353318.7431      -2804.081          33.000    21189837.880    83153463.264       -2095.710          30.000  
J01  36219879.999   190336639.5941       -813.155          26.000  
J02  39308565.247   206567830.687       -2081.541          26.000  
> 2021  9 30 12  5  2.9975334  0  5
C06  36284848.922   188944722.211        -756.857          28.000  
C16  36645619.166   190823353.469        -725.496          31.000  
E30  22933545.637   120516593.552       -2576.696          33.000  
G32  21190195.533   111355178.816       -2805.786          31.000    21190192.835    83154853.427       -2097.593          29.000  
J02  39308781.097   206568966.532       -2081.388          27.000  
> 2021  9 30 12  5  3.9975324  0  7
C06  36284694.229   188943917.195        -756.263          30.000  
C16  36645456.378   190822517.191        -726.585          31.000  
E30  22933735.106   120517594.909       -2578.471          33.000  
G26  20106539.932   105660546.9781      -1273.517          15.000  
G32  21190431.769   111356409.087       -2804.343          31.000    21190429.071    83155774.415       -2096.805          23.000  
J01  36219707.318   190335745.3981       -812.890          26.000  
J02  39308878.829   206569472.084       -2080.549          27.000  
> 2021  9 30 12  5  4.9975316  0  5
C06  36284599.195   188943424.133        -755.614          30.000  
C16  36645352.051   190821992.996        -723.299          33.000  
E30  22933985.132   120518911.332       -2576.475          33.000  
G32                                                                  21190724.067    83156929.985       -2096.094          25.000  
J02  39309035.621   206570292.215       -2080.484          26.000  
> 2021  9 30 12  5  5.9975306  0  6
C06  36284444.802   188942618.515        -755.366          32.000  
C16  36645195.859   190821156.869        -724.824          30.000  
E30  22934173.102   120519913.250       -2578.482          32.000  
G32                                                                  21190956.106    83157849.613       -2095.590          27.000  
J01  36219477.078   190334534.1831       -812.845          26.000  
J02  39309133.953   206570797.131       -2080.543          25.000  
> 2021  9 30 12  5  6.9975299  0  7
C06  36284379.747   188942281.376        -756.378          31.000  
C16  36645132.603   190820788.981        -725.191          32.000  
E30  22934458.205   120521387.905       -2576.537          31.000  
G26  20106510.552   105660430.0921      -1275.215          17.000  
G32                                                                  21191278.683    83159122.334       -2096.502          28.000  
J01  36219421.017   190334244.651        -813.036          29.000  
J02  39309320.424   206571775.543       -2081.913          22.000  
> 2021  9 30 12  5  7.9975291  0  7
C06  36284282.314   188941788.600        -757.843          31.000  
C16  36645030.373   190820264.855        -720.736          32.000  
E30  22934710.630   120522705.118       -2577.006          31.000  
G26  20106515.649   105660445.784       -1277.589          26.000  
G32                                                                  21191571.580    83160277.703       -2096.126          27.000  
J01  36219336.475   190333797.794        -813.815          29.000  
J02  39309475.117   206572596.945       -2081.360          22.000  
> 2021  9 30 12  5  8.9975281  0  6
C06  36284124.623   188940984.287        -756.881          28.000  
C16  36644866.087   190819428.228        -724.172          31.000  
E30  22934899.499   120523707.144       -2577.013          32.000  
G26  20106459.588   105660148.736       -1279.868          24.000  
G32  21191791.028   111363669.7641      -2808.490          27.000    21191804.819    83161197.232       -2097.249          28.000  
J02  39309568.952   206573102.048       -2079.675          25.000  
> 2021  9 30 12  5  9.9975270  0  5
C06  36283939.052   188940022.960        -755.215          27.000  
C16  36644674.520   190818435.455        -726.124          32.000  
E30  22935060.788   120524551.887       -2576.719          33.000  
G32                                                                  21192010.177    83161999.502       -2095.846          28.000  
J02  39309633.707   206573448.985       -2079.579          26.000  
> 2021  9 30 12  5 10.9975265  0  5
C06  36283934.255   188939997.155        -754.536          27.000  
C16  36644664.926   190818379.432        -725.620          32.000  
E30  22935399.553   120526342.203       -2579.071          33.000  
G32                                                                  21192396.309    83163508.730       -2098.423          27.000  
J02  39309880.136   206574740.195       -2079.417          25.000  
> 2021  9 30 12  5 11.9975255  0  6
C06  36283778.963   188939190.909        -754.923          27.000  
C16  36644505.737   190817542.768        -724.783          32.000  
E30  22935592.020   120527344.943       -2579.086          33.000  
G32                                                                  21192631.646    83164430.356       -2097.554          28.000  
J01  36218874.495   190331378.5431       -812.028          25.000  
J02  39309974.871   206575244.611       -2080.023          26.000  
> 2021  9 30 12  5 12.9975247  0  6
C06  36283683.928   188938697.282        -755.858          26.000  
C16  36644404.407   190817018.166        -723.419          32.000  
E30  22935843.546   120528662.864       -2578.482          33.000  
G32                                                                  21192926.642    83165587.271       -2099.559          28.000  
J01  36218792.052   190330930.564        -812.689          24.000  
J02  39310130.763   206576064.575       -2080.425          27.000  
> 2021  9 30 12  5 13.9975237  0  6
C06  36283529.835   188937891.305        -755.447          27.000  
C16  36644244.917   190816181.496        -723.549          32.000  
E30  22936035.113   120529665.977       -2579.514          33.000  
G32                                                                  21193161.679    83166509.415       -2098.796          28.000  
J01  36218646.353   190330168.232        -813.451          26.000  
J02  39310228.195   206576569.581       -2080.602          27.000  
> 2021  9 30 12  5 14.9975229  0  6
C06  36283436.899   188937398.542        -756.737          27.000  
C16  36644142.688   190815657.695        -724.409          32.000  
C19  23272293.127   121184937.1611      -4184.908          17.000  
E30  22936282.142   120530985.143       -2579.397          33.000  
G32  21193425.197   111372325.2951      -2811.428          20.000    21193456.975    83167666.262       -2098.592          27.000  
J01  36218559.113   190329721.243        -814.096          27.000  
> 2021  9 30 12  5 15.9975222  0  6
C06  36283370.945   188937061.984        -756.519          26.000  
C16  36644078.233   190815289.537        -724.853          32.000  
E30  22936565.146   120532461.555       -2578.978          32.000  
G32  21193750.472   111374033.872       -2811.884          22.000    21193782.849    83168943.445       -2101.714          28.000  
J01  36218503.951   190329432.869        -814.715          27.000  
J02  39310570.558   206578368.6131      -2080.449          27.000  
> 2021  9 30 12  5 16.9975212  0  5
C06  36283215.652   188936256.567        -755.296          27.000  
C16  36643910.049   190814452.913        -726.348          32.000  
E30  22936756.714   120533465.531       -2580.975          33.000  
G32                                                                  21194017.887    83169867.967       -2100.899          28.000  
J02  39310666.192   206578872.871       -2078.994          27.000  
> 2021  9 30 12  5 17.9975204  0  6
C06  36283120.618   188935762.289        -754.145          27.000  
C16  36643808.719   190813928.598        -725.918          32.000  
C19  23273956.675   121193591.3851      -4181.925          17.000  
E30  22937008.240   120534784.820       -2579.107          33.000  
G32                                                                  21194312.583    83171026.392       -2099.802          28.000  
J02  39310821.784   206579692.104       -2079.655          27.000  
> 2021  9 30 12  5 18.9975196  0  6
C06  36283027.083   188935268.047        -754.517          28.000  
C16  36643709.788   190813404.548        -725.238          32.000  
C19  23274522.084   121196526.777       -4187.179          16.000  
E30  22937259.166   120536104.645       -2580.868          34.000  
G32                                                                  21194607.578    83172185.092       -2099.512          29.000  
J02  39310979.175   206580511.721       -2080.981          26.000  
> 2021  9 30 12  5 19.9975186  0  5
C06  36282872.990   188934460.908        -754.236          30.000  
C16  36643547.900   190812568.321        -725.725          32.000  
E30  22937450.433   120537109.846       -2581.348          31.000  
G32                                                                  21194842.916    83173109.082       -2100.673          28.000  
J01  36218040.772   190327017.9801       -815.283          29.000  
> 2021  9 30 12  5 20.9975178  0  7
C06  36282779.155   188933966.332        -754.325          28.000  
C16  36643447.769   190812046.751        -725.323          27.000  
C19  23275594.741   121202089.9761      -4188.084          14.000  
E30  22937704.058   120538430.239       -2580.501          30.000  
G32                                                                  21195138.211    83174269.147       -2101.414          26.000  
J02  39311230.701   206581837.8161      -2080.422          23.000  
R04  20648199.549   110570170.3391      -4598.350          24.000  
> 2021  9 30 12  5 21.9975168  0  8
C06  36282625.061   188933159.932        -755.756          29.000  
C16  36643287.080   190811210.262        -724.543          29.000  
C19  23276099.292   121204719.614       -4193.594          13.000  
C22  22177415.994   115483637.6041      -1611.475          29.000  
E30  22937892.927   120539436.089       -2583.227          29.000  
G32                                                                  21195372.949    83175194.138       -2101.657          27.000  
J01  36217813.230   190325814.3621       -815.521          24.000  
J02  39311326.635   206582343.010       -2080.239          22.000  
> 2021  9 30 12  5 22.9975160  0  8
C06  36282530.927   188932667.132        -756.479          28.000  
C16  36643188.149   190810685.947        -725.054          27.000  
C22  22177487.945   115484000.376       -1611.820          32.000  
E30  22938142.954   120540757.189       -2580.931          30.000  
G32  21195654.754   111383969.2261      -2816.457          25.000    21195667.645    83176354.179       -2101.845          25.000  
J01  36217728.388   190325369.865        -816.294          22.000  
J02  39311480.129   206583162.895       -2080.003          18.000  
R04  20649365.742   110576415.4911      -4596.981          15.000  
> 2021  9 30 12  5 23.9975153  0  8
C06  36282467.670   188932330.859        -756.074          27.000  
C16  36643119.796   190810318.734        -726.006          16.000  
C19  23277263.086   121210769.1411      -4200.708          18.000  
C22  22177590.174   115484519.481       -1612.095          33.000  
E30  22938424.759   120542235.562       -2580.761          29.000  
G32  21195986.024   111385682.444       -2816.099          35.000    21195992.320    83177632.555       -2102.753          23.000  
J02  39311666.000   206584140.788       -2080.346          23.000  
R04  20650019.289   110579914.969       -4597.369          25.000  
> 2021  9 30 12  5 24.9975142  0  6
C06  36282284.497   188931368.952        -755.290          23.000  
C16  36642928.828   190809327.409        -726.017          26.000  
C22  22177569.488   115484412.637       -1611.275          25.000  
E30  22938589.045   120543084.077       -2580.374          32.000  
G32  21196192.881   111386764.947       -2812.965          32.000    21196197.977    83178441.554       -2102.946          29.000  
J02  39311733.153   206584487.016       -2078.653          23.000  
> 2021  9 30 12  5 25.9975135  0  6
C06  36282219.142   188931031.255        -755.294          25.000  
C16  36642855.979   190808959.272        -724.521          25.000  
C22  22177669.919   115484932.276       -1613.152          23.000  
E30  22938869.651   120544563.248       -2583.070          31.000  
G32  21196517.856   111388475.891       -2815.327          30.000    21196525.051    83179721.886       -2104.573          29.000  
R04  20651202.570   110586251.7031      -4599.681          27.000  
> 2021  9 30 12  5 26.9975127  0  8
C06  36282125.008   188930537.065        -754.992          26.000  
C16  36642754.349   190808435.284        -725.209          28.000  
C22  22177738.871   115485299.057       -1617.627          18.000  
E30  22939120.577   120545885.025       -2582.699          33.000  
G32  21196812.552   111390031.077       -2817.032          26.000    21196820.946    83180885.401       -2106.358          26.000  
J01  36217362.342   190323436.3931       -815.007          26.000  
J02  39312073.418   206586282.2051      -2080.178          17.000  
R04  20651819.843   110589556.756       -4602.694          27.000  
> 2021  9 30 12  5 27.9975117  0  7
C06  36281969.115   188929731.985        -756.352          25.000  
C16  36642592.761   190807599.295        -725.498          30.000  
C22  22177749.663   115485355.356       -1618.008          20.000  
E30  22939312.145   120546891.975       -2583.960          32.000  
G32  21197051.187   111391272.957       -2817.441          27.000    21197058.082    83181817.295       -2112.938          19.000  
J02  39312169.651   206586786.793       -2080.465          24.000  
R04  20652378.956   110592550.913       -4604.488          22.000  
> 2021  9 30 12  5 28.9975109  0  5
C06  36281873.182   188929239.108        -756.891          26.000  
C16  36642492.330   190807075.672        -725.195          29.000  
C22  22177821.614   115485723.561       -1616.656          20.000  
E30  22939562.471   120548213.058       -2579.402          27.000  
G32  21197347.082   111392830.725       -2818.643          24.000    21197353.977    83182987.882       -2110.280          18.000  
> 2021  9 30 12  5 29.9975099  0  5
C06  36281718.189   188928433.839        -754.860          25.000  
C16  36642333.440   190806239.840        -725.173          21.000  
C22  22177833.006   115485778.729       -1614.648          20.000  
E30  22939752.240   120549218.326       -2581.042          24.000  
G32  21197583.019   111394074.163       -2819.066          26.000    21197590.214    83183917.386       -2104.115          19.000  
> 2021  9 30 12  5 30.9975091  0  6
C06  36281623.455   188927939.045        -754.088          26.000  
C22  22177904.057   115486144.343       -1614.263          24.000  
E30  22940002.267   120550540.070       -2583.453          23.000  
G32  21197878.914   111395632.982       -2819.533          31.000    21197887.008    83185078.718       -2101.908          20.000  
J01  36216905.458   190321022.4241       -816.626          19.000  
J02  39312577.369   206588924.3341      -2079.683          17.000  
> 2021  9 30 12  5 31.9975084  0  6
C06  36281561.398   188927600.699        -755.007          27.000  
C22  22178003.887   115486666.509       -1615.332          30.000  
E30  22940283.772   120552020.109       -2582.919          25.000  
G26  20106176.584   105658706.9331      -1289.904          30.000  
G32  21198204.488   111397350.549       -2821.452          32.000    21198213.482    83186358.329       -2104.294          24.000  
J02  39312762.941   206589899.869       -2078.587          19.000  
> 2021  9 30 12  5 32.9975073  0  7
C06  36281376.126   188926638.907        -756.142          28.000  
C22  22177984.401   115486565.190       -1616.730          32.000  
G26  20106092.342   105658264.166       -1290.950          29.000  
G32  21198410.146   111398438.653       -2820.399          30.000    21198420.639    83187169.629       -2105.456          27.000  
J01  36216674.018   190319824.5261       -819.294          20.000  
J02  39312825.297   206590246.740       -2080.006          20.000  
R04  20655363.989   110608535.9631      -4604.206          28.000  
> 2021  9 30 12  5 33.9975066  0  5
C06  36281313.170   188926302.102        -756.640          27.000  
C22  22178085.731   115487089.523       -1617.248          31.000  
G26  20106127.418   105658452.813       -1292.637          30.000  
G32                                                                  21198748.012    83188451.152       -2105.975          26.000  
R04  20656011.841   110612005.255       -4604.795          28.000  
> 2021  9 30 12  5 34.9975058  0  7
C06  36281218.435   188925809.484        -756.559          26.000  
C16  36641810.902   190803471.6901       -724.501          19.000  
C22  22178156.182   115487458.078       -1617.933          31.000  
G26  20106132.814   105658485.699       -1293.573          32.000  
G32                                                                  21199046.306    83189616.409       -2107.047          25.000  
J01  36216531.917   190319094.4641       -815.327          21.000  
R04  20656626.415   110615295.558       -4607.430          25.000  
> 2021  9 30 12  5 35.9975048  0  6
C06  36281064.342   188925003.208        -754.206          25.000  
C22  22178166.675   115487515.130       -1618.595          31.000  
G26  20106078.551   105658204.252       -1294.317          30.000  
G32                                                                  21199284.341    83190547.848       -2107.960          27.000  
J01  36216388.916   190318333.982        -814.278          25.000  
R04  20657189.725   110618312.445       -4606.564          24.000  
> 2021  9 30 12  5 36.9975040  0  5
C06  36280969.607   188924509.288        -755.710          24.000  
C16  36641551.582   190802112.0411       -727.015          19.000  
C22  22178237.126   115487884.756       -1618.693          32.000  
G26  20106087.245   105658238.215       -1294.663          29.000  
G32  21199576.638   111404526.6181      -2823.313          33.000  
> 2021  9 30 12  5 37.9975030  0  6
C06  36280814.914   188923704.627        -756.935          27.000  
C16  36641393.291   190801278.007        -726.178          20.000  
C22  22178247.019   115487942.347       -1619.342          31.000  
G26  20106032.983   105657957.310       -1294.891          30.000  
G32  21199811.376   111405773.655       -2821.963          34.000  
R04  20658375.704   110624663.1961      -4604.875          25.000  
> 2021  9 30 12  5 38.9975022  0  5
C06  36280721.079   188923212.453        -756.209          29.000  
C16  36641292.261   190800755.269        -725.600          23.000  
C22  22178323.166   115488313.297       -1619.972          31.000  
G26  20106040.178   105657992.183       -1295.617          30.000  
G32  21200101.875   111407336.076       -2822.675          33.000  
> 2021  9 30 12  5 39.9975014  0  6
C06  36280626.045   188922719.831        -756.199          30.000  
C16  36641192.131   190800232.234        -725.888          22.000  
C22  22178393.618   115488684.300       -1619.849          30.000  
G26  20106047.373   105658027.556       -1296.186          32.000  
G32  21200393.573   111408899.057       -2823.166          34.000  
R04  20659609.050   110631267.6001      -4611.227          21.000  
> 2021  9 30 12  5 40.9975004  0  6
C06  36280470.753   188921914.350        -755.751          30.000  
C16  36641032.041   190799396.589        -724.542          18.000  
C22  22178402.611   115488744.110       -1621.669          30.000  
E08                                                                                                                                  22140458.480    86883932.5671      -1864.094          23.000  
G26  20105994.010   105657748.085       -1296.269          30.000  
R04  20660169.662   110634270.177       -4607.001          21.000  
> 2021  9 30 12  5 41.9974996  0  6
C06  36280374.519   188921421.049        -756.108          26.000  
C22  22178472.763   115489116.730       -1621.238          27.000  
E08                                                                                                                                  22140694.116    86884859.309       -1867.609          22.000  
G26  20105999.706   105657784.050       -1296.466          29.000  
G32  21200938.596   111411711.5771      -2824.602          33.000  
R04  20660786.335   110637572.130       -4611.737          17.000  
> 2021  9 30 12  5 42.9974986  0  6
C06  36280219.527   188920616.350        -756.932          26.000  
C16  36640768.224   190798038.3691       -725.393          17.000  
C22  22178484.155   115489177.022       -1622.352          28.000  
E08                                                                                                                                  22140870.394    86885548.921       -1864.472          25.000  
G26  20105944.844   105657505.374       -1297.506          27.000  
R04  20661350.844   110640595.371       -4609.039          20.000  
> 2021  9 30 12  5 43.9974979  0  7
C06  36280154.472   188920279.837        -755.554          26.000  
C16  36640696.873   190797670.544        -724.799          24.000  
C22  22178586.984   115489707.460       -1623.753          26.000  
E08                                                                                                                                  22141134.811    86886588.245       -1860.956          22.000  
E30  22943051.456   120566492.7351      -2586.924          27.000  
G26  20105980.519   105657699.779       -1297.367          27.000  
G32  21201503.704   111414683.3171      -2824.846          35.000  
> 2021  9 30 12  5 44.9974971  0  8
C06  36280059.437   188919786.186        -754.617          29.000  
C16  36640594.644   190797145.456        -722.239          25.000  
C22  22178657.135   115490081.816       -1623.625          26.000  
E08                                                                                                                                  22141369.549    86887508.414       -1861.414          22.000  
E30  22943301.483   120567818.409       -2585.177          30.000  
G26  20105986.815   105657737.661       -1298.584          27.000  
G32  21201802.897   111416248.426       -2826.735          31.000  
R04  20662623.763   110647411.7301      -4611.308          21.000  
> 2021  9 30 12  5 45.9974961  0  6
C06  36279904.445   188918979.209        -754.910          29.000  
C22  22178668.527   115490144.266       -1623.704          27.000  
E08                                                                                                                                  22141544.028    86888195.650       -1865.401          25.000  
E30  22943491.252   120568828.646       -2585.903          26.000  
G26  20105933.452   105657460.716       -1297.981          27.000  
G32  21202028.941   111417499.092       -2826.923          31.000  
> 2021  9 30 12  5 46.9974953  0  7
C06  36279808.811   188918484.992        -754.429          31.000  
C22  22178740.777   115490519.320       -1624.208          29.000  
E08                                                                                                                                  22141780.564    86889121.693       -1866.431          22.000  
E30  22943740.979   120570154.650       -2586.702          28.000  
G26  20105940.647   105657499.103       -1298.956          24.000  
G32  21202330.532   111419065.208       -2826.960          32.000  
R04  20663822.633   110653831.0241      -4613.584          23.000  
> 2021  9 30 12  5 47.9974945  0  6
C06  36279713.477   188917990.725        -755.389          30.000  
C22  22178813.627   115490895.035       -1624.720          28.000  
E08                                                                                                                                  22142017.700    86890045.065       -1864.858          24.000  
G26  20105947.842   105657537.869       -1299.042          25.000  
G32  21202628.825   111420631.910       -2826.760          33.000  
R04  20664450.399   110657193.121       -4613.684          26.000  
> 2021  9 30 12  5 48.9974935  0  5
C06  36279557.585   188917184.796        -755.407          30.000  
C22  22178827.117   115490959.155       -1625.189          30.000  
E08                                                                                                                                  22142193.978    86890731.743       -1862.140          24.000  
G32  21202871.657   111421884.064       -2827.304          34.000    21202881.551    83204672.1921      -2110.713          24.000  
R04  20665013.709   110660209.990       -4614.101          27.000  
> 2021  9 30 12  5 49.9974927  0  7
C06  36279462.251   188916690.859        -754.982          28.000  
C22  22178898.768   115491336.054       -1626.286          29.000  
E08                                                                                                                                  22142430.514    86891654.477       -1866.118          22.000  
G26  20105905.571   105657304.9621      -1302.554          24.000  
G32                                                                  21203178.645    83205842.119       -2111.437          26.000  
J02  39315176.869   206602610.5741      -2079.379          22.000  
R04  20665635.778   110663540.762       -4615.158          27.000  
> 2021  9 30 12  5 50.9974917  0  6
C06  36279306.359   188915884.023        -753.773          27.000  
C22  22178910.160   115491402.237       -1627.343          25.000  
G26  20105856.405   105657031.846       -1303.214          26.000  
G32  21203404.389   111424704.9201      -2828.480          31.000    21203418.479    83206777.382       -2112.480          25.000  
J02  39315270.105   206603113.167       -2076.571          21.000  
R04  20666196.690   110666544.318       -4619.144          24.000  
> 2021  9 30 12  5 51.9974909  0  6
C06  36279211.924   188915387.390        -751.628          21.000  
C22  22178982.410   115491781.052       -1628.869          28.000  
G26  20105866.298   105657074.646       -1303.681          27.000  
G32  21203704.481   111426273.168       -2828.830          26.000    21203717.971    83207949.193       -2113.750          29.000  
J02  39315428.095   206603928.598       -2074.555          22.000  
R04  20666824.155   110669904.472       -4616.041          20.000  
> 2021  9 30 12  5 52.9974902  0  5
C06  36279145.970   188915045.157        -750.822          25.000  
C22  22179086.138   115492317.120       -1629.579          24.000  
G26  20105904.972   105657275.121       -1302.939          21.000  
G32                                                                  21204046.844    83209239.230       -2113.507          25.000  
R04  20667471.107   110673368.464       -4619.513          20.000  
> 2021  9 30 12  5 53.9974892  0  4
C06  36278989.778   188914234.960        -751.776          23.000  
C22  22179099.929   115492387.282       -1633.233          21.000  
G26  20105853.108   105657002.958       -1304.266          26.000  
G32  21204271.988   111429252.8211      -2829.450          30.000    21204287.577    83210175.901       -2113.823          25.000  
> 2021  9 30 12  5 54.9974884  0  1
C06  36278893.844   188913737.597        -753.179          21.000  
> 2021  9 30 12  5 55.9974876  0  2
C06  36278800.009   188913241.658        -754.147          19.000  
G32  21204869.474   111432395.0561      -2832.031          23.000  
> 2021  9 30 12  5 56.9974866  0  3
C22  22179260.917   115493229.3951      -1632.825          20.000  
G32  21205108.409   111433651.412       -2832.129          29.000  
R04  20669869.447   110686212.2701      -4619.045          19.000  
> 2021  9 30 12  5 57.9974858  0  3
C06  36278553.580   188911943.7601       -756.091          25.000  
C22  22179335.266   115493612.246       -1630.295          21.000  
R04  20670494.215   110689557.498       -4621.048          20.000  
> 2021  9 30 12  5 58.9974848  0  4
C06  36278399.786   188911139.520        -757.284          20.000  
C22  22179347.557   115493681.244       -1630.589          23.000  
G26  20105773.663   105656586.2991      -1299.062          16.000  
R04  20671060.223   110692588.121       -4620.937          19.000  
> 2021  9 30 12  5 59.9974840  0  2
G26  20105779.658   105656626.513       -1302.509          16.000  
G32  21205950.226   111438053.8351      -2833.730          21.000  
> 2021  9 30 12  6  0.9974833  0  5
C06  36278244.194   188910313.1611       -757.572          22.000  
C22  22179525.934   115494599.5061      -1630.709          22.000  
G26  20105820.730   105656827.893       -1306.241          25.000  
G32  21206279.698   111439784.642       -2833.415          27.000  
R04  20672320.250   110699335.8131      -4620.454          19.000  
> 2021  9 30 12  6  1.9974822  0  5
C06  36278060.421   188909352.511        -753.216          22.000  
C22  22179507.646   115494513.021       -1631.694          23.000  
G26  20105736.488   105656401.984       -1308.225          25.000  
G32  21206491.352   111440885.513       -2833.978          30.000  
R04  20672850.583   110702175.792       -4620.866          20.000  
> 2021  9 30 12  6  2.9974815  0  4
C22  22179611.674   115495051.599       -1631.123          27.000  
G26  20105774.262   105656607.593       -1309.347          26.000  
G32  21206822.922   111442617.121       -2834.876          29.000  
R04  20673500.533   110705656.009       -4621.112          24.000  
> 2021  9 30 12  6  3.9974807  0  4
C22  22179686.323   115495436.059       -1634.718          23.000  
G26  20105782.956   105656656.850       -1310.058          28.000  
G32  21207122.415   111444191.509       -2834.692          30.000  
R04  20674119.605   110708971.290       -4624.266          23.000  
> 2021  9 30 12  6  4.9974797  0  4
C22  22179701.312   115495509.690       -1635.794          23.000  
G26  20105732.591   105656390.964       -1309.586          26.000  
G32  21207361.349   111445450.690       -2834.746          32.000  
R04  20674676.919   110711955.738       -4622.099          25.000  
> 2021  9 30 12  6  5.9974789  0  4
C22  22179776.260   115495896.346       -1636.022          23.000  
G26  20105741.285   105656440.505       -1310.717          28.000  
G32  21207659.943   111447024.416       -2833.777          33.000  
R04  20675305.884   110715323.635       -4624.782          23.000  
> 2021  9 30 12  6  6.9974779  0  3
C22  22179789.451   115495970.845       -1635.580          27.000  
G26  20105689.721   105656175.443       -1310.649          28.000  
G32  21207899.177   111448283.237       -2834.978          29.000  
> 2021  9 30 12  6  7.9974771  0  3
C22  22179864.100   115496356.917       -1635.309          27.000  
G26  20105699.914   105656227.578       -1313.110          26.000  
G32  21208199.569   111449858.307       -2835.852          28.000  
> 2021  9 30 12  6  8.9974764  0  3
C22  22179967.828   115496899.820       -1635.390          27.000  
G26  20105740.086   105656438.025       -1313.609          25.000  
G32  21208528.141   111451591.219       -2836.488          29.000  
> 2021  9 30 12  6  9.9974753  0  3
C22  22179951.339   115496818.806       -1637.140          27.000  
G26  20105661.240   105656018.679       -1313.975          26.000  
G32  21208738.296   111452695.141       -2837.315          31.000  
> 2021  9 30 12  6 10.9974746  0  3
C22  22180055.067   115497364.441       -1639.561          29.000  
G26  20105702.612   105656229.159       -1312.106          24.000  
G32  21209067.168   111454430.023       -2838.196          29.000  
> 2021  9 30 12  6 11.9974738  0  3
C22  22180128.517   115497754.288       -1638.532          27.000  
G26  20105713.704   105656281.223       -1312.673          26.000  
G32  21209366.361   111456008.245       -2839.246          29.000  
> 2021  9 30 12  6 12.9974728  0  3
C22  22180142.007   115497833.110       -1640.636          26.000  
G26  20105662.440   105656018.646       -1312.420          25.000  
G32  21209606.495   111457271.812       -2839.008          27.000    21209619.386    83231101.8031      -2120.748          28.000  
> 2021  9 30 12  6 13.9974720  0  3
C22  22180216.955   115498224.722       -1640.342          29.000  
G26  20105675.630   105656071.251       -1313.335          25.000  
G32  21209905.988   111458850.396       -2838.560          29.000    21209918.579    83232281.253       -2119.041          27.000  
> 2021  9 30 12  6 14.9974710  0  3
C22  22180231.945   115498303.812       -1640.282          28.000  
G26  20105628.263   105655809.222       -1313.800          28.000  
G32  21210147.321   111460113.955       -2839.216          29.000    21210158.113    83233224.639       -2121.146          24.000  
> 2021  9 30 12  6 15.9974702  0  3
C22  22180307.193   115498695.013       -1639.682          28.000  
G26  20105637.857   105655863.625       -1315.203          25.000  
G32  21210447.413   111461693.111       -2839.719          29.000    21210458.805    83234405.376       -2121.758          25.000  
> 2021  9 30 12  6 16.9974694  0  3
C22  22180382.141   115499085.925       -1640.603          25.000  
G26  20105648.049   105655918.390       -1315.791          24.000  
G32  21210750.503   111463272.589       -2840.341          27.000    21210760.396    83235585.622       -2121.077          27.000  
> 2021  9 30 12  6 17.9974684  0  3
C22  22180398.030   115499165.358       -1640.632          25.000  
G26  20105598.584   105655658.490       -1316.004          27.000  
G32  21210993.335   111464537.590       -2840.691          27.000    21211000.830    83236530.917       -2119.643          27.000  
> 2021  9 30 12  6 18.9974676  0  3
C22  22180475.077   115499559.099       -1643.936          27.000  
G26  20105610.575   105655714.297       -1315.904          27.000  
G32  21211295.226   111466118.421       -2842.010          28.000  
> 2021  9 30 12  6 19.9974669  0  3
C22  22180583.002   115500108.519       -1642.239          25.000  
G26  20105650.748   105655928.438       -1317.842          26.000  
G32  21211629.195   111467857.966       -2842.414          26.000  
> 2021  9 30 12  6 20.9974659  0  3
C22  22180600.090   115500189.309       -1643.218          24.000  
G26  20105599.783   105655671.833       -1318.802          25.000  
G32  21211874.425   111469125.219       -2841.974          25.000  
> 2021  9 30 12  6 21.9974651  0  4
C06  36275812.877   188897694.1751       -753.458          28.000  
C22  22180675.338   115500583.903       -1643.617          26.000  
G26  20105610.575   105655730.387       -1318.454          25.000  
G32  21212180.213   111470707.436       -2842.421          24.000  
> 2021  9 30 12  6 22.9974641  0  4
C06  36275659.084   188896886.574        -754.129          24.000  
C22  22180690.328   115500666.298       -1644.047          29.000  
G26  20105560.810   105655473.439       -1318.404          28.000  
G32  21212420.947   111471974.472       -2843.411          27.000  
> 2021  9 30 12  6 23.9974633  0  3
C06  36275563.450   188896390.228        -752.253          25.000  
C22  22180765.276   115501061.458       -1643.920          30.000  
G26  20105571.902   105655531.465       -1318.106          28.000  
> 2021  9 30 12  6 24.9974625  0  4
C06  36275466.917   188895892.373        -751.579          26.000  
C22  22180840.823   115501456.710       -1644.911          29.000  
G26  20105582.995   105655588.109       -1316.775          27.000  
G32  21213022.030   111475139.9861      -2844.627          28.000  
> 2021  9 30 12  6 25.9974615  0  4
C06  36275311.025   188895081.751        -749.858          26.000  
C22  22180856.712   115501541.761       -1647.345          28.000  
G26  20105533.829   105655329.462       -1317.716          25.000  
G32  21213262.464   111476409.148       -2844.647          26.000  
> 2021  9 30 12  6 26.9974605  0  4
C06  36275156.632   188894270.032        -747.989          24.000  
C22  22180875.599   115501628.251       -1648.174          26.000  
G26  20105487.960   105655072.993       -1319.943          26.000  
G32  21213504.996   111477679.021       -2845.830          27.000  
> 2021  9 30 12  6 27.9974600  0  4
C06  36275150.036   188894237.323        -748.481          29.000  
C22  22181044.083   115502492.938       -1644.061          26.000  
G26  20105588.691   105655604.312       -1318.078          28.000  
G32  21213895.626   111479737.038       -2844.988          28.000  
> 2021  9 30 12  6 28.9974589  0  4
C06  36274964.165   188893268.890        -748.780          28.000  
C22  22181031.192   115502419.338       -1643.313          29.000  
G26  20105511.644   105655190.092       -1319.458          28.000  
G32  21214105.480   111480849.361       -2845.387          31.000  
> 2021  9 30 12  6 29.9974582  0  4
C06  36274898.810   188892926.512        -752.294          26.000  
C22  22181136.419   115502971.151       -1646.495          27.000  
G26  20105553.915   105655407.395       -1320.183          26.000  
G32  21214436.751   111482592.588       -2847.040          28.000  
> 2021  9 30 12  6 30.9974572  0  4
C06  36274744.117   188892117.842        -753.365          25.000  
C22  22181153.507   115503056.503       -1647.060          25.000  
G26  20105504.449   105655152.159       -1320.526          27.000  
G32  21214678.983   111483864.319       -2847.924          26.000  
> 2021  9 30 12  6 31.9974564  0  4
C06  36274650.282   188891622.821        -753.898          20.000  
C22  22181231.153   115503455.233       -1648.403          26.000  
G26  20105515.541   105655212.581       -1320.546          23.000  
G32  21214979.076   111485450.720       -2846.768          24.000  
> 2021  9 30 12  6 32.9974556  0  4
C06  36274552.850   188891128.709        -754.459          20.000  
C22  22181307.300   115503855.479       -1649.640          25.000  
G26  20105526.634   105655274.608       -1323.713          24.000  
G32  21215280.667   111487037.404       -2846.843          26.000  
> 2021  9 30 12  6 33.9974546  0  4
C16  36634634.770   190766153.3401       -720.746          26.000  
C22  22181323.489   115503943.767       -1650.721          25.000  
G26  20105481.365   105655023.729       -1325.820          25.000  
G32  21215522.599   111488309.969       -2848.308          25.000  
> 2021  9 30 12  6 34.9974536  0  5
C06  36274246.162   188889513.2431       -752.260          22.000  
C16  36634475.580   190765313.543        -720.827          24.000  
C22  22181341.177   115504033.589       -1651.043          27.000  
G26  20105432.799   105654774.222       -1325.010          27.000  
G32  21215765.131   111489583.590       -2849.134          29.000  
> 2021  9 30 12  6 35.9974531  0  5
C06  36274239.267   188889484.335        -751.240          22.000  
C16  36634463.289   190765252.914        -719.527          23.000  
C22  22181508.161   115504904.768       -1652.027          31.000  
G26  20105535.927   105655311.274       -1326.005          26.000  
G32  21216156.061   111491645.003       -2848.553          28.000  
> 2021  9 30 12  6 36.9974520  0  5
C06  36274052.196   188888517.399        -751.757          18.000  
C16  36634270.522   190764254.411        -718.851          22.000  
C22  22181496.170   115504839.747       -1652.246          29.000  
G26  20105458.581   105654903.590       -1325.932          28.000  
G32  21216368.614   111492761.033       -2849.403          28.000  
> 2021  9 30 12  6 37.9974513  0  3
C22  22181603.196   115505399.231       -1652.772          31.000  
G26  20105501.751   105655127.330       -1326.986          28.000  
G32  21216698.985   111494507.967       -2850.271          29.000  
> 2021  9 30 12  6 38.9974502  0  5
C06  36273804.268   188887209.5421       -751.755          18.000  
C16  36634012.701   190762881.8791       -720.148          18.000  
C22  22181591.804   115505334.636       -1653.156          27.000  
G26  20105425.304   105654721.189       -1326.360          25.000  
G32  21216909.439   111495624.880       -2849.445          29.000  
> 2021  9 30 12  6 39.9974495  0  4
C16  36633941.350   190762510.520        -723.598          20.000  
C36  23181260.247   120710904.5331      -2675.506          32.000  
G26  20105466.375   105654945.663       -1327.620          27.000  
G32  21217242.209   111497371.911       -2850.203          26.000  
> 2021  9 30 12  6 40.9974487  0  4
C16  36633840.620   190761984.528        -721.537          20.000  
C36  23181534.857   120712330.782       -2674.542          32.000  
G26  20105478.367   105655012.796       -1327.333          26.000  
G32  21217545.599   111498961.646       -2849.816          27.000  
> 2021  9 30 12  6 41.9974477  0  4
C16  36633675.734   190761144.294        -722.039          24.000  
C36  23181748.310   120713445.769       -2676.311          31.000  
G26  20105430.100   105654764.813       -1326.863          30.000  
G32  21217788.731   111500236.526       -2850.731          28.000  
> 2021  9 30 12  6 42.9974469  0  2
C36  23182022.020   120714873.202       -2675.452          29.000  
G26  20105444.790   105654831.915       -1329.127          28.000  
> 2021  9 30 12  6 43.9974461  0  5
C16  36633473.374   190760088.9321       -721.839          23.000  
C36  23182295.131   120716300.242       -2677.008          29.000  
G26  20105460.379   105654901.026       -1330.109          26.000  
G29  23772849.998   124927168.9441      -2099.466          29.000  
G32  21218395.211   111503419.8601      -2852.805          27.000  
> 2021  9 30 12  6 44.9974451  0  4
C16  36633312.985   190759249.513        -721.509          26.000  
C36  23182508.883   120717416.547       -2678.123          23.000  
G26  20105413.612   105654656.087       -1330.493          29.000  
G32  21218639.841   111504697.784       -2854.204          27.000  
> 2021  9 30 12  6 45.9974444  0  5
C16  36633241.335   190758878.145        -722.616          24.000  
C36  23182814.671   120719002.655       -2678.961          27.000  
G26  20105457.381   105654884.461       -1331.768          26.000  
G29  23773135.401   124928688.4361      -2098.170          23.000  
G32  21218975.009   111506450.103       -2855.294          27.000  
> 2021  9 30 12  6 46.9974433  0  5
C16  36633050.367   190757882.051        -719.734          26.000  
C36  23182999.044   120719964.854       -2678.306          28.000  
G26  20105379.435   105654483.552       -1332.466          30.000  
G29  23773201.655   124929053.620       -2099.160          23.000  
G32  21219188.162   111507572.348       -2854.893          28.000  
> 2021  9 30 12  6 47.9974428  0  5
C16  36633038.975   190757821.878        -720.793          26.000  
C36  23183364.791   120721862.596       -2678.665          27.000  
G26  20105481.665   105655028.170       -1332.353          28.000  
G29  23773451.082   124930367.409       -2103.236          24.000  
G32  21219580.290   111509638.332       -2853.575          24.000  
> 2021  9 30 12  6 48.9974418  0  5
C16  36632876.487   190756982.281        -721.655          23.000  
C36  23183579.442   120722980.075       -2678.576          27.000  
G26  20105433.698   105654784.824       -1332.123          25.000  
G29  23773551.813   124930896.405       -2105.087          26.000  
G32  21219821.024   111510916.521       -2854.034          25.000  
> 2021  9 30 12  6 49.9974408  0  4
C16  36632716.998   190756145.298        -725.702          22.000  
C36  23183791.995   120724098.556       -2679.739          23.000  
G29  23773651.943   124931428.087       -2109.157          29.000  
G32  21220060.558   111512195.894       -2854.656          23.000  
> 2021  9 30 12  6 50.9974400  0  3
C36  23184065.705   120725531.706       -2682.573          25.000  
G26  20105401.320   105654615.6631      -1332.815          20.000  
G32  21220362.449   111513791.547       -2856.852          29.000  
> 2021  9 30 12  6 51.9974392  0  5
C16  36632516.736   190755096.6131       -724.055          24.000  
C36  23184343.013   120726965.213       -2683.177          27.000  
G26  20105410.614   105654687.771       -1332.519          24.000  
G29  23773977.218   124933125.7611      -2107.777          28.000  
G32  21220665.839   111515388.202       -2857.007          33.000  
> 2021  9 30 12  6 52.9974385  0  5
C16  36632450.182   190754727.191        -722.312          24.000  
C36  23184648.502   120728553.827       -2680.200          27.000  
G26  20105452.285   105654917.213       -1332.732          24.000  
G29  23774172.083   124934130.277       -2106.898          27.000  
G32  21220998.908   111517142.648       -2857.341          35.000  
> 2021  9 30 12  6 53.9974374  0  5
C16  36632258.915   190753732.022        -721.626          24.000  
C36  23184832.574   120729516.308       -2680.429          27.000  
G26  20105372.840   105654516.955       -1333.505          24.000  
G29  23774244.033   124934503.806       -2106.789          26.000  
G32  21221217.157   111518266.951       -2857.045          35.000  
> 2021  9 30 12  6 54.9974364  0  5
C16  36632097.627   190752892.360        -721.799          24.000  
C36  23185046.926   120730635.258       -2679.862          27.000  
G26  20105324.274   105654274.248       -1332.718          23.000  
G29  23774346.862   124935036.322       -2109.635          27.000  
G32  21221458.790                       -2857.106          35.000  
> 2021  9 30 12  6 55.9974359  0  4
C16  36632085.935   190752834.290        -723.097          24.000  
C36  23185412.073   120732534.857       -2679.234          27.000  
G29  23774598.988   124936358.849       -2110.418          27.000  
G32  21221853.916                       -2858.759          34.000  
> 2021  9 30 12  6 56.9974349  0  4
C16  36631927.045   190751996.329        -723.389          22.000  
C36  23185626.125   120733652.952       -2678.789          28.000  
G26  20105384.532   105654580.9401      -1334.556          26.000  
G29  23774700.917   124936893.285       -2109.812          26.000  
> 2021  9 30 12  6 57.9974339  0  3
C16  36631766.656   190751158.444        -723.518          22.000  
C36  23185842.275   120734769.968       -2677.865          26.000  
G29  23774802.247   124937427.872       -2110.866          26.000  
> 2021  9 30 12  6 58.9974331  0  5
C16  36631662.628   190750631.655        -721.679          21.000  
C36  23186116.585   120736199.652       -2679.783          25.000  
G26  20105356.052   105654416.5471      -1337.376          26.000  
G29  23774962.936   124938278.343       -2110.283          27.000  
G32  21222639.972   111525754.8711      -2860.685          31.000  
> 2021  9 30 12  6 59.9974323  0  5
C16  36631559.499   190750104.369        -721.857          24.000  
C36  23186390.896   120737630.479       -2680.258          28.000  
G26  20105372.540   105654494.254       -1338.236          30.000  
G29  23775124.824   124939129.473       -2112.781          27.000  
G32  21222942.762   111527354.903       -2859.251          30.000  
> 2021  9 30 12  7  0.9974316  0  5
C36  23186696.684   120739217.094       -2679.501          33.000  
G26  20105417.509   105654729.894       -1339.050          29.000  
G29  23775317.890   124940139.325       -2113.139          26.000  
G32  21223280.329   111529113.074       -2860.870          31.000  
J01                                                                  36207614.590   142086456.6691       -617.478          23.000  
> 2021  9 30 12  7  1.9974305  0  4
C36  23186881.356   120740179.908       -2680.289          33.000  
G29  23775389.840   124940519.179       -2112.775          25.000  
G32  21223497.379   111530241.693       -2861.830          31.000  
J01                                                                  36207442.509   142085779.035        -614.899          24.000  
> 2021  9 30 12  7  2.9974295  0  5
C16  36631135.593   190747898.6911       -723.086          19.000  
C36  23187095.708   120741299.058       -2679.778          27.000  
G26  20105300.890   105654100.5011      -1339.462          28.000  
G29  23775492.369   124941056.502       -2112.807          27.000  
J01                                                                  36207299.808   142085218.696        -616.344          24.000  
> 2021  9 30 12  7  3.9974290  0  6
C16  36631123.601   190747841.216        -723.140          24.000  
C19  23332049.558   121496333.7161      -4212.665          26.000  
C36  23187459.956   120743198.052       -2679.128          28.000  
G26  20105407.016   105654652.021       -1339.044          30.000  
G29  23775743.595   124942381.215       -2112.116          29.000  
J01                                                                  36207306.703   142085245.471        -614.282          24.000  
> 2021  9 30 12  7  4.9974280  0  7
C16  36630960.514   190747003.467        -724.612          18.000  
C19  23332559.505   121498986.307       -4213.562          26.000  
C36  23187674.307   120744315.988       -2679.545          33.000  
G26  20105362.647   105654415.992       -1339.432          27.000  
G29  23775848.822   124942917.584       -2112.038          27.000  
G32  21224381.167   111534890.8141      -2861.853          31.000  
J01                                                                  36207163.402   142084682.966        -614.242          26.000  
> 2021  9 30 12  7  5.9974272  0  4
C19  23333127.012   121501951.265       -4215.095          29.000  
C36  23187948.917   120745746.999       -2679.721          35.000  
G26  20105380.035   105654495.818       -1342.006          27.000  
J01                                                                  36207080.060   142084355.896        -613.177          27.000  
> 2021  9 30 12  7  6.9974262  0  4
C36  23188165.067   120746865.398       -2680.531          35.000  
G26  20105335.966   105654262.604       -1342.307          27.000  
G29  23776111.740   124944309.0071      -2114.839          27.000  
G32  21224931.586   111537779.8061      -2863.443          27.000    21224948.374    83291253.7171      -2138.555          29.000  
> 2021  9 30 12  7  7.9974254  0  4
C36  23188439.977   120748296.155       -2679.823          35.000  
G26  20105352.454   105654343.948       -1341.307          27.000  
G29  23776273.928   124945164.989       -2116.064          27.000  
G32  21225239.472   111539383.009       -2863.892          26.000    21225253.263    83292450.872       -2139.209          28.000  
> 2021  9 30 12  7  8.9974246  0  5
C19  23334777.070   121510544.8591      -4216.950          16.000  
C36  23188715.187                       -2679.550          35.000  
G26  20105370.142   105654426.037       -1343.290          25.000  
G29  23776436.715   124946021.193       -2118.359          27.000  
G32  21225545.561   111540986.793       -2864.377          27.000    21225558.452    83293648.631       -2136.956          28.000  
> 2021  9 30 12  7  9.9974236  0  5
C22  22183492.188   115515256.1371      -1667.187          30.000  
C36  23188931.337   120750842.9351      -2679.874          36.000  
G26  20105326.372   105654193.969       -1343.712          25.000  
G29  23776537.146   124946564.043       -2117.594          24.000  
G32  21225792.590   111542275.899       -2864.681          28.000    21225804.581    83294609.819       -2138.933          27.000  
> 2021  9 30 12  7 10.9974226  0  6
C16  36630172.060   190742911.2431       -724.761          14.000  
C22  22183513.473   115515362.364       -1667.355          31.000  
C36  23189146.888   120751961.793       -2679.517          35.000  
G26  20105281.403   105653962.224       -1343.946          26.000  
G29  23776639.375   124947106.640       -2118.019          25.000  
G32  21226039.319   111543565.672       -2865.777          27.000    21226050.411    83295573.448       -2141.358          27.000  
> 2021  9 30 12  7 11.9974221  0  6
C19  23336445.115   121518993.1821      -4213.713          27.000  
C22  22183685.554   115516249.932       -1669.272          29.000  
C36  23189512.335   120753861.182       -2680.550          35.000  
G26  20105388.129   105654517.898       -1342.475          25.000  
G29  23776891.501   124948435.977       -2117.236          27.000  
G32  21226435.345   111545644.027       -2866.366          28.000    21226445.238    83297126.882       -2140.964          28.000  
> 2021  9 30 12  7 12.9974211  0  6
C22  22183707.739   115516358.377       -1670.102          30.000  
C36  23189727.885   120754979.989       -2678.813          35.000  
G26  20105343.161   105654285.552       -1343.881          27.000  
G29  23776994.629   124948978.159       -2117.952          28.000  
G32  21226681.774   111546935.093       -2866.843          27.000    21226690.468    83298091.791       -2141.567          28.000  
J01                                                                  36206350.065   142081493.8591       -616.350          26.000  
> 2021  9 30 12  7 13.9974203  0  7
C16  36629902.246   190741491.3401       -723.392          16.000  
C22  22183789.282   115516780.119       -1671.060          28.000  
C36  23189999.198   120756411.828       -2679.515          30.000  
G26  20105358.750   105654369.610       -1345.647          27.000  
G29  23777161.014   124949836.113       -2118.677          29.000  
G32  21226987.263   111548541.629       -2866.944          32.000    21226993.858    83299291.430       -2141.448          27.000  
J01                                                                  36206267.023   142081168.842        -616.158          25.000  
> 2021  9 30 12  7 14.9974193  0  7
C16  36629742.157   190740653.137        -722.662          23.000  
C22  22183812.966   115516890.997       -1672.602          26.000  
C36  23190213.249   120757530.842       -2680.505          36.000  
G26  20105312.882   105654140.908       -1347.841          27.000  
G29  23777265.642   124950379.986       -2120.171          31.000  
G32  21227233.092   111549833.706       -2868.310          30.000    21227238.189    83300253.827       -2141.794          18.000  
J01                                                                  36206124.022   142080609.239        -619.378          27.000  
> 2021  9 30 12  7 15.9974185  0  7
C16  36629641.127   190740127.412        -722.992          22.000  
C22  22183895.709   115517314.897       -1673.174          25.000  
C36  23190487.560   120758962.690       -2681.007          36.000  
G26  20105332.068   105654228.889       -1349.468          27.000  
G29  23777430.827   124951239.916       -2119.584          32.000  
G32  21227539.180   111551441.906       -2868.847          37.000    21227542.778    83301454.940       -2143.506          19.000  
J01                                                                  36206042.478   142080287.732        -619.342          27.000  
> 2021  9 30 12  7 16.9974177  0  5
C36  23190763.668   120760396.788       -2683.801          28.000  
G26  20105348.257   105654316.807       -1346.078          25.000  
G29  23777597.512   124952099.037       -2119.625          33.000  
G32                                                                  21227849.765    83302655.592       -2141.092          28.000  
J01                                                                  36205957.038   142079963.237        -616.183          22.000  
> 2021  9 30 12  7 17.9974167  0  6
C22  22183999.737   115517854.2691      -1677.976          15.000  
C36  23190978.620   120761517.422       -2680.891          28.000  
G26  20105304.188   105654087.662       -1346.649          25.000  
G29  23777695.244                       -2120.382          33.000  
G32  21228091.398   111554342.9191      -2868.170          20.000    21228096.195    83303620.828       -2142.212          28.000  
J01                                                                  36205812.538   142079403.827        -615.006          22.000  
> 2021  9 30 12  7 18.9974159  0  5
C22  22184079.481   115518283.211       -1679.305          10.000  
C36  23191253.229   120762947.869       -2678.924          28.000  
G26  20105319.477   105654173.765       -1345.577          23.000  
G29  23777855.633   124953492.8031      -2120.536          31.000  
G32  21228396.287   111555950.774       -2868.575          27.000    21228403.182    83304821.767       -2142.930          28.000  
> 2021  9 30 12  7 19.9974152  0  4
C36  23191557.519   120764533.969       -2679.111          28.000  
G26  20105364.746   105654417.985       -1348.106          25.000  
G29  23778052.597   124954512.058       -2121.444          31.000  
G32  21228731.755   111557717.212       -2869.452          25.000    21228740.749    83306142.012       -2144.207          28.000  
> 2021  9 30 12  7 20.9974141  0  4
C36  23191741.891   120765495.854       -2679.503          28.000  
G26  20105290.397   105654031.775       -1347.965          23.000  
G29  23778132.641   124954901.672       -2123.087          31.000  
G32  21228946.706   111558853.773       -2869.013          24.000    21228957.199    83306991.322       -2141.487          28.000  
> 2021  9 30 12  7 21.9974134  0  5
C19  23341945.108   121547560.3671      -4217.959          29.000  
C36  23192046.181   120767082.490       -2679.241          28.000  
G26  20105333.267   105654276.145       -1347.101          22.000  
G29  23778324.808   124955922.013       -2124.549          31.000  
G32  21229282.174   111560620.550       -2870.399          25.000    21229293.266    83308310.232       -2143.677          28.000  
> 2021  9 30 12  7 22.9974124  0  5
C19  23342458.053   121550217.279       -4216.829          30.000  
C36  23192260.532   120768200.904       -2680.042          26.000  
G26  20105291.296   105654049.007       -1350.152          23.000  
G29  23778428.836   124956470.345       -2123.892          31.000  
G32                                                                  21229539.695    83309277.497       -2143.115          28.000  
> 2021  9 30 12  7 23.9974118  0  5
C19  23343087.317   121553497.838       -4215.823          29.000  
C36  23192595.101   120769943.607       -2680.073          27.000  
G26  20105368.943   105654454.637       -1351.083          23.000  
G29  23778650.982   124957649.183       -2125.242          31.000  
G32                                                                  21229906.342    83310715.945       -2144.544          28.000  
> 2021  9 30 12  7 24.9974108  0  5
C19  23343594.866   121556153.366       -4216.696          26.000  
C36  23192809.452   120771062.583       -2679.784          27.000  
G26  20105329.670   105654230.374       -1351.064          24.000  
G29  23778752.312   124958198.506       -2123.597          32.000  
G32  21230126.090   111565135.8881      -2871.056          18.000    21230153.970    83311683.920       -2143.797          28.000  
> 2021  9 30 12  7 25.9974098  0  5
C19  23344101.815   121558808.976       -4217.247          26.000  
C36  23193024.703   120772181.902       -2680.555          27.000  
G26  20105288.299   105654006.255       -1351.752          24.000  
G29  23778860.837   124958748.488       -2127.629          32.000  
G32  21230388.708   111566430.971       -2870.260          18.000    21230401.299    83312651.321       -2143.599          28.000  
> 2021  9 30 12  7 26.9974090  0  5
C19  23344670.221   121561777.478       -4217.834          27.000  
C36  23193301.711   120773612.990       -2680.410          27.000  
G26  20105305.687   105654098.349       -1352.633          24.000  
G29  23779020.627   124959613.948       -2125.310          32.000  
G32  21230697.494   111568040.332       -2869.243          18.000    21230708.286    83313853.133       -2144.034          28.000  
> 2021  9 30 12  7 27.9974083  0  4
C36  23193607.200   120775200.846       -2680.302          27.000  
G26  20105350.955   105654348.400       -1352.447          24.000  
G29  23779217.290   124960637.505       -2124.950          31.000  
G32  21231052.748   111569807.665       -2870.522          18.000    21231045.853    83315174.709       -2146.202          29.000  
> 2021  9 30 12  7 28.9974072  0  4
C36  23193792.771   120776164.434       -2680.893          27.000  
G26  20105279.005   105653967.527       -1353.832          25.000  
G29  23779294.637   124961031.665       -2125.984          31.000  
G32                                                                  21231262.603    83316026.260       -2146.980          28.000  
> 2021  9 30 12  7 29.9974065  0  5
C19  23346342.164   121570534.5671      -4221.855          25.000  
C36  23194097.960   120777751.603       -2679.306          25.000  
G26  20105329.070   105654218.748       -1354.374          27.000  
G29  23779489.502   124962056.883       -2128.214          31.000  
G32                                                                  21231601.068    83317349.611       -2145.703          28.000  
> 2021  9 30 12  7 30.9974054  0  3
C36  23194282.632   120778713.846       -2679.913          34.000  
G29  23779563.251   124962451.743       -2128.064          27.000  
G32                                                                  21231816.919    83318202.017       -2147.521          27.000  
> 2021  9 30 12  7 31.9974049  0  4
C36  23194648.079   120780613.798       -2680.883          34.000  
G26  20105363.546   105654408.9051      -1354.633          20.000  
G29  23779817.475   124963792.309       -2128.626          28.000  
G32                                                                  21232213.544    83319761.669       -2148.114          29.000  
> 2021  9 30 12  7 32.9974039  0  4
C36  23194860.932   120781733.520       -2680.678          33.000  
G26  20105321.576   105654188.026       -1353.551          15.000  
G29  23779921.803   124964345.601       -2129.413          29.000  
G32                                                                  21232460.873    83320734.105       -2148.319          28.000  
> 2021  9 30 12  7 33.9974029  0  6
C19  23348515.659   121581793.3701      -4220.037          25.000  
C22  22185004.941   115523124.5111      -1680.639          30.000  
C36  23195080.080                       -2679.560          33.000  
G26  20105282.003   105653966.875       -1355.262          17.000  
G29  23780025.831   124964899.348       -2129.336          30.000  
G32  21232703.405   111578548.1601      -2877.335          25.000    21232708.202    83321704.887       -2148.242          27.000  
> 2021  9 30 12  7 34.9974021  0  5
C19  23349087.663   121584765.289       -4221.098          28.000  
C22  22185088.583   115523556.485       -1681.092          29.000  
C36  23195355.889   120784300.4251      -2680.136          33.000  
G26  20105300.290   105654061.819       -1355.244          18.000  
G32                                                                  21233014.590    83322911.610       -2148.526          27.000  
> 2021  9 30 12  7 35.9974013  0  6
C19  23349659.667   121587737.559       -4221.114          29.000  
C22  22185170.726   115523989.112       -1682.342          28.000  
C36  23195630.199   120785732.119       -2679.889          34.000  
G26  20105316.779   105654157.135       -1355.542          19.000  
G29  23780359.500   124966639.8771      -2132.111          30.000  
G32  21233313.183   111581782.3831      -2877.877          26.000    21233322.477    83324119.163       -2148.349          29.000  
> 2021  9 30 12  7 36.9974006  0  5
C19  23350261.051   121590866.212       -4221.696          28.000  
C22  22185285.247   115524579.376       -1683.501          27.000  
C36  23195934.788   120787319.851       -2681.357          33.000  
G29  23780557.063   124967669.087       -2131.629          30.000  
G32  21233650.150   111583557.705       -2878.443          27.000    21233659.443    83325443.356       -2148.156          28.000  
> 2021  9 30 12  7 37.9973996  0  6
C19  23350768.599   121593527.130       -4222.681          26.000  
C22  22185308.930   115524701.392       -1683.558          28.000  
C36  23196148.541   120788439.670       -2678.553          32.000  
G26  20105323.074   105654189.1331      -1355.772          21.000  
G29  23780663.189   124968225.427       -2132.299          30.000  
G32  21233897.479   111584860.854       -2878.557          29.000    21233907.672    83326416.013       -2150.707          26.000  
> 2021  9 30 12  7 38.9973985  0  6
C19  23351250.965   121596032.636       -4223.023          25.000  
C22  22185302.934   115524667.581       -1683.600          30.000  
C36  23196332.014   120789403.846       -2680.682          33.000  
G26  20105251.124   105653812.835       -1357.830          23.000  
G29  23780739.037   124968625.070       -2132.748          28.000  
G32  21234113.929   111586006.562       -2879.300          27.000    21234125.921    83327272.847       -2151.032          26.000  
> 2021  9 30 12  7 39.9973980  0  6
C19  23351912.008   121599475.517       -4223.246          21.000  
C22  22185475.915   115525571.092       -1684.054          29.000  
C36  23196696.261   120791302.621       -2678.495          26.000  
G26  20105358.750   105654383.293       -1358.870          29.000  
G29  23780997.158   124969972.296       -2135.095          28.000  
G32  21234509.655   111588098.350       -2879.974          24.000    21234525.544    83328835.844       -2151.689          28.000  
> 2021  9 30 12  7 40.9973970  0  6
C19  23352421.655   121602137.680       -4223.153          25.000  
C22  22185498.099   115525695.029       -1684.630          24.000  
C36  23196909.714   120792420.179       -2679.372          27.000  
G26  20105315.280   105654167.243       -1360.068          32.000  
G29  23781103.285   124970531.599       -2135.299          30.000  
G32  21234759.082   111589402.541       -2879.729          28.000    21234772.273    83329809.958       -2150.877          27.000  
> 2021  9 30 12  7 41.9973960  0  5
C22  22185520.883   115525818.299       -1683.364          28.000  
C36  23197122.866   120793539.030       -2680.868          27.000  
G26  20105271.510   105653951.723       -1359.942          19.000  
G29  23781210.011   124971091.347       -2135.596          28.000  
G32                                                                  21235019.902    83330783.995       -2149.398          25.000  
> 2021  9 30 12  7 42.9973952  0  4
C22  22185604.825   115526252.648       -1683.661          28.000  
C36  23197397.476   120794969.793       -2679.999          30.000  
G29  23781376.396   124971967.795       -2137.138          28.000  
G32  21235318.195   111592327.6021      -2880.994          25.000    21235328.088    83331992.165       -2150.133          25.000  
> 2021  9 30 12  7 43.9973944  0  6
C19  23354083.704   121610747.7981      -4223.646          22.000  
C22  22185689.067   115526688.329       -1686.208          30.000  
C36  23197673.285   120796401.377       -2680.723          32.000  
E08  22167593.894   116491491.5081      -2538.028          26.000  
G29  23781542.781   124972844.274       -2136.986          30.000  
G32  21235632.378   111593948.336       -2881.176          26.000    21235636.275    83333201.265       -2151.247          26.000  
> 2021  9 30 12  7 44.9973937  0  5
C22  22185804.187   115527282.143       -1687.566          31.000  
C36  23197978.773   120797989.218       -2680.712          32.000  
E08  22167864.607   116492927.155       -2538.769          26.000  
G29  23781738.845   124973877.524       -2135.941          30.000  
G32  21235976.539   111595726.737       -2881.329          25.000    21235975.340    83334529.158       -2150.479          25.000  
> 2021  9 30 12  7 45.9973926  0  6
C22  22185798.791   115527252.385       -1687.143          31.000  
C36  23198166.144   120798951.271       -2678.561          32.000  
G26  20105293.995   105654040.7801      -1362.646          23.000  
G29  23781816.191   124974280.843       -2136.661          30.000  
G32  21236195.987   111596875.122       -2881.566          25.000    21236194.189    83335385.199       -2151.913          25.000  
J01  36202987.593   190247983.0471       -828.546          20.000  
> 2021  9 30 12  7 46.9973916  0  4
C36  23198381.695                       -2678.505          33.000  
G26  20105254.422   105653828.409       -1363.231          25.000  
G29  23781922.318   124974841.982       -2135.678          29.000  
G32  21236446.614   111598181.317       -2881.821          30.000    21236443.316    83336359.695       -2151.681          24.000  
> 2021  9 30 12  7 47.9973911  0  7
C19  23356359.129   121622486.7201      -4221.072          22.000  
C22  22185997.853   115528285.5071      -1687.760          18.000  
C36  23198748.041                       -2680.187          34.000  
G26  20105366.245   105654403.106       -1361.896          24.000  
G29  23782180.439   124976191.364       -2138.228          27.000  
G32                                                                  21236842.940    83337923.393       -2152.693          24.000  
J01  36202854.186   190247277.9431       -829.467          22.000  
> 2021  9 30 12  7 48.9973901  0  6
C22  22186022.136   115528412.164       -1687.828          26.000  
C36  23198962.093   120803079.0291      -2680.743          34.000  
G26  20105326.672   105654190.064       -1362.330          20.000  
G29  23782289.264   124976754.227       -2138.500          27.000  
G32  21237091.767   111601584.7991      -2884.338          27.000    21237092.966    83338899.227       -2152.081          23.000  
J01  36202709.985   190246532.732        -829.500          28.000    36202726.774   142067269.3101       -619.470          28.000  
> 2021  9 30 12  7 49.9973891  0  7
C19  23357381.721   121627809.3681      -4224.219          24.000  
C22  22186047.019   115528539.674       -1688.839          27.000  
C36  23199177.943   120804198.113       -2681.521          33.000  
G26  20105285.600   105653977.824       -1363.507          21.000  
G29  23782396.589   124977317.719       -2138.320          25.000  
G32  21237338.796   111602893.857       -2884.477          31.000    21237341.494    83339874.616       -2151.483          22.000  
J01  36202567.884   190245785.902        -828.078          28.000    36202584.672   142066710.997        -618.124          29.000  
> 2021  9 30 12  7 50.9973883  0  8
C19  23357953.725   121630787.005       -4228.409          21.000  
C22  22186131.561   115528979.978       -1690.022          27.000  
C36  23199451.354   120805629.282       -2679.481          33.000  
G26  20105305.387   105654081.322       -1363.885          23.000  
G29  23782563.274   124978196.318       -2138.973          25.000  
G32  21237649.981   111604517.943       -2884.327          31.000    21237651.780    83341087.116       -2155.851          21.000  
J01  36202486.940   190245354.175        -829.331          26.000    36202501.630   142066388.742        -618.729          28.000  
R05  19178493.405   102520038.1871       -906.959          24.000  
> 2021  9 30 12  7 51.9973875  0  9
C16  36625348.699   190717751.5301       -723.378          21.000  
C19  23358525.130   121633766.515       -4226.852          23.000  
C22  22186215.503   115529421.257       -1691.146          26.000  
C36  23199727.163   120807060.511       -2680.863          33.000  
G26  20105325.473   105654185.205       -1365.085          23.000  
G29  23782729.659   124979075.914       -2140.684          25.000  
G32  21237953.071   111606141.906       -2886.373          32.000    21237961.165    83342301.998       -2154.914          21.000  
J01  36202407.495   190244924.209        -831.124          26.000    36202419.487   142066066.180        -619.140          29.000  
R05  19178422.354   102519658.418        -908.003          22.000  
> 2021  9 30 12  7 52.9973868  0  6
C22  22186329.724   115530019.375       -1690.153          28.000  
C36  23200028.455   120808648.064       -2678.076          32.000  
G26  20105378.536   105654448.315       -1366.257          20.000  
G32                                                                  21238301.130    83343633.220       -2154.324          21.000  
J01  36202357.429   190244652.045        -830.929          27.000    36202367.323   142065862.375        -620.058          29.000  
R05  19178383.681   102519451.245        -908.345          24.000  
> 2021  9 30 12  7 53.9973857  0  8
C16  36625081.584   190716380.2351       -716.245          14.000  
C19  23359600.185   121639406.0561      -4225.274          28.000  
C22  22186324.327   115529992.543       -1690.543          26.000  
C36  23200215.825   120809610.640       -2681.221          34.000  
G29  23783000.371   124980522.0481      -2139.924          25.000  
G32  21238515.482   111609079.9231      -2885.828          31.000    21238520.578    83344491.642       -2151.546          21.000  
J01  36202187.147   190243749.722        -830.743          29.000    36202195.242   142065186.867        -618.887          29.000  
R05  19178219.395   102518573.641        -908.099          24.000  
> 2021  9 30 12  7 54.9973850  0  9
C16  36625006.036   190716005.724        -719.344          23.000  
C19  23360197.672   121642538.386       -4225.888          26.000  
C22  22186441.546   115530591.416       -1693.281          28.000  
C36  23200523.412   120811198.647       -2679.097          30.000  
G26  20105353.953   105654342.2611      -1364.882          24.000    20105359.649    78897749.1181      -1021.236          23.000  
G29  23783199.134   124981559.820       -2141.130          27.000  
G32  21238853.648   111610862.512       -2885.324          29.000    21238859.344    83345820.754       -2155.446          16.000  
J01  36202134.983   190243477.542        -830.423          25.000    36202142.178   142064981.869        -617.990          26.000  
R05  19178186.118   102518395.266        -908.654          22.000  
> 2021  9 30 12  7 55.9973842  0  8
C16  36624902.008   190715476.765        -720.280          24.000  
C22  22186527.287   115531036.678       -1694.893          19.000  
C36  23200798.022   120812629.119       -2679.717          28.000  
G26  20105374.339   105654447.974       -1367.375          25.000    20105380.635    78897830.559       -1023.275          20.000  
G29  23783368.816   124982440.642       -2141.621          27.000  
G32  21239160.635   111612487.236       -2885.332          31.000    21239166.931    83347035.177       -2156.535          15.000  
J01  36202051.341   190243047.927        -831.901          23.000    36202060.635   142064659.267        -619.338          26.000  
R05  19178130.656   102518098.519        -911.359          24.000  
> 2021  9 30 12  7 56.9973832  0  7
C19  23361268.231   121648180.2541      -4226.065          27.000  
C22  22186552.170   115531169.659       -1693.731          29.000  
C36  23201012.074   120813747.823       -2680.290          33.000  
G26  20105333.867   105654240.066       -1368.038          25.000    20105340.462    78897676.691       -1023.095          23.000  
G29  23783479.440   124983007.569       -2143.268          28.000  
G32  21239409.463   111613796.631       -2885.115          28.000    21239416.058    83348015.199       -2156.634          16.000  
J01                                                                  36201917.034   142064102.557        -619.848          27.000  
> 2021  9 30 12  7 57.9973824  0  8
C19  23361833.339   121651157.179       -4225.492          27.000  
C22  22186637.610   115531614.279       -1693.344          28.000  
C36  23201284.885   120815179.117       -2679.814          27.000  
G26  20105353.653   105654348.135       -1368.675          30.000    20105361.448    78897761.106       -1026.448          21.000  
G29  23783649.122   124983890.307       -2142.556          28.000  
G32                                                                  21239724.245    83349230.347       -2156.158          25.000  
J01  36201833.392   190241870.6691       -828.282          18.000    36201834.292   142063782.101        -621.202          22.000  
R05  19177933.093   102517042.4731       -912.276          22.000  
> 2021  9 30 12  7 58.9973814  0  6
C16  36624470.906   190713268.8471       -723.942          15.000  
C36  23201499.836   120816297.726       -2679.436          27.000  
G26  20105314.081   105654141.594       -1369.060          28.000    20105321.576    78897611.163       -1025.883          23.000  
G29  23783758.846   124984457.756       -2143.119          31.000  
G32                                                                  21239973.073    83350209.827       -2155.984          25.000  
J01                                                                  36201691.590   142063227.675        -622.114          22.000  
> 2021  9 30 12  7 59.9973806  0  8
C16  36624370.776   190712743.521        -723.237          23.000  
C22  22186746.435   115532191.4271      -1694.514          24.000  
C36  23201773.247   120817728.394       -2678.699          27.000  
G26  20105333.867   105654250.493       -1369.317          26.000    20105340.462    78897693.363       -1022.250          20.000  
G29  23783927.030   124985341.324       -2144.343          29.000  
G32                                                                  21240282.758    83351424.797       -2156.712          25.000  
J01                                                                  36201610.047   142062908.945        -619.342          21.000  
R05  19177732.532   102515970.3051       -909.154          21.000  
> 2021  9 30 12  8  0.9973798  0 10
C16  36624271.844   190712217.264        -721.935          24.000  
C19  23363478.600   121659775.9261      -4225.702          20.000  
C22  22186833.375   115532636.868       -1694.057          30.000  
C36  23202049.056   120819158.208       -2678.948          27.000  
E08                                                                                                                                  22171436.634    87005481.3301      -1895.663          26.000  
G26  20105350.356   105654360.061       -1370.589          23.000  
G29  23784094.314   124986225.492       -2144.814          30.000  
G32                                                                  21240592.744    83352640.465       -2156.915          23.000  
J01                                                                  36201528.503   142062585.689        -616.419          23.000  
R05  19177666.877   102515619.539        -910.951          16.000  
> 2021  9 30 12  8  1.9973788  0  9
C16  36624112.654   190711377.370        -720.237          24.000  
C22  22186857.358   115532769.154       -1693.301          28.000  
C36  23202263.407   120820276.763       -2680.613          29.000  
E08                                                                                                                                  22171621.306    87006201.546       -1898.998          25.000  
G26  20105308.984   105654155.185       -1370.431          22.000  
G29  23784201.940   124986794.988       -2145.131          30.000  
G32  21240852.064   111621298.8961      -2887.586          25.000    21240843.070    83353620.999       -2157.016          24.000  
J01  36201390.299   190239506.8641       -827.668          18.000    36201389.400   142062026.472        -617.821          24.000  
R05  19177536.168   102514921.226        -914.180          16.000  
> 2021  9 30 12  8  2.9973780  0  6
C22  22186943.698   115533214.260       -1695.716          30.000  
C36  23202538.917   120821708.238       -2680.433          29.000  
G29  23784371.622   124987679.027       -2145.198          30.000  
G32                                                                  21241152.756    83354837.268       -2157.984          23.000  
J01                                                                  36201306.957   142061702.959        -619.483          24.000  
R05  19177463.918   102514534.458        -914.756          17.000  
> 2021  9 30 12  8  3.9973773  0  8
C16  36623942.972   190710476.2931       -720.976          19.000  
C22  22187059.718   115533817.973       -1698.099          28.000  
C36  23202844.705   120823295.428       -2681.608          25.000  
G26  20105383.932   105654535.0241      -1372.557          22.000  
G29  23784572.183   124988721.935       -2145.300          26.000  
G32  21241498.417   111624712.8601      -2889.228          30.000    21241493.320    83356172.138       -2158.874          25.000  
J01                                                                  36201255.093   142061499.880        -621.947          24.000  
R05  19177419.249   102514295.617        -915.176          18.000  
> 2021  9 30 12  8  4.9973763  0  8
C16  36623781.684   190709635.568        -719.991          23.000  
C19  23365669.484   121671214.8991      -4227.712          20.000  
C22  22187084.601   115533954.491       -1697.299          28.000  
C36  23203060.555   120824414.686       -2680.099          32.000  
G26  20105343.760   105654330.226       -1369.642          23.000  
G29  23784680.109   124989292.042       -2146.525          27.000  
G32  21241746.645   111626027.231       -2890.468          22.000    21241743.947    83357155.101       -2158.873          20.000  
J01                                                                  36201112.691   142060944.905        -621.929          24.000  
> 2021  9 30 12  8  5.9973755  0  7
C16  36623681.253   190709106.061        -719.715          14.000  
C22  22187170.042   115534402.447       -1696.987          32.000  
C36  23203334.866   120825845.491       -2679.509          33.000  
G26  20105365.645   105654438.155       -1368.490          20.000  
G29  23784847.693   124990177.523       -2146.225          27.000  
G32  21242056.330   111627657.686       -2891.196          26.000    21242051.534    83358372.649       -2155.335          19.000  
J01                                                                  36201030.848   142060625.237        -619.830          25.000  
> 2021  9 30 12  8  6.9973745  0  5
C22  22187195.524   115534538.326       -1696.870          30.000  
C36  23203548.917   120826963.639       -2677.667          34.000  
G29  23784954.718   124990747.804       -2145.988          27.000  
G32                                                                  21242299.162    83359350.030       -2153.112          18.000  
J01                                                                  36200887.547   142060067.115        -617.835          24.000  
> 2021  9 30 12  8  7.9973737  0  6
C19  23367332.133   121679840.4981      -4227.303          28.000  
C22  22187281.565   115534986.312       -1696.722          30.000  
C36  23203826.225                       -2680.834          33.000  
G32                                                                  21242605.250    83360561.298       -2152.027          17.000  
J01                                                                  36200805.704   142059744.947        -620.814          25.000  
R05  19177016.628   102512143.6021       -918.027          20.000  
> 2021  9 30 12  8  8.9973729  0  6
C19  23367906.535   121682818.099       -4226.280          30.000  
C22  22187367.305   115535434.129       -1696.902          30.000  
C36  23204099.336   120829842.4731      -2678.900          33.000  
G26  20105368.643   105654452.7851      -1372.597          18.000  
G32  21242912.238   111632222.4731      -2891.817          24.000    21242912.238    83361773.970       -2157.840          18.000  
J01                                                                  36200725.359   142059425.315        -620.536          25.000  
> 2021  9 30 12  8  9.9973719  0  6
C19  23368420.079   121685482.741       -4225.627          30.000  
C22  22187393.387   115535570.529       -1698.072          31.000  
C36  23204316.386   120830960.566       -2679.671          33.000  
G29  23785391.816   124993093.2621      -2147.856          25.000  
G32  21243164.064   111633539.123       -2892.547          26.000  
J01                                                                  36200583.557   142058868.630        -619.040          25.000  
> 2021  9 30 12  8 10.9973711  0  7
C19  23368991.784   121688460.224       -4229.202          28.000  
C22  22187479.727   115536019.648       -1697.915          32.000  
C36  23204590.696   120832390.808       -2679.078          29.000  
G26  20105350.655   105654364.3241      -1374.184          20.000  
G29  23785559.999   124993981.825       -2150.033          26.000  
G32  21243473.449   111635171.818       -2893.159          27.000  
J01                                                                  36200501.414   142058548.009        -620.184          25.000  
> 2021  9 30 12  8 11.9973704  0  6
C19  23369594.966   121691596.587       -4228.665          21.000  
C22  22187596.047   115536624.848       -1697.973          23.000  
C36  23204894.985   120833977.392       -2679.948          25.000  
G29  23785758.762   124995029.491       -2150.738          28.000  
G32  21243813.414   111636962.397       -2893.908          22.000  
J01                                                                  36200449.850   142058344.288        -617.240          23.000  
> 2021  9 30 12  8 12.9973693  0  6
C19  23370077.332   121694107.787       -4228.187          24.000  
C22  22187590.651   115536605.003       -1697.143          25.000  
C36  23205078.159   120834940.170       -2679.143          26.000  
G26  20105341.662   105654278.3601      -1376.496          22.000  
G29  23785837.907   124995447.784       -2151.337          28.000  
G32  21244032.862   111638123.369       -2893.849          28.000  
> 2021  9 30 12  8 13.9973686  0  4
C22  22187708.769   115537210.989       -1699.250          25.000  
G26  20105392.626   105654551.990       -1376.752          26.000  
G29  23786036.669   124996494.822       -2148.283          27.000  
G32  21244376.724   111639914.284       -2893.673          25.000  
> 2021  9 30 12  8 14.9973676  0  4
C22  22187736.350   115537350.348       -1701.248          29.000  
C36  23205595.600   120837645.2751      -2679.492          29.000  
G29  23786145.794   124997068.918       -2150.776          25.000  
G32  21244630.648   111641232.683       -2894.297          27.000  
> 2021  9 30 12  8 15.9973668  0  6
C16  36622459.299   190702739.3231       -721.327          23.000  
C19  23371766.663   121702887.3261      -4227.496          17.000  
C22  22187823.889   115537803.090       -1702.092          32.000  
C36  23205869.611   120839076.359       -2680.198          31.000  
G26  20105374.939   105654475.6071      -1380.683          24.000  
G32  21244942.133   111642867.485       -2895.619          25.000  
> 2021  9 30 12  8 16.9973660  0  6
C16  36622355.271   190702210.115        -719.241          22.000  
C22  22187911.429   115538256.472       -1701.824          33.000  
C36  23206144.221   120840507.118       -2678.851          33.000  
G26  20105397.423   105654595.383       -1381.642          30.000  
G29  23786484.260   124998853.6331      -2153.519          22.000  
G32  21245252.418   111644502.528       -2895.572          33.000  
> 2021  9 30 12  8 17.9973650  0  6
C19  23372848.014   121708536.2181      -4228.440          17.000  
C22  22187939.009   115538396.769       -1701.209          31.000  
C36  23206358.272   120841625.561       -2677.819          28.000  
G26  20105359.949   105654400.297       -1378.092          23.000  
G29  23786594.583   124999430.444       -2151.571          27.000  
G32  21245502.445   111645822.788       -2896.339          29.000  
> 2021  9 30 12  8 18.9973642  0  6
C16  36622089.355   190700832.9321       -716.074          24.000  
C22  22188024.450   115538849.720       -1701.509          23.000  
C36  23206632.283   120843053.683       -2676.487          29.000  
G26  20105380.635   105654517.583       -1378.317          24.000  
G29  23786763.666   125000321.240       -2151.096          27.000  
G32  21245811.231   111647459.263       -2898.537          30.000  
> 2021  9 30 12  8 19.9973635  0  6
C19  23374024.100   121714653.9671      -4232.447          17.000  
C22  22188141.969   115539459.889       -1703.976          21.000  
C36  23206935.373   120844636.962       -2675.944          27.000  
G26  20105431.000   105654792.567       -1377.593          20.000  
G29  23786961.229   125001368.560       -2150.105          26.000  
G32  21246152.095   111649255.230       -2898.762          24.000  
> 2021  9 30 12  8 20.9973627  0  7
C16  36621917.574   190699926.9961       -717.829          21.000  
C19  23374598.202   121717638.327       -4233.999          25.000  
C22  22188228.609   115539915.254       -1704.543          25.000  
C36  23207209.083   120846063.095       -2674.341          28.000  
G26  20105456.182   105654908.826       -1377.527          22.000  
G29  23787132.411   125002257.779       -2150.058          24.000  
G32  21246459.382   111650893.845       -2898.665          25.000  
> 2021  9 30 12  8 21.9973617  0  5
C16  36621755.686   190699083.645        -718.862          26.000  
C19  23375111.447   121720310.551       -4232.355          30.000  
C22  22188255.590   115540058.682       -1705.026          25.000  
C36  23207423.435   120847175.590       -2673.579          28.000  
G32  21246708.810   111652216.830       -2898.179          26.000  
> 2021  9 30 12  8 22.9973606  0  7
C16  36621563.519   190698084.414        -715.857          23.000  
C19  23375594.413   121722825.292       -4231.200          28.000  
C22  22188254.991   115540046.950       -1705.618          25.000  
C36  23207607.208   120848133.231       -2675.754          27.000  
G26  20105354.253   105654357.8071      -1379.495          21.000  
G29  23787324.278   125003248.8221      -2149.688          24.000  
G32  21246928.857   111653381.338       -2897.811          27.000  
> 2021  9 30 12  8 23.9973599  0  5
C16  36621491.869   190697708.124        -717.015          25.000  
C19  23376197.295   121725962.526       -4230.176          26.000  
C22  22188374.608   115540660.191       -1706.184          27.000  
C36  23207911.497   120849716.838       -2675.532          26.000  
G26  20105406.417   105654635.521       -1380.955          24.000  
> 2021  9 30 12  8 24.9973591  0  7
C16  36621390.539   190697176.872        -718.188          25.000  
C19  23376771.098   121728945.559       -4235.229          20.000  
C22  22188462.747   115541117.334       -1706.143          27.000  
C36  23208184.908   120851143.969       -2676.529          29.000  
G26  20105429.801   105654754.454       -1377.823          24.000  
G29  23787697.220   125005185.8391      -2150.359          22.000  
G32  21247580.006   111656813.6991      -2896.230          27.000  
> 2021  9 30 12  8 25.9973583  0  5
C16  36621289.809   190696646.110        -718.742          25.000  
C22  22188551.785   115541574.447       -1706.204          27.000  
C36  23208461.916   120852571.544       -2675.734          28.000  
G26  20105454.683   105654872.669       -1378.816          21.000  
G29  23787867.202   125006076.539       -2152.388          23.000  
> 2021  9 30 12  8 26.9973573  0  6
C16  36621128.820   190695802.320        -717.026          27.000  
C22  22188579.066   115541721.207       -1708.244          25.000  
C36  23208676.268   120853685.734       -2674.222          24.000  
G26  20105418.708   105654676.076       -1380.414          22.000  
G29  23787977.226   125006653.446       -2152.962          22.000  
G31  21544194.664                       -2066.758          30.000  
> 2021  9 30 12  8 27.9973563  0  7
C16  36620967.532   190694956.978        -714.242          24.000  
C22  22188608.146   115541868.264       -1707.351          26.000  
C36  23208889.420   120854799.055       -2673.997          23.000  
G26  20105383.333   105654481.834       -1382.146          25.000  
G29  23788086.950   125007231.295       -2154.858          22.000  
G31  21543894.872                       -2066.758          28.000  
G32  21248398.140   111661089.3101      -2896.296          19.000  
> 2021  9 30 12  8 28.9973558  0  7
C16  36620954.940   190694890.954        -715.082          25.000  
C22  22188787.122   115542796.857       -1710.382          23.000  
C36  23209254.268   120856693.474       -2676.091          29.000  
G26  20105499.053   105655077.068       -1384.201          23.000  
G29  23788347.170   125008598.754       -2156.062          23.000  
G31  21544530.732                       -2067.237          31.000  
G32  21248801.661   111663199.039       -2898.431          21.000  
> 2021  9 30 12  8 29.9973548  0  6
C16  36620792.753   190694045.291        -716.159          22.000  
C22  22188817.102   115542945.444       -1708.967          24.000  
C36  23209469.818   120857808.777       -2676.471          28.000  
G26  20105462.478   105654885.441       -1383.203          25.000  
G29  23788457.194   125009178.210       -2154.462          26.000  
G31  21544624.867                       -2066.807          26.000  
> 2021  9 30 12  8 30.9973537  0  7
C16  36620600.286   190693044.617        -717.045          28.000  
C22  22188815.303   115542937.475       -1709.919          28.000  
C36  23209655.390   120858768.799       -2677.464          28.000  
G26  20105393.526   105654535.880       -1384.089          26.000  
G29  23788538.737   125009600.051       -2155.031          25.000  
G31  21544688.423   113218100.5691      -2066.170          30.000  
G32  21249279.830   111665688.4421      -2899.589          25.000  
> 2021  9 30 12  8 31.9973530  0  6
C22  22188932.821   115543554.322       -1709.687          28.000  
C36  23209959.080   120860351.748       -2674.605          28.000  
G26  20105448.088   105654817.531       -1384.945          28.000  
G29  23788737.200   125010652.493       -2154.961          22.000  
G31  21544870.696   113219063.534       -2064.615          29.000  
G32  21249625.191   111667486.062       -2900.781          26.000  
> 2021  9 30 12  8 32.9973522  0  6
C22  22189020.960   115544014.470       -1709.766          28.000  
C36  23210232.490   120861777.452       -2673.947          27.000  
G26  20105472.971   105654941.930       -1384.930          28.000  
G29  23788908.681   125011547.677       -2156.061          26.000  
G31  21545024.790   113219868.418       -2066.802          25.000  
G32  21249941.771   111669126.727       -2901.446          30.000  
> 2021  9 30 12  8 33.9973514  0  5
C36  23210506.201   120863203.038       -2675.829          31.000  
G26  20105495.755   105655066.404       -1385.054          28.000  
G29  23789078.364   125012443.568       -2156.984          28.000  
G31  21545178.883   113220675.481       -2068.581          28.000  
G32  21250257.753   111670768.250       -2902.945          31.000  
> 2021  9 30 12  8 34.9973504  0  5
C36  23210721.452   120864317.805       -2676.051          26.000  
G26  20105460.679   105654876.181       -1385.999          28.000  
G29  23789187.488   125013026.006       -2158.394          25.000  
G31  21545271.219   113221168.975       -2069.163          24.000  
G32  21250512.276   111672096.010       -2903.637          29.000  
> 2021  9 30 12  8 35.9973494  0  4
C36  23210936.703   120865433.065       -2676.771          23.000  
G26  20105422.905   105654686.483       -1386.254          26.000  
G29  23789301.709   125013611.069       -2162.014          23.000  
G31  21545363.855   113221662.973       -2070.446          24.000  
> 2021  9 30 12  8 36.9973489  0  5
C36  23211300.051   120867328.800       -2676.544          28.000  
G26  20105535.927   105655285.587       -1386.872          27.000  
G29  23789562.229   125014984.338       -2159.729          25.000  
G31  21545608.486   113222945.035       -2069.926          26.000  
G32  21251168.522   111675539.0691      -2902.705          30.000  
> 2021  9 30 12  8 37.9973478  0  5
C36  23211483.824   120868287.648       -2675.647          27.000  
G26  20105470.572   105654938.306       -1386.132          26.000  
G29  23789641.974   125015410.487       -2158.280          28.000  
G31  21545672.941   113223280.727       -2066.791          28.000  
G32  21251393.367   111676709.280       -2903.473          28.000  
> 2021  9 30 12  8 38.9973471  0  4
C36  23211788.113   120869870.086       -2674.792          31.000  
G26  20105524.535   105655221.911       -1386.583          27.000  
G29  23789844.933   125016465.748       -2158.099          25.000  
G32  21251735.729   111678509.990       -2903.962          26.000  
> 2021  9 30 12  8 39.9973460  0  5
C22  22189464.653   115546316.6841      -1713.781          32.000  
C36  23211971.886   120870826.670       -2673.860          31.000  
G26  20105459.180   105654876.656       -1388.378          29.000  
G29  23789926.477   125016890.320       -2158.071          23.000  
G32  21251958.775   111679681.066       -2904.306          27.000  
> 2021  9 30 12  8 40.9973453  0  6
C22  22189583.071   115546937.821       -1714.221          31.000  
C36  23212274.677   120872408.014       -2674.660          31.000  
G26  20105514.042   105655161.997       -1388.522          31.000  
G29  23790128.237   125017946.176       -2159.874          26.000  
G31  21546106.741   113225537.6531      -2065.757          30.000  
G32  21252300.538   111681482.422       -2904.449          30.000  
> 2021  9 30 12  8 41.9973445  0  6
C22  22189671.810   115547402.754       -1713.288          31.000  
C36  23212548.387   120873833.806       -2675.316          29.000  
G26  20105538.026   105655290.079       -1388.133          28.000  
G29  23790299.718   125018845.377       -2159.372          24.000  
G31  21546257.536   113226342.935       -2066.167          28.000  
G32  21252613.222   111683126.432       -2904.562          28.000  
> 2021  9 30 12  8 42.9973435  0  5
C22  22189700.590   115547555.260       -1713.372          26.000  
C36  23212761.240   120874947.344       -2673.966          28.000  
G26  20105499.652   105655103.655       -1388.943          26.000  
G29  23790412.440   125019431.487       -2162.626          24.000  
G31  21546348.973   113226834.277       -2066.314          30.000  
> 2021  9 30 12  8 43.9973427  0  5
C22  22189791.427   115548019.537       -1713.517          27.000  
C36  23213035.250   120876372.965       -2674.519          28.000  
G26  20105525.734   105655232.136       -1388.436          24.000  
G31  21546500.968   113227640.069       -2066.075          29.000  
G32  21253176.232   111686100.5411      -2905.314          27.000  
> 2021  9 30 12  8 44.9973420  0  4
C22  22189912.243   115548640.431       -1715.072          27.000  
C36  23213338.640   120877954.728       -2674.528          33.000  
G29  23790782.984   125021392.4191      -2163.788          19.000  
G32  21253520.094   111687903.714       -2907.180          24.000  
> 2021  9 30 12  8 45.9973409  0  6
C22  22189912.243   115548638.913       -1716.321          28.000  
C36  23213521.813   120878911.876       -2674.371          32.000  
G26  20105517.040   105655175.6121      -1390.319          23.000  
G29  23790865.726   125021823.469       -2164.101          22.000  
G31  21546747.697   113228937.5771      -2066.607          30.000  
G32  21253745.238   111689078.348       -2908.707          23.000  
> 2021  9 30 12  8 46.9973402  0  5
C22  22190032.160   115549263.475       -1718.679          26.000  
C36  23213824.304   120880492.921       -2675.340          28.000  
G26  20105570.703   105655464.423       -1392.374          31.000  
G29  23791069.285   125022885.824       -2165.904          25.000  
G32  21254087.601   111690885.249       -2910.379          27.000  
> 2021  9 30 12  8 47.9973391  0  6
C22  22190033.060   115549265.450       -1719.654          30.000  
C36  23214007.177   120881451.126       -2675.770          31.000  
G26  20105505.648   105655124.223       -1393.206          32.000  
G29  23791151.728   125023318.459       -2166.656          20.000  
G31  21546996.525   113230234.2651      -2066.752          29.000  
G32  21254310.047   111692062.577       -2910.490          31.000  
> 2021  9 30 12  8 48.9973384  0  5
C22  22190152.677   115549892.545       -1720.533          32.000  
C36  23214308.768   120883033.928       -2675.738          28.000  
G26  20105559.611   105655414.969       -1393.663          29.000  
G31  21547179.398   113231198.720       -2068.128          30.000  
G32  21254652.410   111693870.204       -2910.764          29.000  
> 2021  9 30 12  8 49.9973376  0  7
C22  22190243.514   115550364.028       -1720.587          27.000  
C36  23214581.879   120884460.890       -2675.308          29.000  
G26  20105584.493   105655548.471       -1394.229          26.000  
G29  23791530.666   125025291.3831      -2172.225          17.000  
G31  21547333.791   113232006.354       -2067.357          29.000  
G32  21254962.696   111695520.500       -2911.519          26.000  
J02  39339575.179   206730862.1901      -2061.392          23.000  
> 2021  9 30 12  8 50.9973366  0  6
C22  22190275.292   115550523.309       -1720.302          27.000  
C36  23214795.631   120885574.826       -2675.149          32.000  
G26  20105550.017   105655367.141       -1394.146          27.000  
G31  21547426.427   113232497.690       -2066.467          32.000  
G32  21255215.121   111696856.477       -2910.629          24.000  
J02  39339666.316   206731347.583       -2060.738          22.000  
> 2021  9 30 12  8 51.9973358  0  7
C16  36618122.202   190680151.4701       -717.056          28.000  
C22  22190364.031   115550993.994       -1718.536          24.000  
C36  23215071.141   120887001.188       -2675.341          32.000  
G26  20105575.200   105655500.989       -1394.278          27.000  
G31  21547581.120   113233303.968       -2067.230          31.000  
G32  21255527.804   111698505.838       -2908.978          30.000  
J02  39339817.711   206732147.104       -2059.322          24.000  
> 2021  9 30 12  8 52.9973350  0  7
C16  36618019.972   190679619.274        -715.582          25.000  
C22  22190453.669   115551463.900       -1720.686          24.000  
C36  23215344.851   120888426.667       -2673.830          29.000  
G26  20105599.483   105655634.335       -1393.612          27.000  
G29  23791986.351   125027715.7971      -2170.616          17.000  
G31  21547734.914   113234111.229       -2067.358          28.000  
G32  21255839.888   111700154.498       -2909.444          32.000  
> 2021  9 30 12  8 53.9973340  0  8
C16  36617856.286   190678773.600        -715.409          26.000  
C22  22190483.048   115551622.826       -1719.434          24.000  
C36  23215558.603   120889539.890       -2674.217          28.000  
G26  20105564.707   105655451.985       -1393.498          26.000  
G29  23792098.773   125028309.313       -2167.659          18.000  
G31  21547827.549   113234602.505       -2065.677          31.000  
G32  21256093.213   111701488.463       -2908.786          29.000  
J02  39340059.943   206733431.2051      -2059.560          21.000  
> 2021  9 30 12  8 54.9973332  0  7
C16  36617753.157   190678240.374        -715.901          23.000  
C22  22190575.085   115552093.656       -1720.923          28.000  
C36  23215832.614   120890965.261       -2674.735          31.000  
G26  20105592.288   105655585.737       -1394.767          28.000  
G31  21547979.544   113235407.673       -2065.303          34.000  
G32  21256405.896   111703137.270       -2909.404          29.000  
J02  39340212.238   206734231.474       -2060.335          23.000  
> 2021  9 30 12  8 55.9973322  0  5
C16  36617589.770   190677394.837        -715.720          26.000  
C22  22190604.764   115552253.246       -1720.877          25.000  
C36  23216046.965   120892078.813       -2675.206          32.000  
G26  20105557.512   105655405.856       -1395.715          25.000  
G31  21548072.780   113235897.254       -2065.207          31.000  
> 2021  9 30 12  8 56.9973317  0  5
C16  36617577.479   190677329.415        -715.145          26.000  
C22  22190784.639   115553194.697       -1722.994          27.000  
C36  23216411.813   120893973.136       -2674.788          30.000  
G26  20105675.331   105656014.910       -1397.456          29.000  
G29  23792647.693   125031185.0501      -2164.826          19.000  
> 2021  9 30 12  8 57.9973307  0  6
C06  36257988.417   188804744.2301       -744.829          26.000  
C16  36617414.991   190676483.708        -715.100          27.000  
C22  22190815.518   115553356.139       -1721.650          30.000  
C36  23216626.164   120895086.690       -2673.852          31.000  
G26  20105643.852   105655836.610       -1397.385          29.000  
G32  21257324.460   111707930.5391      -2910.893          19.000  
> 2021  9 30 12  8 58.9973297  0  7
C06  36257831.925   188803927.622        -745.103          25.000  
C16  36617254.302   190675637.002        -714.406          26.000  
C22  22190846.996   115553517.191       -1722.518          29.000  
C36  23216840.516   120896199.657       -2674.042          28.000  
G26  20105610.276   105655658.069       -1396.821          27.000  
G31  21548503.881   113238155.4041      -2065.615          31.000  
G32  21257578.085   111709266.328       -2911.548          20.000  
> 2021  9 30 12  8 59.9973289  0  7
C06  36257736.591   188803424.071        -745.945          24.000  
C16  36617150.274   190675102.872        -714.470          26.000  
C22  22190938.733   115553991.519       -1723.545          27.000  
C36  23217115.425   120897624.530       -2672.906          28.000  
G26  20105637.857   105655795.036       -1398.049          26.000  
G31  21548656.775   113238961.093       -2066.319          30.000  
G32  21257888.070   111710917.493       -2910.864          20.000  
> 2021  9 30 12  9  0.9973281  0  5
C06  36257640.658   188802921.082        -746.102          24.000  
C16  36617047.146   190674567.257        -713.426          22.000  
C22  22191030.769   115554465.303       -1722.666          29.000  
C36  23217388.836   120899048.490       -2673.747          28.000  
G26  20105665.437   105655932.795       -1398.303          28.000  
> 2021  9 30 12  9  1.9973274  0  4
C06  36257573.204   188802573.418        -744.560          27.000  
C22  22191152.485   115555095.333       -1723.836          30.000  
C36  23217691.627   120900629.394       -2674.021          32.000  
G26  20105720.899   105656228.703       -1399.745          27.000  
> 2021  9 30 12  9  2.9973263  0  6
C06  36257385.534   188801599.886        -742.866          27.000  
C16  36616784.228   190673185.5411       -714.323          26.000  
C22  22191153.684   115555102.417       -1724.892          31.000  
C36  23217874.800   120901586.778       -2674.612          30.000  
G26  20105657.043   105655895.906       -1400.468          30.000  
G31  21549057.598   113241063.1041      -2065.493          32.000  
> 2021  9 30 12  9  3.9973253  0  7
C06  36257229.342   188800780.870        -742.487          24.000  
C16  36616622.640   190672339.389        -714.933          28.000  
C22  22191185.762   115555266.737       -1726.382          30.000  
C36  23218088.552   120902700.075       -2675.224          29.000  
G26  20105624.965   105655720.120       -1399.741          29.000  
G29  23793622.618   125036298.0421      -2176.365          18.000  
G32  21259031.179   111716899.2291      -2916.580          18.000  
> 2021  9 30 12  9  4.9973248  0  7
C06  36257223.946   188800743.114        -743.473          27.000  
C16  36616611.248   190672273.548        -714.912          27.000  
C22  22191367.436   115556212.603       -1725.864          29.000  
C36  23218452.500   120904594.544       -2675.175          35.000  
G26  20105742.784   105656333.000       -1401.105          27.000  
G29  23793885.536   125037685.675       -2174.451          19.000  
G31  21549395.764                       -2064.521          35.000  
> 2021  9 30 12  9  5.9973238  0  7
C06  36257066.555   188799925.926        -744.958          27.000  
C16  36616448.760   190671426.351        -714.004          28.000  
C22  22191399.514   115556376.840       -1725.675          27.000  
C36  23218666.851   120905707.604       -2674.314          36.000  
G26  20105708.308   105656158.670       -1401.297          31.000  
G29  23793999.757   125038282.497       -2171.042          20.000  
G31  21549489.599   113243326.0511      -2064.828          31.000  
> 2021  9 30 12  9  6.9973230  0  8
C06  36256969.123   188799420.704        -742.785          26.000  
C16  36616348.629   190670893.268        -716.494          29.000  
C22  22191491.250   115556854.039       -1726.244          29.000  
C36  23218942.061   120907132.991       -2674.627          37.000  
G26  20105734.690   105656299.988       -1402.513          33.000  
G29  23794171.838   125039193.287       -2171.901          20.000  
G31  21549641.893   113244131.740       -2067.163          35.000  
G32  21260008.502   111722017.7471      -2915.496          18.000  
> 2021  9 30 12  9  7.9973220  0  7
C06  36256812.031   188798602.909        -743.608          26.000  
C16  36616184.943   190670047.506        -715.100          28.000  
C22  22191522.728   115557019.838       -1727.709          30.000  
C36  23219157.612   120908244.182       -2672.510          33.000  
G26  20105700.813   105656127.065       -1402.672          28.000  
G31  21549733.330   113244623.341       -2066.843          35.000  
J02  39341939.942   206743337.7411      -2056.902          29.000  
> 2021  9 30 12  9  8.9973212  0  7
C06  36256713.999   188798097.848        -743.821          27.000  
C16  36616082.414   190669513.357        -713.846          28.000  
C22  22191614.765   115557499.068       -1729.085          32.000  
C36  23219430.123   120909668.607       -2674.083          27.000  
G26  20105726.295   105656269.370       -1402.228          28.000  
G31  21549885.924   113245429.194       -2065.903          31.000  
J02  39342090.438   206744133.868       -2056.669          26.000  
> 2021  9 30 12  9  9.9973204  0  7
C06  36256617.466   188797592.977        -744.650          27.000  
C16  36615980.784   190668977.921        -712.053          28.000  
C22  22191707.101   115557979.287       -1729.978          32.000  
C36  23219702.335   120911094.307       -2675.404          31.000  
G26  20105752.377   105656411.312       -1402.542          29.000  
G31  21550038.219   113246234.857       -2065.985          31.000  
J02  39342243.332   206744930.242       -2056.774          26.000  
> 2021  9 30 12  9 10.9973194  0  7
C06  36256460.974   188796775.906        -744.452          26.000  
C16  36615817.397   190668129.496        -714.682          28.000  
C22  22191738.579   115558147.487       -1728.034          31.000  
C36  23219915.187   120912208.707       -2675.462          29.000  
G26  20105718.201   105656239.148       -1403.871          28.000  
G31  21550134.452   113246726.594       -2068.165          31.000  
J02  39342336.267   206745412.055       -2058.873          27.000  
> 2021  9 30 12  9 11.9973184  0  7
C06  36256302.684   188795958.351        -743.516          27.000  
C16  36615656.109   190667283.271        -714.847          29.000  
C22  22191770.657   115558314.063       -1727.296          25.000  
C36  23220128.040   120913322.495       -2674.396          30.000  
G26  20105687.322   105656067.713       -1404.498          27.000  
G31  21550225.889   113247217.510       -2065.374          32.000  
J02  39342427.704   206745894.441       -2056.786          27.000  
> 2021  9 30 12  9 12.9973179  0  7
C06  36256297.288   188795921.106        -743.401          26.000  
C16  36615642.918   190667217.373        -714.634          27.000  
C22  22191952.931   115559261.596       -1728.851          31.000  
C36  23220491.388   120915216.438       -2674.308          29.000  
G26  20105802.742   105656684.466       -1404.675          32.000  
G29  23795128.475   125044218.1021      -2176.824          20.000  
J02  39342668.138   206747163.429       -2055.440          28.000  
> 2021  9 30 12  9 13.9973169  0  7
C06  36256141.396   188795104.568        -745.321          24.000  
C16  36615478.931   190666370.915        -714.402          29.000  
C22  22191984.109   115559429.828       -1729.963          29.000  
C36  23220704.841   120916329.303       -2675.710          28.000  
G26  20105771.264   105656514.189       -1406.042          30.000  
G29  23795240.298   125044819.712       -2177.012          24.000  
G31  21550559.858   113248984.4851      -2065.625          26.000  
> 2021  9 30 12  9 14.9973161  0  7
C06  36256046.062   188794600.947        -746.203          24.000  
C16  36615375.503   190665837.295        -715.220          24.000  
C22  22192077.644   115559912.090       -1732.006          32.000  
C36  23220981.249   120917756.192       -2674.787          26.000  
G26  20105797.046   105656660.010       -1407.097          27.000  
G31  21550715.450   113249790.879       -2067.779          24.000  
G32  21262418.234   111734761.6811      -2919.554          18.000  
> 2021  9 30 12  9 15.9973151  0  6
C06  36255891.968   188793785.147        -744.370          26.000  
C16  36615213.015   190664991.001        -714.233          24.000  
C22  22192110.622   115560083.622       -1733.480          29.000  
C36  23221193.802   120918869.882       -2675.071          29.000  
G26  20105765.868   105656491.574       -1407.595          27.000  
G31  21550808.386   113250284.156       -2067.882          25.000  
> 2021  9 30 12  9 16.9973143  0  7
C06  36255793.337   188793280.393        -744.439          29.000  
C16  36615111.686   190664457.910        -714.791          23.000  
C22  22192202.958   115560568.512       -1734.112          31.000  
C36  23221466.613   120920295.616       -2674.458          32.000  
G26  20105793.449   105656639.087       -1407.934          27.000  
G29  23795700.779   125047259.8771      -2179.112          17.000  
G32  21263007.926   111737769.4211      -2923.497          18.000  
> 2021  9 30 12  9 17.9973135  0  7
C06  36255695.304   188792776.181        -744.522          27.000  
C16  36615009.456   190663924.108        -715.043          24.000  
C22  22192296.493   115561053.002       -1733.725          30.000  
C36  23221740.623   120921721.335       -2674.693          29.000  
G26  20105821.929   105656786.613       -1408.338          27.000  
G29  23795876.458   125048178.744       -2178.889          18.000  
G31  21551118.071   113251897.9061      -2066.040          21.000  
> 2021  9 30 12  9 18.9973125  0  6
C06  36255539.113   188791959.936        -745.165          28.000  
C16  36614846.369   190663078.185        -715.323          25.000  
C22  22192330.070   115561225.354       -1733.625          28.000  
C36  23221955.275   120922834.478       -2674.495          29.000  
G26  20105790.751   105656619.293       -1408.025          27.000  
G29  23795988.880   125048782.962       -2181.585          20.000  
> 2021  9 30 12  9 19.9973115  0  6
C06  36255380.822   188791143.770        -745.475          25.000  
C16  36614684.481   190662232.726        -715.762          27.000  
C22  22192364.546   115561398.015       -1734.147          29.000  
C36  23222167.528   120923948.347       -2675.266          25.000  
G26  20105758.973   105656451.438       -1407.002          27.000  
G31  21551303.943   113252881.9271      -2066.819          22.000  
> 2021  9 30 12  9 20.9973110  0  8
C06  36255372.428   188791108.483        -746.481          24.000  
C16  36614673.389   190662167.436        -715.385          24.000  
C22  22192547.419   115562351.854       -1735.310          30.000  
C36  23222531.476   120925842.757       -2675.384          24.000  
G26  20105878.290   105657070.909       -1408.446          27.000  
G29  23796370.216   125050785.5021      -2183.852          20.000  
G31  21551543.777   113254161.813       -2066.316          17.000  
G32  21264225.383   111744257.0111      -2919.689          16.000  
> 2021  9 30 12  9 21.9973100  0  5
C06  36255215.636   188790293.599        -745.330          23.000  
C16  36614512.700   190661322.850        -716.864          20.000  
C22  22192581.595   115562525.930       -1735.034          30.000  
C36  23222746.127   120926956.138       -2674.000          22.000  
G26  20105846.812   105656903.938       -1409.719          24.000  
> 2021  9 30 12  9 22.9973092  0  7
C06  36255120.302   188789789.554        -745.214          23.000  
C16  36614412.270   190660790.594        -716.455          28.000  
C22  22192673.932   115563011.448       -1734.575          27.000  
C36  23223020.138   120928381.287       -2674.150          28.000  
G26  20105874.992   105657054.208       -1410.778          25.000  
G29  23796664.912   125052315.0671      -2183.828          20.000  
G31  21551790.806   113255459.4431      -2068.401          24.000  
> 2021  9 30 12  9 23.9973082  0  6
C06  36254963.811   188788972.443        -742.850          24.000  
C16  36614252.181   190659946.640        -717.016          25.000  
C22  22192708.707   115563185.615       -1736.274          30.000  
C36  23223234.489   120929494.479       -2673.612          29.000  
G26  20105846.212   105656889.714       -1411.017          28.000  
G29  23796778.833   125052924.206       -2184.920          20.000  
> 2021  9 30 12  9 24.9973074  0  5
C06  36254867.577   188788467.124        -744.736          26.000  
C16  36614149.652   190659414.398        -716.175          28.000  
C22  22192803.142   115563673.598       -1737.593          31.000  
C36  23223507.001   120930918.940       -2673.861          28.000  
G26  20105874.393   105657040.391       -1411.276          27.000  
> 2021  9 30 12  9 25.9973066  0  6
C06  36254770.744   188787962.961        -745.126          24.000  
C16  36614045.024   190658881.153        -714.507          29.000  
C22  22192896.977   115564162.349       -1738.454          29.000  
C36  23223781.611   120932343.798       -2673.949          27.000  
G26  20105907.070   105657190.929       -1410.989          27.000  
G31  21552196.425   113257566.5821      -2067.618          19.000  
> 2021  9 30 12  9 26.9973056  0  6
C06  36254613.953   188787145.455        -743.283          23.000  
C16  36613881.038   190658034.918        -715.490          27.000  
C22  22192931.153   115564339.763       -1738.131          30.000  
C36  23223995.363   120933456.831       -2674.263          27.000  
G26  20105874.693   105657028.641       -1414.320          26.000  
G31  21552291.459   113258057.850       -2066.150          20.000  
> 2021  9 30 12  9 27.9973048  0  7
C16  36613777.010   190657500.962        -714.796          26.000  
C22  22193024.689   115564829.307       -1738.665          30.000  
C36  23224268.473   120934882.724       -2675.410          29.000  
E30  22996236.437   120846037.2921      -2626.020          29.000  
G26  20105904.072   105657181.364       -1412.274          25.000  
G31  21552446.752   113258864.444       -2066.565          24.000  
G32  21266263.072   111754971.9841      -2930.397          17.000  
> 2021  9 30 12  9 28.9973041  0  6
C16  36613702.361   190657123.058        -715.424          25.000  
C22  22193149.103   115565475.881       -1740.268          28.000  
C36  23224572.163   120936465.786       -2675.853          28.000  
E30  22996525.437   120847560.820       -2626.555          31.000  
G26  20105961.932   105657491.136       -1412.567          26.000  
G31  21552630.524   113259827.615       -2066.052          24.000  
> 2021  9 30 12  9 29.9973030  0  7
C16  36613509.595   190656121.869        -716.152          29.000  
C22  22193153.599   115565499.315       -1740.852          30.000  
C36  23224756.835   120937423.516       -2674.730          30.000  
E30  22996694.520   120848454.106       -2626.058          30.000  
G26  20105901.674   105657171.204       -1413.732          24.000  
G29  23797709.988   125057855.8001      -2188.407          21.000  
G31  21552693.481   113260160.493       -2066.501          25.000  
> 2021  9 30 12  9 30.9973023  0  8
C16  36613437.944   190655744.992        -715.538          27.000  
C22  22193277.714   115566146.940       -1740.626          26.000  
C36  23225060.825   120939005.302       -2674.428          32.000  
E30  22996984.119   120849977.679       -2625.481          29.000  
G26  20105960.133   105657482.423       -1414.871          28.000  
G29  23797914.147   125058941.997       -2189.296          24.000  
G31  21552876.054   113261124.152       -2066.845          27.000  
G32  21267185.534   111759816.4331      -2927.889          16.000  
> 2021  9 30 12  9 31.9973012  0  6
C16  36613245.178   190654743.242        -715.992          30.000  
C22  22193281.911   115566170.120       -1740.549          31.000  
C36  23225244.298   120939962.809       -2675.650          32.000  
E30  22997154.701   120850871.132       -2626.355          28.000  
G26  20105901.974   105657163.960       -1414.909          27.000  
G31  21552938.711   113261457.950       -2067.486          28.000  
> 2021  9 30 12  9 32.9973007  0  5
C16  36613232.886   190654678.380        -715.399          28.000  
C22  22193466.583   115567130.945       -1741.684          30.000  
C36  23225609.445   120941857.190       -2673.563          31.000  
E30  22997505.158   120852709.203       -2625.766          29.000  
G31  21553183.641   113262737.377       -2067.162          27.000  
> 2021  9 30 12  9 33.9972997  0  6
C16  36613070.699   190653831.827        -713.877          29.000  
C22  22193501.659   115567312.211       -1741.989          29.000  
E30  22997704.820   120853759.179       -2625.967          30.000  
G26  20105987.115   105657631.4881      -1416.538          27.000  
G29  23798389.917   125061420.5381      -2192.856          25.000  
G31  21553276.577   113263228.631       -2066.823          26.000  
> 2021  9 30 12  9 34.9972987  0  7
C16  36612907.911   190652984.610        -713.863          27.000  
C22  22193537.334   115567493.583       -1742.714          30.000  
E30  22997904.182   120854809.997       -2626.368          32.000  
G26  20105956.836   105657472.849       -1416.742          28.000  
G29  23798508.036   125062037.692       -2192.114          27.000  
G31  21553368.014   113263720.931       -2067.417          28.000  
G32  21268329.542   111765857.4531      -2927.717          17.000  
> 2021  9 30 12  9 35.9972979  0  6
C16  36612804.183   190652449.665        -714.442          30.000  
C22  22193633.867   115567988.109       -1743.456          25.000  
E30  22998165.002   120856176.319       -2626.898          29.000  
G26  20105986.815   105657629.322       -1416.616          28.000  
G29  23798688.511   125062968.394       -2190.937          26.000  
G31  21553520.308   113264527.777       -2066.652          28.000  
> 2021  9 30 12  9 36.9972972  0  7
C16  36612731.334   190652071.771        -715.821          28.000  
C22  22193758.581   115568639.098       -1744.396          29.000  
E30  22998454.601   120857700.600       -2625.124          29.000  
G26  20106046.773   105657943.613       -1419.595          26.000  
G29  23798896.267   125064057.644       -2192.720          25.000  
G31  21553703.781   113265492.151       -2066.822          29.000  
G32  21268986.687   111769353.7841      -2930.848          19.000  
> 2021  9 30 12  9 37.9972964  0  7
C16  36612630.903   190651539.294        -717.166          27.000  
C22  22193853.315   115569134.819       -1744.767          30.000  
E30  22998714.521   120859067.039       -2627.552          28.000  
G26  20106076.153   105658103.178       -1419.303          21.000  
G29  23799076.442   125064990.321       -2193.314          28.000  
G31  21553856.076   113266298.740       -2068.188          29.000  
G32  21269302.668   111771024.446       -2930.335          19.000  
> 2021  9 30 12  9 38.9972954  0  7
C16  36612469.315   190650695.704        -717.767          26.000  
C22  22193888.990   115569318.235       -1745.388          28.000  
E30  22998915.682   120860118.270       -2626.716          25.000  
G26  20106043.176   105657947.296       -1419.353          24.000  
G29  23799193.361   125065609.565       -2195.480          23.000  
G31  21553949.311   113266791.079       -2068.154          30.000  
G32  21269559.590   111772379.272       -2930.698          20.000  
> 2021  9 30 12  9 39.9972943  0  5
C16  36612276.548   190649696.799        -718.986          25.000  
C22  22193895.586   115569346.798       -1745.962          30.000  
G26  20105985.016   105657632.731       -1417.889          24.000  
G29  23799281.800   125066073.374       -2196.863          21.000  
G31  21554014.067   113267126.161       -2068.551          31.000  
> 2021  9 30 12  9 40.9972938  0  5
C16  36612263.357   190649634.687        -717.662          27.000  
C22  22194082.057   115570311.638       -1745.604          28.000  
G26  20106104.034   105658264.337       -1421.021          20.000  
G31  21554256.898   113268406.474       -2067.829          32.000  
G32  21270195.750   111775722.1711      -2933.003          23.000  
> 2021  9 30 12  9 41.9972928  0  4
C16  36612102.069   190648790.315        -715.825          28.000  
C22  22194116.833   115570496.808       -1746.109          27.000  
G26  20106077.952   105658110.958       -1423.839          21.000  
G31  21554349.834   113268898.858       -2068.222          31.000  
> 2021  9 30 12  9 42.9972920  0  5
C16  36611999.840   190648257.221        -714.891          26.000  
C22  22194211.867   115570994.137       -1747.394          30.000  
G29  23799840.313   125069034.2911      -2195.209          23.000  
G31  21554503.028   113269707.128       -2069.311          34.000  
G32  21270765.655   111778752.1031      -2932.697          21.000  
> 2021  9 30 12  9 43.9972910  0  5
C16  36611839.151   190647409.930        -714.415          25.000  
C22  22194248.442   115571180.441       -1748.177          28.000  
E30  23000098.063   120866331.3831      -2630.958          27.000  
G26  20106088.744   105658120.7981      -1423.874          17.000  
G31  21554594.465   113270200.029       -2068.013          31.000  
> 2021  9 30 12  9 44.9972902  0  5
C16  36611736.622   190646875.089        -713.858          26.000  
C22  22194343.776   115571679.784       -1749.151          26.000  
E30  23000358.283   120867701.398       -2629.860          29.000  
G26  20106121.122   105658286.134       -1425.979          17.000  
G32  21271339.458   111781782.5971      -2933.595          19.000  
> 2021  9 30 12  9 45.9972895  0  3
C16  36611663.473   190646497.207        -716.236          25.000  
C22  22194469.988   115572336.703       -1749.685          28.000  
G32  21271681.222   111783613.252       -2934.590          21.000  
> 2021  9 30 12  9 46.9972884  0  4
C16  36611471.006   190645496.069        -715.998          28.000  
C22  22194476.284   115572369.016       -1749.903          31.000  
G29  23800422.211   125072143.0901      -2196.508          19.000  
G32  21271905.766   111784814.860       -2934.986          22.000  
> 2021  9 30 12  9 47.9972877  0  3
C16  36611397.857   190645119.520        -717.033          27.000  
C22  22194601.297   115573026.204       -1750.456          32.000  
G31  21555188.953                       -2068.801          34.000  
> 2021  9 30 12  9 48.9972869  0  5
C16  36611295.627   190644587.868        -717.515          28.000  
C22  22194696.631   115573527.322       -1749.918          31.000  
G26  20106210.760   105658780.1381      -1421.927          15.000  
G31  21555343.346   113274091.1441      -2068.908          32.000  
G32  21272571.006   111788322.8961      -2937.313          22.000  
> 2021  9 30 12  9 49.9972859  0  6
C16  36611134.039   190643744.254        -718.240          29.000  
C22  22194732.007   115573716.706       -1751.287          35.000  
E30  23001575.141   120874079.6661      -2631.630          28.000  
G26  20106180.781   105658627.319       -1424.926          15.000  
G29  23800923.464   125074799.4821      -2200.010          20.000  
G31  21555431.785   113274585.101       -2068.515          33.000  
> 2021  9 30 12  9 50.9972851  0  7
C16  36611033.309   190643213.311        -717.624          30.000  
C22  22194827.341   115574218.858       -1751.146          30.000  
E30  23001836.260   120875450.862       -2631.576          27.000  
G26  20106213.458   105658791.602       -1422.753          10.000  
G29  23801097.943   125075739.121       -2201.137          20.000  
G31  21555589.476   113275394.177       -2073.182          33.000  
G32  21273149.305   111791365.0011      -2938.117          21.000  
> 2021  9 30 12  9 51.9972841  0  6
C06  36251740.143   188772187.2001       -744.037          25.000  
C16  36610871.421   190642369.962        -718.006          29.000  
C22  22194863.616   115574409.095       -1752.313          32.000  
C36  23230395.032   120966786.8261      -2676.982          30.000  
G31  21555684.510   113275888.298       -2069.231          30.000  
G32  21273409.225   111792730.009       -2941.685          25.000  
> 2021  9 30 12  9 52.9972836  0  7
C06  36251733.847   188772150.531        -744.651          27.000  
C16  36610859.729   190642306.725        -715.791          30.000  
C22  22195050.686   115575381.413       -1752.837          31.000  
C36  23230759.580   120968683.263       -2677.178          29.000  
G29  23801485.574   125077784.5321      -2206.318          21.000  
G31  21555931.539   113277170.835       -2068.318          31.000  
G32  21273817.842   111794882.903       -2940.205          24.000  
> 2021  9 30 12  9 53.9972826  0  7
C06  36251575.257   188771333.596        -744.216          26.000  
C16  36610696.342   190641461.623        -716.784          27.000  
C22  22195086.961   115575573.447       -1753.379          32.000  
C36  23230973.032   120969799.313       -2677.145          28.000  
G29  23801605.192   125078414.826       -2206.402          21.000  
G31  21556028.972   113277665.271       -2070.321          28.000  
G32  21274076.563   111796246.645       -2938.602          25.000  
> 2021  9 30 12  9 54.9972815  0  3
C16  36610502.077   190640462.444        -719.591          25.000  
C22  22195093.257   115575609.988       -1753.352          30.000  
C36  23231156.505   120970759.412       -2677.383          24.000  
> 2021  9 30 12  9 55.9972808  0  5
C06  36251321.932   188770014.6061       -748.893          18.000  
C16  36610431.026   190640089.881        -720.678          18.000  
C22  22195220.668   115576271.155       -1755.721          31.000  
G29  23801910.081   125079991.7041      -2205.888          25.000  
G31  21556275.101   113278971.2701      -2072.917          17.000  
> 2021  9 30 12  9 56.9972800  0  1
C22  22195318.401   115576777.921       -1755.138          27.000  
> 2021  9 30 12  9 57.9972792  0  5
C06  36251127.367   188769014.3551       -747.762          17.000  
C22  22195416.133   115577283.572       -1754.034          25.000  
C307245702341.558                       -1769.240          35.000  
C36  23232012.712   120975205.1161      -2680.132          16.000  
G32  21275279.031   111802345.7801      -2941.765          23.000  
> 2021  9 30 12  9 58.9972782  0  5
C16  36610064.080   190638192.9131       -724.770          17.000  
C22  22195457.205   115577476.654       -1754.219          26.000  
C30  25031125.712                        -298.456          35.000  
C36  23232229.762   120976326.724       -2683.326          15.000  
G29  23802395.744   125082510.4901      -2205.263          17.000  
> 2021  9 30 12  9 59.9972772  0  4
C06  36250818.880   188767374.4791       -738.659          15.000  
C22  22195495.878   115577669.781       -1755.148          28.000  
C30  25030888.576                        -300.787          35.000  
G32  21275803.668   111805079.6531      -2942.461          26.000  
> 2021  9 30 12 10  0.9972767  0  6
C16  36609894.997   190637299.6651       -727.459          15.000  
C22  22195685.946   115578644.454       -1755.167          28.000  
C30  25030797.739                        -299.370          35.000  
G29  23802781.877   125084562.0571      -2209.512          18.000  
G31  21557018.587   113282891.0701      -2076.479          15.000  
G32  21276215.283   111807233.856       -2942.976          26.000  
> 2021  9 30 12 10  1.9972756  0  4
C16  36609704.029   190636308.081        -724.740          14.000  
C22  22195692.542   115578682.808       -1756.550          29.000  
C30  25030525.828   130340515.0991       -301.035          36.000  
G29  23802872.115   125085037.708       -2207.108          17.000  
> 2021  9 30 12 10  2.9972749  0  5
C22  22195821.153   115579346.795       -1757.048          29.000  
C30  25030375.332                        -301.087          37.000  
G29  23803081.370   125086141.517       -2206.231          16.000  
G31  21557267.115   113284200.7401      -2071.340          13.000  
G32  21276804.075   111810285.9941      -2944.863          25.000  
> 2021  9 30 12 10  3.9972739  0  6
C16  36609468.392   190635094.2281       -718.425          13.000  
C22  22195858.627   115579543.057       -1758.132          29.000  
C30  25030134.898   130338462.8391       -300.963          38.000  
G29  23803199.788   125086771.075       -2204.825          16.000  
G31  21557360.650   113284694.203       -2067.342          14.000  
G32  21277067.892   111811655.438       -2945.112          24.000  
> 2021  9 30 12 10  4.9972731  0  5
C22  22195955.760   115580052.425       -1758.050          29.000  
C30  25029949.926   130337515.383        -301.414          36.000  
C36  23233800.674   120984456.4281      -2678.032          24.000  
G29  23803378.764   125087719.797       -2212.545          15.000  
G32  21277388.071   111813340.410       -2945.158          25.000  
> 2021  9 30 12 10  5.9972723  0  6
C16  36609263.035   190634029.1221       -715.043          15.000  
C22  22196054.691   115580561.958       -1759.005          26.000  
C30  25029768.552   130336568.287        -302.314          37.000  
C36  23234074.985   120985885.030       -2677.066          23.000  
G29  23803557.440   125088672.842       -2215.268          14.000  
G32  21277707.650   111815025.305       -2945.456          23.000  
> 2021  9 30 12 10  6.9972713  0  5
C22  22196095.463   115580761.642       -1761.271          25.000  
C30  25029523.322   130335309.591        -301.466          36.000  
G29  23803679.755   125089312.632       -2215.212          13.000  
G31  21557760.573   113286798.5721      -2067.171          18.000  
G32  21277968.469   111816395.703       -2946.411          28.000  
> 2021  9 30 12 10  7.9972705  0  4
C22  22196194.694   115581275.482       -1762.103          24.000  
C30  25029343.146   130334363.459        -304.554          34.000  
G29  23803859.331   125090266.325       -2214.057          15.000  
G32  21278290.146   111818082.471       -2947.878          28.000  
> 2021  9 30 12 10  8.9972695  0  6
C22  22196233.667   115581477.201       -1761.787          24.000  
C30  25029102.113   130333105.767        -303.633          35.000  
C36  23234780.696   120989545.9861      -2677.904          17.000  
G29  23803980.447   125090908.004       -2218.762          15.000  
G31  21558010.300   113288101.9341      -2073.058          18.000  
G32  21278551.865   111819455.249       -2948.752          27.000  
> 2021  9 30 12 10  9.9972687  0  3
C22  22196331.699   115581990.387       -1762.788          26.000  
C30  25028923.137   130332160.483        -303.248          35.000  
G29  23804160.023   125091867.006       -2220.706          16.000  
> 2021  9 30 12 10 10.9972680  0  4
C22  22196458.811   115582660.812       -1762.964          24.000  
C30  25028771.442   130331371.733        -303.531          36.000  
G29  23804372.276   125092982.545       -2217.190          17.000  
G32  21279228.197   111822990.1551      -2949.311          24.000  
> 2021  9 30 12 10 11.9972669  0  4
C22  22196466.006   115582706.085       -1762.448          26.000  
C30  25028500.729   130329958.976        -306.024          37.000  
G29  23804463.713   125093468.122       -2219.452          17.000  
G32  21279461.136   111824206.473       -2949.255          25.000  
> 2021  9 30 12 10 12.9972662  0  5
C22  22196593.718   115583375.984       -1763.654          24.000  
C30  25028347.835   130329170.959        -304.717          36.000  
G29  23804674.467   125094585.168       -2220.685          16.000  
G31  21558600.292   113291190.0021      -2072.177          18.000  
G32  21279814.891   111826053.234       -2949.928          25.000  
> 2021  9 30 12 10 13.9972654  0  5
C22  22196690.851   115583890.699       -1762.862          25.000  
C30  25028167.960   130328227.034        -305.987          36.000  
G29  23804857.340   125095544.070       -2217.696          16.000  
G31  21558756.783   113292001.556       -2071.434          17.000  
G32  21280135.669   111827742.993       -2950.318          25.000  
> 2021  9 30 12 10 14.9972644  0  4
C22  22196729.224   115584093.519       -1765.050          24.000  
C30  25027927.826   130326972.008        -306.072          35.000  
G31  21558850.918   113292496.180       -2071.855          17.000  
G32  21280397.987   111829118.239       -2951.005          28.000  
> 2021  9 30 12 10 15.9972636  0  5
C22  22196829.355   115584610.889       -1767.789          24.000  
C30  25027745.852   130326029.026        -305.178          35.000  
G29  23805165.227   125097143.5551      -2218.261          17.000  
G31  21559006.810   113293305.622       -2068.701          16.000  
G32  21280719.664   111830809.392       -2951.700          26.000  
> 2021  9 30 12 10 16.9972626  0  3
C22  22196869.827   115584817.609       -1768.656          24.000  
C30  25027504.219   130324774.321        -308.211          35.000  
G32  21280981.383   111832186.169       -2952.709          27.000  
> 2021  9 30 12 10 17.9972618  0  3
C22  22196969.957   115585337.075       -1767.889          23.000  
C30  25027323.744   130323832.084        -305.438          33.000  
G31  21559255.038   113294613.2771      -2073.766          16.000  
> 2021  9 30 12 10 18.9972611  0  3
C30  25027172.049   130323044.327        -306.659          34.000  
G31  21559440.910   113295585.669       -2076.241          26.000  
G32  21281652.319   111835729.5111      -2953.819          27.000  
> 2021  9 30 12 10 19.9972600  0  3
C22  22197104.564   115586063.9551      -1768.606          29.000  
C30  25026902.236   130321634.665        -308.003          34.000  
G31  21559508.663   113295929.631       -2076.919          26.000  
> 2021  9 30 12 10 20.9972593  0  4
C22  22197232.276   115586739.588       -1768.999          29.000  
C30  25026754.438   130320850.182        -308.511          35.000  
G31  21559695.134   113296903.107       -2076.363          27.000  
G32  21282227.920   111838800.5671      -2953.553          22.000  
> 2021  9 30 12 10 21.9972585  0  2
C22  22197330.908   115587260.002       -1769.572          30.000  
C30  25026573.664                        -309.468          34.000  
> 2021  9 30 12 10 22.9972575  0  3
C22  22197370.180   115587468.992       -1770.159          31.000  
C30  25026331.131   130318683.1891       -308.543          33.000  
G31  21559949.058   113298220.2521      -2075.968          26.000  
> 2021  9 30 12 10 23.9972567  0  3
C22  22197469.711   115587990.489       -1770.767          30.000  
C30  25026151.856   130317743.045        -309.979          33.000  
G31  21560105.849   113299034.993       -2074.100          25.000  
> 2021  9 30 12 10 24.9972557  0  4
C22  22197510.783   115588200.694       -1772.108          31.000  
C30  25025907.525   130316491.222        -310.393          32.000  
G31  21560204.781   113299533.225       -2072.876          24.000  
G32  21283385.719   111844950.1831      -2954.851          24.000  
> 2021  9 30 12 10 25.9972552  0  4
C22  22197703.250   115589192.096       -1772.306          32.000  
C30  25025819.686   130316019.962        -308.535          31.000  
G29  23806906.422   125106133.1091      -2225.975          20.000  
G32  21283798.233   111847117.374       -2956.227          25.000  
> 2021  9 30 12 10 26.9972541  0  4
C22  22197716.141                       -1772.924          32.000  
C30  25025548.973   130314612.321        -310.851          31.000  
G31  21560508.770   113301161.5491      -2077.329          25.000  
G32  21284032.371   111848341.274       -2957.345          25.000  
> 2021  9 30 12 10 27.9972531  0  5
C22  22197758.711                       -1774.094          32.000  
C30  25025305.541   130313361.324        -310.643          29.000  
E07  23904934.358   125621277.4231        -84.684          27.000  
G29  23807127.668   125107276.6821      -2226.516          20.000  
G32  21284294.989   111849722.830       -2957.817          24.000  
> 2021  9 30 12 10 28.9972524  0  4
C22  22197887.922   115590225.1851      -1773.077          32.000  
C30  25025154.746   130312578.933        -311.485          29.000  
E07  23904743.391   125620259.183         -85.141          27.000  
G32  21284652.941   111851577.793       -2958.108          26.000  
> 2021  9 30 12 10 29.9972516  0  5
C22  22197990.451   115590749.619       -1774.097          33.000  
C30  25024974.870   130311640.521        -310.535          29.000  
E07  23904518.846   125619083.206         -83.776          28.000  
G31  21560946.168   113303449.9221      -2075.334          23.000  
G32  21284976.417   111853276.375       -2959.844          25.000  
> 2021  9 30 12 10 30.9972508  0  5
C22  22198088.483   115591274.624       -1772.357          33.000  
C30  25024794.995   130310702.073        -311.158          28.000  
E07  23904293.402   125617906.714         -83.506          27.000  
G31  21561102.959   113304265.093       -2076.737          21.000  
G32  21285297.795   111854975.836       -2959.518          26.000  
> 2021  9 30 12 10 31.9972498  0  5
C22  22198127.456   115591487.450       -1775.181          32.000  
C30  25024553.962   130309451.921        -311.059          28.000  
E07  23904009.499   125616415.720         -84.467          28.000  
G29  23807836.977   125110983.0811      -2225.718          19.000  
G32  21285561.013   111856360.165       -2960.035          26.000  
> 2021  9 30 12 10 32.9972488  0  4
C22  22198167.928   115591701.546       -1775.170          26.000  
C30  25024314.727   130308202.128        -311.768          31.000  
E07  23903724.696   125614924.197         -84.269          25.000  
G32  21285820.633   111857745.673       -2963.937          22.000  
> 2021  9 30 12 10 33.9972483  0  4
C22  22198359.196   115592696.024       -1774.985          26.000  
C30  25024225.989   130307734.594        -313.543          29.000  
G31  21561531.063   113306552.2601      -2073.474          26.000  
G32  21286239.143   111859921.494       -2962.097          24.000  
> 2021  9 30 12 10 34.9972472  0  4
C22  22198370.588   115592754.580       -1776.526          31.000  
C30  25023956.176   130306330.732        -313.951          33.000  
G31  21561592.220   113306892.022       -2072.507          30.000  
G32  21286475.680   111861150.134       -2961.527          28.000  
> 2021  9 30 12 10 35.9972462  0  4
C22  22198411.659   115592971.054       -1779.066          31.000  
C30  25023716.042   130305083.242        -313.253          27.000  
G31  21561684.556   113307389.853       -2072.627          31.000  
G32  21286743.994   111862536.209       -2961.638          26.000  
> 2021  9 30 12 10 36.9972454  0  3
C22  22198513.289   115593502.202       -1780.017          29.000  
C30  25023534.667   130304148.392        -315.482          21.000  
G31  21561838.350   113308201.736       -2072.393          32.000  
> 2021  9 30 12 10 37.9972447  0  4
C22  22198644.298   115594188.600       -1777.847          26.000  
E07  23902586.983   125608895.9701        -86.139          29.000  
G31  21562021.823   113309171.211       -2072.360          34.000  
G32  21287418.827   111866095.1151      -2960.879          22.000  
> 2021  9 30 12 10 38.9972439  0  3
C22  22198745.928   115594716.369       -1776.130          22.000  
E07  23902362.739   125607721.526         -85.807          27.000  
G31  21562174.417   113309983.273       -2073.180          35.000  
> 2021  9 30 12 10 39.9972429  0  5
C06  36246274.027   188743860.4191       -746.448          26.000  
C22  22198787.899   115594933.965       -1780.300          23.000  
G29  23809148.270   125117939.7591      -2230.724          18.000  
G31  21562270.950   113310480.685       -2072.765          32.000  
G32  21288016.913   111869180.7611      -2961.412          19.000  
> 2021  9 30 12 10 40.9972419  0  5
C06  36246118.434   188743046.399        -746.859          25.000  
C22  22198831.968   115595153.343       -1782.089          21.000  
C30  25022736.020   130299954.4001       -320.355          17.000  
G31  21562365.985   113310977.855       -2072.740          32.000  
G32  21288283.128   111870566.177       -2957.792          19.000  
> 2021  9 30 12 10 41.9972413  0  4
C22  22198995.655   115595998.755       -1782.724          27.000  
C30  25022615.804   130299336.737        -318.051          16.000  
G31  21562582.435                       -2070.019          33.000  
G32  21288668.661   111872580.046       -2960.387          20.000  
> 2021  9 30 12 10 42.9972403  0  5
C06  36245924.768   188742041.9851       -747.378          22.000  
C22  22199039.125   115596220.433       -1782.645          28.000  
C30  25022377.169   130298093.118        -316.773          16.000  
G31  21562675.670   113312632.3841      -2075.049          30.000  
G32  21288934.577   111873965.515       -2963.480          20.000  
> 2021  9 30 12 10 43.9972396  0  5
C06  36245860.013   188741695.432        -746.366          25.000  
C22  22199171.633   115596910.040       -1781.760          31.000  
G29  23809855.180   125121666.7971      -2233.501          18.000  
G31  21562857.944   113313600.366       -2070.553          27.000  
G32  21289289.232   111875826.545       -2964.114          20.000  
> 2021  9 30 12 10 44.9972385  0  5
C06  36245674.442   188740725.929        -748.976          22.000  
C22  22199184.824   115596975.115       -1783.133          29.000  
C30  25021956.260   130295918.7221       -320.217          16.000  
G31  21562920.900   113313939.827       -2073.962          29.000  
G32  21289521.871   111877060.176       -2966.784          19.000  
> 2021  9 30 12 10 45.9972378  0  7
C06  36245609.687   188740381.585        -747.481          23.000  
C077256159433.464                       -2068.884          21.000  
C16  36604450.466   190608962.8501       -719.079          25.000  
C22  22199319.731   115597665.721       -1783.193          26.000  
C36  23244303.304   121039119.9021      -2678.967          29.000  
G31  21563104.673   113314911.085       -2074.534          27.000  
G32  21289875.026   111878925.021       -2967.559          19.000  
> 2021  9 30 12 10 46.9972370  0  7
C06  36245514.652   188739879.987        -747.469          17.000  
C077256159193.630                         399.247          22.000  
C16  36604347.637   190608432.573        -718.113          23.000  
C22  22199422.560   115598198.933       -1781.978          22.000  
C36  23244579.113   121040549.712       -2679.027          24.000  
G29  23810338.446   125124275.8401      -2235.277          25.000  
G31  21563259.966   113315725.732       -2075.612          29.000  
> 2021  9 30 12 10 47.9972360  0  7
C06  36245359.660   188739066.794        -749.698          20.000  
C077256158893.838                       -2068.884          23.000  
C16  36604185.450   190607589.089        -718.054          26.000  
C22  22199463.931   115598420.767       -1783.946          30.000  
C36  23244794.064   121041668.179       -2679.571          21.000  
G29  23810462.860   125124936.463       -2236.509          29.000  
G31  21563354.400   113316226.272       -2076.444          26.000  
> 2021  9 30 12 10 48.9972352  0  6
C077256158654.004                         573.082          25.000  
C16  36604083.820   190607058.054        -718.321          24.000  
C22  22199565.261   115598956.244       -1785.392          26.000  
C30  25021215.473   130292055.8411       -324.008          15.000  
G29  23810645.433   125125912.944       -2236.837          27.000  
G32  21290807.081   111883731.2061      -2968.772          19.000  
> 2021  9 30 12 10 49.9972344  0  6
C06  36245168.092   188738067.9131       -749.975          20.000  
C077256158414.170                         399.247          24.000  
C16  36603983.689   190606528.265        -719.943          22.000  
C22  22199668.090   115599492.047       -1784.749          29.000  
G29  23810827.407   125126889.014       -2236.843          26.000  
G31  21563666.185   113317858.8931      -2077.332          20.000  
> 2021  9 30 12 10 50.9972334  0  5
C077256158114.377                         573.082          21.000  
C22  22199711.859   115599716.030       -1786.401          30.000  
C30  25020800.560   130289894.7591       -325.527          15.000  
C36  23245560.633   121045653.5331      -2681.052          17.000  
G29  23810951.821   125127550.703       -2237.517          29.000  
> 2021  9 30 12 10 51.9972326  0  5
C06  36244914.468   188736757.1521       -747.802          21.000  
C16  36603718.373   190605156.0591       -718.997          18.000  
C22  22199814.089   115600253.653       -1786.567          27.000  
G29  23811136.193   125128528.527       -2239.422          24.000  
G31  21563912.614   113319180.9171      -2078.870          16.000  
> 2021  9 30 12 10 52.9972316  0  5
C077256157574.751                         399.247          17.000  
C16  36603555.886   190604311.500        -717.026          20.000  
C22  22199856.959   115600478.768       -1786.508          25.000  
G29  23811263.605   125129193.331       -2241.856          24.000  
G32  21291976.571   111889935.5171      -2969.720          24.000  
> 2021  9 30 12 10 53.9972311  0  7
C06  36244750.481   188735910.3031       -745.755          21.000  
C16  36603543.894   190604248.358        -719.017          26.000  
C22  22200051.524   115601485.198       -1786.999          25.000  
C36  23246414.742   121050101.9431      -2682.732          17.000  
G29  23811538.515   125130646.849       -2240.558          27.000  
G31  21564252.878   113320974.5241      -2080.818          18.000  
G32  21292388.486   111892117.825       -2971.251          24.000  
> 2021  9 30 12 10 54.9972301  0  6
C06  36244592.491   188735094.085        -744.433          24.000  
C16  36603382.905   190603405.615        -717.800          25.000  
C22  22200094.994   115601711.752       -1788.149          24.000  
C36  23246629.993   121051224.175       -2683.772          19.000  
G29  23811662.329   125131309.913       -2238.449          28.000  
G31  21564347.913   113321479.360       -2080.104          19.000  
> 2021  9 30 12 10 55.9972291  0  7
C06  36244434.200   188734276.497        -743.454          22.000  
C077256156825.270                       -2068.884          20.000  
C16  36603221.017   190602562.175        -716.871          23.000  
C22  22200138.164   115601939.708       -1790.105          28.000  
C36  23246845.544   121052346.696       -2684.754          20.000  
G29  23811785.844   125131972.332       -2236.981          27.000  
G31  21564441.748   113321984.360       -2079.946          20.000  
> 2021  9 30 12 10 56.9972283  0  7
C06  36244335.569   188733770.536        -743.512          24.000  
C077256156585.436                       -2068.884          20.000  
C16  36603119.388   190602030.240        -717.029          25.000  
C22  22200241.892   115602480.421       -1788.591          28.000  
G29  23811969.017   125132948.693       -2235.959          31.000  
G31  21564596.141   113322804.348       -2079.370          21.000  
G32  21293233.601   111896615.6781      -2969.665          25.000  
> 2021  9 30 12 10 57.9972275  0  4
C077256156345.602                       -2068.884          21.000  
C16  36603016.559   190601498.834        -717.169          23.000  
C22  22200346.820   115603020.881       -1790.504          29.000  
G32  21293556.478   111898325.562       -2971.294          25.000  
> 2021  9 30 12 10 58.9972268  0  6
C06  36244170.383   188732919.7241       -743.902          19.000  
C077256156135.747                       -4295.119          21.000  
C16  36602942.810   190601124.670        -719.807          24.000  
C22  22200479.928   115603719.066       -1791.662          26.000  
C36  23247702.650   121056806.0441      -2679.285          20.000  
G29  23812362.045   125135059.1381      -2237.687          28.000  
> 2021  9 30 12 10 59.9972257  0  5
C06  36243984.512   188731945.902        -743.625          21.000  
C16  36602750.043   190600127.639        -719.789          20.000  
C22  22200493.718   115603793.309       -1791.528          29.000  
C36  23247887.922   121057767.529       -2678.031          18.000  
G29  23812455.580   125135298.444       -2239.931          28.000  
> 2021  9 30 12 11  0.9972247  0  6
C06  36243828.620   188731128.102        -741.824          20.000  
C077256155506.183                         399.247          21.000  
C16  36602588.156   190599285.802        -719.826          22.000  
C22  22200539.286   115604022.796       -1790.121          27.000  
G29  23812581.193   125135962.715       -2240.027          25.000  
G32  21294410.586   111902828.5001      -2972.369          25.000  
> 2021  9 30 12 11  1.9972242  0  6
C06  36243816.628   188731088.079        -742.155          18.000  
C077256155356.287                         399.247          21.000  
C16  36602577.363   190599224.363        -717.704          21.000  
C22  22200733.552   115605032.983       -1791.085          26.000  
G29  23812854.904   125137413.850       -2238.523          30.000  
G32  21294825.799   111905011.560       -2970.960          25.000  
> 2021  9 30 12 11  2.9972232  0  4
C077256155056.494                         399.247          20.000  
C16  36602414.875   190598381.157        -717.802          24.000  
G29  23812980.816   125138077.412       -2240.012          27.000  
G32  21295089.616   111906407.299       -2971.460          24.000  
> 2021  9 30 12 11  3.9972224  0  3
C16  36602312.047   190597849.564        -716.673          27.000  
C22  22200887.046   115605808.2431      -1790.372          22.000  
G29  23813167.587   125139057.392       -2240.240          27.000  
> 2021  9 30 12 11  4.9972214  0  3
C16  36602148.960   190597004.504        -716.067          26.000  
G31  21565695.180   113328522.2401      -2065.630          17.000  
G32  21295679.908   111909516.7921      -2974.045          25.000  
> 2021  9 30 12 11  5.9972206  0  2
C16  36602047.030   190596471.731        -716.000          26.000  
G32  21296009.679   111911231.392       -2975.342          25.000  
> 2021  9 30 12 11  6.9972198  0  4
C16  36601944.801   190595939.336        -716.813          27.000  
G29  23813664.643   125141689.3501      -2245.605          21.000  
G31  21566000.668   113330139.4271      -2070.270          18.000  
G32  21296336.153   111912946.438       -2975.730          25.000  
> 2021  9 30 12 11  7.9972188  0  4
C16  36601784.112   190595095.346        -717.863          27.000  
G03  23388151.819                       -2068.884          25.000  
G31  21566098.701   113330634.890       -2071.709          19.000  
G32  21296605.367   111914346.982       -2975.808          25.000  
> 2021  9 30 12 11  8.9972178  0  3
C16  36601621.924   190594252.383        -718.272          28.000  
C22  22201227.310   115607595.7041      -1798.998          16.000  
G32  21296872.182   111915747.739       -2976.505          26.000  
> 2021  9 30 12 11  9.9972173  0  4
C16  36601611.432   190594190.211        -718.649          29.000  
C22  22201421.276   115608612.569       -1796.117          15.000  
G31  21566436.267   113332416.9021      -2073.074          20.000  
G32  21297285.596   111917936.436       -2976.576          23.000  
> 2021  9 30 12 11 10.9972163  0  3
C16  36601450.743   190593347.853        -718.617          28.000  
G31  21566532.200   113332914.554       -2073.256          23.000  
G32  21297552.111   111919337.513       -2976.557          26.000  
> 2021  9 30 12 11 11.9972155  0  3
C16  36601348.214   190592817.970        -719.372          25.000  
C22  22201569.673   115609397.7111      -1795.088          14.000  
G32  21297877.686   111921054.065       -2977.308          27.000  
> 2021  9 30 12 11 12.9972145  0  3
G29  23814657.256   125146837.3391      -2249.988          19.000  
G31  21566781.928   113334229.4691      -2076.399          23.000  
G32  21298143.002   111922456.104       -2978.258          28.000  
> 2021  9 30 12 11 13.9972137  0  1
G32  21298469.177   111924174.025       -2978.564          30.000  
> 2021  9 30 12 11 14.9972129  0  3
C22  22201824.797   115610714.6751      -1796.816          14.000  
G29  23815043.389   125148819.6651      -2252.333          25.000  
G32  21298795.351   111925892.697       -2980.137          31.000  
> 2021  9 30 12 11 15.9972119  0  3
C16  36600821.179   190590072.2271       -719.121          19.000  
G29  23815175.297   125149496.383       -2252.274          26.000  
G31  21567197.740   113336363.3351      -2077.074          23.000  
> 2021  9 30 12 11 16.9972111  0  3
C16  36600718.950   190589542.345        -719.158          26.000  
G31  21567352.133   113337179.602       -2076.407          25.000  
G32  21299390.739   111929018.3421      -2981.550          24.000  
> 2021  9 30 12 11 17.9972104  0  4
C16  36600647.599   190589168.632        -718.923          20.000  
G29  23815589.910   125151639.1851      -2253.710          29.000  
G31  21567541.002   113338154.322       -2077.236          23.000  
G32  21299747.492   111930897.466       -2982.303          32.000  
> 2021  9 30 12 11 18.9972093  0  2
C16  36600454.533   190588169.601        -719.165          21.000  
G32  21299983.728   111932146.813       -2982.596          30.000  
> 2021  9 30 12 11 19.9972086  0  3
G29  23815910.688   125153307.3101      -2254.087          26.000  
G32  21300343.479   111934025.640       -2981.658          26.000  
J01  36181981.735   190137596.4971       -850.377          28.000  
> 2021  9 30 12 11 20.9972076  0  5
C16  36600223.093   190586954.3261       -720.873          19.000  
G29  23816041.997   125153986.689       -2255.982          25.000  
G31  21567886.063   113339981.6141      -2077.593          18.000  
G32  21300610.594   111935432.057       -2981.488          27.000  
J01  36181845.030   190136872.007        -851.540          30.000  
> 2021  9 30 12 11 21.9972070  0  4
C16  36600181.721   190586740.854        -724.781          20.000  
G29  23816291.724   125155296.908       -2254.865          26.000  
G31  21568099.815   113341112.530       -2074.394          26.000  
G32  21300995.228   111937468.721       -2983.427          29.000  
> 2021  9 30 12 11 22.9972060  0  5
C16  36600021.033   190585904.622        -725.739          18.000  
G29  23816417.637   125155976.435       -2254.384          25.000  
G31  21568193.350   113341611.498       -2074.819          24.000  
G32  21301262.643   111938876.948       -2983.986          30.000  
J01  36181689.737   190136052.2181       -850.145          24.000  
> 2021  9 30 12 11 23.9972050  0  3
G29  23816547.747   125156654.735       -2253.365          28.000  
G32  21301531.856   111940285.780       -2984.213          32.000  
J01  36181551.833   190135326.660        -849.668          26.000  
> 2021  9 30 12 11 24.9972042  0  3
G31  21568440.679   113342920.6901      -2071.614          20.000  
G32  21301858.930   111942009.611       -2984.136          29.000  
J01  36181474.187   190134917.761        -853.246          27.000  
> 2021  9 30 12 11 25.9972035  0  4
C16  36599687.064   190584171.4581       -723.161          19.000  
G29  23816955.765   125158801.6161      -2254.877          25.000  
G32  21302216.582   111943891.104       -2984.371          28.000  
J01  36181424.121   190134667.719        -851.195          24.000  
> 2021  9 30 12 11 26.9972027  0  3
C16  36599585.434   190583645.679        -723.734          19.000  
G29  23817145.533   125159796.503       -2254.905          18.000  
G31  21568775.847   113344693.3091      -2066.606          18.000  
> 2021  9 30 12 11 27.9972017  0  4
G29  23817275.943   125160476.889       -2254.485          23.000  
G31  21568868.483   113345184.094       -2064.472          18.000  
G32  21302819.165   111947025.3591      -2985.920          24.000  
J01  36181204.673   190133534.5221       -851.843          19.000  
> 2021  9 30 12 11 28.9972006  0  4
G29  23817377.573   125160999.254       -2257.027          20.000  
G31  21568933.238   113345514.830       -2060.355          17.000  
G32  21303057.800   111948278.852       -2988.415          31.000  
J01  36181037.989   190132653.382        -852.349          24.000  
> 2021  9 30 12 11 29.9972001  0  3
G29  23817660.577   125162470.840       -2261.383          24.000  
G32  21303477.210   111950480.355       -2990.546          31.000  
J01  36181051.779   190132718.397        -852.959          26.000  
> 2021  9 30 12 11 30.9971991  0  3
G29  23817791.886   125163155.593       -2259.430          22.000  
G32  21303747.323   111951895.270       -2988.985          32.000  
J01  36180915.373   190131996.666        -853.880          24.000  
> 2021  9 30 12 11 31.9971983  0  4
G22  22982484.957   120773772.9591      -1262.875          31.000  
G29  23817981.654   125164153.550       -2256.404          22.000  
G31  21569427.596   113348066.3171      -2058.562          13.000  
J01  36180842.524   190131591.637        -856.605          22.000  
> 2021  9 30 12 11 32.9971973  0  4
G22  22982424.998   120773460.387       -1263.046          31.000  
G31  21569525.029   113348552.596       -2065.257          13.000  
J01  36180706.718   190130871.352        -854.072          24.000  
J037256886939.522                       -1053.707          22.000  
> 2021  9 30 12 11 33.9971965  0  3
C30  25012386.285   130245959.1461       -328.041          30.000  
G32  21304678.178   111956765.7531      -2989.248          26.000  
J037256886699.688                       -1053.707          24.000  
> 2021  9 30 12 11 34.9971958  0  3
C30  25012243.584   130245195.191        -328.726          27.000  
G22  22982459.474   120773626.7221      -1265.164          31.000  
G31  21569879.383   113350329.5221      -2070.498          14.000  
> 2021  9 30 12 11 35.9971948  0  4
C30  25012011.245   130243960.044        -325.996          24.000  
G22  22982399.816   120773316.053       -1264.697          29.000  
J01  36180447.397   190129492.7791       -852.863          22.000  
J03  37259005.028                       -1264.484          24.000  
> 2021  9 30 12 11 36.9971940  0  4
C30  25011835.866   130243038.238        -327.731          30.000  
G22  22982399.516   120773320.471       -1265.477          30.000  
J01  36180370.950   190129085.269        -851.884          25.000  
J03  37259006.227   195797397.6991      -1265.854          24.000  
> 2021  9 30 12 11 37.9971932  0  5
C30  25011655.991   130242117.169        -328.378          34.000  
G03  23373521.348                         -83.359          33.000  
G22  22982399.816   120773326.245       -1267.090          31.000  
G32  21305978.678   111963529.7151      -2988.772          21.000  
J01  36180293.304   190128677.134        -853.744          25.000  
> 2021  9 30 12 11 38.9971922  0  4
C30  25011418.255   130240885.693        -331.953          31.000  
G03  23373238.044                         -85.561          34.000  
G22  22982340.157   120773017.680       -1267.305          33.000  
G32  21306252.688   111964942.322       -2989.143          14.000  
> 2021  9 30 12 11 39.9971914  0  6
C30  25011241.078   130239968.241        -331.262          28.000  
G03  23373014.699                         -83.073          32.000  
G22  22982340.757   120773024.588       -1267.587          32.000  
G29  23819358.601   125171357.7771      -2265.801          17.000  
G32  21306582.460   111966667.738       -2982.977          19.000  
J01  36180083.449   190127549.3021       -854.300          22.000  
> 2021  9 30 12 11 40.9971904  0  5
C30  25011003.343   130238737.218        -327.862          24.000  
G03  23372733.493   122824357.5051        -87.080          31.000  
G22  22982282.297   120772717.246       -1268.649          28.000  
G32  21306854.072   111968076.727       -2987.133          19.000  
J01  36179947.044   190126828.209        -854.201          23.000  
> 2021  9 30 12 11 41.9971896  0  3
G03  23372511.947   122823181.678         -82.604          32.000  
G22  22982283.796   120772724.764       -1267.591          29.000  
J01  36179872.096   190126423.642        -856.223          25.000  
> 2021  9 30 12 11 42.9971889  0  3
G03  23372317.082   122822164.874         -86.411          30.000  
G22  22982315.874   120772890.181       -1268.208          30.000  
J01  36179825.928   190126176.683        -855.774          27.000  
> 2021  9 30 12 11 43.9971878  0  4
C30  25010411.552   130235656.5481       -326.017          11.000  
G03  23372002.299   122820518.227         -86.267          31.000  
G22  22982227.735   120772425.147       -1268.486          30.000  
G29  23820014.247   125174776.5291      -2276.506          16.000  
> 2021  9 30 12 11 44.9971871  0  3
G03  23371808.334   122819501.950         -87.571          30.000  
G22  22982258.913   120772591.525       -1269.523          31.000  
J01  36179610.077   190125051.3161       -855.008          25.000  
> 2021  9 30 12 11 45.9971863  0  4
G03  23371584.389   122818328.069         -86.815          31.000  
G22  22982258.613   120772600.509       -1269.529          30.000  
G32  21308487.341   111976856.6041      -2993.219          19.000  
J01  36179532.131   190124646.461        -855.422          24.000  
> 2021  9 30 12 11 46.9971853  0  5
G03  23371301.085   122816840.267         -88.240          31.000  
G22  22982201.353   120772294.484       -1271.300          29.000  
G29  23820570.962   125177944.5451      -2270.196          16.000  
G31  21571517.749   113359090.3251      -2072.638          16.000  
J01  36179396.625   190123926.485        -855.918          26.000  
> 2021  9 30 12 11 47.9971845  0  4
G03  23371077.740   122815667.695         -88.585          29.000  
G22  22982204.051   120772304.959       -1271.779          28.000  
G32  21309091.123   111980008.7671      -2994.921          18.000  
J01  36179319.878   190123521.928        -855.611          25.000  
> 2021  9 30 12 11 48.9971835  0  3
G03  23370777.947   122814092.275         -88.585          32.000  
G29  23820896.836   125179640.6391      -2262.170          16.000  
J01  36179182.273   190122802.238        -856.211          25.000  
> 2021  9 30 12 11 49.9971827  0  4
G22  22982150.688   120772013.7351      -1273.290          35.000  
G31  21571921.569   113361203.4281      -2069.754          18.000  
G32  21309697.004   111983167.4231      -2995.835          19.000  
J01  36179105.227   190122398.986        -856.753          22.000  
> 2021  9 30 12 11 50.9971820  0  5
G22  22982183.965   120772184.426       -1272.626          31.000  
G29  23821312.349   125181798.8121      -2261.249          16.000  
G31  21572106.242   113362171.887       -2071.963          19.000  
G32  21310055.855   111985060.075       -2995.133          19.000  
J01  36179056.660   190122151.573        -854.543          22.000  
> 2021  9 30 12 11 51.9971809  0  4
C077256142375.273                       -1264.350          25.000  
G03  23369998.487   122809996.1831        -87.571          21.000  
G22  22982094.927   120771724.116       -1273.041          30.000  
J01  36178886.978   190121272.456        -853.187          24.000  
> 2021  9 30 12 11 52.9971802  0  5
C07  36260970.453                        -886.629          25.000  
G03  23369788.632   122808893.389         -87.571          20.000  
G22  22982125.206   120771894.308       -1273.712          33.000  
G32  21310654.541   111988216.1151      -2996.834          19.000  
J01  36178833.315   190121022.038        -851.654          22.000  
> 2021  9 30 12 11 53.9971794  0  3
C07  36260901.200                        -887.109          24.000  
G03  23369548.798   122807633.053         -88.585          26.000  
J01  36178754.769   190120614.050        -852.530          24.000  
> 2021  9 30 12 11 54.9971786  0  3
C07  36260833.447   188819666.6361       -887.574          24.000  
G03  23369308.964   122806372.717        -887.109          28.000  
G22  22982132.701   120771921.4391      -1274.990          34.000  
> 2021  9 30 12 11 55.9971776  0  6
C07  36260704.836   188818992.982        -888.742          19.000  
G03  23369009.172   122804797.297        -887.109          28.000  
G22  22982076.040                       -1273.930          32.000  
G31  21572754.693   113365614.9121      -2076.134          20.000  
G32  21311595.290   111993114.6281      -2999.441          19.000  
J01  36178542.516   190119486.6151       -857.560          21.000  
> 2021  9 30 12 11 56.9971766  0  4
C07  36260577.724   188818321.041        -889.379          19.000  
G03  23368870.967                         -94.335          32.000  
G22  22982019.979   120771323.7371      -1276.074          27.000  
J01  36178406.410   190118768.617        -857.609          25.000  
> 2021  9 30 12 11 57.9971758  0  6
C07  36260510.871   188817959.796        -887.819          18.000  
C36  23262808.293   121135478.8531      -2680.240          26.000  
G03  23368631.133                        -889.379          30.000  
G22  22982022.677   120771339.849       -1276.930          31.000  
G29  23822517.514   125188174.2671      -2277.664          18.000  
G32  21312192.476   111996279.6971      -3000.675          20.000  
> 2021  9 30 12 11 58.9971750  0  7
C07  36260441.619   188817598.025        -889.588          17.000  
C36  23263082.903   121136910.236       -2679.050          21.000  
G03  23368429.673                         -97.184          30.000  
G22  22982023.876   120771355.853       -1276.821          28.000  
G29  23822716.876   125189191.135       -2277.993          18.000  
G31  21573161.511   113367747.0641      -2077.010          26.000  
J01  36178256.514   190117961.9821       -856.325          26.000  
> 2021  9 30 12 11 59.9971743  0  4
C36  23263386.293   121138496.896       -2680.813          18.000  
G03  23368239.005                         -98.506          33.000  
G22  22982057.153   120771530.957       -1279.119          30.000  
J01  36178209.747   190117715.940        -857.065          27.000  
> 2021  9 30 12 12  0.9971732  0  6
C07  36260250.951   188816571.2541       -891.854          15.000  
C36  23263571.864   121139460.723       -2680.945          20.000  
G03  23367909.233                         -98.506          28.000  
G22  22981971.412   120771077.401       -1279.531          26.000  
G29  23823057.740   125190915.1951      -2283.806          19.000  
J01  36178044.561   190116840.235        -857.245          24.000  
> 2021  9 30 12 12  1.9971725  0  7
C07  36260211.378   188816370.342        -888.046          13.000  
C36  23263876.753   121141050.949       -2683.830          20.000  
G22  22982001.092   120771255.311       -1282.443          26.000  
G31  21573588.416   113370034.4931      -2075.438          21.000  
G32  21313465.695   112003090.5381      -3001.318          24.000  
J01  36178002.290   190116593.715        -856.054          22.000  
J03  37258588.616   195795126.8571      -1262.595          25.000  
> 2021  9 30 12 12  2.9971717  0  6
C07  36260140.927   188816008.927        -889.341          10.000  
C36  23264152.862   121142485.844       -2684.464          21.000  
G22  22982004.389   120771277.859       -1283.204          29.000  
G32  21313794.267   112004830.986       -3001.156          25.000  
J01  36177925.244   190116188.290        -853.356          22.000  
J03  37258592.813   195795128.984       -1262.769          23.000  
> 2021  9 30 12 12  3.9971707  0  5
C36  23264368.113   121143608.004       -2683.112          21.000  
G31  21573831.547   113371353.3651      -2078.016          18.000  
G32  21314063.481   112006257.126       -3002.234          27.000  
J01  36177787.339   190115467.520        -855.137          20.000  
J03  37258530.456   195794815.715       -1261.702          25.000  
> 2021  9 30 12 12  4.9971699  0  5
G22  22981957.022   120771010.2421      -1282.906          27.000  
G31  21573985.940   113372170.494       -2076.982          20.000  
G32  21314392.353   112007999.810       -3004.359          29.000  
J01  36177709.693   190115062.782        -856.600          23.000  
J03  37258528.358   195794817.570       -1262.988          25.000  
> 2021  9 30 12 12  5.9971689  0  6
C36  23264854.676   121146152.8911      -2675.460          20.000  
G22  22981902.460   120770717.887       -1282.966          29.000  
G31  21574079.176   113372672.031       -2078.116          21.000  
G32  21314660.667   112009429.303       -3005.731          27.000  
J01  36177572.688   190114342.608        -855.484          23.000  
J03  37258467.500   195794505.348       -1263.377          25.000  
> 2021  9 30 12 12  6.9971681  0  5
C36  23265128.986   121147579.328       -2675.173          20.000  
G22  22981906.657   120770739.587       -1281.957          31.000  
G32  21314990.139   112011175.118       -3006.140          25.000  
J01  36177496.540   190113939.532        -857.804          23.000  
J03  37258469.598   195794510.082       -1265.277          23.000  
> 2021  9 30 12 12  7.9971674  0  6
C36  23265432.376   121149161.954       -2676.369          20.000  
G22  22981943.532   120770918.514       -1283.484          26.000  
G26  20109068.681   105673868.2311      -1498.494          29.000  
G31  21574411.646   113374464.0191      -2076.283          26.000  
G32  21315349.591   112013079.164       -3007.306          23.000  
J01  36177450.072   190113695.871        -860.341          27.000  
> 2021  9 30 12 12  8.9971663  0  5
C36  23265613.151   121150121.840       -2679.074          20.000  
G22  22981855.093   120770469.656       -1285.746          26.000  
G26  20109023.113   105673633.965       -1498.890          29.000  
G31  21574470.705   113374807.020       -2075.572          26.000  
J01  36177281.289   190112822.328        -859.249          21.000  
> 2021  9 30 12 12  9.9971656  0  8
C19  23502681.832   122384631.0461      -4280.430          29.000  
C217245826358.203                       -2051.752          28.000  
C36  23265917.740   121151708.520       -2679.946          21.000  
G22  22981891.967   120770653.089       -1286.741          26.000  
G26  20109098.661   105674030.384       -1499.538          30.000  
G31  21574650.580   113375780.518       -2077.604          26.000  
G32  21315952.173   112016254.8321      -3004.228          23.000  
J01  36177235.421   190112578.474        -857.672          22.000  
> 2021  9 30 12 12 10.9971648  0  9
C19  23503262.530   122387661.949       -4278.920          26.000  
C217245826118.369                       -2051.752          25.000  
C36  23266185.455   121153139.902       -2680.431          25.000  
G22  22981895.265   120770679.936       -1287.329          25.000  
G26  20109144.829   105674269.207       -1498.916          27.000  
G29  23824881.378   125200474.1081      -2270.412          14.000  
G31  21574800.776   113376598.338       -2077.987          27.000  
G32  21316283.744   112017998.677       -3003.845          22.000  
J01  36177159.873   190112175.222        -856.179          23.000  
> 2021  9 30 12 12 11.9971640  0  6
C19  23503842.628   122390690.956       -4278.050          23.000  
C217245825878.535                       -2051.752          29.000  
C36  23266456.467   121154571.076       -2680.080          23.000  
G22  22981901.860   120770706.726       -1287.637          29.000  
G26  20109191.596   105674508.399       -1501.008          23.000  
J01  36177082.827   190111770.883        -856.614          25.000  
> 2021  9 30 12 12 12.9971630  0  9
C19  23504365.466   122393407.666       -4278.590          27.000  
C217245825578.743                       -2077.991          27.000  
C36  23266669.320   121155691.088       -2681.840          22.000  
G22  22981846.699   120770419.915       -1289.542          26.000  
G26  20109180.204   105674435.331       -1504.696          26.000  
G29  23825206.952   125202182.7331      -2273.266          13.000  
G31  21575047.206   113377637.3131      -2077.245          24.000  
G32  21316889.924   112021177.2441      -3007.709          18.000  
J01  36176945.222   190111050.746        -854.108          21.000  
> 2021  9 30 12 12 13.9971620  0  5
C19  23504889.204   122396125.557       -4278.651          27.000  
G03  23364821.970                        -108.916          27.000  
G22  22981793.935   120770133.353       -1289.075          29.000  
G29  23825341.259   125202882.143       -2277.562          12.000  
G32  21317160.037   112022608.815       -3006.832          18.000  
> 2021  9 30 12 12 14.9971615  0  5
C217245825129.054                       -2077.245          27.000  
G03  23364692.760                        -109.198          26.000  
G22  22981891.667   120770634.972       -1290.031          30.000  
G29  23825623.964   125204374.134       -2282.988          11.000  
G31  21575382.074   113379427.7531      -2078.306          26.000  
> 2021  9 30 12 12 15.9971604  0  8
C16  36593663.634   190552789.9501       -718.055          26.000  
C19  23506053.898   122402184.3481      -4278.013          11.000  
C21  24640350.141                         900.178          29.000  
G03  23364385.173   122780555.6751       -109.445          24.000  
G22  22981808.925   120770191.822       -1290.829          31.000  
G29  23825724.994   125204924.549       -2284.414          10.000  
G31  21575446.529   113379773.548       -2079.182          26.000  
G32  21317833.371   112026102.7341      -3007.374          20.000  
> 2021  9 30 12 12 16.9971597  0  6
C16  36593591.084   190552415.586        -719.008          26.000  
C21  24639967.605                         900.068          29.000  
G03  23364198.102   122779563.381        -111.845          26.000  
G22  22981846.998   120770380.019       -1291.506          31.000  
G31  21575629.702   113380749.838       -2079.128          26.000  
G32  21318198.218   112028007.643       -3008.011          21.000  
> 2021  9 30 12 12 17.9971587  0  7
C16  36593429.796   190551574.009        -719.356          25.000  
C21  24639495.132   128304315.3141        900.650          25.000  
G03  23363921.094   122778100.457        -112.826          27.000  
G22  22981793.336   120770095.981       -1291.588          32.000  
G26  20109315.411   105675198.8201      -1505.697          20.000  
G31  21575724.137   113381253.306       -2079.257          24.000  
G32  21318475.227   112029441.247       -3009.433          21.000  
> 2021  9 30 12 12 18.9971579  0  7
C16  36593328.766   190551044.982        -719.750          25.000  
C19  23507774.706   122411121.9101      -4282.301          24.000  
C21  24639079.920   128302167.289         898.820          26.000  
G03  23363702.246   122776952.742        -112.804          25.000  
G22  22981799.331   120770127.576       -1291.890          27.000  
G26  20109363.977   105675444.000       -1505.353          24.000  
G32  21318814.592   112031185.929       -3006.945          21.000  
> 2021  9 30 12 12 19.9971571  0  6
C16  36593227.436   190550515.209        -719.169          29.000  
C19  23508358.402   122414155.915       -4284.031          30.000  
C21  24638665.907   128300018.522         900.326          23.000  
G03  23363482.797   122775806.137        -113.514          27.000  
G22  22981803.528   120770158.427       -1291.320          27.000  
G32  21319147.062   112032933.321       -3007.834          23.000  
> 2021  9 30 12 12 20.9971561  0  6
C16  36593066.747   190549673.279        -718.955          29.000  
C19  23508882.140   122416878.408       -4283.257          31.000  
C21  24638194.933   128297556.909         899.843          23.000  
G03  23363205.789   122774344.245        -113.598          27.000  
G22  22981747.767   120769874.235       -1291.578          27.000  
R15  20958971.606                       -3519.725          31.000  
> 2021  9 30 12 12 21.9971553  0  7
C06  36234628.888   188683220.6601       -744.082          24.000  
C16  36592965.417   190549143.728        -719.658          30.000  
C19  23509464.936   122419912.613       -4283.336          26.000  
C21  24637781.519   128295408.367         899.222          24.000  
G03  23362987.540   122773197.883        -113.131          26.000  
G22  22981752.864   120769906.969       -1294.813          25.000  
G32  21319752.642   112036114.3051      -3006.128          17.000  
> 2021  9 30 12 12 22.9971546  0  5
C16  36592894.067   190548770.347        -720.172          29.000  
C19  23510077.412   122423102.544       -4282.492          24.000  
G03  23362777.686   122772095.089        -113.131          22.000  
G22  22981787.639   120770098.738       -1294.653          29.000  
R15  20959842.803   112003044.9891      -3519.915          31.000  
> 2021  9 30 12 12 23.9971538  0  6
C16  36592793.936   190548241.707        -720.355          28.000  
C19  23510660.808   122426136.494       -4283.058          29.000  
C21  24636984.071   128291269.3151        897.160          24.000  
G03  23362576.525                        -113.234          24.000  
G22  22981793.935   120770133.347       -1294.860          24.000  
R15  20960265.510   112005303.541       -3519.812          30.000  
> 2021  9 30 12 12 24.9971528  0  7
C06  36234304.213   188681553.3901       -746.262          18.000  
C16  36592634.446   190547401.793        -721.272          27.000  
C19  23511184.246   122428858.546       -4283.288          30.000  
C21  24636513.097   128288810.798         897.056          30.000  
G03  23362276.732                       -1291.588          27.000  
G22  22981739.073   120769853.389       -1295.880          25.000  
R15  20960620.165   112007198.034       -3519.726          28.000  
> 2021  9 30 12 12 25.9971517  0  9
C06  36234114.445   188680582.905        -747.080          20.000  
C16  36592443.479   190546404.781        -719.831          22.000  
C19  23511676.205   122431424.625       -4283.451          23.000  
C21  24636011.844   128286196.261         897.555          27.000  
G03  23361946.961                       -1262.315          26.000  
G22  22981656.031   120769416.384       -1295.629          26.000  
G26  20109522.267   105676223.1561      -1509.694          29.000  
J01  36175671.404   190104383.5421       -858.241          25.000  
R15  20960954.133   112008983.488       -3519.725          27.000  
> 2021  9 30 12 12 26.9971512  0  4
G03  23361797.064                       -1291.588          23.000  
G32  21321383.813   112044704.7821      -3013.025          24.000  
J01  36175686.693   190104454.175        -859.231          21.000  
R15  20961464.080   112011708.427       -3519.181          27.000  
> 2021  9 30 12 12 27.9971502  0  6
C19  23512871.178   122437650.8451      -4285.081          24.000  
C21  24635223.989   128282059.6031        896.270          21.000  
G03  23361591.407                        -117.171          24.000  
G32  21321656.025   112046142.931       -3014.195          29.000  
J01  36175549.088   190103737.732        -858.992          25.000  
R15  20961821.133   112013615.753       -3521.073          26.000  
> 2021  9 30 12 12 28.9971494  0  9
C16  36592165.571   190544977.2801       -718.193          23.000  
C19  23513453.975   122440686.457       -4283.850          26.000  
C21  24634812.374   128279913.989         896.217          26.000  
G03  23361374.057                        -118.400          24.000  
G26  20109694.648   105677134.5381      -1510.620          19.000  
G31  21577297.448   113389457.6391      -2075.360          19.000  
G32  21321988.495   112047897.292       -3015.081          31.000  
J01  36175472.042   190103336.902        -860.474          21.000  
R15  20962234.847   112015826.686       -3522.140          25.000  
> 2021  9 30 12 12 29.9971484  0  8
C16  36592004.582   190544133.291        -718.212          20.000  
C19  23513978.012   122443409.046       -4283.584          26.000  
C21  24634339.602   128277457.834         894.145          23.000  
G03  23361096.749   122763273.4351       -119.460          24.000  
G22  22981660.527   120769403.8111      -1299.733          21.000  
G32  21322265.803   112049336.182       -3015.073          32.000  
J01  36175336.536   190102622.056        -861.306          21.000  
R15  20962596.696   112017760.742       -3519.928          26.000  
> 2021  9 30 12 12 30.9971476  0  7
C19  23514560.509   122446444.407       -4284.564          30.000  
C21  24633927.987   128275315.714         892.602          21.000  
G22  22981670.421   120769441.577       -1296.580          21.000  
G26  20109733.022   105677322.3941      -1511.329          17.000  
G32  21322606.367                       -3015.340          31.000  
J01  36175258.290   190102221.978        -860.454          22.000  
R15  20963013.708   112019988.504       -3519.239          28.000  
> 2021  9 30 12 12 31.9971469  0  9
C16  36591831.902   190543226.7691       -717.001          21.000  
C19  23515173.584   122449634.451       -4282.624          24.000  
C21  24633547.850   128273329.934         893.927          20.000  
G22  22981710.293   120769635.654       -1296.505          21.000  
G31  21577737.543   113391746.8451      -2077.008          19.000  
G32  21322965.818                       -3015.810          31.000  
J01  36175211.522   190101979.064        -860.281          24.000  
J03  37258101.153   195792612.5721      -1261.878          25.000  
R15  20963462.197   112022385.376       -3518.901          28.000  
> 2021  9 30 12 12 32.9971459  0  5
C19  23515696.422   122452355.817       -4282.864          30.000  
C21  24633075.677   128270874.110         895.363          25.000  
G32  21323237.730   112054405.5371      -3018.961          31.000  
J01  36175074.517   190101262.153        -858.973          25.000  
R15  20963822.248   112024309.261       -3519.850          30.000  
> 2021  9 30 12 12 33.9971451  0  5
C19  23516279.518   122455391.233       -4285.925          29.000  
C21  24632664.361   128268729.966         895.278          28.000  
G03  23360194.074   122758552.8501       -119.161          25.000  
G22  22981668.622   120769394.5931      -1296.900          19.000  
G32  21323569.000   112056161.965       -3015.848          31.000  
> 2021  9 30 12 12 34.9971443  0  9
C06  36233182.989   188675755.1091       -747.356          19.000  
C16  36591462.558   190541321.2951       -718.140          21.000  
C19  23516862.915   122458428.438       -4286.013          31.000  
C21  24632252.147   128266586.659         894.303          25.000  
G03  23359976.725   122757413.361        -121.424          24.000  
G32  21323899.971   112057918.954       -3018.134          31.000  
J01  36174919.225   190100459.1331       -857.433          22.000  
J03  37258049.289   195792303.0811      -1261.491          26.000  
R15  20964660.767   112028790.0681      -3521.652          16.000  
> 2021  9 30 12 12 35.9971433  0  9
C06  36233027.397   188674939.488        -744.172          20.000  
C16  36591298.271   190540476.728        -715.345          21.000  
C19  23517386.052   122461153.391       -4286.265          31.000  
C21  24631780.873   128264133.172         891.641          26.000  
G03  23359700.616   122755958.412        -120.443          24.000  
G32  21324178.778   112059361.270       -3016.991          30.000  
J01  36174782.219   190099741.326        -858.753          22.000  
J03  37257990.230   195791990.425       -1263.156          25.000  
R15  20965016.321   112030690.102       -3519.841          25.000  
> 2021  9 30 12 12 36.9971425  0  5
C19  23517968.849   122464190.162       -4285.061          27.000  
C21  24631371.057   128261992.573         892.623          27.000  
G03  23359484.166   122754818.295        -120.432          24.000  
G32  21324510.948   112061119.237       -3018.631          30.000  
J03  37257990.830   195791993.137       -1262.127          28.000  
> 2021  9 30 12 12 37.9971415  0 10
C06  36232770.475   188673618.2801       -743.595          20.000  
C19  23518491.087   122466914.443       -4284.747          22.000  
C21  24630898.884   128259538.516         892.650          25.000  
E30  23043008.257   121091767.3901      -2667.813          28.000  
G03  23359208.656   122753363.607        -122.407          24.000  
G31  21578496.018   113395722.1251      -2079.907          19.000  
G32  21324785.558   112062562.585       -3018.995          31.000  
J01  36174570.566   190098626.1261       -861.496          23.000  
J03  37257931.471   195791680.431       -1262.977          29.000  
R15  20965788.587   112034816.6501      -3518.558          22.000  
> 2021  9 30 12 12 38.9971410  0  9
C06  36232766.278   188673580.792        -743.551          21.000  
C19  23519162.323   122470419.405       -4285.856          22.000  
C21  24630575.407   128257864.520         893.646          25.000  
E30  23043364.711   121093646.476       -2666.996          27.000  
G31  21578740.649   113397015.271       -2081.213          19.000  
G32  21325207.066   112064794.196       -3019.168          30.000  
J01  36174583.457   190098699.263        -860.606          22.000  
J03  37258023.807   195792155.354       -1262.687          29.000  
R15  20966292.238   112037508.401       -3518.576          19.000  
> 2021  9 30 12 12 39.9971400  0 10
C06  36232612.484   188672763.948        -744.472          25.000  
C19  23519686.960   122473141.175       -4281.716          14.000  
C21  24630103.534   128255410.891         892.904          21.000  
E30  23043575.165   121094737.301       -2666.279          26.000  
G03  23358807.834   122751245.1191       -121.203          21.000  
G31  21578835.083   113397520.201       -2080.474          23.000  
G32  21325481.376   112066238.293       -3020.490          29.000  
J01  36174445.253   190097983.939        -859.691          22.000  
J03  37257965.947   195791841.891       -1261.619          30.000  
R15  20966649.890   112039419.931       -3523.648          20.000  
> 2021  9 30 12 12 40.9971389  0  7
C19  23520178.020   122475707.134       -4284.227          16.000  
E30  23043754.141   121095671.785       -2668.737          25.000  
G03  23358502.945   122749634.305        -123.290          23.000  
G22  22981525.921   120768718.6581      -1302.350          26.000  
G32  21325729.904   112067525.275       -3019.930          30.000  
J01  36174278.568   190097111.293        -860.935          20.000  
J03  37257875.410   195791370.423       -1261.254          31.000  
> 2021  9 30 12 12 41.9971382  0  8
C06  36232364.556   188671443.8411       -745.478          25.000  
C19  23520789.896   122478900.992       -4287.412          15.000  
C21  24629222.144   128250816.3371        890.281          22.000  
G22  22981563.695   120768919.042       -1303.710          26.000  
G32  21326092.353   112069443.177       -3018.225          30.000  
J01  36174232.100   190096868.980        -860.374          23.000  
J03  37257907.787   195791529.825       -1264.716          31.000  
R15  20967420.057   112043534.9661      -3524.977          19.000  
> 2021  9 30 12 12 42.9971374  0  7
C06  36232267.723   188670941.743        -748.559          25.000  
C19  23521372.393   122481939.150       -4287.639          24.000  
C21  24628810.229   128248677.259         890.022          26.000  
G03  23358103.621   122747521.5441       -125.677          23.000  
G22  22981573.887   120768962.551       -1304.526          25.000  
G32  21326428.721   112071204.238       -3021.953          28.000  
J03  37257904.789   195791533.284       -1263.009          30.000  
> 2021  9 30 12 12 43.9971364  0  7
C21  24628338.956   128246226.216         889.938          27.000  
G03  23357830.211   122746072.357        -126.289          21.000  
G22  22981521.724   120768692.213       -1307.012          25.000  
G31  21579344.731   113400181.0931      -2078.665          19.000  
G32  21326703.331   112072650.427       -3021.978          24.000  
J03  37257840.034   195791221.156       -1263.321          24.000  
R15  20968206.413   112047737.4541      -3520.983          24.000  
> 2021  9 30 12 12 44.9971356  0  8
C21  24627928.840   128244086.941         889.749          28.000  
G03  23357613.161   122744939.016        -127.990          28.000  
G22  22981529.218   120768738.931       -1306.908          22.000  
G31  21579499.124   113400998.530       -2076.645          20.000  
G32  21327038.498   112074412.228       -3022.465          25.000  
J01  36173947.897   190095360.0231       -861.599          23.000  
J03  37257838.535   195791223.008       -1261.208          21.000  
R15  20968625.822   112049978.814       -3519.523          28.000  
> 2021  9 30 12 12 45.9971346  0  8
C16  36590073.919   190534092.6241       -719.576          26.000  
C21  24627457.566   128241635.684         891.284          28.000  
G03  23357336.752   122743491.030        -126.155          25.000  
G22  22981477.054   120768470.618       -1307.386          29.000  
G31  21579590.860   113401499.215       -2076.652          20.000  
G32  21327313.108   112075859.513       -3023.092          28.000  
J01  36173813.590   190094646.175        -861.157          27.000  
R15  20968984.674   112051895.560       -3519.446          22.000  
> 2021  9 30 12 12 46.9971341  0  8
C06  36231856.408   188668788.6381       -749.134          19.000  
C16  36590061.328   190534031.253        -719.152          28.000  
C21  24627133.190   128239964.006         890.435          25.000  
G03  23357212.638   122742829.743        -126.318          25.000  
G22  22981575.986   120768989.378       -1305.499          28.000  
G32  21327738.514   112078095.340       -3023.967          25.000  
J01  36173824.682   190094719.463        -861.582          25.000  
R15  20969494.921   112054622.647       -3519.629          22.000  
> 2021  9 30 12 12 47.9971331  0  8
C06  36231700.216   188667976.314        -748.845          18.000  
C16  36589901.238   190533189.465        -719.688          27.000  
C21  24626661.917   128237511.947         890.952          26.000  
G03  23356935.330   122741380.680        -126.744          29.000  
G22  22981527.120   120768719.166       -1305.065          31.000  
G31  21579934.122   113403291.4331      -2078.245          25.000  
G32  21328014.623   112079544.034       -3024.370          22.000  
R15  20969854.372   112056543.494       -3521.431          26.000  
> 2021  9 30 12 12 48.9971320  0  9
C06  36231513.145   188667006.491        -746.916          23.000  
C16  36589709.671   190532193.006        -721.517          28.000  
C21  24626157.666   128234904.513         889.969          31.000  
G03  23356628.642   122739775.460        -128.807          27.000  
G22  22981447.375   120768291.770       -1306.325          29.000  
G31  21580000.077   113403636.860       -2078.816          31.000  
G32  21328260.153   112080835.371       -3024.202          20.000  
J03  37257716.220   195790594.2091      -1258.908          17.000  
R15  20970187.142   112058321.375       -3522.621          30.000  
> 2021  9 30 12 12 49.9971313  0  7
C16  36589635.922   190531820.367        -719.088          26.000  
C21  24625777.229   128232922.331         888.714          30.000  
E30  23046043.656   121107719.6261      -2669.631          32.000  
G03  23356440.972   122738801.881        -129.577          24.000  
G22  22981486.048   120768495.676       -1307.200          31.000  
G31  21580185.349   113404613.174       -2079.147          29.000  
R15  20970637.130   112060726.400       -3521.580          30.000  
> 2021  9 30 12 12 50.9971305  0  8
C16  36589533.693   190531289.497        -717.592          24.000  
C21  24625366.514   128230784.339         889.243          32.000  
E30  23046311.071   121109129.396       -2671.409          32.000  
G03  23356225.122   122737671.330        -130.485          26.000  
G22  22981496.241   120768542.597       -1307.091          30.000  
G31  21580339.742   113405431.973       -2079.022          28.000  
G32  21328965.564   112084520.3671      -3023.543          22.000  
R15  20971057.139   112062970.719       -3521.283          30.000  
> 2021  9 30 12 12 51.9971297  0  6
C16  36589432.063   190530759.008        -719.284          26.000  
C21  24624955.198   128228646.708         888.160          33.000  
E30  23046574.888   121110539.306       -2669.949          29.000  
G03  23356007.472   122736541.492        -130.631          26.000  
G31  21580494.435   113406250.484       -2078.351          29.000  
R15  20971475.650   112065206.647       -3521.782          31.000  
> 2021  9 30 12 12 52.9971287  0  9
C06  36231087.140   188664850.5341       -745.120          21.000  
C16  36589268.976   190529917.056        -719.640          25.000  
C21  24624485.423   128226197.377         887.574          30.000  
E30  23046782.045   121111634.215       -2669.961          29.000  
G03  23355731.663   122735097.411        -132.085          26.000  
G22  22981454.570   120768321.9081      -1308.778          29.000  
G31  21580589.169   113406753.936       -2079.767          29.000  
G32  21329581.638   112087731.6481      -3024.912          22.000  
R15  20971836.300   112067133.889       -3522.428          29.000  
> 2021  9 30 12 12 53.9971277  0  8
C16  36589106.489   190529074.923        -718.930          26.000  
C21  24624015.948   128223748.575         887.587          33.000  
E30  23046990.700   121112729.149       -2670.020          30.000  
G03  23355454.955   122733653.732        -131.181          29.000  
G22  22981402.706   120768055.739       -1309.693          32.000  
G31  21580683.903   113407259.054       -2081.020          26.000  
G32  21329854.749   112089181.686       -3027.217          24.000  
R15  20972198.149   112069068.156       -3522.168          32.000  
> 2021  9 30 12 12 54.9971272  0  8
C16  36589094.797   190529013.607        -720.064          28.000  
C21  24623697.269   128222081.061         887.135          32.000  
E30  23047349.252   121114612.161       -2671.088          30.000  
G03  23355329.642   122732997.275        -131.809          32.000  
G22  22981501.038   120768577.642       -1309.895          31.000  
G31  21580927.635   113408552.651       -2081.351          26.000  
G32  21330282.253   112091421.411       -3027.500          22.000  
R15  20972706.597   112071784.277       -3521.646          35.000  
> 2021  9 30 12 12 55.9971261  0  8
C06  36230739.981   188663027.4011       -747.660          18.000  
C16  36588905.628   190528016.416        -719.741          30.000  
C21  24623200.513                         887.093          33.000  
E30  23047528.828   121115548.847       -2669.490          30.000  
G22  22981418.895   120768154.657       -1309.814          30.000  
G32  21330528.982   112092716.415       -3027.636          22.000  
J01  36172908.217   190089860.7381       -861.082          24.000  
R15  20973038.168   112073556.687       -3522.129          35.000  
> 2021  9 30 12 12 56.9971254  0  7
C16  36588836.076   190527642.893        -719.595          30.000  
C21  24622824.573                         886.581          33.000  
E30  23047828.620   121117115.621       -2670.379          28.000  
G22  22981456.069   120768361.215       -1309.214          29.000  
G32  21330897.127   112094641.355       -3027.966          23.000  
J01  36172862.948   190089618.856        -861.203          25.000  
R15  20973487.557   112075958.062       -3521.662          32.000  
> 2021  9 30 12 12 57.9971244  0  9
C16  36588675.687   190526800.986        -718.763          32.000  
C21  24622355.698   128215038.7221        885.422          34.000  
E07  23869358.587   125434325.5961       -128.226          31.000  
E30  23048040.574   121118210.859       -2670.710          30.000  
G03  23354568.469                        -132.328          32.000  
G22  22981403.306   120768095.372       -1310.263          30.000  
G31  21581265.501   113410381.0791      -2078.149          14.000  
G32  21331172.037   112096095.482       -3030.038          23.000  
J01  36172726.842   190088903.955        -859.417          23.000  
> 2021  9 30 12 12 58.9971236  0  9
C16  36588574.657   190526270.512        -717.350          33.000  
C21  24621943.183   128212904.466         882.666          33.000  
E07  23869142.137   125433193.568        -128.207          28.000  
E30  23048313.984   121119621.533       -2670.077          30.000  
G03  23354348.121   122727957.9931       -133.858          31.000  
G31  21581419.894   113411200.123       -2079.046          17.000  
G32  21331507.205   112097864.987       -3029.989          22.000  
J01  36172651.894   190088502.703        -859.910          22.000  
R15  20974262.820   112080100.5471      -3521.306          30.000  
> 2021  9 30 12 12 59.9971228  0  5
C16  36588468.231   190525739.377        -718.231          32.000  
C21  24621533.367   128210768.208         887.086          32.000  
G32  21331842.673   112099634.551       -3030.392          23.000  
J01  36172576.346   190088102.868        -861.156          22.000  
R15  20974684.028   112082351.324       -3521.231          28.000  
> 2021  9 30 12 13  0.9971218  0  6
C16  36588305.743   190524896.240        -718.410          31.000  
C21  24621061.194   128208320.507         886.244          35.000  
G03  23353875.349   122725390.6431       -135.170          33.000  
G32  21332119.081   112101088.510       -3027.494          22.000  
J01  36172441.140   190087388.797        -861.301          25.000  
R15  20975046.178   112084286.832       -3522.080          33.000  
> 2021  9 30 12 13  1.9971210  0  8
C16  36588203.514   190524365.009        -718.071          30.000  
C21  24620648.979   128206188.149         878.697          34.000  
G03  23353659.198   122724267.202        -135.134          30.000  
G22  22981393.113   120767985.6291      -1318.939          30.000  
G26  20110712.443   105682539.9201      -1527.274          28.000  
G31  21581828.211   113413344.0651      -2080.428          24.000  
G32  21332455.748   112102855.951       -3027.756          24.000  
J01  36172362.894   190086990.688        -864.046          24.000  
> 2021  9 30 12 13  2.9971203  0  8
C16  36588133.362   190523991.001        -719.476          24.000  
C21  24620270.641   128204211.544         884.556          28.000  
G03  23353474.826   122723299.628        -135.332          26.000  
G22  22981432.685   120768196.928       -1313.858          26.000  
G26  20110794.886   105682964.738       -1527.644          26.000  
G32  21332819.396   112104781.056       -3028.262          21.000  
J01  36172317.925   190086749.944        -861.060          20.000  
R15  20975914.976   112088928.9591      -3525.174          30.000  
> 2021  9 30 12 13  3.9971192  0  6
C21  24619770.887   128201610.064         885.219          25.000  
G22  22981351.441   120767777.592       -1312.934          25.000  
G26  20110755.314   105682760.055       -1528.602          23.000  
G32  21333064.327   112106077.247       -3029.935          27.000  
J01  36172152.140   190085878.026        -861.004          27.000  
R15  20976247.146   112090704.134       -3521.392          22.000  
> 2021  9 30 12 13  4.9971185  0  8
C16  36587875.241   190522618.3821       -718.218          24.000  
C21  24619392.249   128199632.208         884.380          21.000  
G03  23352988.562   122720735.7841       -137.077          19.000  
G22  22981391.014   120767987.926       -1312.864          26.000  
G26  20110836.258   105683186.343       -1529.407          22.000  
G32  21333429.474   112108004.858       -3030.781          28.000  
J01  36172104.773   190085636.283        -861.883          27.000  
R15  20976691.139   112093076.529       -3522.850          23.000  
> 2021  9 30 12 13  5.9971174  0  7
C16  36587686.672   190521619.643        -719.569          25.000  
C21  24618892.495   128197030.408         884.295          27.000  
G03  23352682.774   122719139.715        -137.460          20.000  
G22  22981310.670   120767568.547       -1315.094          24.000  
G26  20110798.484   105682982.628       -1529.449          27.000  
G32  21333674.704   112109303.028       -3031.642          26.000  
J01  36171937.189   190084765.484        -862.852          27.000  
> 2021  9 30 12 13  6.9971169  0  6
C16  36587677.978   190521558.717        -719.597          22.000  
G22  22981410.201   120768095.752       -1314.920          25.000  
G26  20110939.686   105683724.098       -1529.690          24.000  
G32  21334099.810   112111546.934       -3032.123          23.000  
J01  36171950.080   190084840.374        -861.857          27.000  
R15  20977529.958   112097559.6341      -3523.696          20.000  
