     3.03           OBSERVATION DATA    M: Mixed            RINEX VERSION / TYPE
Geo++ RINEX Logger  Geo++               20210930 111416 UTC PGM / RUN BY / DATE
************************************************************COMMENT
This file was generated by the Geo++ RINEX Logger App       COMMENT
for Android devices (Version 2.1.6). If you encounter       COMMENT
any issues, please send an email to android@geopp.de        COMMENT
Filtering Mode: MORE                                        COMMENT
************************************************************COMMENT
Geo++                                                       MARKER NAME
GEODETIC                                                    MARKER TYPE
Geo++               Geo++                                   OBSERVER / AGENCY
unknown             HUAWEI              ELS-AN00            REC # / TYPE / VERS
unknown             ELS-AN00                                ANT # / TYPE
 -2418848.8919  5385589.6291  2405517.4731                  APPROX POSITION XYZ
        0.0000        0.0000        0.0000                  ANTENNA: DELTA H/E/N
G    8 C1C L1C D1C S1C C5Q L5Q D5Q S5Q                      SYS / # / OBS TYPES
R    4 C1C L1C D1C S1C                                      SYS / # / OBS TYPES
E   12 C1B L1B D1B S1B C1C L1C D1C S1C C5Q L5Q D5Q S5Q      SYS / # / OBS TYPES
C    4 C2I L2I D2I S2I                                      SYS / # / OBS TYPES
J    8 C1C L1C D1C S1C C5Q L5Q D5Q S5Q                      SYS / # / OBS TYPES
  2021     9    30    11    14   34.8456259     GPS         TIME OF FIRST OBS
 24 R01  1 R02 -4 R03  5 R04  6 R05  1 R06 -4 R07  5 R08  6 GLONASS SLOT / FRQ #
    R09 -2 R10 -5 R11  0 R12 -1 R13 -2 R14 -7 R15  0 R16 -1 GLONASS SLOT / FRQ #
    R17  4 R18 -3 R19  3 R20  2 R21  4 R22 -3 R23  3 R24  2 GLONASS SLOT / FRQ #
G L1C                                                       SYS / PHASE SHIFT
G L5Q -0.25000                                              SYS / PHASE SHIFT
R L1C                                                       SYS / PHASE SHIFT
E L1B                                                       SYS / PHASE SHIFT
E L1C +0.50000                                              SYS / PHASE SHIFT
E L5Q -0.25000                                              SYS / PHASE SHIFT
C L2I                                                       SYS / PHASE SHIFT
J L1C                                                       SYS / PHASE SHIFT
J L5Q -0.25000                                              SYS / PHASE SHIFT
 C1C    0.000 C1P    0.000 C2C    0.000 C2P    0.000        GLONASS COD/PHS/BIS
                                                            END OF HEADER
> 2021  9 30 11 14 34.8456259  2  0
> 2021  9 30 11 14 34.8456259  0 12
C06  35552670.898   185132086.4281       -769.397          28.000  
C19  20855694.303   108601073.0491      -2985.270          15.000  
C36  21396722.857   111418349.8501      -2278.169          27.000  
G10  21634848.906                        -396.027          17.000  
G25  22260696.840   116980751.2511      -4673.557          25.000  
G26  19603063.382   103014792.5941        548.793          23.000  
G29  22778819.451   119703503.1521       -398.858          23.000  
G32  19715169.272   103603913.1111      -1330.605          29.000  
J01                                                                  35579117.090   139620097.0851       -299.134          23.000  
J02  37804142.837   198662110.6781      -2095.008          23.000  
R04  18365171.756    98344660.5671      -2295.799          25.000  
R14  21190021.953   112954740.8161      -4610.642          22.000  
> 2021  9 30 11 14 35.8456259  0 10
C01  36434114.088   189721992.1461      -1259.025          29.000  
C06  35552817.796   185132855.044        -768.840          29.000  
C36  21397162.053   111420628.016       -2278.041          30.000  
G10  21634848.906                        -396.027          17.000  
G25  22261592.021   116985423.120       -4670.564          23.000  
G29  22778893.200   119703903.376        -400.903          23.000  
G32  19715425.895   103605243.314       -1330.458          31.000  
J01                                                                  35579192.637   139620395.003        -298.001          23.000  
J02  37804540.661   198664204.936       -2093.839          30.000  
R04  18365598.061    98346943.174       -2294.571          26.000  
> 2021  9 30 11 14 36.8456259  0 10
C01  36434355.720   189723250.973       -1258.844          32.000  
C06  35552964.994   185133623.770        -769.157          29.000  
C19  20856847.005   108607044.3961      -2985.814          26.000  
C36  21397600.949   111422905.939       -2277.891          32.000  
G10  21634848.906                        -396.027          17.000  
G25  22262483.903   116990093.538       -4670.581          25.000  
G29  22778974.444   119704303.661        -399.910          17.000  
G32  19715683.416   103606574.321       -1331.837          32.000  
R04  18366025.565    98349232.241       -2294.508          25.000  
R14  21191759.550   112964002.7471      -4613.147          17.000  
> 2021  9 30 11 14 37.8456259  0 10
C01  36434596.754   189724509.489       -1258.332          30.000  
C06  35553111.293   185134392.310        -768.276          29.000  
C36  21398039.246   111425184.556       -2279.014          31.000  
G25  22263376.085   116994764.061       -4670.704          26.000  
G26  19602741.405   103013143.2311        550.884          25.000  
G29  22779059.285   119704703.420        -400.880          25.000  
G32  19715943.636                       -1332.225          35.000  
J02  37805333.312   198668390.1011      -2091.903          29.000  
R04  18366454.568    98351529.405       -2297.461          27.000  
R14  21192622.353   112968602.606       -4611.270          20.000  
> 2021  9 30 11 14 38.8456259  0  8
C06  35553259.091   185135160.327        -767.179          31.000  
C36  21398473.045   111427463.186       -2276.930          33.000  
G25  22264267.069   116999435.862       -4671.777          25.000  
G29  22779150.722   119705103.435        -399.524          27.000  
G32  19716196.361   103609239.0861      -1331.439          34.000  
J02  37805731.137   198670482.661       -2093.541          28.000  
R04  18366879.674    98353806.416       -2297.966          23.000  
R14  21193488.753   112973220.947       -4618.090          19.000  
> 2021  9 30 11 14 39.8456259  0  8
C01  36435077.920   189727024.9121      -1256.996          31.000  
C06  35553406.889   185135927.739        -767.862          31.000  
C36  21398907.445                       -2278.828          34.000  
G25  22265155.354   117004107.837       -4672.579          24.000  
G26  19602531.850   103012040.2431        551.743          22.000  
G29  22779240.360   119705502.977        -401.352          20.000  
J02  37806129.561   198672576.205       -2093.511          29.000  
R04  18367302.981    98356073.159       -2298.016          24.000  
> 2021  9 30 11 14 40.8456259  0  4
C06  35553554.386   185136696.000        -768.774          32.000  
C19  20859139.518   108618993.3761      -2986.328          17.000  
C36  21399344.242   111432005.7611      -2278.763          30.000  
G25  22266045.138   117008779.899       -4671.670          25.000  
> 2021  9 30 11 14 41.8456259  0  6
C01  36435559.687   189729538.3501      -1256.451          27.000  
C06  35553702.784   185137465.086        -769.727          31.000  
C19  20859710.923   108621979.144       -2987.927          18.000  
C36  21399780.740   111434285.162       -2281.454          27.000  
G25  22266934.622   117013451.948       -4673.182          27.000  
G29  22779411.242   119706613.2171       -401.370          25.000  
> 2021  9 30 11 14 42.8456259  0  7
C06  35553851.781   185138234.589        -769.534          29.000  
C36  21400219.037   111436566.491       -2280.998          28.000  
G25  22267826.504   117018125.056       -4673.387          26.000  
G26  19602217.667   103010385.5411        548.949          18.000  
G29  22779494.584   119707014.324        -401.641          23.000  
G32  19717196.469   103614572.4451      -1334.135          26.000  
R04  18368589.090    98362960.2731      -2303.010          24.000  
> 2021  9 30 11 14 43.8456259  0  4
C06  35554000.178   185139003.272        -769.372          28.000  
G25  22268721.085   117022799.835       -4674.700          22.000  
G26  19602114.838   103009837.056         547.730          25.000  
J02  37807719.960   198680948.1261      -2093.194          28.000  
> 2021  9 30 11 14 44.8456259  0  6
C06  35554147.976   185139772.361        -769.179          26.000  
E30  21431529.961   112623449.5491      -1546.247          24.000  
G25  22269607.272   117027476.623       -4678.214          17.000  
J02  37808117.185   198683041.941       -2094.783          26.000  
R04  18369451.593    98367578.9261      -2304.396          25.000  
R14  21198663.171   113000803.2921      -4614.634          17.000  
> 2021  9 30 11 14 45.8456259  0  5
C06  35554298.771   185140542.599        -770.328          25.000  
G25  22270493.458   117032154.599       -4677.438          18.000  
J02  37808515.310   198685137.643       -2096.317          29.000  
R04  18369880.896    98369877.743       -2304.433          27.000  
R14  21199523.275   113005387.696       -4612.319          26.000  
> 2021  9 30 11 14 46.8456259  0  5
C06  35554447.768   185141312.571        -769.482          29.000  
C36  21401970.724   111445693.8601      -2282.514          31.000  
G25  22271379.345   117036831.101       -4676.245          17.000  
G26  19601801.855   103008198.4641        545.470          24.000  
G32  19718222.659                       -1336.541          40.000  
> 2021  9 30 11 14 47.8456259  0  8
C06  35554594.966   185142081.847        -769.403          30.000  
C36  21402409.021   111447976.335       -2282.634          35.000  
E08  20747530.384   109029007.9851      -1341.071          30.000  
G25  22272269.129   117041508.007       -4675.532          16.000  
G26  19601697.827   103007652.615         546.258          19.000  
G32  19718475.683   103621295.9691      -1336.757          32.000  
J02  37809317.554   198689329.9501      -2096.055          30.000  
R04  18370755.391    98374560.8151      -2305.826          26.000  
> 2021  9 30 11 14 48.8456259  0  9
C01  36437251.116   189738337.8911      -1262.666          29.000  
C06  35554741.565   185142850.595        -768.458          30.000  
C36  21402847.617   111450259.015       -2282.769          33.000  
E08  20747788.205   109030349.442       -1342.274          31.000  
G25  22273173.303   117046184.131       -4678.718          15.000    22273342.086    87405378.1431      -3492.217          26.000  
G26  19601589.002   103007105.434         547.160          25.000    19601597.696                         408.346          28.000  
G32  19718728.109   103622633.178       -1337.922          33.000  
J02  37809716.278   198691425.928       -2096.275          31.000  
R04  18371185.293    98376862.699       -2306.269          27.000  
> 2021  9 30 11 14 49.8456259  0  9
C06  35554887.863   185143619.281        -769.694          29.000  
C36  21403284.714   111452541.961       -2283.236          31.000  
E08  20748046.027   109031691.676       -1342.874          32.000  
G25  22274075.678   117050861.921       -4676.820          15.000    22274232.170    87408870.100       -3492.203          26.000  
G26  19601485.574   103006559.219         546.291          25.000    19601493.968                         407.535          28.000  
G32  19718981.133   103623971.977       -1338.488          33.000  
J02  37810114.402   198693522.549       -2096.984          31.000  
R04  18371615.195    98379164.882       -2308.492          27.000  
R14  21202989.176   113023863.1121      -4616.232          18.000  
> 2021  9 30 11 14 50.8456259  0 11
C01  36437735.281   189740864.9431      -1264.522          31.000  
C06  35555034.762   185144388.965        -770.129          29.000  
C19  20864902.429   108648892.6721      -2997.747          23.000  
C36  21403722.711   111454825.527       -2283.758          35.000  
E08  20748301.750   109033037.189       -1346.534          26.000  
G25  22274968.460   117055539.197       -4678.089          14.000    22275121.055    87412361.902       -3493.031          28.000  
G26                                                                  19601391.739    76920065.9421        404.773          27.000  
G32  19719229.362   103625311.639       -1339.116          34.000  
J02  37810513.426   198695619.415       -2096.975          32.000  
R04  18372043.599    98381459.153       -2310.927          25.000  
R14  21203858.574   113028497.206       -4614.242          21.000  
> 2021  9 30 11 14 51.8456259  0  8
C01  36437979.612   189742129.736       -1264.962          31.000  
C06  35555182.859   185145158.776        -770.159          30.000  
C36  21404167.903   111457109.566       -2284.001          36.000  
G25                                                                  22276011.138    87415855.058       -3492.574          27.000  
G26                                                                  19601288.910    76919661.410         405.396          27.000  
G32  19719494.378   103626651.897       -1340.434          28.000  
J01  35580419.988   186976368.9441       -400.534          18.000  
J02  37810913.050   198697716.048       -2096.483          30.000  
> 2021  9 30 11 14 52.8456259  0 11
C01  36438221.544   189743394.132       -1264.138          29.000  
C06  35555329.757   185145928.343        -769.354          26.000  
C19  20866057.529   108654887.9741      -2996.436          14.000  
C36  21404604.101   111459393.235       -2283.205          29.000  
G25                                                                  22276900.922    87419347.669       -3493.364          25.000  
G26  19601162.697   103004923.9771        542.710          24.000    19601185.781    76919256.092         404.296          24.000  
G29  22780190.402   119710708.3501       -405.839          19.000  
G32  19719751.300   103627991.869       -1340.082          31.000  
J02  37811312.973   198699812.006       -2095.435          31.000  
R04  18372898.307    98386035.5181      -2313.240          23.000  
R14  21205596.171   113037759.8611      -4615.031          21.000  
> 2021  9 30 11 14 53.8456259  0 10
C01  36438463.177   189744658.343       -1264.057          30.000  
C06  35555477.855   185146699.490        -772.031          24.000  
C19  20866637.328   108657884.250       -2996.780          13.000  
C36  21405040.899   111461676.483       -2283.285          28.000  
G25  22277636.913   117069575.4701      -4676.652          17.000    22277791.006    87422840.090       -3492.516          24.000  
G26  19601058.969   103004381.324         542.068          24.000    19601083.252    76918851.725         403.533          22.000  
G32  19720003.725   103629332.676       -1340.641          33.000  
J02  37811712.296   198701907.411       -2095.581          31.000  
R04  18373332.107    98388358.390       -2313.864          26.000  
R14  21206458.075   113042354.343       -4615.195          20.000  
> 2021  9 30 11 14 54.8456259  0  8
C01  36438704.210   189745921.853       -1263.280          27.000  
C06  35555625.053   185147470.911        -770.766          26.000  
C36  21405479.495   111463960.693       -2284.868          29.000  
G25  22278525.198   117074253.279       -4678.865          17.000  
G26  19600956.140   103003840.262         539.755          27.000  
G32  19720262.147   103630673.914       -1339.297          30.000  
J02  37812111.020   198704003.286       -2096.004          33.000  
R14  21207317.879   113046937.701       -4614.249          19.000  
> 2021  9 30 11 14 55.8456259  0  7
C01  36438945.843   189747184.637       -1262.312          30.000  
C06  35555773.450   185148241.181        -770.483          29.000  
C36  21405918.391   111466246.216       -2286.064          32.000  
G25  22279416.181   117078930.813       -4676.297          17.000  
G26  19600855.410   103003301.213         537.959          24.000  
J02  37812510.943   198706099.400       -2096.670          33.000  
R14  21208182.181   113051544.671       -4614.038          18.000  
> 2021  9 30 11 14 56.8456259  0  9
C06  35555921.548   185149011.339        -770.527          28.000  
C19  20868368.029   108666882.0461      -3000.939          23.000  
C36  21406356.388   111468532.279       -2286.198          28.000  
G25  22280315.259   117083607.215       -4676.110          18.000  
G26  19600753.181   103002764.508         536.139          22.000  
G29  22780497.989   119712344.6661       -410.463          24.000  
G32  19720766.398   103633358.5211      -1342.983          33.000  
J02  37812909.068   198708194.595       -2095.256          32.000  
R04  18374641.900    98395372.0951      -2316.317          31.000  
> 2021  9 30 11 14 57.8456259  0  8
C06  35556068.746   185149781.677        -770.127          28.000  
C19  20868943.631   108669883.015       -3000.911          29.000  
C36  21406792.886   111470818.450       -2285.670          28.000  
G25  22281218.234   117088591.647       -4679.351          18.000  
G29  22780582.831   119712754.803        -410.182          17.000  
G32  19721023.619   103634701.242       -1343.035          33.000  
J02  37813305.993   198710290.662       -2096.789          30.000  
R14  21209918.279   113060798.7341      -4612.716          22.000  
> 2021  9 30 11 14 58.8456259  0  9
C06  35556216.543   185150551.822        -770.411          29.000  
C19  20869517.434   108672883.523       -3000.427          26.000  
C36  21407229.683   111473104.752       -2286.525          28.000  
G25  22282125.406   117093272.129       -4681.525          19.000  
G26  19600550.521   103001690.8141        537.344          25.000  
G29  22780658.378   119713166.164        -410.182          16.000  
G32  19721283.540   103636044.719       -1343.991          36.000  
J02  37813704.117   198712388.309       -2098.217          33.000  
R04  18375514.296    98400044.2881      -2318.431          30.000  
> 2021  9 30 11 14 59.8456259  0  9
C06  35556363.442   185151322.422        -770.579          28.000  
C36  21407668.579   111475391.405       -2287.338          30.000  
G25  22283035.276   117097954.925       -4683.123          21.000  
G26  19600449.491   103001153.616         536.014          28.000  
G29  22780732.427   119713575.829        -409.634          14.000  
G32  19721541.361   103637389.315       -1345.605          37.000  
J01  35581015.675   186979594.1791       -404.965          24.000  
J02  37814102.242   198714486.855       -2099.095          34.000  
R04  18375949.595    98402375.162       -2319.390          33.000  
> 2021  9 30 11 15  0.8456259  0  8
C06  35556511.539   185152092.546        -770.539          25.000  
C36  21408108.375   111477678.490       -2287.809          31.000  
G25  22283945.745   117102924.339       -4682.608          23.000  
G26  19600346.363   103000618.112         534.517          23.000  
G29  22780813.971   119713988.084        -412.977          13.000  
G32  19721797.384   103638734.854       -1345.898          33.000  
J02  37814503.964   198716585.678       -2097.972          32.000  
R14  21212550.157   113074828.0971      -4615.317          15.000  
> 2021  9 30 11 15  1.8456259  0  7
C01  36440400.436   189754748.9051      -1260.374          32.000  
C06  35556659.637   185152864.368        -773.019          29.000  
C36  21408548.171   111479966.841       -2288.678          29.000  
G26  19600243.834   103000084.042         534.559          24.000  
G29  22780893.416   119714400.927        -414.331          15.000  
G32  19722051.608   103640080.760       -1347.887          33.000  
J02  37814903.287                       -2099.007          31.000  
> 2021  9 30 11 15  2.8456259  0  7
C06  35556807.135   185153637.721        -773.583          27.000  
C36  21408988.266   111482256.149       -2289.538          31.000  
G26  19600142.803   102999550.214         532.954          26.000  
G29  22780974.959   119714816.208        -418.525          15.000  
G32  19722312.727   103641427.362       -1348.040          31.000  
J01  35581237.222   186980806.1741       -403.128          18.000  
J02  37815304.110   198720756.3531      -2100.395          31.000  
> 2021  9 30 11 15  3.8456259  0  8
C06  35556955.232   185154409.798        -771.214          27.000  
C36  21409429.860   111484545.659       -2289.130          32.000  
G25  22286666.662   117116976.4061      -4686.177          19.000  
G26  19600042.373   102999017.974         532.076          24.000  
J01  35581311.571   186981208.574        -402.754          18.000  
J02  37815702.534   198722855.361       -2098.926          30.000  
R04  18377697.085    98411733.2511      -2325.497          28.000  
R14  21215140.064   113088634.3911      -4617.072          22.000  
> 2021  9 30 11 15  4.8456259  0 10
C06  35557103.629   185155180.881        -771.555          28.000  
C19  20872967.745   108690892.9821      -3004.816          24.000  
C36  21409869.656   111486834.825       -2289.187          31.000  
G25  22287566.938   117121953.829       -4684.586          21.000  
G29  22781132.650   119715652.7731       -418.482          17.000  
G32  19722828.370   103644122.8601      -1348.270          32.000  
J01  35581388.317   186981611.931        -403.749          23.000  
J02  37816102.157   198724954.550       -2098.597          30.000  
R04  18378138.080    98414094.400       -2325.292          26.000  
R14  21216004.666   113093242.610       -4614.610          23.000  
> 2021  9 30 11 15  5.8456259  0  9
C06  35557252.926   185155952.244        -772.000          25.000  
C36  21410310.051   111489124.185       -2289.508          30.000  
G25  22288466.016   117126637.814       -4684.581          20.000  
G26  19599841.512   102997953.6871        531.500          26.000  
G29  22781209.697   119716072.546        -423.084          17.000  
J01  35581463.565   186982016.151        -404.395          26.000  
J02  37816496.085   198727053.869       -2099.615          31.000  
R04  18378570.380    98416409.462       -2327.001          27.000  
R14  21216865.670   113097833.293       -4616.988          27.000  
> 2021  9 30 11 15  6.8456259  0 10
C06  35557403.722   185156724.968        -773.762          26.000  
C36  21410750.746   111491413.798       -2290.681          30.000  
G25  22289361.796   117131322.492       -4684.731          20.000  
G26  19599739.882   102997422.835         527.647          23.000  
G29  22781295.437   119716496.564        -424.932          15.000  
G32  19723334.120   103646820.7901      -1349.377          33.000  
J01  35581541.212   186982420.447        -405.512          25.000  
J02  37816899.305   198729153.075       -2098.643          29.000    37816906.201   148401662.0701      -1568.001          27.000  
R04  18379003.581    98418729.180       -2327.760          28.000  
R14  21217728.172   113102431.504       -4616.333          26.000  
> 2021  9 30 11 15  7.8456259  0 11
C06  35557552.119   185157496.994        -770.967          26.000  
C19  20874694.550   108699914.4991      -3007.657          23.000  
C36  21411192.340   111493704.349       -2291.168          28.000  
E08  20752682.917   109055953.2641      -1353.202          27.000  
E30  21438329.253   112659171.0821      -1562.113          28.000  
G29  22781380.578   119716921.613        -424.173          14.000  
G32  19723596.738   103648170.749       -1348.116          31.000  
J01  35581618.558   186982825.539        -404.152          25.000  
J02  37817298.929   198731251.852       -2099.038          28.000    37817305.224   148403229.153       -1567.397          26.000  
R04  18379440.078    98421066.205       -2328.104          28.000  
R14  21218592.774   113107039.731       -4617.551          26.000  
> 2021  9 30 11 15  8.8456259  0 11
C06  35557701.416   185158268.069        -771.069          27.000  
C19  20875274.648   108702922.179       -3008.016          23.000  
C36  21411635.133   111495995.827       -2291.985          29.000  
E08  20752938.040   109057305.672       -1352.522          28.000  
E30  21438624.849   112660733.031       -1563.236          26.000  
G25  22291158.752   117140694.2551      -4687.310          20.000  
G29  22781475.013   119717346.158        -424.279          15.000  
G32  19723852.461   103649521.626       -1352.702          29.000  
J02                                                                  37817704.848   148404796.217       -1567.590          26.000  
R04  18379875.677    98423399.253       -2328.742          28.000  
R14  21219456.476   113111644.132       -4617.377          27.000  
> 2021  9 30 11 15  9.8456259  0 11
C06  35557850.712   185159040.549        -773.250          26.000  
C19  20875854.447   108705930.669       -3008.294          24.000  
C36  21412077.627   111498287.550       -2291.894          28.000  
E08  20753194.363   109058658.787       -1354.142          28.000  
E30  21438920.744   112662295.440       -1561.974          26.000  
G25  22292056.630   117145382.447       -4689.433          19.000  
G29  22781565.251   119717771.903        -428.267          16.000  
G32  19724107.884   103650873.358       -1352.614          27.000  
J01  35581766.656   186983634.8521       -404.858          19.000  
J02                                                                  37818104.171   148406363.629       -1568.144          23.000  
R14  21220316.880   113116230.778       -4618.070          27.000  
> 2021  9 30 11 15 10.8456259  0 12
C06  35558000.009   185159814.018        -773.633          27.000  
C36  21412520.421   111500580.391       -2293.449          30.000  
E08  20753451.285   109060013.322       -1354.358          29.000  
E30  21439216.639   112663858.969       -1564.300          25.000  
G25  22292953.010   117150071.930       -4689.232          18.000  
G26  19599337.561   102995304.6881        528.666          18.000  
G29  22781659.385   119718199.235        -425.616          16.000  
G32  19724361.209   103652225.399       -1351.826          26.000  
J01  35581843.103   186984040.251        -405.471          19.000  
J02  37818498.398   198737550.2701      -2100.467          29.000    37818504.094   148407931.826       -1567.226          25.000  
R04  18380754.369    98428104.9651      -2329.992          22.000  
R14  21221180.582   113120834.871       -4617.828          26.000  
> 2021  9 30 11 15 11.8456259  0 11
C06  35558147.807   185160587.832        -773.666          27.000  
C19  20877017.342   108711951.5281      -3012.540          25.000  
C36  21412960.216   111502873.419       -2293.120          33.000  
E08  20753706.108   109061368.292       -1355.479          29.000  
E30  21439511.635   112665422.386       -1563.269          29.000  
G25  22293845.492   117154760.180       -4687.897          23.000  
G26  19599239.529   102994777.070         526.974          26.000  
J01  35581919.849   186984445.762        -406.875          23.000  
J02                                                                  37818902.519   148409501.618       -1568.911          21.000  
R04  18381194.164    98430459.896       -2332.360          26.000  
R14  21222052.679   113125483.088       -4617.290          27.000  
> 2021  9 30 11 15 12.8456259  0 11
C01  36443071.587   189768722.9261      -1263.799          30.000  
C06  35558295.904   185161361.201        -773.340          26.000  
C19  20877598.639   108714964.598       -3012.536          23.000  
C36  21413399.112   111505166.440       -2292.844          29.000  
E08  20753964.230   109062723.914       -1356.086          28.000  
E30  21439806.031   112666986.157       -1564.483          27.000  
G25                                                                  22294725.083    87489285.6401      -3501.720          25.000  
G26  19599142.396   102994250.483         526.410          25.000  
G32  19724874.753   103654929.8301      -1353.904          35.000  
J01  35581992.399   186984851.306        -405.333          22.000  
J02  37819298.245   198741752.7621      -2101.196          31.000  
> 2021  9 30 11 15 13.8456259  0 10
C06  35558444.301   185162134.863        -773.998          23.000  
C19  20878176.339   108717977.613       -3012.963          23.000  
C36  21413838.308   111507459.381       -2293.239          30.000  
E08  20754223.550   109064080.859       -1356.748          26.000  
G25                                                                  22295617.565    87492787.835       -3502.622          25.000  
G26  19599043.165   102993725.130         524.645          24.000  
G32  19725132.875   103656283.526       -1355.630          32.000  
J01  35582067.048   186985258.419        -407.454          25.000  
J02  37819698.767   198743852.931       -2100.627          29.000  
R14  21223775.586   113134667.5751      -4617.693          23.000  
> 2021  9 30 11 15 14.8456259  0 11
C01  36443553.053   189771246.2581      -1259.972          29.000  
C06  35558592.699   185162908.985        -774.566          27.000  
C19  20878755.239   108720989.037       -3012.468          19.000  
C36  21414277.804   111509752.641       -2293.785          32.000  
E08  20754482.271   109065437.714       -1357.472          29.000  
G25                                                                  22296509.747    87496290.278       -3503.106          26.000  
G26  19598942.434   102993200.949         523.416          25.000  
G29  22782011.941   119720280.2021       -425.505          20.000  
J01  35582145.293   186985667.342        -410.355          23.000  
J02  37820098.091   198745954.418       -2102.398          30.000  
R14  21224639.588   113139272.537       -4618.113          26.000  
> 2021  9 30 11 15 15.8456259  0 12
C01  36443794.386   189772506.802       -1260.452          29.000  
C06  35558741.396   185163683.809        -775.815          28.000  
C19  20879332.639   108724001.417       -3012.604          20.000  
C36  21414717.000   111512046.769       -2294.605          32.000  
G25  22297415.720   117173516.6051      -4692.471          23.000    22297401.330    87499792.492       -3503.469          26.000  
G26  19598842.903   102992678.246         521.874          27.000  
G29  22782106.076   119720708.219        -430.884          21.000  
G32  19725658.711   103659035.8401      -1355.224          31.000  
J01  35582222.940   186986077.528        -410.144          22.000  
J02  37820496.215   198748057.301       -2102.769          32.000  
R04  18382935.359    98439784.1231      -2337.507          25.000  
R14  21225511.684   113143921.543       -4620.230          28.000  
> 2021  9 30 11 15 16.8456259  0  9
C06  35558891.292   185164460.031        -776.660          26.000  
C36  21415157.995   111514341.894       -2294.351          33.000  
G25  22298307.603   117178208.536       -4690.881          21.000    22298293.213    87503294.951       -3502.519          26.000  
G26  19598743.073   102992157.710         518.310          23.000  
G29  22782203.209   119721139.432        -431.388          20.000  
G32  19725915.033   103660392.300       -1357.925          32.000  
J02  37820894.939   198750160.657       -2103.755          31.000  
R04  18383372.756    98442126.247       -2339.955          25.000  
R14  21226381.082   113148556.150       -4618.919          30.000  
> 2021  9 30 11 15 17.8456259  0  9
C06  35559040.588   185165236.696        -776.831          26.000  
C36  21415593.893                       -2295.831          31.000  
G25  22299194.089   117182899.604       -4691.997          23.000    22299185.095    87506797.565       -3502.326          24.000  
G26  19598644.141   102991639.243         517.582          23.000  
G29  22782294.346   119721572.065        -433.990          20.000  
G32  19726166.859   103661749.797       -1358.055          34.000  
J01  35582385.127   186986898.1871       -409.469          18.000  
J02  37821293.963   198752264.556       -2103.821          31.000  
R14  21227249.581   113153185.671       -4619.577          27.000  
> 2021  9 30 11 15 18.8456259  0  8
C06  35559188.386   185166013.859        -776.632          24.000  
C19  20881072.035   108733045.0201      -3017.007          22.000  
C36  21416034.888   111518913.4851      -2295.603          27.000  
G29  22782386.082   119722004.871        -432.675          18.000  
G32  19726421.383   103663108.244       -1360.552          33.000  
J02  37821694.486   198754368.755       -2103.973          30.000  
R04  18384236.158    98446749.3601      -2340.886          22.000  
R14  21228119.579   113157823.211       -4622.103          27.000  
> 2021  9 30 11 15 19.8456259  0 10
C06  35559335.284   185166790.625        -776.382          24.000  
C19  20881650.034   108736061.989       -3016.462          26.000  
C36  21416475.882   111521209.831       -2297.285          30.000  
G25  22300983.251   117192289.1921      -4695.081          18.000  
G26  19598451.374   102990607.3671        515.569          25.000  
G29  22782476.620   119722721.767        -431.998          16.000  
G32  19726684.900   103664467.284       -1359.204          34.000  
J02  37822094.709   198756472.846       -2103.854          32.000  
R04  18384663.063    98449035.819       -2342.283          22.000  
R14  21228987.178   113162448.473       -4623.191          27.000  
> 2021  9 30 11 15 20.8456259  0  8
C06  35559483.682   185167567.461        -777.982          25.000  
C19  20882227.435   108739078.510       -3016.157          24.000  
C36  21416917.776   111523507.083       -2297.593          31.000  
G25  22301666.178   117196046.227       -4695.649          19.000  
G26  19598353.942   102990091.639         515.515          23.000  
G32  19726938.525   103665826.964       -1359.962          35.000  
J02  37822494.332   198758577.036       -2104.330          31.000  
R04  18385101.359    98451382.219       -2343.058          26.000  
> 2021  9 30 11 15 21.8456259  0  9
C06  35559633.578   185168345.939        -779.212          25.000  
C36  21417359.371   111525805.096       -2297.814          32.000  
G25  22302561.658   117200742.220       -4695.914          20.000  
G26  19598256.809   102989574.992         517.185          27.000  
G29  22782659.493   119723583.4181       -430.337          19.000  
G32  19727193.948   103667187.433       -1361.278          34.000  
J02  37822900.851   198760681.920       -2105.697          32.000  
R04  18385536.358    98453711.997       -2344.407          26.000  
R14  21230720.878   113171689.8541      -4622.221          29.000  
> 2021  9 30 11 15 22.8456259  0  7
C06  35559782.875   185169125.735        -779.916          25.000  
C36  21417807.261   111528102.995       -2298.265          32.000  
G32  19727459.264   103668548.455       -1358.828          32.000  
J01  35582774.258   186988951.2801       -412.323          21.000  
J02  37823299.275   198762786.761       -2104.929          28.000  
R04  18385971.657    98456042.423       -2344.844          26.000  
R14  21231586.978   113176306.057       -4621.852          29.000  
> 2021  9 30 11 15 23.8456259  0  8
C06  35559932.471   185169904.953        -778.459          25.000  
C36  21418248.855                       -2299.550          31.000  
G25  22304349.020   117210130.5501      -4692.839          24.000  
G26  19598062.244   102988543.7441        516.119          16.000  
G32  19727710.490   103669910.131       -1362.457          34.000  
J02  37823699.498   198764890.978       -2103.602          30.000  
R04  18386406.955    98458374.363       -2347.236          25.000  
R14  21232454.278   113180930.004       -4623.725          29.000  
> 2021  9 30 11 15 24.8456259  0  8
C06  35560082.067   185170682.380        -777.353          25.000  
C19  20884526.543   108751156.3431      -3020.969          25.000  
C36  21418693.447   111532741.2441      -2300.855          30.000  
G25  22305242.702   117214822.948       -4692.130          24.000  
G26  19597965.411   102988027.868         514.942          17.000  
G32  19727968.312   103671272.399       -1361.536          33.000  
J02  37824097.622   198766995.490       -2104.594          31.000  
R14  21233323.376   113185562.924       -4621.657          29.000  
> 2021  9 30 11 15 25.8456259  0  9
C06  35560230.765   185171460.273        -780.166          19.000  
C36  21419131.444   111535040.844       -2296.938          29.000  
G25  22306136.083   117219516.371       -4694.066          23.000  
G26  19597870.077   102987513.046         514.958          19.000  
G29  22783029.437   119725627.5481       -425.815          20.000  
G32  19728232.129   103672635.203       -1363.233          32.000  
J01  35583014.092   186990185.8671       -410.144          21.000  
R04  18387286.247    98463082.7361      -2347.704          16.000  
R14  21234187.978   113190170.898       -4625.106          25.000  
> 2021  9 30 11 15 26.8456259  0  9
C01  36446456.843   189786393.8431      -1264.315          28.000  
C06  35560380.361   185172240.712        -780.392          24.000  
C19  20885691.237   108757199.9871      -3023.787          23.000  
C36  21419567.342   111537340.676       -2301.826          31.000  
G25  22307030.964   117224210.648       -4695.046          23.000  
G29  22783109.781   119726053.735        -426.293          14.000  
G32  19728494.747   103673998.762       -1363.553          33.000  
R04  18387720.346    98465407.180       -2349.632          25.000  
R14  21235055.577   113194795.703       -4627.287          21.000  
> 2021  9 30 11 15 27.8456259  0  7
C06  35560529.358   185173020.927        -779.992          26.000  
C19  20886273.434   108760223.829       -3024.734          23.000  
C36  21420005.938   111539641.135       -2300.715          31.000  
G25  22307925.844   117228905.120       -4694.705          23.000  
G29  22783199.119   119726480.112        -426.138          17.000  
G32  19728753.468   103675363.057       -1363.674          36.000  
R04  18388158.942    98467755.804       -2350.174          29.000  
> 2021  9 30 11 15 28.8456259  0 10
C06  35560678.355   185173800.029        -778.526          25.000  
C19  20886854.731   108763248.091       -3024.570          25.000  
C36  21420447.233   111541941.956       -2300.931          30.000  
G25  22308821.324   117233600.535       -4696.132          23.000  
G26  19597570.884   102985971.1341        512.141          24.000  
G29  22783293.554   119726906.346        -422.818          16.000  
G32  19729009.791   103676727.976       -1365.825          35.000  
J01  35583261.721   186991424.7291       -414.935          22.000  
R04  18388600.837    98470121.861       -2350.475          29.000  
R14  21236796.472   113204076.4471      -4624.804          24.000  
> 2021  9 30 11 15 29.8456259  0  9
C06  35560828.251   185174578.173        -777.508          25.000  
C36  21420893.024   111544243.060       -2302.466          32.000  
G25  22309717.104   117238297.204       -4697.398          18.000  
G26  19597472.552   102985460.509         509.491          24.000  
G29  22783380.794   119727331.280        -428.354          16.000  
G32  19729274.507   103678093.426       -1366.272          33.000  
J02  37826107.431   198777523.8321      -2106.020          30.000  
R04  18389038.534    98472465.367       -2351.346          29.000  
R14  21237662.272   113208690.829       -4623.450          25.000  
> 2021  9 30 11 15 30.8456259  0  8
C06  35560976.948   185175354.816        -777.068          26.000  
C19  20888017.027   108769300.1191      -3025.932          20.000  
C36  21421335.818   111546545.092       -2301.621          31.000  
G26  19597374.820   102984951.728         508.057          24.000  
G29  22783468.033   119727762.052        -432.131          15.000  
G32  19729536.526   103679460.042       -1367.377          34.000  
J02  37826507.654   198779630.231       -2106.684          31.000  
R14  21238526.874   113213299.920       -4626.178          22.000  
> 2021  9 30 11 15 31.8456259  0 10
C06  35561126.245   185176133.114        -778.853          26.000  
C19  20888599.523   108772325.797       -3027.020          22.000  
C36  21421777.712   111548847.354       -2301.279          30.000  
E08  20758886.522   109088610.2501      -1366.631          30.000  
G25  22311502.668   117247699.2041      -4702.645          18.000  
G26  19597274.389   102984443.642         507.867          25.000  
G32  19729792.849   103680827.151       -1367.911          35.000  
J02  37826907.877   198781737.145       -2107.401          34.000  
R04  18389918.125    98477176.3241      -2355.032          27.000  
R14  21239391.775   113217910.425       -4625.139          25.000  
> 2021  9 30 11 15 32.8456259  0  7
C06  35561277.040   185176911.614        -778.365          27.000  
C36  21422223.503   111551149.854       -2303.090          33.000  
G26  19597175.458   102983935.064         509.336          26.000  
G29  22783644.311   119728631.3701       -436.724          17.000  
G32  19730051.570   103682194.510       -1369.082          34.000  
J02  37827308.399   198783844.626       -2107.367          32.000  
R04  18390353.723    98479508.707       -2357.213          27.000  
> 2021  9 30 11 15 33.8456259  0  9
C06  35561425.737   185177689.769        -778.379          27.000  
C36  21422663.898   111553452.991       -2302.283          31.000  
E08  20759401.865   109091346.7231      -1368.801          28.000  
G25  22313293.328   117257100.9421      -4700.510          19.000  
G26  19597075.327   102983426.179         508.442          25.000  
G32  19730319.284   103683562.964       -1369.674          28.000  
J02  37827709.522   198785952.189       -2107.561          28.000  
R04  18390796.517    98481879.547       -2357.486          28.000  
R14  21241123.976   113227144.1331      -4627.333          28.000  
> 2021  9 30 11 15 34.8456259  0  8
C06  35561576.833   185178468.714        -779.613          25.000  
C36  21423105.792   111555755.541       -2302.355          23.000  
E08  20759662.085   109092715.576       -1369.517          24.000  
G29  22783813.094   119729509.8311       -442.254          19.000  
G32  19730586.699   103684931.445       -1369.910          29.000  
J02  37828110.044   198788059.999       -2107.740          30.000  
R04  18391241.409    98484261.904       -2358.621          24.000  
R14  21241990.076   113231760.671       -4623.578          26.000  
> 2021  9 30 11 15 35.8456259  0  7
C06  35561727.029   185179248.506        -780.591          25.000  
C19  20890914.521   108784431.8201      -3028.137          20.000  
G26  19596884.359   102982413.0691        504.052          21.000  
G32  19730843.022   103686301.198       -1369.649          29.000  
J02  37828510.567   198790167.582       -2107.595          32.000  
R04  18391687.200    98486648.951       -2358.869          24.000  
R14  21242859.175   113236393.929       -4624.329          27.000  
> 2021  9 30 11 15 36.8456259  0  7
C06  35561875.426   185180028.681        -779.605          19.000  
C36  21423989.581   111560360.3211      -2304.204          19.000  
G25  22315977.370   117271197.3761      -4698.770          26.000  
G26  19596788.126   102981908.973         503.097          21.000  
G32  19731099.044   103687671.806       -1371.919          26.000  
J02  37828910.790   198792275.174       -2108.569          32.000  
R14  21243730.971   113241040.468       -4627.226          27.000  
> 2021  9 30 11 15 37.8456259  0  8
C36  21424430.276   111562665.012       -2304.314          19.000  
G25  22316871.052   117275897.175       -4700.221          25.000  
G26  19596693.391   102981405.768         503.723          21.000  
G32  19731358.964   103689044.320       -1372.370          19.000  
J01  35583973.128   186995156.8901       -418.443          28.000  
J02  37829313.111   198794384.078       -2108.209          31.000  
R04  18392578.783    98491423.7031      -2361.466          18.000  
R14  21244598.570   113245665.445       -4627.002          27.000  
> 2021  9 30 11 15 38.8456259  0  5
G32  19731612.589   103690416.359       -1371.351          18.000  
J01  35584051.374   186995574.999        -418.327          26.000  
J02  37829713.634   198796492.906       -2109.518          29.000  
R04  18393024.274    98493809.709       -2361.591          23.000  
R14  21245466.170   113250290.105       -4626.435          29.000  
> 2021  9 30 11 15 39.8456259  0  8
C06  35562320.918   185182371.5541       -782.235          24.000  
C19  20893241.510   108796554.8841      -3030.835          20.000  
G26  19596500.025   102980398.1381        501.649          25.000  
G29  22784023.249   119730849.5621       -440.470          23.000  
G32  19731874.907   103691787.668       -1372.321          20.000  
J01  35584129.020   186995993.648        -418.968          28.000  
J02  37830114.757   198798602.073       -2109.203          31.000  
R14  21246332.270   113254907.545       -4624.618          29.000  
> 2021  9 30 11 15 40.8456259  0  6
C06  35562470.514   185183153.405        -782.212          21.000  
C19  20893822.208   108799585.718       -3030.682          20.000  
G26  19596404.392   102979895.988         501.959          24.000  
J01  35584208.165   186996412.998        -419.774          28.000  
J02  37830516.778   198800710.757       -2109.170          30.000  
R14  21247202.868   113259547.499       -4626.923          28.000  
> 2021  9 30 11 15 41.8456259  0  6
G25  22320445.177   117294701.4341      -4702.401          22.000  
G29  22784190.833   119731732.6041       -442.893          24.000  
J01  35584285.812   186996832.577        -419.247          26.000  
J02  37830917.901   198802819.926       -2109.138          30.000  
R04  18394360.149    98500962.6501      -2361.461          16.000  
R14  21248071.666   113264179.469       -4628.569          27.000  
> 2021  9 30 11 15 42.8456259  0  7
C19  20894995.296   108805647.3841      -3032.544          24.000  
G25  22321338.559   117299403.560       -4702.463          25.000  
G26  19596215.822   102978897.0751        498.323          22.000  
G32  19732670.257   103695906.3461      -1373.025          27.000  
J01  35584365.556   186997251.862        -419.201          27.000  
J02  37831319.922   198804929.262       -2109.323          30.000  
R14  21248938.066   113268798.057       -4627.715          30.000  
> 2021  9 30 11 15 43.8456259  0 10
C01  36450641.046   189808047.9361      -1275.020          29.000  
C06  35562918.104   185185500.6691       -781.858          22.000  
C19  20895577.793   108808680.830       -3034.520          25.000  
C36  21427107.122   111576508.3021      -2307.928          27.000  
G25  22322231.341   117304106.093       -4702.511          26.000  
G26  19596120.488   102978398.674         498.366          23.000  
G29  22784360.515   119732619.9071       -445.631          23.000  
G32  19732931.076   103697280.601       -1374.627          25.000  
J02  37831721.344   198807038.275       -2109.128          31.000  
R14  21249806.865   113273428.653       -4625.792          29.000  
> 2021  9 30 11 15 44.8456259  0  7
C06  35563068.600   185186281.953        -781.969          23.000  
C36  21427551.415   111578816.200       -2307.542          26.000  
G25  22323125.622   117308808.687       -4701.022          24.000  
J01  35584528.643   186998090.6391       -419.326          23.000  
J02  37832121.567   198809148.243       -2111.292          27.000  
R04  18395660.649    98507926.8541      -2365.500          18.000  
R14  21250672.665   113278044.151       -4622.113          24.000  
> 2021  9 30 11 15 45.8456259  0  5
C06  35563222.393   185187064.123        -782.366          26.000  
C36  21427993.609   111581123.748       -2307.751          28.000  
G25  22324019.903   117313510.342       -4699.871          16.000  
J02  37832522.989   198811259.885       -2111.357          26.000  
R04  18396101.644    98510288.244       -2367.002          24.000  
> 2021  9 30 11 15 46.8456259  0  7
C06  35563374.388   185187846.032        -781.899          23.000  
C36  21428433.104   111583431.484       -2307.987          31.000  
G25  22324916.282   117318208.627       -4699.313          16.000  
G32  19733720.729   103701406.7851      -1376.221          26.000  
J01  35584685.735   186998931.1691       -420.206          17.000  
J02  37832925.011   198813370.589       -2110.083          25.000  
R04  18396542.039    98512646.331       -2369.363          27.000  
> 2021  9 30 11 15 47.8456259  0  9
C06  35563523.685   185188628.259        -782.817          26.000  
C36  21428873.500   111585739.061       -2307.697          30.000  
G25  22325815.360   117322909.346       -4702.178          19.000  
G26  19595743.649   102976396.3031        499.806          19.000  
G32  19733982.148   103702782.961       -1376.651          31.000  
J01  35584764.880   186999351.287        -421.086          26.000  
J02  37833324.934   198815480.017       -2109.965          29.000  
R04  18396983.034    98515007.986       -2371.937          30.000  
R14  21253257.176   113291821.2911      -4624.647          20.000  
> 2021  9 30 11 15 48.8456259  0  9
C06  35563674.780   185189410.975        -783.836          20.000  
C36  21429316.593   111588046.852       -2308.199          30.000  
G25  22326715.037   117327613.074       -4705.147          20.000  
G26  19595648.615   102975897.512         497.105          25.000  
G32  19734245.366   103704159.520       -1377.141          30.000  
J01  35584844.025   186999772.930        -422.426          25.000  
J02  37833726.656   198817590.167       -2110.208          28.000  
R04  18397424.628    98517372.578       -2375.180          28.000  
R14  21254124.176   113296442.643       -4627.011          20.000  
> 2021  9 30 11 15 49.8456259  0  8
C36  21429758.787   111590355.097       -2308.480          31.000  
G25  22327613.815   117332318.383       -4705.456          19.000  
G26  19595554.180   102975399.945         498.413          20.000  
G29  22784881.255   119735287.5021       -450.447          19.000  
G32  19734507.085   103705537.416       -1378.286          31.000  
J01  35584924.070   187000194.961        -421.881          26.000  
R04  18397864.423    98519727.837       -2375.693          31.000  
R14  21254990.276   113301059.269       -4629.110          21.000  
> 2021  9 30 11 15 50.8456259  0  7
C36  21430201.580   111592664.058       -2309.979          32.000  
G25  22328515.590   117337022.512       -4703.806          20.000  
G26  19595460.045   102974902.233         496.272          22.000  
G32  19734770.303   103706916.858       -1380.416          31.000  
J02  37834531.299   198821811.5791      -2111.068          30.000  
R04  18398305.718    98522090.944       -2374.259          32.000  
R14  21255859.075   113305690.197       -4628.144          19.000  
> 2021  9 30 11 15 51.8456259  0  7
C36  21430644.374   111594974.540       -2310.850          32.000  
G25  22329417.366   117341726.686       -4705.666          20.000  
G26  19595366.510   102974407.204         494.305          24.000  
G32  19735033.221   103708296.709       -1379.808          31.000  
J01  35585084.459   187001039.8351       -422.487          25.000  
J02  37834934.220   198823922.697       -2111.397          30.000  
R04  18398746.113    98524449.803       -2374.858          32.000  
> 2021  9 30 11 15 52.8456259  0  9
C06  35564268.369   185192535.7331       -779.723          18.000  
C36  21431087.167   111597284.503       -2309.678          31.000  
G25  22330316.144   117346433.454       -4708.454          19.000  
G26  19595273.275   102973913.968         493.441          25.000  
G32  19735297.038   103709676.278       -1379.787          30.000  
J01  35585168.101   187001463.064        -423.523          24.000  
J02  37835336.242   198826033.969       -2111.479          31.000  
R04  18399188.907    98526821.148       -2376.451          32.000  
R14  21257600.270   113314972.2351      -4634.919          18.000  
> 2021  9 30 11 15 53.8456259  0  5
C36  21431531.160   111599594.308       -2309.399          32.000  
G25  22331214.322   117351139.958       -4706.935          17.000  
G26  19595182.737   102973422.015         491.413          23.000  
J02  37835736.764   198828146.210       -2112.724          28.000  
R14  21258461.873   113319564.905       -4633.373          18.000  
> 2021  9 30 11 15 54.8456259  0  6
C36  21431973.354   111601904.116       -2310.327          30.000  
G25  22332114.299   117355843.589       -4702.927          17.000  
G26  19595091.600   102972931.412         488.867          22.000  
G32  19735823.174   103712434.6381      -1380.723          27.000  
J01  35585330.288   187002311.5301       -424.828          25.000  
J02  37836139.985   198830259.018       -2113.594          26.000  
> 2021  9 30 11 15 55.8456259  0  9
C06  35564723.454   185194881.6491       -784.074          20.000  
C36  21432415.547   111604214.806       -2311.265          32.000  
G25  22333016.974   117360546.153       -4703.265          18.000  
G29  22785395.999   119738004.9211       -452.778          20.000  
G32  19736086.092   103713816.638       -1383.649          27.000  
J01  35585410.633   187002735.404        -422.881          24.000  
J02  37836542.906   198832371.815       -2112.486          28.000  
R04  18400516.388    98533929.5281      -2378.640          33.000  
R14  21260194.673   113328801.7341      -4633.848          17.000  
> 2021  9 30 11 15 56.8456259  0  6
C06  35564876.648   185195665.423        -784.071          25.000  
C36  21432858.641   111606526.677       -2311.937          33.000  
G25  22333917.551   117365528.735       -4704.598          18.000  
J02  37836944.628   198834484.108       -2111.907          28.000  
R04  18400963.678    98536324.309       -2379.568          31.000  
R14  21261061.074   113333419.595       -4635.123          17.000  
> 2021  9 30 11 15 57.8456259  0  8
C06  35565027.744   185196448.007        -782.601          23.000  
C36  21433305.032   111608838.637       -2312.359          32.000  
G25  22334818.127   117370235.428       -4707.514          18.000  
G26  19594814.592   102971468.1511        489.037          20.000  
G29  22785569.578   119738908.0571       -452.678          21.000  
J01  35585571.921   187003582.3641       -422.758          24.000  
J02  37837345.451   198836595.985       -2111.153          28.000  
R04  18401410.968    98538720.093       -2381.195          30.000  
> 2021  9 30 11 15 58.8456259  0  8
C06  35565178.239   185197231.179        -784.567          21.000  
C36  21433748.725   111611150.933       -2313.030          32.000  
G25  22335719.903   117374943.464       -4707.332          19.000  
G26  19594720.158   102970979.122         488.777          28.000  
J01  35585651.366   187004004.750        -422.686          23.000  
J02  37837747.173   198838707.248       -2111.487          27.000  
R04  18401856.460    98541105.024       -2380.838          29.000  
R14  21262798.371   113342680.9041      -4629.504          15.000  
> 2021  9 30 11 15 59.8456259  0  6
C36  21434191.818   111613464.264       -2313.028          34.000  
G25  22336620.479   117379651.290       -4710.230          19.000  
G26  19594627.821   102970489.917         489.152          28.000  
G32  19737132.967   103719356.6631      -1384.308          20.000  
J02  37838148.295   198840819.071       -2112.001          28.000  
R04  18402307.048    98543518.559       -2382.905          26.000  
> 2021  9 30 11 16  0.8456259  0  9
C06  35565482.829   185198799.5051       -784.465          24.000  
C36  21434638.808                       -2317.396          35.000  
G25  22337521.955   117384362.093       -4711.046          19.000  
G26  19594534.286   102970001.471         488.223          29.000  
G29  22785816.907   119740273.1751       -456.107          23.000  
G32  19737393.487   103720740.411       -1383.824          26.000  
J01                                                                  35585828.544   139646400.6511       -312.894          23.000  
J02  37838550.616   198842931.497       -2112.977          29.000  
R04  18402758.535    98545936.056       -2382.331          27.000  
> 2021  9 30 11 16  1.8456259  0 10
C06  35565635.423   185199583.445        -783.380          23.000  
C36  21435081.602                       -2313.312          34.000  
G25  22338424.930   117389073.988       -4716.642          18.000  
G26  19594441.051   102969515.426         484.761          27.000  
G29  22785899.950   119740729.360        -456.031          24.000  
G32  19737655.206   103722124.518       -1386.194          29.000  
J01                                                                  35585908.588   139646714.618        -316.111          24.000  
J02  37838951.439   198845043.964       -2111.965          29.000  
R04  18403208.824    98548347.118       -2384.157          27.000  
R14  21265429.949   113356708.7491      -4627.953          20.000  
> 2021  9 30 11 16  2.8456259  0  8
C06  35565786.518   185200366.652        -783.559          23.000  
C36  21435526.494   111620416.6471      -2314.155          36.000  
G25  22339322.209   117393790.605       -4714.945          17.000  
G26  19594347.815   102969030.722         484.047          23.000  
G32  19737919.023   103723510.751       -1386.169          28.000  
J01                                                                  35585989.532   139647029.697        -315.287          25.000  
J02  37839354.360   198847155.875       -2112.268          30.000  
R04  18403653.716    98550729.881       -2384.030          29.000  
> 2021  9 30 11 16  3.8456259  0  7
C06  35565937.314   185201149.172        -782.116          23.000  
C36  21435969.887   111622730.756       -2313.252          35.000  
G25  22340221.586   117398506.037       -4717.534          15.000  
G26  19594253.980   102968546.496         484.676          26.000  
G32  19738181.941   103724897.144       -1386.513          29.000  
J01                                                                  35586069.876   139647344.547        -315.912          24.000  
J02  37839756.682   198849267.402       -2111.915          30.000  
> 2021  9 30 11 16  4.8456259  0 10
C06  35566086.311   185201931.834        -783.307          24.000  
C19  20907847.698   108872531.8531      -3046.812          25.000  
C36  21436415.378   111625045.201       -2313.835          36.000  
G25  22341123.962   117403224.975       -4720.993          14.000  
G26  19594160.445   102968062.438         483.257          26.000  
G29  22786148.478   119742096.1501       -454.828          19.000  
G32  19738445.159   103726283.615       -1386.902          28.000  
J01                                                                  35586150.820   139647660.819        -318.332          25.000  
J02  37840159.902   198851379.606       -2112.400          30.000  
R04  18404542.300    98555487.9911      -2388.198          26.000  
> 2021  9 30 11 16  5.8456259  0  8
C06  35566237.106   185202714.640        -782.984          24.000  
C19  20908434.092   108875579.011       -3047.486          25.000  
C36  21436863.568   111627359.941       -2315.163          35.000  
G26  19594067.509   102967579.167         484.037          27.000  
G32  19738706.878   103727670.216       -1387.142          29.000  
J01                                                                  35586232.964   139647979.763        -320.617          25.000  
J02  37840561.924   198853491.917       -2112.124          31.000  
R04  18404980.597    98557834.462       -2389.250          27.000  
> 2021  9 30 11 16  6.8456259  0  6
C19  20909020.786   108878626.449       -3048.628          22.000  
C36  21437306.362   111629674.919       -2314.575          35.000  
G26  19593973.374   102967096.532         481.673          24.000  
J01                                                                  35586313.908   139648300.292        -319.030          24.000  
J02  37840965.145   198855603.926       -2112.083          30.000  
R04  18405425.489    98560216.985       -2390.520          28.000  
> 2021  9 30 11 16  7.8456259  0  7
C06  35566542.295   185204278.6231       -782.398          22.000  
C19  20909607.480   108881674.866       -3048.603          24.000  
C36  21437752.753   111631990.129       -2316.433          34.000  
G26  19593881.338   102966614.850         481.888          25.000  
J01                                                                  35586394.252   139648618.946        -317.843          24.000  
J02  37841366.567   198857716.477       -2113.095          30.000  
R04  18405872.779    98562612.805       -2391.977          27.000  
> 2021  9 30 11 16  8.8456259  0  9
C06  35566691.292   185205059.960        -782.180          25.000  
C19  20910195.973   108884723.524       -3048.763          25.000  
C36  21438196.745   111634305.580       -2315.165          35.000  
G25  22344730.465   117422090.7901      -4712.328          19.000  
G26  19593788.702   102966133.508         480.999          26.000  
J01                                                                  35586474.296   139648934.313        -315.713          24.000  
J02  37841768.589   198859829.934       -2113.798          31.000  
R04  18406324.567    98565031.999       -2388.598          24.000  
R14  21271507.342   113389104.5221      -4636.512          19.000  
> 2021  9 30 11 16  9.8456259  0  7
C06  35566842.088   185205841.412        -780.817          26.000  
C19  20910782.367   108887772.240       -3049.762          24.000  
C36  21438641.637   111636621.311       -2316.911          35.000  
G26  19593699.364   102965651.852         481.705          26.000  
G29  22786594.869   119744382.2861       -458.450          21.000  
J01                                                                  35586554.941   139649251.416        -317.273          25.000  
R14  21272379.138   113393751.204       -4633.920          19.000  
> 2021  9 30 11 16 10.8456259  0  8
C06  35566991.684   185206622.206        -781.573          23.000  
C19  20911368.761   108890821.765       -3049.106          23.000  
C36  21439086.529   111638937.298       -2315.612          36.000  
G26  19593607.628   102965171.063         481.242          25.000  
G32  19740037.956                       -1392.009          31.000  
J01                                                                  35586634.985   139649567.959        -315.993          25.000  
R04  18407224.843    98569852.4021      -2392.452          22.000  
R14  21273245.239   113398368.678       -4630.653          20.000  
> 2021  9 30 11 16 11.8456259  0  9
C06  35567140.081   185207403.544        -781.611          22.000  
C19  20911956.654   108893871.963       -3052.044          21.000  
C36  21439530.522   111641253.649       -2316.688          35.000  
G25  22347438.490   117436580.9731      -4710.580          21.000  
G26  19593513.793   102964689.728         479.838          24.000  
G32  19740305.671   103735989.2791      -1390.760          31.000  
J01                                                                  35586715.629   139649883.492        -315.908          25.000  
J02  37842979.450                       -2113.601          32.000  
R04  18407672.134    98572248.397       -2393.745          25.000  
> 2021  9 30 11 16 12.8456259  0  8
C06  35567290.277   185208185.661        -782.345          30.000  
C19  20912541.549   108896923.542       -3051.971          23.000  
C36  21439973.915   111643569.990       -2317.950          34.000  
G26  19593424.455   102964210.166         479.652          24.000  
G29  22786875.774   119745761.7701       -460.910          25.000  
J01                                                                  35586797.773   139650201.102        -319.773          25.000  
J02  37843379.973   198868312.4671      -2112.854          34.000  
R14  21274981.337   113407623.2631      -4634.225          20.000  
> 2021  9 30 11 16 13.8456259  0  9
C06  35567439.274   185208968.929        -784.584          28.000  
C19  20913128.243   108899974.844       -3051.641          25.000  
C36  21440420.306   111645887.032       -2317.153          33.000  
G26  19593334.817   102963730.526         479.769          23.000  
G29  22786963.913   119746222.144        -461.075          26.000  
G32  19740825.811   103738772.0811      -1392.764          26.000  
J01                                                                  35586880.515   139650520.564        -319.476          26.000  
J02  37843778.397   198870426.075       -2113.467          33.000  
R14  21275850.435   113412255.335       -4631.654          23.000  
> 2021  9 30 11 16 14.8456259  0  9
C06  35567589.170   185209753.166        -784.723          29.000  
C19  20913715.536   108903027.460       -3054.073          24.000  
C36  21440868.795   111648204.805       -2317.991          31.000  
G25  22350151.312   117450713.8401      -4711.293          20.000  
G26  19593243.680   102963250.662         480.043          21.000  
G29  22787052.352   119746683.685        -462.089          26.000  
G32  19741085.731   103740165.846       -1395.357          27.000  
J01                                                                  35586962.359   139650838.382        -317.735          27.000  
R14  21276721.033   113416896.773       -4628.422          26.000  
> 2021  9 30 11 16 15.8456259  0  7
C06  35567738.767   185210538.015        -784.887          27.000  
C19  20914305.528   108906082.597       -3055.909          23.000  
C36  21441313.388   111650522.581       -2318.182          31.000  
G26  19593153.142   102962771.923         477.694          21.000  
G29  22787142.589   119747145.393        -461.282          25.000  
J01                                                                  35587043.902   139651156.636        -318.948          26.000  
J02  37844585.139   198874654.2871      -2113.684          32.000  
> 2021  9 30 11 16 16.8456259  0  8
C06  35567889.562   185211321.808        -783.539          27.000  
C36  21441755.881   111652840.403       -2312.527          28.000  
G26  19593060.207   102962295.373         475.811          21.000  
G29  22787233.127   119747607.366        -462.859          21.000  
G32  19741598.676   103742956.1051      -1396.165          19.000  
J01                                                                  35587125.745   139651476.106        -319.886          25.000  
J02  37844991.957   198876768.164       -2113.007          32.000  
R14  21278469.722   113426217.5621      -4621.064          16.000  
> 2021  9 30 11 16 17.8456259  0  9
C06  35568040.358   185212105.584        -784.260          29.000  
C19  20915484.312   108912194.1571      -3055.591          23.000  
C36  21442199.274   111655159.123       -2318.609          25.000  
G25  22352878.524   117465168.6071      -4713.098          19.000  
G26  19592969.969   102961820.690         473.575          23.000  
G32  19741861.294   103744351.955       -1394.984          24.000  
J01                                                                  35587207.889   139651795.665        -320.740          25.000  
J02  37845393.679   198878882.238       -2114.472          31.000  
R04  18410343.584    98586553.8201      -2394.196          16.000  
> 2021  9 30 11 16 18.8456259  0  7
C06  35568190.554   185212889.681        -784.532          29.000  
C36  21442642.368   111657477.735       -2318.857          24.000  
G26  19592879.132   102961347.668         471.534          23.000  
G32  19742126.610   103745746.827       -1394.872          28.000  
J01                                                                  35587290.032   139652117.938        -320.932          25.000  
J02  37845787.906   198880996.416       -2115.257          29.000  
R14  21280207.319   113435480.4981      -4630.808          17.000  
> 2021  9 30 11 16 19.8456259  0  7
C06  35568340.150   185213673.821        -783.963          31.000  
C19  20916652.303   108918301.2811      -3053.151          23.000  
G25  22354691.069   117474596.1121      -4714.337          19.000  
G26  19592789.494   102960876.587         471.180          23.000  
J01                                                                  35587371.575   139652437.646        -318.486          27.000  
J02  37846193.825   198883110.689       -2113.379          28.000  
R14  21281075.818   113440109.891       -4632.427          25.000  
> 2021  9 30 11 16 20.8456259  0  7
C06  35568491.845   185214457.707        -783.993          30.000  
C36  21443535.749   111662115.0811      -2317.477          20.000  
G25  22355594.644   117479309.851       -4713.856          20.000  
G29  22787585.383   119749466.9371       -467.745          18.000  
J01  35587430.634   187013368.5591       -426.793          25.000    35587452.219   139652755.069        -317.948          26.000  
J02  37846594.048   198885224.990       -2113.382          29.000  
R14  21281941.319   113444723.463       -4633.977          23.000  
> 2021  9 30 11 16 21.8456259  0  7
C06  35568641.142   185215241.437        -784.179          30.000  
C19  20917821.194   108924413.0991      -3058.475          25.000  
C36  21443977.643   111664432.343       -2317.289          25.000  
G26  19592609.918   102959932.4831        472.928          22.000  
G32  19742927.356   103749931.2981      -1395.070          26.000  
J01  35587512.178   187013795.994        -428.089          26.000    35587533.763   139653073.981        -319.202          26.000  
J02  37846992.472   198887339.427       -2114.640          29.000  
> 2021  9 30 11 16 22.8456259  0  9
C06  35568791.038   185216025.663        -784.442          30.000  
C19  20918409.986   108927472.257       -3059.377          24.000  
C36  21444422.235   111666750.758       -2320.076          26.000  
G25  22357391.300   117488742.0661      -4716.865          20.000  
G26  19592519.681   102959459.059         473.143          21.000  
G29  22787758.363   119750400.0071       -467.318          16.000  
J01  35587592.223   187014224.902        -429.687          28.000    35587615.307   139653393.557        -320.587          27.000  
J02  37847388.498   198889453.950       -2115.308          28.000  
R14  21283671.721   113453947.2991      -4632.289          26.000  
> 2021  9 30 11 16 23.8456259  0  8
C06  35568940.935   185216810.096        -784.581          31.000  
C36  21444867.427   111669070.868       -2320.710          24.000  
G25  22358287.080   117493456.825       -4713.514          19.000  
G26  19592430.043   102958986.053         472.366          20.000  
G29  22787847.701   119750868.945        -469.455          15.000  
J01  35587673.766   187014654.614        -430.346          30.000    35587696.850   139653714.490        -319.581          27.000  
J02  37847791.119   198891567.974       -2114.558          26.000  
R14  21284539.620   113458574.134       -4630.516          27.000  
> 2021  9 30 11 16 24.8456259  0  7
C06  35569091.131   185217594.307        -784.549          31.000  
G25  22359181.960   117498169.616       -4711.941          19.000  
G26  19592342.204   102958515.218         470.011          20.000  
G29  22787939.738   119751337.943        -468.376          14.000  
J01  35587756.809   187015084.288        -429.713          29.000    35587778.394   139654034.535        -320.682          27.000  
J02  37848190.743   198893682.525       -2115.022          27.000  
R14  21285408.718   113463207.109       -4630.288          27.000  
> 2021  9 30 11 16 25.8456259  0  9
C06  35569242.526   185218378.429        -783.829          32.000  
C19  20920162.273   108936650.9221      -3059.085          21.000  
C36  21445755.412   111673707.6281      -2317.188          21.000  
G25  22360080.438   117502881.136       -4711.349          18.000  
G26  19592252.566   102958044.880         470.030          24.000  
G29  22788035.371   119751807.040        -470.051          16.000  
J01  35587839.551   187015514.186        -430.132          29.000    35587860.237   139654356.106        -322.115          27.000  
J02  37848593.664   198895797.969       -2116.155          26.000  
R14  21286274.519   113467821.709       -4630.875          27.000  
> 2021  9 30 11 16 26.8456259  0  7
C06  35569396.619   185219162.345        -785.266          31.000  
G26  19592163.827   102957575.856         469.157          22.000  
G32  19744286.015   103756922.7631      -1399.519          36.000  
J01  35587922.594   187015944.339        -430.116          29.000    35587942.080   139654677.547        -320.673          27.000  
J02  37848995.086   198897914.061       -2115.718          25.000  
R04  18414436.651    98608472.0881      -2404.697          15.000  
R14  21287143.617   113472454.466       -4631.865          28.000  
> 2021  9 30 11 16 27.8456259  0  8
C06  35569545.916                        -785.433          31.000  
E08  20773626.118   109165990.7131      -1394.370          30.000  
G25  22361873.197   117512301.5041      -4711.151          16.000  
G26  19592078.087   102957107.501         468.229          19.000  
G32  19744551.631   103758321.280       -1400.074          37.000  
J01  35588004.137   187016374.138        -429.487          30.000    35588022.725   139654997.816        -319.265          27.000  
J02  37849396.508   198900029.268       -2115.377          25.000  
R14  21288012.715   113477087.309       -4631.684          26.000  
> 2021  9 30 11 16 28.8456259  0  8
C06  35569699.709   185220744.2281       -786.038          31.000  
C19  20921925.952   108945829.2621      -3061.707          20.000  
E08  20773892.034   109167386.393       -1395.634          31.000  
G25  22362770.776   117517012.273       -4708.438          16.000  
G32  19744818.447   103759720.247       -1399.952          35.000  
J01  35588087.779   187016803.104        -428.701          30.000    35588103.968   139655317.049        -320.468          26.000  
J02  37849800.328   198902144.875       -2116.177          26.000  
R14  21288884.212   113481733.091       -4631.772          26.000  
> 2021  9 30 11 16 29.8456259  0  8
C06  35569850.505   185221528.828        -785.058          31.000  
C19  20922514.744   108948890.618       -3060.708          22.000  
C36  21447542.475   111682993.6751      -2326.386          17.000  
E08  20774156.751   109168781.843       -1395.444          32.000  
G25  22363665.656   117521722.765       -4712.731          15.000  
G32  19745079.266   103761119.659       -1400.537          36.000  
J01  35588170.522   187017232.459        -430.022          29.000    35588185.812   139655637.175        -320.703          26.000  
R14  21289753.610   113486367.703       -4631.926          26.000  
> 2021  9 30 11 16 30.8456259  0  8
C06  35570000.701   185222313.320        -784.567          31.000  
E08  20774417.270   109170177.078       -1396.414          32.000  
G25  22364559.038   117526436.944       -4715.378          18.000  
G32  19745345.182   103762519.505       -1398.490          36.000  
J01  35588253.565   187017662.594        -429.808          30.000    35588268.554   139655959.099        -322.296          26.000  
J02  37850607.670   198906375.4091      -2114.718          27.000  
R04  18416221.615    98618029.8221      -2404.301          11.000  
R14  21290627.205   113491023.941       -4632.272          26.000  
> 2021  9 30 11 16 31.8456259  0  9
C06  35570152.696   185223097.872        -784.967          31.000  
E08  20774681.387                       -1395.088          31.000  
E30  21463696.492   112792459.2971      -1608.675          27.000  
G25  22365447.323   117531154.355       -4720.098          19.000  
G26  19591736.923   102955242.2951        464.020          20.000  
G32  19745612.897   103763919.793       -1401.264          36.000  
J01  35588335.108   187018092.088        -429.226          29.000    35588350.697   139656280.945        -320.910          26.000  
J02  37851010.890   198908489.887       -2114.673          27.000  
R14  21291494.505   113495647.107       -4633.035          26.000  
> 2021  9 30 11 16 32.8456259  0  8
C06  35570302.592   185223882.358        -785.996          31.000  
C19  20924268.231   108958074.8371      -3061.684          20.000  
E08  20774945.505   109173082.8881      -1397.480          32.000  
E30  21463999.582   112794067.513       -1608.053          27.000  
G32  19745879.712   103765320.526       -1401.944          36.000  
J01  35588415.752   187018521.513        -429.844          30.000    35588432.541   139656601.848        -321.506          27.000  
J02  37851415.610   198910604.494       -2114.905          28.000  
R14  21292362.104   113500272.571       -4632.684          28.000  
> 2021  9 30 11 16 33.8456259  0 10
C06  35570456.685   185224666.965        -784.500          32.000  
C19  20924857.023   108961137.252       -3062.308          22.000  
E08  20775212.320   109174479.339       -1393.053          31.000  
E30  21464304.771   112795675.291       -1608.786          27.000  
G26  19591565.741   102954309.2261        467.472          22.000  
G32  19746150.125   103766721.798       -1403.369          36.000  
J01  35588497.896   187018952.025        -431.250          30.000    35588514.084   139656922.059        -320.574          27.000  
J02  37851819.431   198912719.148       -2114.970          30.000  
R04  18417576.677    98625286.3801      -2404.227          10.000  
R14  21293230.004   113504898.558       -4632.067          26.000  
> 2021  9 30 11 16 34.8456259  0  9
C06  35570602.684   185225451.344        -784.845          30.000  
E08  20775479.135   109175875.920       -1393.045          29.000  
E30  21464611.159   112797284.642       -1610.734          28.000  
G26  19591479.401   102953841.909         467.214          22.000  
G29  22788811.834   119756042.7871       -471.769          18.000  
G32  19746419.039   103768123.485       -1400.641          33.000  
J01  35588581.538   187019382.628        -431.091          29.000    35588597.127   139657244.511        -324.083          26.000  
J02  37852221.153   198914834.850       -2115.289          27.000  
R14  21294097.303   113509521.594       -4630.741          27.000  
> 2021  9 30 11 16 35.8456259  0  9
C06  35570754.979   185226235.777        -782.783          31.000  
E08  20775740.254   109177272.836       -1397.918          28.000  
E30  21464920.845   112798894.452       -1609.410          25.000  
G25  22369032.541   117550035.9991      -4720.155          19.000  
G26  19591392.761   102953375.714         464.974          22.000  
G32  19746686.154   103769525.560       -1400.994          31.000  
J01  35588662.182   187019813.987        -431.780          29.000    35588679.570   139657566.817        -320.671          26.000  
J02  37852626.172   198916949.978       -2114.512          26.000  
R14  21294969.100   113514169.047       -4632.528          25.000  
> 2021  9 30 11 16 36.8456259  0  8
C06  35570903.076   185227020.529        -787.777          30.000  
C19  20926620.402   108970327.3061      -3064.569          24.000  
E30  21465233.528   112800504.746       -1610.294          27.000  
G25  22369928.621   117554756.376       -4720.847          20.000  
G32  19746957.166   103770927.656       -1403.835          31.000  
J01                                                                  35588760.814   139657887.991        -321.885          27.000  
J02  37853027.294   198919063.879       -2114.235          27.000  
R14  21295834.900   113518784.373       -4634.930          27.000  
> 2021  9 30 11 16 37.8456259  0  5
C06  35571053.272   185227805.361        -785.067          24.000  
C19  20927206.796   108973392.313       -3065.357          21.000  
J01  35588823.770   187020677.0091       -430.556          24.000    35588842.057   139658210.001        -321.281          27.000  
J02  37853428.717   198921178.312       -2115.306          30.000  
R14  21296701.300   113523401.988       -4635.514          22.000  
> 2021  9 30 11 16 38.8456259  0  6
C06  35571203.168   185228590.055        -784.793          28.000  
G25  22371729.774   117564197.7011      -4721.246          20.000  
G32  19747476.407   103773737.1641      -1405.942          28.000  
J01  35588905.014   187021107.287        -430.923          27.000    35588923.901   139658530.975        -320.439          25.000  
J02  37853830.139   198923294.403       -2116.166          28.000  
R14  21297569.200   113528029.281       -4631.915          22.000  
> 2021  9 30 11 16 39.8456259  0  7
C06  35571352.765   185229374.321        -784.551          28.000  
G26  19591030.312   102951525.3951        461.076          24.000  
G29  22789268.718   119758414.5271       -474.931          22.000  
G32  19747736.327   103775142.142       -1404.770          27.000  
J01  35588987.457   187021538.291        -431.491          27.000    35589005.744   139658851.604        -321.540          26.000  
J02  37854234.559   198925410.307       -2114.943          26.000  
R14  21298439.497   113532668.542       -4633.461          24.000  
> 2021  9 30 11 16 40.8456259  0  7
C06  35571503.261   185230158.752        -784.478          26.000  
G25  22373523.432   117573640.0851      -4722.482          21.000  
G26  19590942.173   102951064.906         459.952          21.000  
G32  19748001.343   103776546.410       -1404.267          30.000  
J01  35589069.600   187021970.265        -432.400          30.000    35589088.487   139659173.378        -322.631          26.000  
J02  37854638.679   198927524.535       -2113.790          29.000  
R14  21299310.094   113537308.574       -4635.825          25.000  
> 2021  9 30 11 16 41.8456259  0  5
C06  35571653.757   185230943.506        -785.177          27.000  
C19  20929550.274   108985647.4321      -3065.850          17.000  
J01                                                                  35589169.730   139659496.080        -322.896          26.000  
J02  37855041.600   198929638.519       -2113.990          29.000  
R14  21300180.392   113541947.883       -4633.749          23.000  
> 2021  9 30 11 16 42.8456259  0  6
C06  35571803.653   185231728.473        -785.316          27.000  
C19  20930134.869   108988712.923       -3066.681          16.000  
G25  22375318.889   117583084.7041      -4723.511          22.000  
J01  35589234.785   187022834.7281       -432.052          31.000    35589251.274   139659818.518        -320.845          26.000  
J02  37855446.020   198931753.283       -2114.711          29.000  
R14  21301046.193   113546562.932       -4633.260          25.000  
> 2021  9 30 11 16 43.8456259  0  8
C06  35571953.249   185232513.457        -785.159          24.000  
E08  20777876.575   109188465.2981      -1401.231          29.000  
E30  21467378.543   112811791.6521      -1614.304          31.000  
G25  22376214.969   117587808.079       -4723.731          22.000  
G32  19748815.579                       -1406.687          34.000  
J01  35589319.926   187023266.485        -431.055          31.000    35589333.417   139660140.179        -322.864          26.000  
J02  37855848.641   198933868.298       -2116.192          29.000  
R14  21301915.291   113551196.445       -4632.356          24.000  
> 2021  9 30 11 16 44.8456259  0 10
C06  35572103.145   185233298.762        -786.428          24.000  
E08  20778143.690   109189865.659       -1400.410          28.000  
E30  21467684.631   112813405.691       -1612.850          31.000  
G25  22377114.046   117592532.190       -4724.544          21.000  
G26  19590576.126   102949235.8031        457.522          15.000  
G29  22789708.513   119760788.4851       -476.770          17.000  
G32  19749079.697   103782132.2811      -1405.876          33.000  
J01  35589403.269                        -432.394          31.000    35589415.860   139660463.006        -322.809          26.000  
J02  37856251.263   198935984.393       -2116.377          30.000  
R14  21302790.385   113555861.043       -4632.815          24.000  
> 2021  9 30 11 16 45.8456259  0  8
C36  21454686.829   111720183.4471      -2326.123          33.000  
E08  20778407.208   109191266.335       -1401.006          28.000  
E30  21467991.918   112815019.357       -1613.901          30.000  
G26  19590487.987   102948778.870         454.165          15.000  
G32  19749346.512   103783539.350       -1405.349          34.000  
J01  35589485.112   187024008.2271       -433.412          30.000    35589498.003   139660785.437        -323.267          26.000  
J02  37856654.483   198938100.453       -2116.442          29.000  
R14  21303660.383   113560497.935       -4634.123          23.000  
> 2021  9 30 11 16 46.8456259  0  9
C06  35572402.938   185234868.4041       -784.826          21.000  
C36  21455130.222   111722509.082       -2324.721          32.000  
E08  20778672.225   109192667.708       -1403.045          25.000  
E30  21468299.506   112816634.311       -1616.532          29.000  
G25  22378915.199   117601978.4361      -4722.485          21.000  
G32  19749617.524   103784946.768       -1408.409          30.000  
J01  35589564.257   187024441.391        -432.358          26.000    35589581.046   139661108.928        -323.583          25.000  
J02  37857058.304   198940217.188       -2117.613          27.000  
R14  21304531.280   113565140.369       -4632.372          22.000  
> 2021  9 30 11 16 47.8456259  0  9
C06  35572553.733   185235652.243        -783.303          21.000  
C19  20933099.817   109004051.4351      -3067.769          21.000  
C36  21455576.613   111724834.782       -2325.489          32.000  
E30  21468605.594   112818250.721       -1615.773          31.000  
G26  19590313.208   102947867.4581        456.920          16.000  
G32  19749883.140   103786354.603       -1406.741          31.000  
J01  35589644.302   187024873.565        -431.523          29.000    35589664.088   139661433.833        -324.796          26.000  
J02  37857461.525   198942334.169       -2116.654          28.000  
R14  21305401.877   113569781.061       -4631.280          19.000  
> 2021  9 30 11 16 48.8456259  0  9
C06  35572705.129   185236434.206        -782.977          25.000  
C19  20933691.007   109007119.422       -3068.162          21.000  
C36  21456023.604   111727160.722       -2324.532          33.000  
E30  21468911.982   112819866.264       -1614.271          31.000  
G25  22380714.854   117611421.8771      -4721.812          21.000    22380725.946    87826767.9791      -3526.155          27.000  
G32  19750148.757   103787762.756       -1407.277          33.000  
J01  35589724.946   187025305.242        -432.130          31.000    35589747.131   139661758.143        -324.362          27.000  
J02  37857863.247   198944449.983       -2115.680          30.000    37857871.041   148562397.9011      -1577.321          25.000  
R14  21306267.978   113574398.570       -4633.709          23.000  
> 2021  9 30 11 16 49.8456259  0 11
C06  35572855.325   185237217.188        -782.970          24.000  
C19  20934278.001   109010187.852       -3068.672          20.000  
C36  21456469.695   111729486.881       -2326.528          34.000  
E30  21469219.269   112821480.024       -1613.147          29.000  
G25  22381617.229   117616143.750       -4721.928          21.000    22381624.424    87830293.910       -3525.918          28.000  
G26  19590137.230   102946958.9471        448.350          17.000  
G29  22790155.204   119763186.2271       -477.830          20.000  
G32  19750417.071   103789171.583       -1408.494          32.000  
J01                                                                  35589828.974   139662082.526        -323.601          27.000  
J02  37858265.568   198946566.079       -2116.379          31.000    37858273.962   148563976.043       -1579.121          25.000  
R14  21307138.575   113579039.334       -4632.422          26.000  
> 2021  9 30 11 16 50.8456259  0  9
C06  35573006.420   185238001.115        -785.972          23.000  
C19  20934867.093   109013256.839       -3069.280          19.000  
C36  21456913.988   111731813.494       -2326.560          35.000  
E30  21469525.956   112823094.761       -1615.907          29.000  
G25                                                                  22382522.902    87833819.829       -3526.363          29.000  
G32  19750686.884   103790580.924       -1409.067          34.000  
J01  35589888.633   187026170.5841       -433.016          30.000    35589911.117   139662406.536        -324.613          27.000  
J02  37858666.990   198948682.600       -2116.521          30.000    37858677.183   148565555.660       -1581.229          24.000  
R14  21308006.474   113583665.436       -4632.262          24.000  
> 2021  9 30 11 16 51.8456259  0  7
C167256112330.673                       -1614.045          28.000  
C36  21457360.678   111734140.338       -2327.097          34.000  
G25                                                                  22383421.380    87837347.475       -3528.355          28.000  
G32  19750958.196   103791990.756       -1409.038          35.000  
J01  35589969.577   187026603.496        -433.111          30.000    35589992.961   139662731.074        -322.713          27.000  
J02  37859069.611   198950799.123       -2116.555          30.000    37859080.104   148567136.725       -1579.394          24.000  
R14  21308873.474   113588287.006       -4630.846          24.000  
> 2021  9 30 11 16 52.8456259  0  9
C16  35956878.371                        -736.488          27.000  
C36  21457809.767   111736467.491       -2326.637          35.000  
E30  21470139.332   112826331.0471      -1618.058          28.000  
G25                                                                  22384320.457    87840875.333       -3527.184          28.000  
G26  19589868.017   102945603.6411        454.407          16.000  
G29  22790425.916   119764618.6981       -478.537          19.000  
G32  19751228.309   103793401.146       -1409.629          35.000  
J01  35590052.319   187027037.090        -434.258          30.000    35590075.703   139663054.301        -323.974          27.000  
J02  37859472.533   198952915.686       -2117.151          29.000    37859482.725   148568716.857       -1581.063          24.000  
> 2021  9 30 11 16 53.8456259  0  9
C06  35573455.209   185240355.8141       -783.204          26.000  
C16  35957020.173                        -734.131          27.000  
C36  21458258.557   111738794.756       -2328.023          35.000  
E30  21470446.619   112827949.971       -1619.798          27.000  
G25                                                                  22385219.235    87844402.573       -3527.152          28.000  
G32  19751493.625   103794811.866       -1410.741          34.000  
J01  35590134.463   187027471.578        -434.767          29.000    35590157.547   139663377.395        -323.525          26.000  
J02  37859876.953   198955032.747       -2117.018          30.000    37859885.347   148570295.372       -1579.095          25.000  
R14  21310603.876   113597511.1731      -4633.661          23.000  
> 2021  9 30 11 16 54.8456259  0  9
C16  35957160.476   187238373.4821       -733.730          26.000  
C36  21458704.648   111741122.076       -2326.352          35.000  
E30  21470754.806   112829568.929       -1618.842          27.000  
G25                                                                  22386118.912    87847930.280       -3528.635          28.000  
G26  19589690.839   102944696.5671        452.618          19.000  
G32  19751763.738   103796222.892       -1411.607          34.000  
J01  35590219.004   187027905.903        -433.066          29.000    35590239.690   139663700.863        -323.899          26.000  
J02  37860279.274   198957149.894       -2117.320          29.000  
R14  21311474.773   113602153.143       -4634.170          22.000  
> 2021  9 30 11 16 55.8456259  0  8
C16  35957303.177   187239107.248        -735.035          23.000  
C36  21459151.039   111743449.665       -2327.554          35.000  
E30  21471062.393   112831186.889       -1617.210          29.000  
G25                                                                  22387017.990    87851458.891       -3527.974          28.000  
G26  19589604.799   102944243.313         452.974          20.000  
G32  19752029.654   103797634.511       -1412.452          34.000  
J01  35590301.147   187028338.941        -433.316          30.000    35590322.133   139664024.973        -323.698          26.000  
J02  37860683.094   198959266.764       -2116.905          29.000  
> 2021  9 30 11 16 56.8490163  0  9
C16  36973861.029   192532589.288        -735.975          24.000  
C36  22476018.576   117038524.415       -2329.240          35.000  
E30  22487786.929   118174108.245       -1618.020          27.000  
G25                                                                  23404333.117    91843624.219       -3530.023          28.000  
G26  20605934.808   108285094.984         452.400          22.000  
G32  20768714.618   109140350.625       -1413.095          35.000  
J01  36606799.340   192370076.233        -434.074          30.000    36606820.925   143652985.054        -324.455          26.000  
J02  38877502.365   204302687.871       -2117.368          30.000  
R14  22329652.703   119029614.7151      -4631.618          21.000  
> 2021  9 30 11 16 57.8490158  0 10
C16  36973851.135   192532544.597        -735.460          27.000  
C36  22476313.572   117040072.084       -2327.144          35.000  
E08  21797859.256   114548632.2611      -1406.264          28.000  
E30  22487947.618   118174939.855       -1620.026          26.000  
G25  23405067.309   122994451.5741      -4725.462          23.000    23405081.699    91846565.430       -3529.711          28.000  
G26  20605700.071   108283854.586         452.239          25.000  
G32  20768833.036   109140975.529       -1413.357          36.000  
J01  36606733.985   192369722.647        -434.492          29.000    36606754.671   143652720.556        -324.762          25.000  
J02  38877756.289   204304017.206       -2116.887          31.000  
R14  22330371.905   119033448.251       -4632.653          19.000  
> 2021  9 30 11 16 58.8490158  0 13
C06  36590479.238   190536236.4931       -786.255          25.000  
C16  36973991.438   192533280.189        -736.027          28.000  
C19  21955859.475   114329798.4631      -3075.240          19.000  
C36  22476759.063   117042400.608       -2329.645          34.000  
E08  21798127.271   114550038.337       -1406.079          28.000  
E30  22488258.802   118176560.439       -1620.753          26.000  
G25  23405966.087   122999176.411       -4725.379          23.000    23405980.777    91850094.180       -3528.417          27.000  
G26  20605615.229   108283403.127         449.849          24.000  
G29  23807274.867   125108029.5571       -485.810          22.000  
G32  20769099.851   109142388.654       -1412.843          36.000  
J01  36606818.227   192370157.075        -434.548          29.000    36606838.013   143653045.515        -325.000          25.000  
J02  38878159.510   204306133.751       -2116.806          32.000  
R14  22331244.601   119038099.944       -4634.545          19.000  
> 2021  9 30 11 17  0.0000000  0 10
C06  36590573.073                        -785.492          26.000  
C16  36974070.584                        -736.040          30.000  
C19  21956456.961                       -3077.194          20.000  
C36  22477190.465                       -2329.594          35.000  
E08  21798355.413                       -1407.049          28.000  
G25  23406918.527                       -4724.521          21.000    23406932.018                       -3526.684          27.000  
G26  20605433.555                         447.556          22.000  
G32  20769326.494                       -1414.518          35.000  
J01  36606832.317                        -435.337          29.000    36606850.605                        -327.060          27.000  
J02  38878536.649                       -2117.376          32.000  
> 2021  9 30 11 17  0.9999977  0 11
C06  36590036.145   190533910.6951       -785.789          24.000  
C16  36973522.263   192530833.2201       -735.258          29.000  
C19  21956359.529   114332519.3071      -3076.726          21.000  
C36  22476949.132   117043367.4521      -2328.946          35.000  
E08  21797933.605   114548912.8211      -1405.454          29.000  
G25                                                                  23407141.273    91854650.4301      -3530.141          28.000  
G29  23806710.957   125105109.9011       -487.456          23.000  
G32  20768910.083   109141337.8351      -1414.694          35.000  
J01  36606227.036   192367013.7681       -435.371          28.000    36606243.825   143650764.1371       -325.260          26.000  
J02  38878250.347   204306581.5131      -2118.282          32.000  
R14  22332353.833   119044012.4611      -4641.669          19.000  
> 2021  9 30 11 17  1.9999977  0 10
C16  36973661.667   192531567.966        -734.960          27.000  
C36  22477396.422   117045696.584       -2329.954          35.000  
E08  21798202.219   114550319.499       -1407.752          29.000  
G25                                                                  23408040.351    91858178.845       -3528.467          27.000  
G26  20604576.149   108277766.0581        447.403          27.000  
G29  23806802.993   125105597.244        -486.847          22.000  
G32  20769175.999   109142752.293       -1415.165          36.000  
J01  36606311.278   192367449.018        -435.338          29.000    36606326.867   143651090.501        -326.933          26.000  
J02  38878652.069   204308698.006       -2116.977          32.000  
R14  22333238.820   119048730.211       -4643.397          18.000  
> 2021  9 30 11 17  2.9999977  0 10
C16  36973803.169   192532303.101        -735.947          25.000  
C19  21957542.809   114338669.4491      -3078.424          20.000  
C36  22477845.212   117048026.205       -2328.909          34.000  
E08  21798470.533   114551727.577       -1408.272          28.000  
G25  23408927.437   123014740.3401      -4726.592          20.000    23408939.428    91861708.656       -3531.076          25.000  
G26  20604493.406   108277318.967         446.744          26.000  
G32  20769448.510   109144167.490       -1416.986          35.000  
J01  36606395.820   192367885.095        -436.391          30.000    36606409.610   143651417.062        -326.946          25.000  
J02  38879058.888   204310814.741       -2116.609          31.000  
R14  22334115.114   119053401.146       -4649.253          17.000  
> 2021  9 30 11 17  3.9999977  0  8
C16  36973945.270   192533039.983        -738.794          22.000  
C36  22478293.401   117050355.822       -2330.672          35.000  
E08  21798737.348   114553134.874       -1407.822          26.000  
G25                                                                  23409839.405    91865239.340       -3530.310          25.000  
G26  20604409.764   108276871.917         448.108          27.000  
G32  20769718.023   109145582.938       -1415.723          35.000  
J01  36606480.061   192368320.966        -436.521          28.000    36606491.753   143651742.642        -324.499          26.000  
J02  38879461.809   204312931.311       -2116.375          30.000  
> 2021  9 30 11 17  4.9999977  0  9
C16  36974086.772   192533779.110        -738.640          24.000  
C36  22478742.191   117052685.673       -2329.948          34.000  
E08  21799005.363   114554542.519       -1407.527          26.000  
G25                                                                  23410739.083    91868769.991       -3529.362          25.000  
G29  23807084.498   125107057.0071       -487.480          15.000  
G32  20769985.738   109146998.868       -1415.692          34.000  
J01                                                                  36606573.896   143652067.752        -323.855          26.000  
J02  38879859.633   204315047.893       -2118.183          30.000  
R14  22335855.109   119062675.8831      -4645.795          12.000  
> 2021  9 30 11 17  5.9999933  0 11
C16  36972906.489   192527647.277        -737.144          21.000  
C19  21958000.293   114341042.2521      -3081.773          17.000  
C36  22477870.394   117048147.029       -2330.885          34.000  
E08  21797954.890   114549018.776       -1409.363          26.000  
G25                                                                  23410318.474    91867123.809       -3531.130          25.000  
G26  20602924.592   108269045.2441        446.126          28.000  
G29  23805852.951   125100611.598        -486.404          14.000  
G32  20768937.963   109141483.511       -1415.891          36.000  
J01  36605325.560   192362258.2211       -433.807          26.000    36605337.852   143647215.620        -325.299          25.000  
J02  38878942.868   204310232.738       -2116.855          31.000  
R14  22335397.926   119060239.278       -4638.598          11.000  
> 2021  9 30 11 17  6.9999923  0  8
C16  36972748.499   192526823.128        -736.207          21.000  
C19  21958293.190   114342562.736       -3080.238          18.000  
C36  22478019.991   117048916.305       -2332.278          33.000  
G25                                                                  23410919.258    91869478.182       -3531.061          26.000  
G26  20602540.858   108267023.130         445.927          27.000  
G29  23805642.197   125099522.818        -486.725          16.000  
J01  36605110.010   192361117.374        -435.214          26.000    36605120.802   143646364.496        -325.071          26.000  
J02  38879052.292   204310774.036       -2117.642          29.000  
> 2021  9 30 11 17  7.9999916  0  7
C16  36972678.647   192526466.478        -736.586          27.000  
C19  21958675.425   114344550.390       -3081.147          24.000  
C36  22478259.225   117050154.506       -2329.673          25.000  
G25                                                                  23411608.481    91872184.925       -3529.537          26.000  
G26  20602247.361   108265475.034         443.853          23.000  
J01  36604984.696   192360450.199        -435.120          30.000    36604994.590   143645866.839        -325.005          27.000  
J02  38879245.359   204311788.158       -2119.054          31.000  
> 2021  9 30 11 17  8.9999910  0  8
C16  36972640.274   192526266.714        -738.090          28.000  
C36  22478525.141   117051548.402       -2331.074          29.000  
G25  23412324.985   123032549.0341      -4728.297          21.000    23412328.282    91875010.120       -3531.844          26.000  
G26  20601985.642   108264086.740         443.416          21.000  
G29  23805443.734   125098449.6261       -488.403          24.000  
G32  20769063.277   109142112.1691      -1418.496          21.000  
J01  36604886.065   192359940.065        -434.405          22.000    36604899.555   143645486.917        -326.625          23.000  
J02  38879468.104   204312961.642       -2118.373          23.000  
> 2021  9 30 11 17  9.9999900  0  9
C06  36589090.899   190528938.2411       -786.990          26.000  
C16  36972484.681   192525442.817        -736.007          24.000  
C36  22478672.339   117052318.658       -2331.836          32.000  
G25  23412926.668   123035701.971       -4728.390          25.000    23412928.167    91877364.404       -3530.292          25.000  
G26  20601602.807   108262068.051         442.987          24.000  
G29  23805240.175   125097364.311        -490.730          19.000  
G32  20769030.599   109141955.308       -1418.815          27.000  
J01  36604670.214   192358799.699        -435.903          18.000    36604683.705   143644636.947        -325.449          25.000  
J02  38879570.334   204313504.767       -2118.579          29.000  
> 2021  9 30 11 17 10.9999892  0  9
C06  36589000.962   190528475.745        -786.265          27.000  
C16  36972385.150   192524929.092        -735.411          23.000  
C36  22478881.594   117053401.488       -2331.357          30.000  
G25  23413588.010   123039169.985       -4728.431          23.000    23413588.610    91879954.294       -3531.218          25.000  
G26  20601280.230   108260364.535         443.541          20.000  
G29  23805095.076   125096594.000        -490.290          17.000  
G32  20769059.080   109142113.793       -1419.024          32.000  
J01                                                                  36604526.913   143644021.737        -325.682          23.000  
J02  38879733.121   204314362.560       -2117.342          30.000  
> 2021  9 30 11 17 11.9999882  0  8
C06  36588852.564   190527700.477        -785.849          25.000  
C16  36972226.560   192524103.415        -735.949          25.000  
C36  22479031.191   117054172.179       -2332.931          26.000  
G25  23414188.794   123042322.918       -4728.128          23.000    23414188.794    91882309.129       -3529.957          25.000  
G29  23804893.915   125095509.361        -490.286          19.000  
G32  20769029.100   109141957.467       -1419.329          33.000  
J01                                                                  36604309.864   143643171.196        -326.968          24.000  
J02  38879833.851   204314904.387       -2117.343          30.000  
> 2021  9 30 11 17 12.9999877  0  9
C06  36588854.363   190527705.088        -784.662          25.000  
C16  36972218.466   192524058.571        -735.773          26.000  
C36  22479327.385   117055723.830       -2331.684          26.000  
G25                                                                  23414938.276    91885251.590       -3530.879          26.000  
G26  20600663.857   108257116.4141        441.367          19.000  
G29  23804844.449   125095212.739        -491.928          19.000  
G32  20769152.015   109142589.615       -1420.013          34.000  
J01                                                                  36604243.010   143642909.165        -326.217          25.000  
J02  38880085.977   204316233.888       -2117.547          30.000  
> 2021  9 30 11 17 13.9999869  0  9
C06  36588766.824   190527240.548        -784.281          25.000  
C16  36972121.033   192523545.124        -736.103          25.000  
C19  21960828.535   114355710.1701      -3083.728          21.000  
C36  22479533.942   117056806.591       -2331.565          25.000  
G25  23415598.718   123049731.1221      -4728.781          20.000    23415599.318    91887841.447       -3530.925          27.000  
G26  20600340.381   108255416.405         437.298          19.000  
G29  23804708.643   125094445.858        -493.315          19.000  
J01                                                                  36604085.919   143642293.833        -327.025          25.000  
J02  38880246.965   204317091.072       -2117.379          30.000  
> 2021  9 30 11 17 14.9999859  0  9
C06  36588615.429   190526463.668        -785.722          25.000  
C16  36971962.443   192522720.339        -736.989          26.000  
C19  21961120.533   114357232.511       -3083.589          21.000  
C36  22479681.440   117057577.447       -2332.341          24.000  
G25  23416199.802   123052885.406       -4730.400          20.000    23416200.402    91890196.750       -3533.894          27.000  
G29  23804510.780   125093363.021        -491.525          18.000  
G32  20769151.116   109142624.9481      -1422.677          33.000  
J01                                                                  36603869.169   143641445.296        -327.680          24.000  
J02  38880348.895   204317633.409       -2118.727          29.000  
> 2021  9 30 11 17 15.9999852  0  8
C06  36588556.070   190526157.278        -787.094          25.000  
C16  36971894.690   192522364.691        -737.570          25.000  
C36  22479919.476   117058818.242       -2334.492          23.000  
G25  23416889.625   123056513.898       -4731.243          20.000    23416891.124    91892906.664       -3532.629          26.000  
G29  23804402.555   125092753.520        -496.172          18.000  
G32  20769212.873   109142944.014       -1421.340          34.000  
J01                                                                  36603742.956   143640949.613        -326.684          24.000  
J02  38880542.560   204318649.040       -2118.239          30.000  
> 2021  9 30 11 17 16.9999844  0  8
C06  36588466.132   190525694.604        -785.319          25.000  
C16  36971796.658   192521852.999        -738.130          27.000  
C19  21961853.825   114361061.9701      -3088.763          21.000  
C36  22480128.731   117059903.996       -2334.116          25.000  
G25  23417552.766   123059984.787       -4731.495          21.000    23417552.166    91895498.519       -3534.572          26.000  
G29  23804266.149   125092262.380        -499.872          17.000  
J01                                                                  36603585.565   143640334.201        -325.507          24.000  
J02  38880707.147   204319507.169       -2119.009          29.000  
> 2021  9 30 11 17 17.9999836  0 10
C06  36588376.194   190525231.162        -785.634          25.000  
C16  36971697.426   192521341.800        -737.895          26.000  
C19  21962206.381   114362901.721       -3087.727          21.000  
C36  22480337.986   117060988.379       -2332.583          26.000  
G25                                                                  23418212.609    91898091.261       -3533.027          26.000  
G26  20599019.795   108248469.4691        437.293          23.000  
G29  23804128.545   125091499.594        -495.868          14.000  
G32  20769272.232   109143269.0391      -1423.840          33.000  
J01                                                                  36603429.073   143639720.246        -329.059          25.000  
J02  38880872.332   204320366.092       -2119.256          29.000  
> 2021  9 30 11 17 18.9999826  0 10
C06  36588225.698   190524456.495        -786.410          24.000  
C16  36971538.536   192520517.712        -736.358          24.000  
C19  21962496.280   114364428.140       -3086.442          21.000  
C36  22480486.383   117061760.972       -2333.535          27.000  
G25  23418815.192   123066608.5531      -4730.075          21.000    23418811.594    91900447.314       -3531.313          26.000  
G26  20598638.160   108246455.579         437.460          23.000  
G29  23803930.082   125090419.787        -496.032          13.000  
G32  20769241.653   109143117.632       -1424.428          34.000  
J01                                                                  36603213.523   143638874.999        -331.681          23.000  
J02  38880976.960   204320909.757       -2118.235          30.000    38880984.455   152577333.3721      -1583.152          27.000  
> 2021  9 30 11 17 19.9999818  0 10
C06  36588135.161   190523993.409        -785.557          25.000  
C16  36971439.305   192520005.230        -736.317          26.000  
C19  21962847.637   114366264.535       -3085.779          21.000  
C36  22480695.338   117062845.949       -2336.034          25.000  
G25                                                                  23419472.337    91903037.861       -3532.960          27.000  
G26  20598315.583   108244757.821         436.950          22.000  
G29  23803795.475   125089653.769        -493.960          15.000  
G32  20769277.928   109143281.700       -1423.077          30.000  
J01                                                                  36603057.630   143638265.560        -329.595          25.000  
J02  38881141.546   204321768.130       -2118.600          30.000    38881148.441   152577975.746       -1583.769          26.000  
> 2021  9 30 11 17 20.9999811  0 10
C06  36588076.402   190523685.998        -785.827          25.000  
C16  36971370.952   192519649.590        -736.936          28.000  
C19  21963228.074   114368257.122       -3085.007          21.000  
C36  22480933.973   117064089.695       -2336.310          25.000  
G25                                                                  23420163.658    91905747.843       -3535.538          27.000  
G26  20598020.287   108243218.813         435.084          25.000  
G29  23803692.946   125089045.195        -495.043          15.000  
G32  20769338.486   109143603.993       -1424.640          30.000  
J01                                                                  36602930.219   143637771.011        -328.404          24.000  
J02  38881334.312   204322783.564       -2118.308          30.000    38881342.107   152578734.883       -1582.484          27.000  
> 2021  9 30 11 17 21.9999803  0  9
C06  36587986.764   190523223.066        -786.202          25.000  
C16  36971273.520   192519137.796        -736.832          26.000  
C19  21963578.531   114370093.893       -3086.062          21.000  
C36  22481141.130   117065176.909       -2336.488          24.000  
G25  23420825.000   123077176.0841      -4729.560          21.000    23420825.000    91908341.351       -3534.092          26.000  
G26  20597696.811   108241522.353         436.537          24.000  
G32  20769375.361   109143769.076       -1426.155          29.000  
J01                                                                  36602774.626   143637158.778        -328.130          24.000  
J02  38881497.699   204323641.808       -2118.886          30.000    38881505.494   152579375.850       -1584.649          26.000  
> 2021  9 30 11 17 22.9999795  0  9
C06  36587895.927   190522761.116        -787.538          25.000  
C16  36971176.087   192518626.708        -738.281          26.000  
C36  22481348.886   117066265.196       -2337.131          24.000  
G25                                                                  23421485.443    91910933.918       -3533.712          27.000  
G26  20597373.035   108239825.819         435.511          24.000  
G29  23803427.030   125087852.4371       -499.967          15.000  
G32  20769407.139   109143934.889       -1425.554          29.000  
J01                                                                  36602618.734   143636546.063        -328.931          23.000  
J02  38881661.386   204324501.079       -2120.098          30.000    38881669.780   152580019.457       -1586.070          26.000  
> 2021  9 30 11 17 23.9999785  0  9
C06  36587748.429   190521987.891        -787.951          25.000  
C16  36971017.197   192517804.790        -739.028          26.000  
C19  21964216.789   114373459.8721      -3088.415          20.000  
C36  22481498.482   117067042.233       -2339.176          22.000  
G25  23422083.229   123083803.0691      -4733.145          21.000    23422086.527    91913291.156       -3534.011          28.000  
G26  20596989.601   108237815.342         434.345          24.000  
G32  20769371.164   109143786.068       -1426.690          29.000  
J01                                                                  36602402.884   143635697.980        -326.534          23.000  
J02  38881765.714   204325045.887       -2120.294          30.000    38881774.108   152580428.788       -1584.440          26.000  
> 2021  9 30 11 17 24.9999777  0  7
C06  36587659.690   190521526.582        -788.027          27.000  
C16  36970918.865   192517295.346        -739.607          27.000  
C36  22481706.838   117068131.523       -2337.425          22.000  
G25                                                                  23422747.569    91915884.484       -3534.534          28.000  
G26  20596666.724   108236121.489         433.339          24.000  
G29  23803090.963   125086015.8211       -497.042          13.000  
J02  38881929.400   204325905.564       -2120.152          29.000    38881937.495   152581070.313       -1580.979          26.000  
> 2021  9 30 11 17 25.9999770  0  8
C06  36587601.231   190521221.611        -788.316          26.000  
C16  36970850.213   192516941.324        -737.895          27.000  
C19  21964948.882   114377297.8951      -3090.374          19.000  
C36  22481946.372   117069375.356       -2336.989          24.000  
G25                                                                  23423438.891    91918595.409       -3535.170          28.000  
G26  20596376.225   108234586.884         430.357          25.000  
G29  23802984.237   125085410.433        -497.692          11.000  
J02  38882123.066   204326922.673       -2120.223          29.000    38882129.962   152581827.129       -1580.489          26.000  
> 2021  9 30 11 17 26.9999762  0  9
C06  36587514.291   190520760.911        -788.167          25.000  
C16  36970751.581   192516430.268        -737.841          26.000  
C19  21965301.138   114379139.466       -3090.141          19.000  
C36  22482157.426   117070462.870       -2336.949          25.000  
G25                                                                  23424100.233    91921189.381       -3534.901          27.000  
G26  20596053.949   108232897.097         427.225          24.000  
G29  23802842.435   125084647.623        -497.790          10.000  
G32  20769488.083   109144444.7781      -1427.652          25.000  
J02  38882286.753   204327782.563       -2120.339          30.000    38882292.749   152582466.951       -1583.084          26.000  
> 2021  9 30 11 17 27.9999754  0  7
C06  36587426.152   190520299.024        -786.413          27.000  
C16  36970653.849   192515919.192        -737.536          27.000  
C36  22482366.681   117071550.993       -2337.953          27.000  
G25  23424754.980   123097855.7361      -4734.021          24.000    23424760.975    91923784.889       -3539.088          27.000  
G26  20595731.072   108231209.261         428.218          25.000  
G29  23802701.533   125083887.084        -500.291          11.000  
J02  38882449.540   204328641.955       -2119.406          31.000    38882456.735   152583108.421       -1583.059          24.000  
> 2021  9 30 11 17 28.9999744  0  6
C06  36587277.755   190519525.234        -787.444          26.000  
C16  36970495.858   192515096.439        -739.452          29.000  
C36  22482516.578   117072327.915       -2336.763          26.000  
G25  23425353.665   123101014.763       -4735.222          23.000    23425361.760    91926146.090       -3537.127          28.000  
G26  20595344.640   108229206.300         425.976          22.000  
J02  38882553.868   204329186.178       -2119.894          31.000    38882559.564   152583513.589       -1581.109          25.000  
> 2021  9 30 11 17 29.9999739  0  6
C06  36587279.853   190519531.921        -786.859          27.000  
C16  36970486.565   192515054.683        -740.315          27.000  
C36  22482817.569   117073884.435       -2337.101          30.000  
G25                                                                  23426111.540    91929093.904       -3535.712          25.000  
G26  20595112.900   108227991.413         428.101          25.000  
J02  38882809.591   204330519.063       -2119.756          32.000    38882813.488   152584506.842       -1581.390          24.000  
> 2021  9 30 11 17 30.9999729  0  7
C06  36587131.156   190518757.891        -787.075          28.000  
C16  36970328.574   192514234.416        -742.547          26.000  
C36  22482967.466   117074660.896       -2338.097          32.000  
G25                                                                  23426712.025    91931453.454       -3535.832          27.000  
G26  20594732.164   108225988.754         427.382          27.000  
G32  20769584.016   109144959.8281      -1432.015          27.000  
J02  38882912.420                       -2119.155          33.000    38882917.516   152584914.010       -1585.429          26.000  
> 2021  9 30 11 17 31.9999721  0  6
C06  36587042.418   190518295.716        -787.277          20.000  
C16  36970230.242   192513727.720        -741.022          21.000  
C36  22483176.721   117075750.653       -2338.317          31.000  
G25                                                                  23427373.667    91934048.326       -3536.962          25.000  
G26  20594412.885   108224301.213         427.204          25.000  
J02  38883074.008   204331942.8571      -2121.252          28.000    38883081.203   152585558.171       -1585.747          27.000  
> 2021  9 30 11 17 32.9999713  0  6
C06  36586954.878   190517835.305        -791.302          25.000  
C16  36970130.711   192513218.659        -739.367          28.000  
C36  22483385.676   117076840.838       -2339.572          29.000  
G25                                                                  23428035.908    91936643.570       -3536.803          25.000  
G26  20594092.706   108222614.480         425.215          27.000  
J02  38883236.795   204332804.208       -2122.635          24.000    38883244.290   152586202.711       -1585.867          27.000  
> 2021  9 30 11 17 33.9999706  0  5
C16  36970060.560   192512864.601        -738.828          26.000  
C36  22483625.210   117078088.510       -2340.673          33.000  
G25                                                                  23428727.230    91939356.915       -3537.391          27.000  
G32  20769731.214                       -1432.169          35.000  
J02  38883430.461   204333823.282       -2122.171          28.000    38883438.556   152586965.379       -1585.206          26.000  
> 2021  9 30 11 17 34.9999698  0  6
C16  36969959.530   192512354.312        -738.417          23.000  
C36  22483834.465   117079180.116       -2340.455          34.000  
G25                                                                  23429389.471    91941952.665       -3537.301          27.000  
G26  20593485.926   108219403.6161        424.513          23.000  
G32  20769769.288   109145846.9161      -1432.945          36.000  
J02  38883593.548   204334685.302       -2122.296          31.000    38883601.943   152587608.575       -1584.178          24.000  
> 2021  9 30 11 17 35.9999688  0  7
C06  36586667.077   190516308.5971       -794.391          16.000  
C16  36969800.040   192511532.577        -739.654          25.000  
C36  22483984.961   117079958.768       -2339.747          34.000  
G25                                                                  23429990.255    91944314.632       -3540.057          27.000  
G26  20593104.590   108217403.562         424.494          24.000  
G32  20769739.309   109145705.121       -1433.162          36.000  
J02  38883697.277   204335231.145       -2121.510          31.000    38883704.771   152588015.446       -1582.111          26.000  
> 2021  9 30 11 17 36.9999680  0  5
C16  36969701.708   192511023.378        -739.721          25.000  
C36  22484192.717                       -2340.671          34.000  
G25                                                                  23430652.197    91946913.739       -3538.549          25.000  
G32  20769769.888   109145879.012       -1435.073          37.000  
J02  38883862.462   204336091.313       -2121.639          32.000    38883867.858   152588656.550       -1582.217          26.000  
> 2021  9 30 11 17 37.9999670  0  8
C06  36586429.942   190515084.0191       -790.867          17.000  
C16  36969543.717   192510201.414        -738.282          24.000  
C36  22484344.412   117081871.2221      -2339.800          34.000  
G25                                                                  23431253.880    91949275.793       -3538.412          26.000  
G26  20592407.273   108213719.1901        423.717          23.000  
G32  20769741.707   109145738.303       -1435.493          37.000  
J01  36600103.775   192334868.8951       -443.243          26.000  
J02  38883970.088                       -2121.506          33.000    38883972.486   152589062.246       -1582.612          25.000  
> 2021  9 30 11 17 38.9999665  0  8
C06  36586430.241   190515092.499        -788.072          18.000  
C16  36969534.124   192510158.857        -739.448          24.000  
C36  22484641.806   117083431.946       -2343.095          33.000  
G25                                                                  23432005.160    91952224.729       -3537.663          26.000  
G26  20592179.131   108212508.462         422.511          25.000  
G32  20769862.224   109146385.903       -1434.906          37.000  
J01  36600036.622   192334524.984        -444.108          26.000  
J02  38884223.712   204337975.8431      -2122.032          33.000    38884226.110   152590056.684       -1582.863          23.000  
> 2021  9 30 11 17 39.9999654  0  8
C06  36586250.666   190514162.749        -787.486          23.000  
C16  36969345.854   192509181.221        -738.654          24.000  
C36  22484762.623   117084056.314       -2342.730          35.000  
G25                                                                  23432576.265    91954467.783       -3537.500          25.000  
G26  20591769.914   108210352.682         422.002          25.000  
G32  20769803.464   109146088.891       -1436.603          36.000  
J01  36599790.792   192333236.113        -445.923          27.000  
J02  38884297.761   204338364.577       -2121.117          34.000    38884300.759   152590346.325       -1584.765          23.000  
> 2021  9 30 11 17 40.9999647  0  7
C06  36586190.707   190513856.946        -787.034          23.000  
C36  22485002.157   117085305.593       -2342.539          34.000  
G25                                                                  23433268.486    91957183.285       -3538.882          23.000  
G26  20591479.715   108208829.408         419.410          26.000  
G32  20769869.119   109146422.678       -1436.342          36.000  
J01  36599668.477   192332579.188        -446.378          25.000  
J02  38884495.324   204339383.734       -2122.804          34.000    38884495.324   152591108.628       -1585.999          23.000  
> 2021  9 30 11 17 41.9999639  0  7
C16  36969185.765   192508319.1991       -739.672          24.000  
C36  22485208.414   117086399.111       -2341.808          34.000  
G25                                                                  23433931.327    91959781.461       -3539.766          25.000  
G26  20591161.935   108207149.515         419.739          24.000  
G32  20769903.895   109146599.568       -1438.217          36.000  
J01  36599517.681   192331765.321        -446.743          26.000  
J02  38884659.910   204340245.566       -2123.723          33.000    38884659.910   152591752.613       -1586.216          23.000  
> 2021  9 30 11 17 42.9999631  0  9
C16  36969088.033   192507810.193        -740.637          24.000  
C19  21970902.161   114408245.1641      -3101.800          26.000  
C36  22485419.168   117087493.142       -2342.446          34.000  
G10  22809630.322                       -1343.991          12.000  
G25                                                                  23434593.568    91962380.649       -3541.959          24.000  
G26  20590843.256   108205470.138         419.036          22.000  
G32  20769939.570   109146777.109       -1437.485          37.000  
J01  36599362.988   192330950.999        -445.756          26.000  
J02  38884820.299   204341107.687       -2120.632          32.000    38884824.496   152592397.275       -1584.854          25.000  
> 2021  9 30 11 17 43.9999624  0  8
C06  36585956.869   190512630.7991       -787.238          20.000  
C16  36969020.879   192507459.147        -743.137          24.000  
C36  22485657.503   117088743.380       -2343.003          33.000  
G25  23435283.691   123153188.8291      -4740.598          22.000    23435284.890    91965099.682       -3542.356          25.000  
G26  20590554.556   108203948.275         419.121          21.000  
G32  20770004.625   109147112.565       -1437.799          37.000  
J01  36599238.874   192330293.983        -445.186          26.000  
J02  38885011.567   204342127.236       -2123.049          33.000    38885018.162   152593158.310       -1585.157          26.000  
> 2021  9 30 11 17 44.9999613  0  8
C06  36585777.893   190511701.606        -789.485          19.000  
C16  36968833.509   192506484.402        -742.030          24.000  
C36  22485780.118   117089369.327       -2342.629          33.000  
G25  23435858.393   123156196.652       -4741.264          22.000    23435856.894    91967345.708       -3539.180          23.000  
G26  20590148.037   108201796.328         418.383          20.000  
G32  20769947.964   109146818.283       -1438.903          37.000  
J01  36598996.042   192329005.723        -444.150          27.000  
J02  38885083.817   204342516.656       -2123.581          32.000    38885091.311   152593449.262       -1583.886          24.000  
> 2021  9 30 11 17 45.9999606  0  8
C06  36585719.433   190511398.611        -790.287          21.000  
C16  36968766.655   192506132.650        -740.942          25.000  
C19  21971945.139   114413648.5421      -3102.741          27.000  
C36  22486022.351   117090619.871       -2343.910          33.000  
G25  23436550.913   123159835.249       -4741.596          23.000    23436548.815    91970060.823       -3538.365          24.000  
G32  20770013.919   109147154.568       -1440.426          37.000  
J01  36598869.830   192328347.372        -444.500          25.000  
J02  38885282.879   204343536.230       -2124.205          33.000    38885284.378   152594209.982       -1585.156          24.000  
> 2021  9 30 11 17 46.9999598  0  8
C06  36585631.594   190510940.041        -790.365          24.000  
C16  36968671.621   192505625.092        -741.536          25.000  
C36  22486231.006   117091714.613       -2342.169          35.000  
G25                                                                  23437211.956    91972659.869       -3541.555          25.000  
G26  20589540.957   108198599.8011        414.722          23.000  
G32  20770044.497   109147333.905       -1439.726          37.000  
J01  36598712.738   192327531.925        -445.306          26.000  
J02  38885446.266   204344398.297       -2121.923          34.000    38885448.664   152594854.113       -1585.008          22.000  
> 2021  9 30 11 17 47.9999590  0  9
C06  36585543.755   190510481.706        -790.916          27.000  
C16  36968577.786   192505117.473        -741.216          28.000  
C19  21972655.347   114417356.4801      -3104.256          23.000  
C36  22486439.662   117092809.506       -2344.731          34.000  
G25  23437876.596   123166796.8751      -4741.008          26.000    23437874.797    91975260.866       -3540.443          25.000  
G26  20589220.779   108196924.385         414.425          25.000  
G32  20770072.378   109147513.522       -1440.433          35.000  
J01  36598558.945   192326716.280        -445.222          24.000  
J02  38885612.351   204345260.328       -2121.943          34.000    38885611.751   152595497.601       -1585.471          22.000  
> 2021  9 30 11 17 48.9999583  0  6
C06  36585485.296   190510178.482        -788.944          28.000  
C16  36968512.731   192504765.335        -739.872          28.000  
C36  22486676.498   117094060.845       -2345.520          31.000  
G25  23438564.320   123170434.683       -4739.985          25.000    23438567.018    91977977.792       -3539.762          25.000  
G26  20588931.779   108195407.055         414.377          21.000  
J02  38885798.522   204346280.181       -2121.851          33.000    38885807.516   152596261.131       -1587.186          23.000  
> 2021  9 30 11 17 49.9999572  0  7
C06  36585306.619   190509249.885        -788.747          28.000  
C16  36968325.361   192503788.568        -740.949          29.000  
C19  21973306.496   114420756.8261      -3104.236          24.000  
C36  22486797.614   117094688.195       -2339.886          31.000  
G25  23439135.724   123173442.404       -4742.019          26.000    23439140.820    91980226.127       -3541.818          26.000  
J01  36598196.496   192324771.3091       -445.950          30.000  
J02  38885874.070   204346669.913       -2124.724          31.000    38885881.564   152596553.888       -1586.022          23.000  
> 2021  9 30 11 17 50.9999565  0  8
C06  36585247.560   190508946.107        -789.853          30.000  
C16  36968258.207   192503436.238        -740.271          31.000  
C19  21973695.627   114422769.450       -3105.752          24.000  
C36  22487040.446   117095941.183       -2345.084          28.000  
G25  23439828.245   123177081.895       -4742.835          26.000    23439833.041    91982943.375       -3540.994          25.000  
G26  20588229.965   108191746.3351        413.695          18.000  
J01  36598073.581   192324114.257        -446.134          31.000  
J02  38886058.742   204347689.677       -2123.650          29.000    38886074.931   152597315.076       -1583.975          23.000  
> 2021  9 30 11 17 51.9999557  0  7
C06  36585158.522   190508486.783        -789.246          29.000  
C16  36968160.175   192502927.267        -739.702          31.000  
C19  21974052.680   114424626.500       -3106.447          24.000  
C36  22487250.301   117097037.237       -2345.096          34.000  
G25                                                                  23440495.583    91985544.561       -3542.968          26.000  
J01  36597920.387   192323299.931        -446.100          31.000  
J02  38886235.619   204348551.947       -2122.861          29.000    38886238.317   152597957.798       -1584.323          25.000  
> 2021  9 30 11 17 52.9999549  0  7
C06  36585067.984   190508026.477        -788.321          24.000  
C16  36968063.342   192502418.671        -740.349          30.000  
C36  22487460.155   117098133.323       -2345.007          35.000  
G25  23441153.327   123184047.2781      -4742.917          25.000    23441158.723    91988146.781       -3543.539          27.000  
G26  20587595.604   108188399.1811        412.481          18.000  
J01  36597766.893   192322485.831        -446.591          30.000  
J02  38886390.012   204349414.280       -2122.679          30.000    38886402.903   152598601.879       -1585.926          24.000  
> 2021  9 30 11 17 53.9999539  0  9
C01  37485040.746                       -1289.421          35.000  
C06  36584918.988   190507252.857        -787.388          25.000  
C16  36967905.651   192501598.076        -740.537          31.000  
C19  21974710.425   114428033.5461      -3111.232          18.000  
C36  22487608.253   117098917.267       -2344.657          34.000  
G25  23441756.510   123187214.985       -4743.368          26.000    23441762.206    91990513.087       -3543.068          27.000  
G26  20587217.566   108186411.028         413.344          23.000  
J01  36597550.443   192321356.429        -445.852          31.000  
J02  38886499.437   204349961.462       -2121.221          29.000    38886506.032   152599011.369       -1585.529          20.000  
> 2021  9 30 11 17 54.9999532  0  8
C01  37485078.520   195194640.0411      -1289.421          35.000  
C06  36584860.528   190506947.860        -788.369          26.000  
C16  36967837.599   192501245.845        -740.560          30.000  
C36  22487850.485                       -2345.617          33.000  
G25                                                                  23442455.326    91993232.162       -3541.847          26.000  
G26  20586929.765   108184895.626         412.391          27.000  
J01  36597424.830   192320700.162        -446.750          32.000    36597437.421   143616209.2411       -334.576          26.000  
J02  38886692.203   204350982.554       -2121.607          28.000  
> 2021  9 30 11 17 55.9999526  0 10
C01  37485145.973   195194992.732       -1289.421          35.000  
C06  36584832.348   190506800.136        -789.676          26.000  
C16  36967798.326   192501049.749        -740.536          31.000  
C36  22488120.898   117101547.6531      -2347.174          33.000  
G10  22821828.877                       -4748.712          25.000  
G25  23443174.828   123194654.1471      -4744.338          26.000    23443178.425    91996068.161       -3541.493          27.000  
G26  20586672.543   108183537.905         412.052          28.000  
G32  20770357.781   109148966.6911      -1444.294          34.000  
J01  36597330.395   192320202.216        -447.212          32.000    36597342.987   143615836.445        -331.032          27.000  
J02  38886914.349   204352159.605       -2122.321          27.000  
> 2021  9 30 11 17 56.9999516  0 11
C01  37485094.109   195194720.983       -1289.421          33.000  
C06  36584683.351   190506027.543        -789.065          28.000  
C16  36967639.736   192500228.875        -740.400          31.000  
C19  21975797.772   114433778.6051      -3112.219          24.000  
C36  22488274.691   117102332.770       -2344.477          33.000  
G10  22822430.260                       -4748.972          24.000  
G25  23443777.111   123197822.721       -4743.650          25.000    23443780.708    91998433.597       -3541.380          27.000  
G26  20586295.404   108181551.419         410.108          26.000  
G32  20770324.204   109148835.778       -1445.476          34.000  
J01  36597113.645                        -449.472          33.000    36597127.136   143614990.966        -331.885          27.000  
J02  38887018.078   204352707.309       -2123.283          26.000  
> 2021  9 30 11 17 57.9999508  0  9
C01  37485102.204   195194761.724       -1289.812          32.000  
C06  36584595.512   190505567.597        -789.174          28.000  
C16  36967542.003   192499720.510        -740.068          31.000  
C19  21976157.523   114435640.131       -3108.476          26.000  
C36  22488487.844   117103430.142       -2346.349          34.000  
E08  21799283.570   114555946.5541      -1432.378          28.000  
G25                                                                  23444443.250    92001034.343       -3542.351          27.000  
J01                                                                  36596972.443   143614382.786        -333.443          27.000  
J02  38887180.265   204353570.105       -2122.202          24.000  
> 2021  9 30 11 17 58.9999498  0  9
C01  37485050.040   195194490.550       -1290.073          32.000  
C06  36584447.714   190504795.252        -789.707          25.000  
C16  36967384.312   192498899.631        -740.961          30.000  
C36  22488639.839   117104215.441       -2346.802          32.000  
G10  22823686.391                       -4749.021          22.000  
G25  23445046.732   123204475.4221      -4744.731          26.000    23445046.732    92003401.612       -3545.163          26.000  
G26  20585600.485   108177897.1071        408.427          28.000  
J01  36596742.502   192317189.2091       -448.581          32.000    36596757.492   143613539.404        -333.390          28.000  
J02  38887282.495   204354116.228       -2120.682          23.000  
> 2021  9 30 11 17 59.9999493  0 10
C01  37485148.672   195195000.110       -1290.240          32.000  
C06  36584451.012   190504804.890        -790.366          26.000  
C16  36967375.918   192498859.762        -740.922          30.000  
C36  22488936.633   117105781.530       -2346.894          33.000  
E08  21799384.000   114556448.8291      -1432.610          28.000  
G25  23445800.410   123208431.635       -4743.481          25.000    23445799.211    92006358.800       -3545.299          25.000  
G26  20585373.243   108176701.419         407.781          28.000  
G32  20770460.310   109149547.6051      -1445.414          26.000  
J01  36596675.649   192316849.365        -449.008          31.000    36596693.636   143613285.052        -337.120          27.000  
J02  38887534.320   204355449.096       -2120.314          22.000  
> 2021  9 30 11 18  0.9999483  0 10
C01  37485096.807   195194729.703       -1301.566          27.000  
C06  36584302.614   190504033.722        -789.549          30.000  
C16  36967218.827   192498038.911        -739.904          31.000  
C19  21977199.002   114441061.4811      -3109.662          25.000  
C36  22489091.026   117106567.695       -2348.248          33.000  
G10  22823236.702                       -1290.240          18.000  
G25  23446403.293   123211600.348       -4744.777          28.000    23446401.494    92008726.704       -3542.538          25.000  
G26  20584996.703   108174717.524         409.183          24.000  
J01  36596465.494   192315722.299        -449.089          31.000    36596479.884   143612445.086        -336.216          27.000  
J02  38887640.447   204355995.831       -2123.118          26.000  
> 2021  9 30 11 18  1.9999475  0  8
C06  36584214.775   190503574.571        -790.440          32.000  
C16  36967120.195   192497530.466        -741.325          34.000  
C36  22489303.879   117107666.299       -2346.591          33.000  
G10  22822996.868                       -1290.240          17.000  
G25  23447065.534   123215084.771       -4744.997          29.000    23447064.035    92011327.802       -3541.692          25.000  
G26  20584679.823   108173049.453         406.687          21.000  
J01  36596309.602   192314910.369        -449.269          30.000    36596325.191   143611839.295        -334.344          26.000  
J02  38887805.033   204356858.823       -2123.401          30.000  
> 2021  9 30 11 18  2.9999465  0  9
C06  36584066.678   190502803.121        -789.626          33.000  
C16  36966964.603                        -739.150          32.000  
C19  21977847.453   114444474.1571      -3113.942          22.000  
C36  22489446.580   117108452.105       -2347.740          31.000  
E08  21799361.216   114556337.7461      -1434.541          29.000  
G10  22822697.076                       -1290.240          16.000  
G25  23447670.216   123218254.376       -4745.122          31.000    23447667.218    92013692.270       -3542.472          26.000  
G26  20584302.984   108171068.283         405.706          26.000  
J01  36596094.651   192313783.778        -448.316          28.000    36596110.240   143610996.650        -334.561          27.000  
> 2021  9 30 11 18  3.9999460  0 10
C06  36584068.776   190502812.292        -789.406          31.000  
C16  36966960.406   192496645.1081       -739.982          33.000  
C19  21978292.045   114446810.048       -3117.988          15.000  
C36  22489742.175   117110018.951       -2348.594          29.000  
E08  21799484.131   114556984.468       -1434.532          29.000  
G10  22822547.179                       -1290.240          15.000  
G25  23448423.294   123222211.699       -4745.311          28.000    23448421.196    92016646.518       -3544.087          26.000  
G26  20584076.640   108169875.064         405.351          27.000  
J01  36596030.195   192313444.156        -448.018          31.000    36596045.485   143610742.515        -334.210          27.000  
J02  38888164.184   204358741.3821      -2122.581          31.000  
> 2021  9 30 11 18  4.9999450  0  8
C06  36583920.379   190502040.408        -789.100          31.000  
C16  36966798.518   192495824.306        -742.871          29.000  
C19  21978589.739   114448367.707       -3121.040          16.000  
E08  21799455.951   114556843.764       -1435.271          28.000  
G25  23449025.877   123225381.589       -4745.451          25.000    23449024.978    92019014.764       -3545.638          27.000  
G26  20583699.202   108167894.304         404.984          24.000  
J01                                                                  36595830.833   143609899.904        -333.816          26.000  
J02  38888277.506   204359288.490       -2123.374          31.000  
> 2021  9 30 11 18  5.9999442  0 10
C06  36583831.341   190501580.190        -788.679          32.000  
C16  36966698.387   192495315.716        -740.186          29.000  
C19  21978949.790   114450239.458       -3118.224          16.000  
C36  22490104.025   117111905.3781      -2348.496          27.000  
E08  21799488.928   114557019.450       -1435.954          27.000  
G10  22828318.784                       -4752.799          16.000  
G25  23449691.117   123228866.695       -4745.770          25.000    23449688.419    92021618.584       -3546.881          27.000  
G32  20770594.317   109150194.4821      -1448.275          29.000  
J01                                                                  36595677.340   143609292.454        -333.067          26.000  
J02  38888439.394                       -2123.124          31.000  
> 2021  9 30 11 18  6.9999434  0 10
C06  36583742.302   190501119.826        -788.861          32.000  
C16  36966601.254   192494806.949        -738.791          30.000  
C36  22490315.678   117113004.981       -2348.420          29.000  
E08  21799521.305   114557195.148       -1436.250          28.000  
G10  22828078.950                       -4752.799          18.000  
G25  23450356.656   123232352.115       -4745.883          25.000    23450352.459    92024224.151       -3547.271          27.000  
G26  20583063.941   108164565.2541        405.986          15.000  
G32  20770628.193   109150382.706       -1448.789          32.000  
J01                                                                  36595523.246   143608685.339        -335.740          26.000  
J02  38888602.181   204360990.1631      -2123.472          30.000  
> 2021  9 30 11 18  7.9999427  0  7
C06  36583683.243   190500815.753        -788.616          31.000  
C16  36966532.002   192494454.536        -740.127          28.000  
C36  22490558.510   117114260.650       -2348.043          31.000  
E08  21799583.962   114557527.502       -1435.467          28.000  
G25  23451048.877   123235995.250       -4746.268          26.000    23451044.979    92026946.583       -3544.940          26.000  
J01                                                                  36595398.833   143608197.351        -336.791          26.000  
J02  38888798.845   204362010.640       -2123.107          30.000  
> 2021  9 30 11 18  8.9999419  0  8
C06  36583594.505   190500355.224        -788.635          30.000  
C16  36966435.169   192493946.259        -740.547          27.000  
C36  22490770.464   117115360.461       -2348.918          32.000  
E08  21799619.338   114557703.406       -1436.537          29.000  
G25                                                                  23451708.420    92029551.400       -3546.006          26.000  
G32  20770721.429   109150919.7611      -1449.739          31.000  
J01                                                                  36595245.039   143607592.833        -335.720          26.000  
J02  38888960.733   204362873.651       -2124.084          30.000  
> 2021  9 30 11 18  9.9999409  0  8
C06  36583447.306   190499582.706        -788.734          30.000  
C16  36966277.778   192493125.865        -741.354          30.000  
C36  22490926.655   117116148.853       -2350.149          32.000  
E08  21799594.455   114557564.965       -1436.862          29.000  
G25                                                                  23452311.303    92031919.664       -3544.691          26.000  
G26  20582083.920   108159409.3681        400.382          16.000  
J01  36595030.687   192308108.1401       -449.927          25.000    36595030.088   143606751.215        -335.210          26.000  
J02  38889070.457   204363421.635       -2122.688          30.000  
> 2021  9 30 11 18 10.9999401  0  8
C06  36583359.467   190499122.877        -789.409          30.000  
C16  36966179.746   192492618.025        -740.368          30.000  
C36  22491139.208                       -2350.648          32.000  
E08  21799630.730   114557742.265       -1437.119          29.000  
G25  23452982.838   123246139.7921      -4747.615          25.000    23452974.743    92034522.962       -3543.982          25.000  
G32  20770733.720   109150942.0241      -1450.032          31.000  
J01                                                                  36594875.995   143606145.485        -334.189          26.000  
J02  38889228.447   204364284.772       -2123.497          30.000  
> 2021  9 30 11 18 11.9999393  0  7
C06  36583270.729   190498663.336        -789.174          31.000  
C16  36966082.014   192492109.753        -740.641          29.000  
C36  22491345.166   117118364.2441      -2349.301          32.000  
G25  23453645.379   123249626.713       -4747.690          26.000    23453638.184    92037126.231       -3545.057          26.000  
G32  20770762.500   109151132.934       -1451.474          30.000  
J01                                                                  36594721.302   143605538.990        -335.393          27.000  
J02  38889396.931   204365147.780       -2124.078          29.000  
> 2021  9 30 11 18 12.9999386  0  7
C06  36583212.869   190498359.102        -788.853          29.000  
C16  36966013.361   192491756.832        -739.647          28.000  
C36  22491588.297   117119620.844       -2349.280          31.000  
G25  23454339.399   123253271.520       -4747.514          26.000    23454331.304    92039848.252       -3546.213          25.000  
G26  20581176.748   108154606.3951        393.082          17.000  
J01  36594601.385   192305832.5861       -450.431          19.000    36594596.288   143605049.405        -333.934          27.000  
J02  38889581.003   204366168.271       -2124.128          30.000  
> 2021  9 30 11 18 13.9999375  0  7
C06  36583034.192   190497430.573        -788.397          30.000  
C16  36965825.092   192490779.475        -739.135          27.000  
C36  22491710.913   117120253.309       -2349.519          32.000  
E30  22492891.195   118200940.5791      -1658.460          29.000  
G25  23454912.602   123256286.011       -4747.722          25.000    23454905.407    92042100.398       -3546.587          26.000  
J01  36594359.452   192304549.084        -449.096          19.000    36594351.658   143604089.525        -334.028          27.000  
J02  38889656.251   204366558.744       -2121.809          30.000  
> 2021  9 30 11 18 14.9999368  0  8
C06  36582975.733   190497126.294        -788.581          30.000  
C16  36965756.439   192490426.208        -739.994          29.000  
C19  21982117.397   114466727.1621      -3120.194          22.000  
C36  22491948.948   117121511.274       -2350.518          32.000  
E30  22492998.221   118201496.646       -1659.229          29.000  
G25  23455606.322   123259931.280       -4748.416          24.000    23455599.726    92044823.935       -3546.888          24.000  
J01                                                                  36594227.244   143603600.078        -334.966          26.000  
J02  38889853.215   204367580.237       -2124.181          29.000  
> 2021  9 30 11 18 15.9999360  0  9
C06  36582887.294   190496665.964        -789.158          30.000  
C16  36965659.906   192489918.198        -740.814          30.000  
C36  22492162.700   117122612.998       -2350.746          32.000  
E30  22493074.968   118201895.636       -1659.392          29.000  
G10  22834928.908   119998360.9541      -4754.936          26.000  
G25  23456269.463   123263419.647       -4748.956          22.000    23456262.567    92047428.003       -3544.973          25.000  
G26  20580175.141   108149333.3621        393.742          18.000  
J01  36594081.844   192303088.4681       -452.030          20.000    36594073.150   143602995.184        -336.543          26.000  
J02  38890028.593   204368443.859       -2122.847          30.000  
> 2021  9 30 11 18 16.9999352  0  8
C06  36582798.256   190496206.303        -789.141          30.000  
C16  36965562.174   192489410.089        -740.013          28.000  
C36  22492377.351   117123714.792       -2349.918          32.000  
E30  22493151.116   118202294.505       -1659.504          29.000  
G10  22834689.074   119997100.618       -4754.936          24.000  
G25  23456932.004   123266908.170       -4748.531          23.000    23456926.308    92050030.794       -3544.236          25.000  
J01                                                                  36593920.256   143602392.628        -339.722          26.000  
J02  38890184.186   204369307.303       -2126.538          30.000  
> 2021  9 30 11 18 17.9999345  0  8
C06  36582739.796   190495902.431        -789.337          29.000  
C16  36965495.620   192489058.007        -740.557          27.000  
C36  22492618.984   117124972.983       -2351.988          33.000  
E30  22493258.141   118202850.870       -1659.092          30.000  
G10  22836292.963                       -4754.406          23.000  
G25  23457624.524   123270553.969       -4748.999          23.000    23457619.728    92052752.784       -3546.345          23.000  
J01                                                                  36593796.442   143601907.510        -336.731          26.000  
J02  38890376.652   204370328.426       -2122.765          30.000  
> 2021  9 30 11 18 18.9999334  0  8
C06  36582561.420   190494974.268        -789.401          29.000  
C16  36965308.549   192488080.601        -739.234          27.000  
C36  22492741.599   117125606.963       -2351.232          33.000  
E30  22493243.751   118202777.267       -1660.312          30.000  
G10  22835963.192                       -4754.406          20.000  
G25  23458195.929   123273570.486       -4750.142          23.000    23458194.130    92055004.678       -3545.220          25.000  
J01                                                                  36593552.111   143600950.257        -337.243          26.000  
J02  38890447.703   204370719.471       -2123.986          30.000  
> 2021  9 30 11 18 19.9999327  0  9
C06  36582502.960   190494671.423        -789.820          28.000  
C16  36965240.497   192487727.491        -739.652          27.000  
C36  22492982.332   117126865.671       -2352.336          33.000  
E30  22493348.679   118203334.321       -1659.415          29.000  
G10  22835753.337                       -4754.406          18.000  
G25                                                                  23458888.150    92057726.302       -3545.198          24.000  
G26  20578874.941   108142539.7351        399.649          19.000  
J01                                                                  36593428.297   143600464.315        -336.519          26.000  
J02  38890647.665   204371740.745       -2122.579          30.000  
> 2021  9 30 11 18 20.9999319  0  8
C06  36582415.421   190494211.912        -789.285          26.000  
C16  36965144.563   192487219.171        -741.526          28.000  
C36  22493199.382   117127968.660       -2350.021          30.000  
E30  22493422.428   118203733.820       -1660.293          29.000  
G10  22835513.503                       -4754.406          18.000  
G25  23459553.389   123280710.7391      -4750.911          23.000    23459553.089    92060331.971       -3548.015          25.000  
G32  20771027.217   109152559.0411      -1457.059          30.000  
J01                                                                  36593275.103   143599859.940        -338.028          25.000  
> 2021  9 30 11 18 21.9999311  0  8
C06  36582326.382   190493752.739        -791.484          26.000  
C16  36965044.732   192486711.533        -740.792          26.000  
C36  22493410.136   117129071.651       -2353.462          31.000  
E30  22493496.476   118204133.954       -1660.668          31.000  
G10  22835273.669                       -4754.406          19.000  
G25  23460216.230   123284201.361       -4751.710          24.000    23460218.329    92062938.582       -3548.157          24.000  
J01                                                                  36593121.909   143599255.641        -337.456          24.000  
J02  38890972.340   204373469.0731      -2124.738          27.000  
> 2021  9 30 11 18 22.9999301  0  8
C06  36582179.484   190492983.394        -791.929          25.000  
C16  36964889.440   192485891.429        -740.977          25.000  
C19  21984889.877   114481217.3121      -3122.894          23.000  
C36  22493556.735   117129862.686       -2353.042          32.000  
E30  22493511.766   118204220.550       -1662.907          29.000  
G25  23460818.513   123287375.652       -4749.307          22.000    23460822.710    92065310.513       -3547.596          24.000  
J01                                                                  36592908.756   143598416.925        -336.897          24.000  
J02  38891076.368   204374018.589       -2125.285          27.000  
> 2021  9 30 11 18 23.9999293  0  7
C16  36964792.906   192485383.587        -741.391          28.000  
C36  22493769.587   117130965.874       -2351.400          33.000  
E30  22493587.913   118204621.672       -1659.558          27.000  
G25                                                                  23461485.552    92067916.557       -3546.617          25.000  
G26  20577541.464   108135600.1651        392.326          19.000  
J01                                                                  36592753.764   143597813.277        -338.945          26.000  
J02  38891241.854   204374882.816       -2124.443          29.000  
> 2021  9 30 11 18 24.9999286  0  8
C06  36582036.183   190492225.6131       -789.227          20.000  
C36  22494012.119   117132225.548       -2352.525          33.000  
E30  22493693.440   118205179.187       -1662.313          25.000  
G10  22839070.241                       -4755.991          24.000  
G25                                                                  23462178.672    92070640.203       -3546.664          23.000  
G32  20771150.732   109153191.1531      -1457.478          29.000  
J01                                                                  36592629.650   143597327.282        -336.694          25.000  
J02  38891437.318   204375904.354       -2124.198          29.000  
> 2021  9 30 11 18 25.9999278  0  9
C06  36581947.745   190491765.983        -788.599          21.000  
C19  21986006.904   114486998.8401      -3125.820          25.000  
C36  22494215.379   117133329.614       -2351.486          29.000  
G10  22838830.407                       -4755.991          22.000  
G25  23462844.811   123297994.3771      -4749.076          23.000    23462842.712    92073245.320       -3546.365          24.000  
G26  20576940.081   108132453.5771        389.964          25.000  
G32  20771190.904   109153389.051       -1458.322          31.000  
J01                                                                  36592475.257   143596722.171        -336.248          25.000  
J02  38891602.204   204376767.931       -2124.687          28.000  
> 2021  9 30 11 18 26.9999268  0  7
C06  36581798.448   190490992.326        -787.227          21.000  
C16  36964470.929   192483702.6121       -740.684          27.000  
C19  21986311.793   114488562.869       -3124.293          25.000  
C36  22494366.474   117134121.583       -2352.155          26.000  
G25  23463451.590   123301166.803       -4748.277          20.000    23463446.794    92075616.027       -3550.057          23.000  
G26  20576566.240   108130488.463         389.905          25.000  
J01                                                                  36592261.804   143595882.337        -336.034          24.000  
> 2021  9 30 11 18 27.9999260  0  8
C06  36581708.810   190490530.954        -787.561          25.000  
C16  36964374.696   192483194.239        -740.850          28.000  
C19  21986675.741   114490436.592       -3122.444          22.000  
C36  22494580.526   117135226.185       -2352.444          27.000  
G25                                                                  23464110.234    92078223.984       -3549.521          20.000  
G32  20771209.491   109153472.7021      -1460.289          26.000  
J01                                                                  36592108.311   143595277.339        -337.981          23.000  
J02  38891873.216   204378181.8521      -2125.036          28.000  
> 2021  9 30 11 18 28.9999252  0  8
C06  36581620.071   190490069.384        -789.312          23.000  
C16  36964278.463   192482686.182        -741.245          27.000  
C19  21987037.291   114492310.935       -3123.970          28.000  
C36  22494794.878   117136329.614       -2352.169          31.000  
G25                                                                  23464774.874    92080832.636       -3550.897          22.000  
G26  20575939.673   108127188.2861        385.890          19.000  
J01                                                                  36591955.416   143594674.719        -338.510          25.000  
J02  38892038.702   204379046.077       -2124.262          27.000  
> 2021  9 30 11 18 29.9999245  0  9
C06  36581561.612   190489766.787        -790.357          22.000  
C16  36964212.508   192482334.602        -740.875          28.000  
C19  21987431.218   114494343.124       -3125.101          29.000  
C36  22495038.609   117137589.294       -2353.397          30.000  
E08  21800166.459   114560542.7121      -1445.959          29.000  
G25                                                                  23465469.194    92083559.343       -3549.712          23.000  
G32  20771324.012   109154030.0031      -1460.389          31.000  
J01                                                                  36591831.302   143594188.669        -337.521          24.000  
J02  38892234.167   204380067.920       -2125.318          24.000  
> 2021  9 30 11 18 30.9999237  0  7
C16  36964114.476   192481826.490        -740.856          28.000  
C19  21987796.365   114496219.487       -3125.757          29.000  
C36  22495252.960   117138694.276       -2354.123          28.000  
E08  21800201.834   114560727.642       -1444.784          28.000  
G25  23466141.928   123315284.5841      -4751.440          19.000  
J01                                                                  36591678.408   143593585.946        -339.326          25.000  
J02  38892396.954   204380932.409       -2125.134          24.000  
> 2021  9 30 11 18 31.9999227  0  7
C16  36963956.785   192481005.913        -740.626          29.000  
C19  21988101.554   114497784.620       -3126.887          29.000  
C36  22495407.653   117139487.817       -2355.499          29.000  
G10  22845425.841   120053522.3661      -4758.064          22.000  
G32  20771348.295                       -1460.905          32.000  
J01  36591434.977   192289370.9071       -451.523          26.000    36591464.956   143592748.130        -337.888          23.000  
J02  38892499.183   204381481.926       -2124.944          23.000  
> 2021  9 30 11 18 32.9999219  0  6
C06  36581238.136   190488079.2171       -789.970          25.000  
C16  36963859.353   192480498.686        -742.232          28.000  
C19  21988464.903   114499662.906       -3127.853          27.000  
C36  22495621.106   117140594.362       -2355.556          31.000  
G32  20771386.069   109154372.4811      -1461.913          34.000  
J01  36591280.883   192288562.533        -452.365          25.000    36591309.963   143592144.992        -338.968          24.000  
> 2021  9 30 11 18 33.9999212  0  7
C06  36581182.374   190487776.170        -790.082          22.000  
C16  36963790.700   192480147.384        -740.240          25.000  
C36  22495864.237   117141857.353       -2356.370          32.000  
G25  23468113.363   123325607.9941      -4758.848          19.000  
G32  20771449.924   109154731.382       -1463.536          31.000  
J01  36591157.069   192287912.610        -452.793          27.000    36591185.849   143591660.397        -339.425          26.000  
J02  38892860.733   204383368.6631      -2125.131          31.000  
> 2021  9 30 11 18 34.9999204  0  6
C16  36963692.668   192479639.203        -740.683          25.000  
C36  22496074.991   117142964.362       -2355.306          29.000  
G10  22847444.343   120064177.6111      -4759.301          25.000  
G32  20771488.298   109154933.500       -1462.755          33.000  
J01  36591001.777   192287105.907        -454.848          28.000    36591032.955   143591059.030        -340.258          24.000  
J02  38893025.918   204384233.223       -2125.512          29.000  
> 2021  9 30 11 18 35.9999196  0  7
C16  36963594.936   192479130.629        -740.550          25.000  
C36  22496286.945   117144070.947       -2354.753          30.000  
G10  22848107.784   120067677.480       -4759.901          23.000  
G25  23469439.645   123332597.1061      -4752.073          18.000  
G32  20771529.669   109155136.137       -1462.574          35.000  
J01  36590848.283   192286300.334        -454.310          27.000    36590879.161   143590457.340        -337.553          25.000  
J02  38893189.605   204385098.916       -2126.241          29.000  
> 2021  9 30 11 18 36.9999186  0  7
C06  36580853.202   190486083.2371       -789.474          20.000  
C16  36963436.345   192478309.245        -739.929          25.000  
C36  22496439.539   117144864.775       -2355.055          30.000  
G10  22848710.667   120070862.804       -4761.494          19.000    22848736.749                       -3555.205          25.000  
G32  20771510.483   109155024.278       -1463.200          35.000  
J01  36590634.231   192285179.408        -453.871          27.000    36590666.009   143589619.688        -337.818          25.000  
J02  38893294.832   204385649.670       -2126.318          29.000    38893303.826   152625671.8831      -1588.656          24.000  
> 2021  9 30 11 18 37.9999181  0 10
C06  36580855.900   190486091.802        -788.883          21.000  
C16  36963425.553   192478266.916        -739.540          22.000  
C19  21990317.920   114509376.3731      -3128.458          21.000  
C36  22496741.430   117146439.571       -2355.765          30.000  
E08  21800450.662   114562029.3941      -1446.577          28.000  
G10                                                                  22849493.125                       -3555.864          25.000  
G25  23470796.805   123339737.5151      -4745.030          18.000  
G32  20771635.196   109155700.531       -1465.388          35.000  
J01                                                                  36590602.453   143589369.236        -339.415          25.000  
J02  38893549.356   204386987.592       -2124.991          30.000    38893558.949   152626670.068       -1584.600          24.000  
> 2021  9 30 11 18 38.9999171  0 10
C06  36580708.103   190485319.730        -789.782          24.000  
C16  36963265.164   192477445.049        -738.561          22.000  
C36  22496894.024   117147233.757       -2355.538          30.000  
E08  21800428.178   114561901.028       -1448.123          25.000  
G10  22850058.234   120078022.5521      -4760.660          18.000    22850100.205    89668696.5751      -3553.909          25.000  
G25  23471398.189   123342909.238       -4752.461          17.000  
G26  20572793.651   108110563.5781        382.616          16.000  
G32  20771608.515   109155589.563       -1463.434          36.000  
J01                                                                  36590389.301   143588532.232        -340.867          24.000  
J02  38893655.483   204387537.368       -2125.000          30.000    38893662.678   152627080.179       -1587.644          22.000  
> 2021  9 30 11 18 39.9999163  0 11
C06  36580619.064   190484860.459        -790.634          23.000  
C16  36963164.734   192476935.069        -739.112          22.000  
C19  21990983.459   114512825.9991      -3130.493          24.000  
C36  22497106.877   117148340.816       -2356.208          28.000  
E08  21800463.553   114562089.293       -1450.056          26.000  
G10                                                                  22850765.444    89671309.786       -3554.201          25.000  
G25  23472066.726   123346399.858       -4751.809          15.000  
G26  20572486.964   108108921.507         380.713          17.000  
G32  20771651.085   109155794.064       -1466.323          36.000  
J01  36590205.228   192282919.7881       -455.247          28.000    36590236.706   143587930.607        -339.144          24.000  
J02  38893820.069   204388401.801       -2124.721          31.000    38893827.863   152627727.525       -1587.728          23.000  
> 2021  9 30 11 18 40.9999153  0  9
C06  36580470.068   190484088.981        -789.873          24.000  
C19  21991284.750   114514395.364       -3130.167          25.000  
C36  22497259.172   117149136.719       -2357.323          28.000  
E08  21800438.970   114561965.620       -1450.915          25.000  
G10                                                                  22851371.924    89673687.171       -3553.804          25.000  
G25  23472666.611   123349577.528       -4753.188          15.000  
G32  20771630.100   109155684.039       -1464.799          37.000  
J01  36589993.275   192281799.555        -455.242          26.000    36590022.954   143587094.794        -342.716          25.000  
J02  38893924.996   204388951.271       -2125.100          30.000    38893932.491   152628137.532       -1585.457          22.000  
> 2021  9 30 11 18 41.9999148  0  9
C06  36580471.866   190484098.245        -789.791          25.000  
C16  36963000.747   192476073.2491       -739.534          22.000  
C36  22497562.262   117150713.945       -2358.229          30.000  
G10                                                                  22852127.701    89676653.451       -3554.947          25.000  
G25  23473418.790   123353542.741       -4750.732          11.000  
G26  20571897.871   108105793.1111        383.602          18.000  
G32  20771757.212   109156362.112       -1464.917          36.000  
J01  36589930.618   192281467.220        -455.120          26.000    36589959.398   143586848.637        -343.311          25.000  
J02                                                                  38894186.715   152629135.525       -1586.686          24.000  
> 2021  9 30 11 18 42.9999137  0  8
C06  36580294.989   190483170.370        -788.899          25.000  
C16  36962815.176   192475095.211        -738.973          23.000  
C19  21992011.147   114518159.9431      -3131.936          24.000  
C36  22497684.577   117151354.293       -2357.351          28.000  
G10                                                                  22852704.802    89678915.381       -3556.734          24.000  
G32  20771707.446   109156095.591       -1465.132          35.000  
J01  36589687.786   192280188.826        -455.205          25.000    36589717.166   143585896.913        -340.697          26.000  
J02  38894255.967   204390682.0581      -2126.118          31.000    38894262.862   152629429.185       -1588.100          26.000  
> 2021  9 30 11 18 43.9999130  0  6
C16  36962747.722   192474742.904        -741.838          22.000  
C36  22497927.109   117152618.869       -2357.564          29.000  
G10                                                                  22853400.620    89681647.957       -3556.235          25.000  
G32  20771776.698   109156459.673       -1467.961          35.000  
J01  36589564.272   192279541.089        -454.793          25.000    36589593.052   143585413.227        -338.302          24.000  
J02  38894452.031   204391704.605       -2125.461          29.000    38894458.027   152630194.088       -1589.289          26.000  
> 2021  9 30 11 18 44.9999119  0  8
C06  36580057.853   190481936.8111       -789.887          22.000  
C19  21992670.091   114521613.0111      -3130.906          23.000  
C36  22498050.024   117153259.364       -2357.820          32.000  
G10                                                                  22853976.221    89683908.806       -3555.323          24.000  
G25  23475252.621   123363239.3481      -4756.912          16.000  
G32  20771727.832   109156194.103       -1467.487          35.000  
J01  36589322.939   192278263.263        -455.208          27.000    36589348.721   143584456.999        -338.820          25.000  
J02                                                                  38894532.975   152630488.736       -1589.735          26.000  
> 2021  9 30 11 18 45.9999114  0  7
C16  36962551.658   192473728.6331       -742.414          22.000  
C19  21993119.480   114523965.374       -3134.810          23.000  
C36  22498353.414   117154836.828       -2358.363          31.000  
G10                                                                  22854731.399    89686876.577       -3555.698          25.000  
G32  20771859.141   109156874.286       -1468.082          36.000  
J01  36589262.081   192277930.392        -454.480          28.000    36589284.865   143584208.620        -340.699          25.000  
J02  38894783.002   204393434.4521      -2124.771          32.000    38894787.499   152631488.581       -1586.457          25.000  
> 2021  9 30 11 18 46.9999107  0  9
C06  36579998.494   190481641.8771       -789.095          21.000  
C16  36962484.205   192473378.760        -744.530          22.000  
C19  21993510.110   114526006.733       -3135.154          24.000  
C36  22498595.047   117156101.445       -2357.444          31.000  
G10                                                                  22855427.817    89689609.531       -3556.831          24.000  
G25  23476711.111   123370863.2721      -4757.660          17.000  
G32  20771926.594   109157239.819       -1469.327          36.000  
J01  36589139.166   192277282.510        -455.138          28.000    36589161.650   143583725.210        -340.263          25.000  
J02  38894977.567   204394456.562       -2125.474          32.000    38894981.465   152632252.112       -1587.967          25.000  
> 2021  9 30 11 18 47.9999096  0  9
C06  36579820.417   190480713.862        -788.891          22.000  
C16  36962297.734   192472404.941        -742.184          24.000  
C19  21993783.820   114527424.868       -3133.625          24.000  
C36  22498717.962   117156742.282       -2359.197          32.000  
G10                                                                  22856004.018    89691873.958       -3558.618          22.000  
G25  23477289.711   123373887.593       -4757.215          18.000  
G32  20771875.630   109156975.844       -1468.403          36.000  
J01  36588893.936   192276004.973        -455.867          27.000    36588918.219   143582771.508        -340.791          25.000  
J02  38895051.916                       -2125.988          32.000    38895056.113   152632546.431       -1588.267          25.000  
> 2021  9 30 11 18 48.9999089  0  6
C36  22498959.295                       -2358.590          32.000  
G10                                                                  22856699.536    89694607.843       -3557.846          23.000  
G26  20569632.640   108094148.9531        378.363          17.000  
G32  20771942.184   109157342.629       -1469.376          35.000  
J01  36588773.119   192275357.258        -455.592          26.000    36588795.604   143582289.683        -342.171          26.000  
J02  38895244.982   204395900.1201      -2126.531          33.000    38895250.378   152633310.631       -1588.333          25.000  
> 2021  9 30 11 18 49.9999081  0  9
C06  36579674.718   190479954.3161       -792.418          22.000  
C16  36962130.450   192471548.8331       -743.138          22.000  
C19  21994539.297   114531352.3781      -3136.031          24.000  
C36  22499173.946   117159094.2061      -2359.223          28.000  
G10                                                                  22857363.876    89697224.715       -3557.503          23.000  
G25  23478648.970   123381039.6421      -4760.498          19.000  
G32  20771987.153   109157552.317       -1469.148          35.000  
J01  36588620.825   192274553.013        -456.928          28.000    36588643.010   143581688.934        -340.226          24.000  
J02  38895411.067   204396765.601       -2125.515          31.000    38895415.264   152633957.746       -1587.956          24.000  
> 2021  9 30 11 18 50.9999073  0  9
C06  36579587.179   190479496.806        -791.214          22.000  
C19  21994901.447   114533240.694       -3137.363          25.000  
C36  22499385.899   117160203.781       -2358.715          27.000  
G10  22858027.617   120119724.6831      -4764.780          24.000    22858030.315    89699840.588       -3557.535          24.000  
G25  23479312.410   123384541.321       -4765.023          19.000  
G32  20772027.924   109157762.506       -1469.153          32.000  
J01  36588469.729   192273750.039        -457.948          29.000    36588490.715   143581089.060        -342.030          23.000  
J02  38895575.953   204397631.132       -2126.329          30.000    38895580.750   152634604.907       -1587.461          22.000  
R04  19469342.455   104257444.8011      -2536.616          31.000  
> 2021  9 30 11 18 51.9999063  0  8
C06  36579439.681   190478726.243        -790.788          24.000  
C19  21995206.336   114534817.327       -3138.664          24.000  
C36  22499541.192   117161001.294       -2358.534          30.000  
G10  22858640.992   120122914.359       -4764.251          24.000    22858635.896    89702221.730       -3557.291          23.000  
G32  20772009.037   109157658.349       -1472.082          34.000  
J01  36588260.774   192272633.079        -458.539          29.000    36588277.263   143580253.325        -340.252          25.000  
J02  38895685.078   204398181.957       -2126.520          31.000    38895686.277   152635016.796       -1588.336          24.000  
R04  19469514.835   104258367.621       -2537.796          29.000  
> 2021  9 30 11 18 52.9999055  0  8
C06  36579352.441   190478266.845        -789.483          26.000  
C16  36961782.690   192469721.1251       -740.476          23.000  
C19  21995570.883   114536707.783       -3140.173          25.000  
C36  22499755.543   117162111.333       -2359.032          32.000  
G10  22859308.030   120126417.294       -4762.059          24.000    22859302.334    89704837.981       -3559.525          22.000  
G32  20772046.511   109157869.596       -1471.194          37.000  
J01  36588110.578   192271831.541        -458.329          29.000    36588122.270   143579652.315        -340.780          27.000  
J02  38895848.464   204399047.704       -2125.820          33.000    38895850.863   152635664.061       -1588.783          28.000  
> 2021  9 30 11 18 53.9999045  0  9
C06  36579206.143   190477494.659        -788.660          24.000  
C16  36961623.501   192468899.947        -740.029          22.000  
C19  21995875.772   114538286.707       -3139.609          22.000  
C36  22499909.337   117162909.854       -2360.324          33.000  
G10                                                                  22859910.613    89707220.290       -3558.805          23.000  
G32  20772023.128   109157766.413       -1473.282          36.000  
J01  36587899.224   192270713.922        -457.194          26.000    36587909.717   143578817.000        -342.532          27.000  
J02  38895951.593   204399598.421       -2125.808          33.000    38895955.490   152636076.271       -1588.434          28.000  
R04  19469915.958   104260515.1541      -2539.425          26.000  
> 2021  9 30 11 18 54.9999040  0  7
C06  36579207.042   190477503.053        -788.264          24.000  
C16  36961615.406   192468859.167        -741.354          23.000  
C36  22500215.125   117164488.752       -2358.273          31.000  
G10  22860667.589   120133580.5351      -4764.679          24.000    22860667.289    89710190.205       -3557.529          24.000  
G32  20772152.038   109158451.058       -1472.499          35.000  
J01  36587837.167   192270383.135        -457.332          29.000    36587847.960   143578571.300        -342.082          25.000  
J02  38896201.020   204400936.952       -2127.908          32.000    38896209.714   152637076.076       -1587.784          27.000  
> 2021  9 30 11 18 55.9999032  0 10
C06  36579118.603   190477041.564        -787.319          23.000  
C16  36961518.573   192468352.146        -742.505          24.000  
C19  21996687.910   114542539.1491      -3141.019          23.000  
C36  22500430.976                       -2361.867          30.000  
G10                                                                  22861335.227    89712806.928       -3558.370          24.000  
G25  23482612.226   123401909.8551      -4762.096          18.000  
G26  20567394.089   108082568.0641        369.263          21.000  
G32  20772196.707   109158663.686       -1474.098          31.000  
J01  36587684.873   192269580.381        -457.466          29.000    36587696.565   143577972.266        -342.870          25.000  
J02  38896369.804   204401802.873       -2126.081          32.000    38896374.300   152637723.406       -1589.101          26.000  
> 2021  9 30 11 18 56.9999022  0  9
C06  36578971.105   190476269.707        -790.890          24.000  
C16  36961359.983   192467533.848        -743.766          24.000  
C36  22500583.270   117166446.9761      -2360.435          31.000  
G10                                                                  22861942.606    89715187.776       -3557.116          23.000  
G25  23483216.907   123405094.958       -4759.029          19.000  
G26  20567022.047   108080623.935         367.370          21.000  
G32  20772175.722   109158561.584       -1472.689          35.000  
J01  36587474.119   192268463.092        -458.103          29.000    36587484.012   143577137.963        -340.793          25.000  
J02  38896474.431   204402353.473       -2124.951          32.000    38896479.528   152638135.571       -1587.942          25.000  
> 2021  9 30 11 18 57.9999014  0  8
C06  36578882.966   190475811.604        -792.250          24.000  
C19  21997348.353   114546011.3061      -3141.419          22.000  
C36  22500792.525   117167558.605       -2362.339          29.000  
G10                                                                  22862609.944    89717802.817       -3556.054          23.000  
G32  20772215.894   109158774.817       -1472.513          34.000  
J01  36587322.124   192267660.809        -457.914          26.000    36587332.017   143576538.409        -342.080          24.000  
J02  38896641.116   204403219.139       -2124.835          31.000    38896644.413   152638782.400       -1586.416          26.000  
R04  19470887.285   104265716.7981      -2542.251          31.000  
> 2021  9 30 11 18 58.9999007  0  7
C16  36961198.095   192466678.3201       -743.807          22.000  
C36  22501033.858   117168826.754       -2362.105          28.000  
E08  21801037.656   114565111.4511      -1456.602          29.000  
G10                                                                  22863306.962    89720536.518       -3558.208          23.000  
J01  36587197.710   192267015.511        -457.436          27.000    36587210.601   143576057.749        -343.163          24.000  
J02  38896833.582   204404242.583       -2126.105          29.000    38896838.679   152639545.954       -1588.111          25.000  
R04  19471149.304   104267119.742       -2543.376          29.000  
> 2021  9 30 11 18 59.9998999  0 11
C06  36578738.167   190475051.3481       -789.526          21.000  
C16  36961100.063   192466172.899        -742.982          23.000  
C19  21998097.234   114549951.5831      -3141.921          22.000  
C36  22501247.311   117169939.116       -2361.502          30.000  
E08  21801077.528   114565307.765       -1456.676          29.000  
G10  22863959.310   120150952.2981      -4767.202          24.000    22863974.900    89723153.186       -3558.381          23.000  
G26  20566120.571   108075906.8951        363.106          18.000  
G32  20772327.417   109159360.8281      -1476.081          30.000  
J01  36587045.116   192266212.868        -457.563          27.000    36587057.407   143575460.498        -344.411          25.000  
J02  38896994.571   204405108.534       -2127.489          30.000    38897003.565   152640193.727       -1589.938          26.000  
R04  19471381.643   104268364.039       -2544.181          29.000  
> 2021  9 30 11 19  0.9998989  0  9
C16  36960940.873   192465352.330        -740.317          22.000  
C36  22501401.704   117170739.454       -2361.326          32.000  
E08  21801054.444   114565189.201       -1457.466          29.000  
G10  22864567.589   120154143.786       -4766.403          25.000  
G25                                                                  23485851.783    92163528.9861      -3554.197          27.000  
G32  20772308.530   109159260.750       -1475.071          32.000  
J01  36586831.064   192265095.301        -458.259          27.000    36586844.255   143574627.312        -342.420          25.000  
J02  38897101.897   204405659.476       -2125.314          31.000    38897108.792   152640607.118       -1588.319          27.000  
R04  19471558.221   104269309.403       -2546.697          29.000  
> 2021  9 30 11 19  1.9998981  0 10
C06  36578497.433   190473820.0691       -789.635          22.000  
C36  22501615.756   117171851.882       -2361.347          33.000  
E08  21801090.719   114565385.836       -1456.373          29.000  
G10  22865234.028   120157649.003       -4764.585          26.000  
G25  23486506.830   123422420.8811      -4759.095          20.000    23486518.222    92166142.533       -3555.764          27.000  
G26  20565440.042   108072341.3411        366.315          17.000  
G32  20772343.906   109159476.048       -1476.375          32.000  
J01  36586677.270   192264292.600        -457.149          27.000    36586690.161   143574027.656        -341.088          25.000  
J02                                                                  38897273.078   152641254.410       -1590.137          27.000  
R04  19471791.459   104270558.833       -2547.493          29.000  
> 2021  9 30 11 19  2.9998973  0  9
C06  36578408.395   190473359.646        -788.098          21.000  
C36  22501830.107   117172965.202       -2363.679          32.000  
E08  21801128.193   114565582.083       -1457.325          29.000  
G25  23487170.570   123425920.387       -4760.582          20.000    23487184.061    92168755.927       -3554.397          28.000  
G26  20565127.658   108070715.056         366.397          17.000  
G32  20772383.778   109159691.898       -1476.424          32.000  
J01  36586523.477   192263489.812        -458.143          28.000    36586536.968   143573426.647        -339.668          25.000  
J02  38897433.167   204407391.3951      -2126.280          32.000    38897437.964   152641903.518       -1590.637          27.000  
R04  19472027.996   104271825.663       -2547.305          30.000  
> 2021  9 30 11 19  3.9998966  0 10
C06  36578349.036   190473055.248        -789.023          22.000  
C16  36960672.559   192463981.3311       -741.882          21.000  
C36  22502074.738                       -2361.010          32.000  
E08  21801194.747   114565936.484       -1457.210          29.000  
G10  22866593.287   120164815.1091      -4765.613          28.000  
G25                                                                  23487879.879    92171486.597       -3553.923          27.000  
G32  20772449.732   109160065.751       -1476.300          30.000  
J01  36586400.562   192262845.868        -459.169          28.000    36586415.252   143572945.435        -344.474          24.000  
J02  38897624.435   204408415.093       -2127.861          31.000    38897633.129   152642669.960       -1589.983          27.000  
R04  19472292.113   104273239.803       -2546.937          31.000  
> 2021  9 30 11 19  4.9998956  0 11
C06  36578201.538   190472282.177        -788.185          22.000  
C16  36960513.969   192463162.496        -742.838          21.000  
C36  22502231.229   117175008.3171      -2362.329          32.000  
E08  21801171.663   114565818.936       -1457.118          29.000  
G10  22867200.966   120168005.413       -4765.716          27.000  
G25  23488470.170   123432762.7281      -4760.220          20.000    23488486.359    92173865.643       -3556.167          26.000  
G29  23788352.266   125008634.5431       -553.566          26.000  
G32  20772431.745   109159967.504       -1476.305          29.000  
J01  36586188.309   192261729.021        -458.745          28.000    36586204.198   143572112.864        -344.894          24.000  
J02  38897731.161   204408966.112       -2127.509          31.000    38897737.457   152643082.618       -1589.303          27.000  
R04  19472467.491   104274178.424       -2547.515          29.000  
> 2021  9 30 11 19  5.9998948  0 11
C06  36578113.099   190471820.623        -786.390          22.000  
C16  36960417.435   192462656.016        -742.887          22.000  
C36  22502444.682   117176121.911       -2362.426          33.000  
E08  21801208.837   114566016.237       -1458.106          28.000  
G10  22867868.904   120171510.991       -4765.856          27.000  
G25  23489135.710   123436262.965       -4760.483          20.000    23489152.798    92176480.104       -3554.626          26.000  
G26  20564173.119   108065676.7661        366.863          18.000  
G32  20772476.114   109160184.688       -1476.698          29.000  
J01  36586035.715   192260927.420        -458.265          28.000    36586051.604   143571515.935        -341.968          25.000  
J02  38897894.848   204409832.339       -2125.587          31.000    38897902.043   152643729.369       -1586.758          27.000  
R04  19472699.231   104275419.422       -2549.393          26.000  
> 2021  9 30 11 19  6.9998940  0 11
C06  36578025.260   190471359.494        -788.842          24.000  
C16  36960320.303   192462149.152        -741.048          22.000  
C36  22502662.031   117177235.623       -2363.133          33.000  
E08  21801244.213   114566214.352       -1459.612          28.000  
G10  22868536.242   120175017.487       -4767.051          26.000  
G25  23489805.446   123439760.244       -4759.587          19.000    23489818.637    92179094.567       -3555.430          27.000  
G26  20563864.633   108064050.111         366.359          23.000  
G32  20772517.785   109160402.453       -1478.126          30.000  
J01  36585885.219   192260125.590        -458.287          28.000    36585897.810   143570917.923        -344.045          25.000  
J02  38898057.635   204410698.512       -2131.170          32.000    38898066.329   152644375.982       -1588.145          27.000  
R04  19472929.471   104276652.352       -2549.651          26.000  
> 2021  9 30 11 19  7.9998932  0 11
C06  36577938.020   190470900.320        -790.799          24.000  
C16  36960223.170   192461641.741        -741.278          24.000  
C36  22502872.486   117178349.810       -2363.333          33.000  
E08  21801281.987   114566413.678       -1460.148          27.000  
G10  22869204.479   120178523.853       -4766.759          25.000  
G25  23490471.585   123443260.403       -4761.401          19.000    23490484.776    92181708.997       -3555.683          27.000  
G26  20563555.547   108062424.022         364.771          23.000  
G29  23787942.750   125006517.3571       -555.473          26.000  
G32  20772564.853   109160620.919       -1480.236          29.000  
J01  36585731.125   192259324.682        -459.607          27.000    36585744.916   143570321.909        -344.860          25.000  
J02  38898220.422   204411564.418       -2124.078          29.000    38898231.515   152645022.501       -1587.301          27.000  
> 2021  9 30 11 19  8.9998925  0  8
C36  22503120.414   117179620.249       -2364.324          32.000  
E08  21801347.641   114566769.853       -1459.156          25.000  
G10  22869902.996   120182187.710       -4767.240          25.000  
G25                                                                  23491182.093    92184441.970       -3556.231          26.000  
G26  20563276.740   108060957.478         363.331          26.000  
G32  20772638.002   109160997.248       -1479.620          30.000  
J01  36585609.709   192258681.109        -458.591          24.000    36585622.301   143569842.539        -343.444          25.000  
J02  38898413.189   204412586.898       -2125.450          22.000    38898426.080   152645786.284       -1587.870          27.000  
> 2021  9 30 11 19  9.9998915  0 10
C06  36577734.461   190469829.6201       -791.922          19.000  
C19  22001615.299   114568265.3401      -3149.202          24.000  
C36  22503274.807   117180422.616       -2363.112          31.000  
G25  23491774.483   123450106.0531      -4762.659          20.000    23491789.173    92186822.221       -3556.499          26.000  
G26  20562905.896   108059018.943         363.420          27.000  
G29  23787644.756   125004949.6851       -557.313          26.000  
G32  20772622.713   109160901.452       -1478.048          33.000  
J01  36585398.656   192257565.067        -459.668          21.000    36585408.848   143569009.409        -343.798          25.000  
J02  38898519.016   204413137.659       -2126.310          25.000    38898530.708   152646197.837       -1587.960          27.000  
R04  19473625.290   104280378.2361      -2552.426          23.000  
> 2021  9 30 11 19 10.9998907  0 11
C06  36577646.622   190469373.263        -792.137          20.000  
C19  22001980.446   114570165.349       -3148.393          23.000  
C36  22503490.358   117181537.281       -2363.896          31.000  
G10  22871183.709   120188886.5451      -4767.656          25.000  
G25                                                                  23492455.911    92189437.610       -3557.586          26.000  
G26  20562595.611   108057394.321         363.954          25.000  
G29  23787508.650   125004245.824        -555.829          21.000  
G32  20772665.283   109161120.942       -1479.377          34.000  
J01                                                                  36585256.254   143568414.020        -345.306          25.000  
J02  38898683.302   204414004.637       -2127.918          26.000    38898695.294   152646845.142       -1588.896          27.000  
R04  19473864.224   104281657.709       -2552.875          27.000  
> 2021  9 30 11 19 11.9998899  0 10
C06  36577557.884   190468914.696        -789.677          20.000  
C19  22002347.991   114572064.938       -3148.707          26.000  
C36  22503706.208   117182652.287       -2363.534          30.000  
G10  22871855.544   120192394.149       -4769.270          23.000  
G25                                                                  23493122.949    92192055.444       -3558.726          26.000  
G26  20562287.125   108055770.180         362.323          25.000  
G32  20772704.256   109161341.095       -1479.767          34.000  
J01                                                                  36585103.360   143567816.471        -342.617          26.000  
J02  38898848.488   204414873.342       -2129.733          26.000    38898859.880   152647491.900       -1587.232          28.000  
R04  19474105.557   104282950.289       -2556.303          23.000  
> 2021  9 30 11 19 12.9998892  0  9
C36  22503952.938   117183923.754       -2365.839          29.000  
G10  22872555.259   120196061.726       -4771.486          24.000  
G25                                                                  23493819.967    92194790.491       -3558.148          26.000  
G26  20562008.318   108054305.152         361.599          25.000  
G29  23787269.116   125002998.2261       -561.253          20.000  
G32  20772778.005   109161719.380       -1481.492          34.000  
J01  36584974.749   192255320.2621       -460.911          24.000    36584981.045   143567334.635        -341.698          26.000  
J02  38899045.151   204415899.751       -2128.616          26.000    38899054.745   152648256.398       -1587.609          27.000  
R04  19474375.370   104284394.948       -2556.378          25.000  
> 2021  9 30 11 19 13.9998881  0 11
C16  36959559.130   192458115.4771       -740.841          17.000  
C19  22003027.621   114575551.8931      -3148.679          24.000  
C36  22504079.750   117184571.065       -2366.676          28.000  
G10  22873136.857   120199099.965       -4770.533          26.000  
G25  23494379.080   123463798.8761      -4763.468          20.000    23494395.568    92197054.431       -3557.465          26.000  
G26  20561608.095   108052211.146         360.411          25.000  
G29  23787044.272   125001828.194        -562.687          10.000  
G32  20772728.839   109161467.954       -1481.573          34.000  
J01  36584735.515   192254048.865        -462.819          25.000    36584738.513   143566382.061        -344.542          25.000  
J02  38899120.100   204416294.813       -2127.499          29.000    38899129.093   152648549.502       -1586.951          27.000  
R04  19474523.468   104285188.855       -2555.656          27.000  
> 2021  9 30 11 19 14.9998874  0 10
C06  36577269.483   190467386.4141       -793.831          22.000  
C16  36959491.976   192457762.496        -738.097          18.000  
C19  22003424.246   114577607.945       -3149.114          27.000  
G10  22873835.973   120202767.914       -4771.445          27.000  
G25                                                                  23495091.986    92199788.154       -3556.390          25.000  
G26  20561330.787   108050747.190         361.967          23.000  
G32  20772800.789   109161847.947       -1482.445          35.000  
J01  36584611.700   192253409.113        -462.577          25.000    36584616.797   143565903.536        -344.760          25.000  
J02  38899314.965   204417319.686       -2128.549          29.000    38899324.858   152649313.865       -1589.167          28.000  
R04  19474787.885   104286604.206       -2556.727          24.000  
> 2021  9 30 11 19 15.9998868  0  9
C19  22003848.153   114579820.378       -3149.049          28.000  
C36  22504593.294   117187271.7021      -2365.407          26.000  
G10  22874565.668   120206593.225       -4769.642          26.000  
G25  23495800.396   123471282.1891      -4765.199          19.000    23495817.184    92202638.419       -3555.644          25.000  
G26  20561084.357   108049440.727         360.569          23.000  
G32  20772908.715   109162385.543       -1483.173          35.000  
J01  36584516.966   192252926.954        -462.736          25.000    36584524.761   143565542.753        -345.629          25.000  
J02  38899540.409   204418503.074       -2128.715          27.000    38899550.002   152650198.196       -1590.738          26.000  
R04  19475086.478   104288202.870       -2557.794          22.000  
> 2021  9 30 11 19 16.9998858  0  7
C36  22504745.589   117188076.416       -2366.328          28.000  
G25  23496406.276   123474471.599       -4764.334          20.000    23496423.664    92205017.217       -3556.616          25.000  
G26  20560716.212   108047505.316         359.014          24.000  
G32  20772890.127   109162293.361       -1484.102          35.000  
J01                                                                  36584312.807   143564711.050        -343.346          26.000  
J02  38899646.835   204419056.267       -2128.285          29.000    38899655.529   152650611.595       -1588.399          27.000  
R04  19475269.352   104289182.986       -2559.567          24.000  
> 2021  9 30 11 19 17.9998851  0  9
C36  22504989.320   117189349.933       -2366.149          29.000  
G10  22875874.861   120213454.4241      -4769.950          27.000  
G25                                                                  23497120.082    92207749.715       -3556.513          25.000  
G26  20560439.504   108046043.572         358.590          26.000  
G29  23786573.298   124999333.1271       -546.582          16.000  
G32  20772962.677   109162674.328       -1483.601          35.000  
J01                                                                  36584189.593   143564231.055        -342.417          26.000  
J02  38899842.599   204420080.536       -2126.777          29.000    38899850.394   152651376.317       -1587.287          27.000  
R04  19475543.662   104290651.678       -2559.655          25.000  
> 2021  9 30 11 19 18.9998840  0 10
C16  36959050.082   192455420.5941       -742.660          20.000  
C19  22004820.380   114584899.9561      -3150.899          25.000  
C36  22505112.535   117189999.515       -2366.438          26.000  
G10  22876452.262   120216492.105       -4771.440          29.000  
G25  23497681.294   123481164.6821      -4764.530          20.000    23497698.082    92210013.417       -3558.987          24.000  
G26  20560043.178   108043952.420         356.866          24.000  
G32  20772911.413   109162425.564       -1484.323          35.000  
J01  36583941.664   192249898.9351       -459.316          27.000    36583948.559   143563281.104        -345.729          26.000  
J02  38899916.348   204420473.777       -2126.293          29.000    38899924.443   152651669.572       -1587.552          26.000  
R04  19475697.455   104291475.253       -2559.008          24.000  
> 2021  9 30 11 19 19.9998835  0 11
C19  22005276.364   114587270.970       -3151.598          25.000  
C36  22505416.524   117191585.589       -2366.196          27.000  
E08  21801714.887   114568680.0461      -1463.178          27.000  
G10  22877209.238   120220475.216       -4770.704          28.000  
G25                                                                  23498455.658    92212984.900       -3559.656          24.000  
G26  20559827.328   108042808.686         356.580          22.000  
G29  23786306.183   124997913.9281       -555.342          15.000  
G32  20773044.521   109163122.566       -1487.522          34.000  
J01  36583879.907   192249570.801        -459.627          27.000    36583887.102   143563037.882        -343.738          26.000  
J02  38900170.872   204421812.927       -2127.701          30.000    38900179.866   152652670.377       -1589.598          26.000  
R04  19476025.728   104293232.806       -2563.362          24.000  
> 2021  9 30 11 19 20.9998825  0  9
C16  36958887.295   192454563.2411       -742.712          20.000  
C36  22505570.618   117192390.816       -2366.348          26.000  
E08  21801693.302   114568568.659       -1465.399          28.000  
G10  22877815.718   120223670.592       -4771.049          30.000  
G25  23499053.444   123488330.8901      -4766.892          24.000    23499062.138    92215365.530       -3556.750          24.000  
G26  20559461.881   108040876.862         356.029          23.000  
G32  20773020.237   109163032.318       -1486.817          33.000  
J01  36583669.153   192248454.555        -458.636          25.000    36583676.048   143562206.464        -345.002          25.000  
J02  38900275.500   204422365.605       -2127.794          30.000    38900284.493   152653084.350       -1591.040          26.000  
> 2021  9 30 11 19 21.9998817  0 10
C06  36576624.630   190464018.5811       -791.379          23.000  
C36  22505783.770   117193508.305       -2366.456          28.000  
E08  21801730.776   114568773.529       -1465.277          28.000  
G10  22878483.056   120227181.236       -4770.807          31.000  
G25  23499714.186   123491836.781       -4766.242          22.000    23499729.176    92217981.498       -3557.177          25.000  
G26  20559150.996   108039259.786         357.311          24.000  
G32  20773064.906   109163257.672       -1486.047          33.000  
J01  36583513.860   192247653.791        -460.758          24.000    36583523.754   143561610.004        -345.646          25.000  
J02  38900440.386   204423233.291       -2128.342          27.000    38900449.379   152653734.454       -1588.812          26.000  
R04  19476451.133   104295510.9311      -2563.682          16.000  
> 2021  9 30 11 19 22.9998807  0 10
C06  36576477.432   190463248.801        -791.224          25.000  
C36  22505937.863   117194313.862       -2366.965          27.000  
E08  21801709.491   114568663.972       -1465.196          29.000  
G10  22879090.435   120230375.906       -4770.249          29.000  
G25                                                                  23500336.256    92220361.794       -3557.004          26.000  
G26  20558782.551   108037326.979         356.618          25.000  
G32  20773045.720   109163168.408       -1489.755          33.000  
J01                                                                  36583312.100   143560778.528        -343.808          25.000  
J02  38900544.413   204423785.980       -2128.218          29.000    38900555.206   152654147.453       -1589.240          26.000  
R04  19476635.506   104296498.657       -2564.662          21.000  
> 2021  9 30 11 19 23.9998802  0  9
C06  36576479.230   190463259.918        -792.860          25.000  
C36  22506243.352   117195900.480       -2368.361          28.000  
E08  21801838.401   114569341.171       -1465.331          28.000  
G25                                                                  23501092.932    92223332.528       -3559.016          25.000  
G26  20558565.801   108036183.303         355.785          24.000  
G29  23785777.649   124994958.6251       -562.921          21.000  
G32  20773182.725   109163867.330       -1486.610          32.000  
J01  36583236.253   192246217.2411       -464.270          21.000    36583250.343   143560534.878        -345.844          26.000  
J02  38900800.736   204425126.388       -2128.045          30.000    38900810.030   152655147.771       -1588.118          25.000  
> 2021  9 30 11 19 24.9998792  0 11
C06  36576330.833   190462490.012        -790.200          25.000  
C19  22007016.959   114596319.6771      -3152.121          20.000  
C36  22506397.445   117196706.936       -2366.245          27.000  
E08  21801817.416   114569231.022       -1465.460          28.000  
G25  23501697.314   123502195.9271      -4766.191          25.000    23501698.812    92225715.120       -3559.199          24.000  
G26  20558197.356   108034252.681         354.401          23.000  
G29  23785583.383   124993946.851        -564.089          26.000  
G32  20773161.140   109163778.888       -1489.046          31.000  
J01  36583023.400   192245105.890        -463.733          22.000    36583038.989   143559704.792        -346.414          26.000  
J02  38900906.563   204425678.444       -2127.165          30.000    38900915.257   152655561.641       -1589.168          24.000  
R04  19477146.652   104299235.6601      -2565.655          24.000  
> 2021  9 30 11 19 25.9998784  0 10
C06  36576243.294   190462030.796        -789.643          26.000  
C36  22506611.197   117197824.181       -2365.846          26.000  
E08  21801856.689   114569436.117       -1466.270          28.000  
G10  22881118.531   120241067.2691      -4771.550          27.000  
G25  23502364.652   123505701.295       -4765.178          25.000    23502366.450    92228333.639       -3560.640          25.000  
G26  20557890.668   108032639.826         351.061          21.000  
G32  20773207.608   109164005.970       -1486.842          31.000  
J01  36582870.206   192244308.986        -462.918          22.000    36582887.294   143559109.014        -345.702          25.000  
J02  38901072.648   204426544.906       -2126.326          31.000    38901080.143   152656210.065       -1590.028          25.000  
R04  19477391.582   104300547.167       -2566.732          23.000  
> 2021  9 30 11 19 26.9998776  0  8
C06  36576156.354   190461571.625        -789.067          24.000  
C36  22506826.748   117198941.804       -2367.277          26.000  
E08  21801899.259   114569642.372       -1468.275          28.000  
G10  22881784.071   120244579.027       -4772.078          27.000  
G25                                                                  23503033.788    92230953.499       -3561.820          25.000  
G26  20557581.283   108031028.680         350.727          24.000  
J01                                                                  36582735.599   143558513.015        -346.517          26.000  
J02  38901238.433   204427411.462       -2127.436          31.000    38901245.628   152656858.557       -1589.433          27.000  
> 2021  9 30 11 19 27.9998769  0 10
C06  36576097.295   190461267.755        -788.366          24.000  
C36  22507072.278   117200216.352       -2368.195          26.000  
E08  21801970.310   114570008.091       -1468.117          28.000  
G10  22882480.189   120248246.812       -4770.549          25.000  
G25                                                                  23503730.806    92233690.757       -3559.712          24.000  
G26  20557301.276   108029574.748         351.359          25.000  
G29  23785210.142   124992017.0551       -565.908          25.000  
G32  20773319.130   109164619.6041      -1490.976          30.000  
J01                                                                  36582613.284   143558035.886        -346.185          25.000  
J02  38901432.998   204428435.964       -2128.204          30.000    38901439.894   152657624.562       -1588.218          26.000  
> 2021  9 30 11 19 28.9998761  0 11
C06  36576008.556   190460806.847        -788.193          22.000  
C19  22008499.733   114604101.8761      -3158.890          16.000  
C36  22507288.129   117201335.689       -2368.312          25.000  
E08  21802011.382   114570216.526       -1468.121          29.000  
G10  22883146.327   120251757.430       -4771.265          25.000  
G25                                                                  23504396.645    92236309.904       -3559.361          23.000  
G26  20556994.589   108027962.584         351.485          24.000  
G29  23785073.436   124991321.734        -564.065          25.000  
G32  20773359.902   109164847.951       -1488.746          29.000  
J01                                                                  36582461.289   143557439.567        -344.978          25.000  
J02  38901597.584   204429303.959       -2128.974          30.000    38901604.480   152658271.250       -1587.954          25.000  
> 2021  9 30 11 19 29.9998751  0  9
C06  36575860.459   190460034.328        -789.013          23.000  
C36  22507443.721   117202141.470       -2367.273          25.000  
E08  21801992.794   114570109.728       -1469.184          29.000  
G10  22883750.709   120254954.492       -4773.758          25.000  
G25  23505004.624   123519569.0841      -4766.945          23.000    23505003.125    92238691.157       -3558.735          22.000  
G26  20556626.144   108026035.765         351.955          25.000  
G29  23784878.871   124990310.172        -564.993          26.000  
J01                                                                  36582249.036   143556607.795        -343.195          26.000  
J02  38901703.711   204429857.823       -2129.139          31.000    38901710.606   152658682.619       -1588.433          26.000  
> 2021  9 30 11 19 30.9998743  0 10
C06  36575771.720   190459575.386        -791.232          23.000  
C36  22507657.773   117203260.798       -2369.650          23.000  
E08  21802031.767   114570317.336       -1468.083          29.000  
G25  23505670.463   123523075.707       -4767.371          23.000    23505671.662    92241308.653       -3558.903          24.000  
G26  20556317.358   108024424.123         350.459          24.000  
G29  23784744.864   124989615.384        -565.901          26.000  
G32  20773388.682   109164991.6841      -1487.630          30.000  
J01  36582075.756   192240161.8791       -461.592          21.000  
J02  38901868.597   204430726.481       -2129.423          30.000    38901876.092   152659329.405       -1588.899          26.000  
R04  19478538.289   104306687.6881      -2567.513          17.000  
> 2021  9 30 11 19 31.9998733  0 10
C06  36575623.023   190458805.379        -791.693          23.000  
C36  22507811.266   117204068.828       -2368.521          24.000  
E08  21802011.981   114570209.776       -1469.810          30.000  
G10  22885027.525   120261663.4531      -4772.685          25.000  
G25  23506276.344   123526266.717       -4767.189          24.000    23506280.541    92243691.900       -3559.665          23.000  
G26  20555951.011   108022498.029         350.805          24.000  
G29  23784553.296   124988606.001        -565.539          26.000  
G32  20773379.389   109164906.752       -1490.170          30.000  
J01  36581863.503   192239049.039        -463.248          24.000  
J02  38901973.224   204431279.661       -2128.149          30.000    38901979.520   152659741.778       -1587.185          25.000  
> 2021  9 30 11 19 32.9998728  0  9
C06  36575627.520   190458815.611        -791.518          24.000  
E08  21802144.789   114570892.448       -1470.934          29.000  
G10  22885783.302   120265649.044       -4774.473          25.000  
G25                                                                  23507037.816    92246663.113       -3557.978          23.000  
G26  20555735.760   108021361.276         346.519          25.000  
G29  23784510.726   124988384.438        -567.196          27.000  
G32  20773513.396   109165610.080       -1493.717          30.000  
J01  36581802.045   192238724.590        -462.625          22.000  
J02  38902228.947   204432620.205       -2128.384          31.000    38902234.643   152660741.961       -1589.017          25.000  
> 2021  9 30 11 19 33.9998717  0  9
C36  22508240.569   117206306.8221      -2366.177          22.000  
E08  21802094.424   114570630.938       -1471.716          29.000  
G10  22886360.402   120268690.331       -4774.367          26.000  
G25  23507609.521   123533282.2001      -4769.197          23.000    23507614.617    92248928.004       -3559.161          24.000  
G26  20555340.934   108019280.804         347.168          24.000  
G29  23784289.779   124987219.971        -568.799          27.000  
G32  20773462.131   109165368.617       -1490.941          31.000  
J01  36581558.614   192237455.129        -464.027          22.000  
J02  38902304.195   204433015.484       -2128.426          31.000    38902310.191   152661035.568       -1587.133          25.000  
> 2021  9 30 11 19 34.9998710  0 10
C06  36575387.686   190457584.1501       -788.062          23.000  
E08  21802165.175   114570998.559       -1469.918          30.000  
G10  22887062.217   120272361.376       -4773.972          24.000  
G25                                                                  23508312.234    92251663.897       -3560.043          23.000  
G26  20555065.424   108017830.783         347.326          24.000  
G29  23784188.749   124986686.035        -568.842          26.000  
G32  20773535.880   109165757.660       -1492.717          31.000  
J01  36581437.798   192236815.905        -463.970          23.000  
J02  38902499.960   204434040.948       -2128.331          30.000    38902505.356   152661799.775       -1587.960          26.000  
R04  19479458.052   104311612.7201      -2573.465          17.000  
> 2021  9 30 11 19 35.9998700  0  8
C06  36575241.087   190456811.934        -790.151          24.000  
E08  21802144.789   114570893.195       -1470.429          29.000  
G25  23508915.117   123540142.3631      -4769.582          23.000    23508920.213    92254048.380       -3561.742          22.000  
G26  20554698.778   108015908.125         347.011          24.000  
G29  23783997.481   124985679.340        -569.416          26.000  
G32  20773526.587   109165674.590       -1492.283          32.000  
J02  38902604.587   204434593.554       -2128.332          31.000    38902611.183   152662212.826       -1590.201          25.000  
R04  19479635.229   104312561.151       -2574.683          18.000  
> 2021  9 30 11 19 36.9998694  0  6
C06  36575212.307   190456665.926        -790.989          23.000  
C19  22011343.864   114618904.7111      -3158.647          22.000  
E08  21802244.920   114571418.179       -1469.487          30.000  
G26  20554450.850   108014615.689         348.785          25.000  
G29  23783926.730   124985304.076        -570.068          26.000  
G32  20773631.814   109166222.220       -1493.770          32.000  
> 2021  9 30 11 19 37.9998687  0  7
C06  36575154.747   190456364.861        -792.480          24.000  
E08  21802312.673   114571784.672       -1471.199          30.000  
G25  23510340.630   123547633.9811      -4769.862          21.000  
G26  20554172.642   108013164.536         347.222          25.000  
G29  23783823.901   124984771.137        -570.117          26.000  
J01  36581016.289   192234585.5251       -463.865          23.000  
J02  38903022.798   204436802.6641      -2128.746          32.000  
> 2021  9 30 11 19 38.9998676  0  7
C06  36574976.371   190455441.212        -794.376          22.000  
E08  21802260.809   114571523.917       -1472.616          29.000  
G25  23510918.630   123550670.855       -4769.674          24.000  
G26  20553779.914   108011085.310         345.152          23.000  
G29  23783601.156   124983608.279        -570.547          26.000  
G32  20773653.399   109166373.5951      -1493.702          32.000  
J02  38903101.943                       -2129.178          32.000  
> 2021  9 30 11 19 39.9998669  0 10
C06  36574917.312   190455140.743        -791.499          24.000  
C16  36956924.554   192444320.5451       -742.319          25.000  
C19  22012421.318   114624484.8341      -3161.342          24.000  
E08  21802328.562   114571894.255       -1472.959          30.000  
G25  23511613.848   123554337.646       -4769.771          24.000  
G26  20553504.705   108009637.741         344.222          25.000  
G29  23783499.526   124983076.817        -571.394          27.000  
G32  20773733.144   109166765.004       -1493.077          32.000  
J01  36580653.241   192232680.2551       -465.614          24.000  
R04  19480619.748   104317833.7031      -2583.552          20.000  
> 2021  9 30 11 19 40.9998661  0 10
C06  36574832.171   190454684.366        -792.041          24.000  
C16  36956824.723   192443813.855        -741.950          25.000  
C19  22012788.564   114626397.514       -3162.171          23.000  
E08  21802367.835   114572106.824       -1473.005          31.000  
G10  22891064.446   120293297.3521      -4776.179          27.000  
G25  23512282.685   123557847.353       -4770.393          24.000  
G26  20553197.418   108008032.629         344.622          24.000  
G32  20773770.918   109166999.395       -1493.576          31.000  
J02  38903471.287   204439073.7741      -2129.559          32.000  
R04  19480859.582   104319117.508       -2582.279          20.000  
> 2021  9 30 11 19 41.9998653  0 11
C06  36574744.331   190454227.141        -791.532          23.000  
C16  36956725.192   192443306.689        -743.762          22.000  
C19  22013158.208   114628311.103       -3163.559          24.000  
E08  21802408.607   114572318.941       -1472.267          31.000  
G10  22891738.379   120296812.859       -4775.695          25.000  
G25  23512950.923   123561357.373       -4770.802          24.000  
G26  20552893.728   108006428.586         342.836          25.000  
G29  23783237.507   124981699.1681       -571.938          29.000  
G32  20773818.884   109167234.264       -1495.481          31.000  
J01  36580351.650   192231092.4441       -465.717          25.000  
J02  38903625.381   204439942.035       -2126.428          31.000  
> 2021  9 30 11 19 42.9998643  0 11
C06  36574595.035   190453456.023        -788.830          24.000  
C16  36956566.002   192442490.129        -745.170          21.000  
C19  22013465.195   114629913.466       -3163.418          24.000  
E08  21802387.921   114572216.267       -1473.529          30.000  
G10  22892349.057   120300012.872       -4775.327          26.000  
G25  23513558.003   123564552.769       -4771.026          24.000  
G26  20552529.780   108004509.774         342.420          24.000  
G29  23783045.340   124980696.173        -573.400          29.000  
J01  36580140.895   192229983.024        -466.514          24.000    36580159.782   143548407.2001       -349.997          25.000  
J02  38903729.708   204440495.128       -2128.651          31.000  
R04  19481287.385   104321408.4441      -2576.093          18.000  
> 2021  9 30 11 19 43.9998636  0 11
C06  36574538.074   190453151.730        -788.161          23.000  
C16  36956499.748   192442142.484        -745.685          23.000  
C19  22013865.718   114631984.167       -3163.491          25.000  
E08  21802457.173   114572586.519       -1473.385          30.000  
G10  22893050.271   120303685.670       -4776.487          26.000  
G25  23514255.620   123568220.793       -4770.454          23.000  
G26  20552253.371   108003064.899         342.159          25.000  
G29  23782943.411   124980166.768        -573.611          27.000  
G32  20773883.340   109167548.0421      -1495.048          32.000  
J01  36580018.880   192229346.104        -465.591          24.000    36580038.666   143547932.138        -346.616          26.000  
J02  38903930.569   204441521.088       -2130.121          31.000  
> 2021  9 30 11 19 44.9998628  0  9
C06  36574449.635   190452691.999        -789.979          23.000  
C19  22014235.962   114633898.736       -3164.023          25.000  
E08  21802497.045   114572799.843       -1473.916          31.000  
G25  23514927.754   123571731.153       -4770.951          21.000  
G26  20551949.681   108001462.446         341.522          25.000  
G29  23782810.903   124979479.284        -572.638          26.000  
J01  36579865.686   192228553.417        -468.808          22.000    36579886.671   143547337.539        -346.765          26.000  
J02  38904098.453   204442389.429       -2128.125          31.000  
R04  19481789.838   104324099.1291      -2579.698          18.000  
> 2021  9 30 11 19 45.9998620  0  9
C06  36574360.897   190452233.274        -790.179          22.000  
C16  36956308.480   192441133.6151       -744.548          21.000  
C19  22014603.807   114635814.346       -3163.469          25.000  
E08  21802537.517   114573013.797       -1474.641          30.000  
G25  23515594.193   123575241.887       -4771.355          24.000  
G32  20773970.280   109168021.1141      -1496.797          34.000  
J01  36579715.490   192227760.771        -466.781          24.000    36579734.677   143546744.021        -348.269          25.000  
J02  38904265.437   204443257.780       -2128.745          31.000  
R04  19482027.573   104325372.983       -2579.802          17.000  
> 2021  9 30 11 19 46.9998610  0 10
C06  36574213.699   190451462.479        -789.900          24.000  
C16  36956151.689   192440315.923        -743.234          23.000  
C19  22014912.893   114637417.486       -3164.603          25.000  
E08  21802517.731   114572913.770       -1476.191          30.000  
G25  23516201.572   123578437.872       -4771.475          22.000  
G26  20551273.350   107997670.1531        338.729          22.000  
G29  23782485.328   124977792.1481       -574.450          23.000  
G32  20773959.487   109167943.147       -1498.609          34.000  
J01                                                                  36579523.323   143545915.248        -347.784          25.000  
J02  38904366.168   204443811.045       -2128.327          31.000  
> 2021  9 30 11 19 47.9998602  0 11
C06  36574125.860   190451005.005        -791.999          25.000  
C16  36956053.956   192439809.136        -740.890          23.000  
C19  22015280.139   114639333.061       -3164.482          24.000  
E08  21802559.102   114573129.145       -1475.733          31.000  
E30  22499745.350   118236972.6491      -1696.330          25.000  
G25  23516871.309   123581948.389       -4771.504          21.000  
G26  20550967.861   107996069.924         340.465          23.000  
G29  23782354.019   124977105.081        -573.144          22.000  
G32  20774008.053   109168180.772       -1498.141          35.000  
J01                                                                  36579371.928   143545322.492        -348.284          25.000  
J02  38904538.848   204444679.441       -2128.365          32.000  
> 2021  9 30 11 19 48.9998595  0  9
C06  36574068.299   190450703.536        -792.718          23.000  
C16  36955986.203   192439456.190        -739.413          22.000  
C19  22015678.563   114641404.245       -3163.981          26.000  
E08  21802631.352   114573502.113       -1475.329          30.000  
E30  22499857.773   118237567.164       -1698.905          24.000  
G26  20550691.752   107994627.522         338.652          22.000  
G29  23782251.190   124976576.720        -574.980          24.000  
G32  20774083.901   109168576.416       -1500.001          35.000  
J02  38904732.214   204445705.311       -2128.868          31.000  
> 2021  9 30 11 19 49.9998587  0  6
C16  36955887.871   192438945.778        -739.008          21.000  
G25  23518241.061   123589128.9511      -4774.206          23.000  
G26  20550388.062   107993029.051         337.956          23.000  
G29  23782121.380   124975890.586        -575.222          25.000  
G32  20774131.568   109168814.985       -1498.715          37.000  
J01  36579081.429   192224426.5821       -467.790          24.000  
> 2021  9 30 11 19 50.9998579  0  6
C06  36573894.420   190449789.0101       -791.174          21.000  
G10  22897726.734   120328134.9421      -4772.817          17.000  
G26  20550083.773   107991430.275         338.467          22.000  
G32  20774180.434   109169055.046       -1499.020          36.000  
J02  38905053.592   204447442.8081      -2130.067          23.000  
R04  19483235.137   104331838.8351      -2589.280          20.000  
> 2021  9 30 11 19 51.9998569  0 10
C06  36573746.022   190449018.471        -790.509          23.000  
C16  36955626.752   192437615.0861       -741.142          24.000  
C19  22016721.841   114646847.6691      -3169.343          20.000  
C36  22512007.761   117225919.9931      -2372.239          32.000  
E08  21802696.707   114573833.5911      -1476.991          27.000  
G10  22898333.514   120331332.483       -4776.318          16.000  
G26  20549717.726   107989517.246         337.221          24.000  
G29  23781803.600   124974204.8921       -575.815          22.000  
J02  38905157.320   204447997.532       -2130.033          28.000  
R04  19483422.207   104332840.755       -2589.613          21.000  
> 2021  9 30 11 19 52.9998561  0  9
C06  36573658.183   190448560.686        -791.985          23.000  
C16  36955528.120   192437108.443        -743.313          26.000  
C19  22017089.386   114648767.934       -3167.904          26.000  
C36  22512220.914   117227042.785       -2371.744          26.000  
G25  23520188.512   123599351.3241      -4772.140          16.000  
G32  20774207.116   109169217.1101      -1498.842          24.000  
J01  36578572.081   192221723.1831       -465.551          21.000  
J02  38905319.508   204448867.043       -2130.060          28.000  
R04  19483663.540   104334133.147       -2590.553          24.000  
> 2021  9 30 11 19 53.9998554  0 11
C06  36573598.824   190448260.042        -793.079          24.000  
C16  36955459.768   192436758.943        -743.652          27.000  
C19  22017489.309   114650843.143       -3168.296          25.000  
C36  22512464.645   117228320.160       -2370.122          20.000  
E08  21802808.230   114574425.1561      -1477.608          25.000  
G25  23520878.635   123603018.440       -4768.957          17.000  
G26  20549140.926   107986480.1001        336.308          26.000  
G32  20774280.865   109169614.344       -1500.259          30.000  
J01  36578449.466   192221086.830        -467.488          29.000  
J02  38905511.675   204449893.445       -2129.067          29.000  
R04  19483938.750   104335607.076       -2591.167          24.000  
> 2021  9 30 11 19 54.9998546  0 11
C16  36955362.035   192436253.629        -744.434          27.000  
C19  22017856.555   114652761.874       -3167.486          23.000  
C36  22512679.896   117229442.103       -2370.503          20.000  
E08  21802849.601   114574640.716       -1476.632          22.000  
G25  23521540.876   123606527.988       -4770.116          17.000  
G26  20548839.934   107984884.082         335.408          27.000  
G29  23781436.954   124972312.5611       -579.137          18.000  
G32  20774323.135   109169855.088       -1501.585          31.000  
J01  36578298.671   192220293.788        -467.496          28.000  
J02  38905675.062   204450762.070       -2128.660          30.000  
R04  19484178.584   104336890.884       -2591.397          22.000  
> 2021  9 30 11 19 55.9998536  0 10
C06  36573362.588   190447034.2751       -792.825          23.000  
C16  36955204.045   192435436.470        -743.854          28.000  
C19  22018164.142   114654369.518       -3169.506          24.000  
C36  22512834.289   117230252.230       -2371.901          22.000  
G10  22900963.893   120345254.3901      -4781.337          16.000  
G26  20548478.684   107982973.832         334.080          27.000  
G32  20774306.947   109169781.294       -1502.059          32.000  
J01  36578089.715   192219186.269        -468.248          29.000  
J02  38905779.389   204451315.447       -2129.381          29.000  
R04  19484365.954   104337894.025       -2590.962          25.000  
> 2021  9 30 11 19 56.9998528  0 10
C06  36573273.250   190446577.744        -792.357          23.000  
C16  36955106.312   192434930.598        -742.543          27.000  
C19  22018533.486   114656289.538       -3169.091          23.000  
C36  22513049.540   117231375.136       -2372.544          24.000  
G25  23522808.099   123613239.4241      -4776.016          19.000  
G26  20548177.693   107981379.340         334.160          27.000  
G29  23781125.469   124970637.8361       -581.502          26.000  
G32  20774351.915   109170022.672       -1501.771          32.000  
J01  36577938.620   192218393.870        -468.391          27.000  
J02  38905943.975   204452184.489       -2129.197          29.000  
> 2021  9 30 11 19 57.9998523  0 10
C06  36573275.948   190446589.420        -792.367          23.000  
C16  36955098.518   192434891.354        -740.832          27.000  
C19  22018993.368   114658679.519       -3170.977          23.000  
C36  22513354.729   117232968.403       -2374.439          23.000  
G25  23523565.974   123617227.951       -4776.142          20.000  
G26  20547964.240   107980257.721         333.572          27.000  
G29  23781089.195   124970430.638        -580.741          24.000  
G32  20774494.017                       -1502.515          33.000  
J02  38906199.698   204453525.884       -2128.071          28.000  
R04  19484940.057   104340968.3901      -2594.029          27.000  
> 2021  9 30 11 19 58.9998513  0  9
C06  36573127.551   190445819.637        -791.345          24.000  
C16  36954942.626   192434071.894        -742.462          26.000  
C36  22513509.722   117233781.946       -2375.729          20.000  
G10  22902981.496   120355971.6051      -4778.596          24.000  
G25  23524171.255   123620428.229       -4775.123          21.000  
G26  20547601.491   107978348.960         332.480          27.000  
G32  20774482.325   109170629.8511      -1503.178          33.000  
J01  36577664.610   192216966.0001       -468.068          24.000  
R04  19485128.326   104341977.408       -2595.255          24.000  
> 2021  9 30 11 19 59.9998505  0  9
C16  36954845.193   192433565.377        -742.942          25.000  
C19  22019674.796   114662211.8601      -3171.187          24.000  
C36  22513724.373   117234909.041       -2377.830          23.000  
G26  20547297.502   107976756.434         331.595          28.000  
G29  23780772.913   124968756.7001       -579.010          24.000  
G32  20774529.093   109170873.185       -1503.802          36.000  
J01  36577513.814   192216173.561        -468.039          26.000  
J02  38906470.711   204454946.9831      -2128.726          29.000  
R04  19485371.458   104343278.857       -2596.498          22.000  
> 2021  9 30 11 20  0.9998495  0  9
C06  36572888.316   190444591.7831       -790.521          24.000  
C16  36954690.800   192432746.589        -741.610          26.000  
C19  22019984.782   114663822.854       -3172.476          26.000  
C36  22513879.066   117235726.186       -2377.827          23.000  
G26  20546934.153   107974849.157         331.478          27.000  
G29  23780584.344   124967760.432        -579.539          25.000  
G32  20774518.000   109170801.863       -1504.055          35.000    20774517.401    81523667.9991      -1125.291          23.000  
J02  38906575.338   204455500.575       -2129.228          29.000  
R04  19485563.025   104344305.199       -2597.852          25.000  
> 2021  9 30 11 20  1.9998490  0  8
C06  36572891.314   190444600.977        -790.796          22.000  
C16  36954684.804   192432708.362        -742.378          27.000  
C36  22514186.053   117237323.490       -2377.430          24.000  
G26  20546719.802   107973729.615         331.994          27.000  
G32  20774651.408   109171518.669       -1504.255          34.000    20774654.106    81524204.556       -1124.372          25.000  
J01  36577244.301   192214745.1801       -466.754          26.000  
J02  38906831.661   204456841.894       -2129.565          29.000  
R04  19485895.495   104346085.242       -2598.039          25.000  
> 2021  9 30 11 20  2.9998479  0  8
C06  36572712.038   190443674.175        -790.356          23.000  
C16  36954498.333   192431733.004        -741.533          24.000  
C36  22514312.866   117237982.260       -2374.047          22.000  
G10  22905588.191   120369732.0421      -4779.795          21.000  
G26  20546326.774   107971664.947         331.005          27.000  
G32  20774609.137   109171290.764       -1505.384          35.000    20774611.236    81524034.821       -1125.780          24.000  
J01  36577004.167   192213479.166        -467.869          26.000  
J02  38906908.408   204457238.681       -2129.995          30.000  
> 2021  9 30 11 20  3.9998472  0 11
C06  36572654.778   190443371.760        -789.978          22.000  
C16  36954432.079   192431382.054        -742.343          26.000  
C19  22021124.593   114669754.6371      -3174.693          25.000  
C36  22514559.895   117239263.380       -2372.457          21.000  
G10  22906284.909   120373409.357       -4778.082          19.000  
G25  23527480.064   123637846.6201      -4775.513          24.000  
G26  20546052.764   107970230.660         330.895          27.000  
G32                                                                  20774687.083    81524336.052       -1125.314          25.000  
J01  36576882.451   192212844.333        -468.141          27.000  
J02  38907105.971   204458265.711       -2129.919          29.000  
R04  19486315.504   104348334.6201      -2601.370          19.000  
> 2021  9 30 11 20  4.9998461  0  8
C16  36954244.709   192430407.537        -742.831          25.000  
C19  22021403.699   114671211.440       -3173.313          24.000  
G26  20545659.436   107968167.356         329.708          28.000  
G29  23780004.545   124964733.0651       -583.004          24.000  
G32  20774645.112   109171466.7051      -1505.273          36.000    20774643.913    81524166.266       -1123.542          24.000  
J01  36576640.519   192211579.529        -467.769          26.000  
J02  38907181.219   204458662.724       -2130.140          30.000  
R04  19486469.298   104349157.320       -2601.062          23.000  
> 2021  9 30 11 20  5.9998456  0  9
C06  36572477.900   190442455.7861       -792.154          23.000  
C16  36954238.413   192430370.318        -743.293          25.000  
C19  22021861.183   114673606.343       -3176.867          23.000  
C36  22514994.294   117241513.8761      -2375.513          23.000  
G25  23528830.630   123644876.7771      -4775.841          26.000  
G26  20545446.284   107967050.466         328.987          26.000  
G32  20774777.921   109172185.508       -1506.135          36.000    20774780.918    81524702.569       -1124.445          25.000  
J01  36576580.560   192211258.967        -466.880          27.000  
J02  38907439.340   204460005.227       -2130.265          29.000  
> 2021  9 30 11 20  6.9998446  0 10
C06  36572331.901   190441686.236        -792.546          22.000  
C16  36954081.022   192429553.150        -744.612          24.000  
C19  22022171.168   114675221.666       -3175.924          24.000  
C36  22515150.186   117242329.255       -2376.748          24.000  
G25  23529444.005   123648077.031       -4775.968          27.000  
G26  20545082.635   107965146.355         327.803          27.000  
G32  20774762.931   109172116.924       -1506.995          36.000  
J01  36576368.607   192210150.556        -467.500          27.000  
J02  38907544.567   204460559.997       -2129.517          29.000  
R04  19486984.641   104351916.9921      -2601.171          21.000  
> 2021  9 30 11 20  7.9998438  0  8
C06  36572241.064   190441229.924        -791.823          22.000  
C16  36953984.489   192429047.891        -743.384          25.000  
C19  22022539.913   114677148.807       -3176.177          24.000  
G26  20544780.145   107963558.414         327.114          26.000  
G29  23779639.698   124962864.6601       -586.997          23.000  
G32  20774807.900   109172364.184       -1507.349          35.000  
J01  36576220.509   192209358.274        -468.371          24.000  
J02  38907710.652   204461428.754       -2128.516          28.000  
> 2021  9 30 11 20  8.9998428  0 12
C06  36572093.566   190440461.896        -792.989          24.000  
C16  36953829.196   192428229.620        -743.993          26.000  
C19  22022848.399   114678763.710       -3176.078          24.000  
C36  22515522.228   117244273.0801      -2377.206          25.000  
G10  22909516.971   120390382.7821      -4782.987          19.000  
G25  23530728.316   123654793.6851      -4776.503          26.000  
G26  20544418.295   107961655.898         326.403          26.000  
G29  23779450.229   124961876.105        -587.097          24.000  
G32  20774794.409   109172296.707       -1507.020          34.000  
J01  36576008.256   192208251.758        -469.395          24.000  
J02  38907816.179   204461981.843       -2128.622          29.000  
R04  19487435.829   104354333.6321      -2602.855          26.000  
> 2021  9 30 11 20  9.9998420  0  8
C16  36953732.663   192427724.615        -744.487          26.000  
C19  22023217.444   114680691.597       -3177.955          25.000  
C36  22515739.278   117245402.389       -2378.056          25.000  
G26  20544115.205   107960069.864         323.732          27.000  
G29  23779321.618   124961202.929        -586.623          23.000  
G32  20774841.776   109172544.756       -1509.935          34.000  
J02  38907980.166   204462850.146       -2128.823          27.000  
R04  19487677.162   104355625.551       -2602.229          25.000  
> 2021  9 30 11 20 10.9998415  0  9
C06  36572010.824   190440015.4181       -791.153          24.000  
C16  36953725.168   192427687.861        -743.745          25.000  
C19  22023676.726   114683087.731       -3175.927          26.000  
C36  22516047.165   117247000.511       -2378.354          25.000  
G25  23532162.823   123662298.8131      -4776.738          26.000  
G26  20543905.050   107958957.767         324.113          26.000  
G29  23779284.144   124961002.452        -587.550          24.000  
J01  36575800.800   192207142.2681       -469.807          21.000  
J02  38908234.989   204464191.240       -2129.017          28.000  
> 2021  9 30 11 20 11.9998405  0  7
C06  36571864.525   190439244.389        -789.743          23.000  
C16  36953567.777   192426870.013        -742.636          25.000  
C19  22023987.311   114684702.604       -3176.755          25.000  
C36  22516203.057   117247816.444       -2376.291          25.000  
G10  22911562.156   120401107.7031      -4784.458          18.000  
G26  20543543.501   107957058.505         322.843          26.000  
J02  38908341.716   204464746.594       -2131.294          27.000  
> 2021  9 30 11 20 12.9998397  0  7
C06  36571775.187   190438784.863        -790.440          23.000  
C16  36953469.445   192426363.927        -742.969          25.000  
C19  22024356.355   114686630.266       -3177.259          24.000  
G10  22912233.091   120404631.465       -4786.322          17.000  
G26  20543244.907   107955473.648         324.608          22.000  
G32                                                                  20775022.251    81525644.8771      -1128.032          26.000  
J02  38908510.499   204465616.737       -2130.642          25.000  
> 2021  9 30 11 20 13.9998387  0  9
C06  36571627.989   190438013.975        -790.246          24.000  
C16  36953311.455   192425544.780        -741.233          26.000  
C19  22024667.240   114688246.638       -3177.386          25.000  
C36  22516577.198   117249760.2681      -2378.166          25.000  
G10  22912848.865   120407844.336       -4788.425          15.000  
G26  20542881.259   107953573.740         324.112          24.000  
G29  23778773.897   124958350.0151       -584.605          19.000  
G32                                                                  20775009.960    81525596.832       -1128.827          26.000  
J02  38908614.527   204466170.856       -2129.653          26.000  
> 2021  9 30 11 20 14.9998382  0  9
C06  36571630.387   190438024.365        -791.860          25.000  
C16  36953305.459   192425505.949        -743.671          26.000  
C19  22025130.120   114690643.678       -3179.000          25.000  
G10  22913610.637   120411845.023       -4789.048          11.000  
G26  20542670.805   107952463.215         321.811          25.000  
G29  23778730.427   124958146.404        -584.354          19.000  
G32                                                                  20775147.864    81526136.100       -1129.184          27.000  
J01  36575168.238   192203817.6851       -469.363          20.000  
J02  38908870.250   204467513.001       -2130.021          26.000  
> 2021  9 30 11 20 15.9998372  0  8
C06  36571479.891   190437255.296        -791.961          22.000  
C16  36953147.169   192424688.947        -745.184          27.000  
C19  22025441.304   114692261.814       -3179.460          26.000  
C36  22517040.377   117252175.9861      -2380.921          26.000  
G26  20542308.955   107950566.384         320.414          26.000  
G29  23778541.258   124957156.470        -586.245          20.000  
G32                                                                  20775136.173    81526089.547       -1131.082          26.000  
J02  38908974.877   204468067.397       -2129.490          27.000  
> 2021  9 30 11 20 16.9998364  0  9
C06  36571394.151   190436798.045        -791.685          23.000  
C16  36953050.336   192424185.666        -746.026          26.000  
C19  22025812.447   114694192.768       -3180.547          25.000  
C36  22517257.127   117253305.769       -2378.595          26.000  
G26  20542008.563   107948985.337         321.557          25.000  
G29  23778409.350   124956485.262        -591.754          19.000  
G32  20775182.940   109174296.2891      -1510.635          34.000    20775185.039    81526279.183       -1132.150          27.000  
J01  36574811.785   192201926.2241       -471.358          21.000  
J02  38909140.962   204468937.355       -2131.045          26.000  
> 2021  9 30 11 20 17.9998354  0  8
C06  36571248.152   190436028.349        -791.130          23.000  
C16  36952893.244   192423369.799        -744.465          26.000  
C19  22026122.733   114695812.125       -3180.562          25.000  
C36  22517415.717   117254123.736       -2378.893          26.000  
G25  23536715.471   123686133.6881      -4778.935          20.000  
G26  20541649.112   107947088.269         321.255          27.000  
G32  20775169.749   109174233.468       -1513.493          34.000    20775173.347    81526234.102       -1131.056          27.000  
J02  38909247.389   204469492.912       -2130.626          26.000  
> 2021  9 30 11 20 18.9998349  0  8
C16  36952886.049   192423332.929        -743.146          25.000  
C19  22026584.413   114698213.749       -3183.236          25.000  
C36  22517725.703   117255721.840       -2379.659          27.000  
G25  23537264.691   123689159.793       -4778.283          21.000  
G26  20541439.557   107945979.021         321.122          26.000  
G32  20775302.857   109174958.968       -1513.807          34.000    20775310.952    81526776.806       -1132.172          26.000  
J01  36574544.370   192200510.4601       -473.830          20.000  
J02  38909501.912   204470836.169       -2130.476          26.000  
> 2021  9 30 11 20 19.9998339  0  8
C06  36571100.054   190435269.5451       -791.776          24.000  
C16  36952727.759   192422514.451        -742.521          26.000  
C19  22026894.998   114699836.367       -3183.623          26.000  
C36  22517884.293   117256541.175       -2381.151          27.000  
G25  23537874.169   123692363.975       -4779.716          19.000  
G32  20775290.566   109174897.110       -1513.008          34.000    20775298.960    81526732.779       -1132.436          28.000  
J01  36574337.513   192199408.391        -472.951          21.000  
J02  38909607.739   204471391.821       -2131.899          25.000  
> 2021  9 30 11 20 20.9998331  0  8
C06  36571013.714   190434813.316        -792.514          23.000  
C16  36952631.526   192422008.215        -742.740          26.000  
C19  22027267.640   114701771.165       -3184.384          27.000  
C36  22518101.942   117257673.697       -2381.773          27.000  
G26  20540778.815   107942505.3391        317.683          25.000  
G32  20775340.631   109175150.637       -1514.583          34.000    20775346.627    81526922.041       -1129.781          27.000  
J01  36574190.615   192198622.622        -474.292          20.000  
J02  38909774.424   204472262.987       -2130.954          25.000  
> 2021  9 30 11 20 21.9998321  0  9
C06  36570868.315   190434045.327        -793.321          24.000  
C16  36952474.134   192421190.277        -744.204          25.000  
C19  22027581.223   114703394.053       -3183.727          27.000  
C36  22518258.734   117258494.306       -2382.116          26.000  
G26  20540420.863   107940612.082         317.990          23.000  
G29  23777691.047   124952673.1421       -592.353          20.000  
G32  20775327.440   109175089.401       -1515.362          35.000    20775334.335    81526874.793       -1128.976          28.000  
J01  36573983.158   192197520.412        -472.500          24.000  
J02  38909877.552   204472817.524       -2130.646          27.000  
> 2021  9 30 11 20 22.9998316  0  9
C06  36570872.212   190434057.572        -792.103          25.000  
C16  36952466.640   192421154.395        -745.219          24.000  
C19  22028045.601   114705797.145       -3182.860          28.000  
C36  22518566.921   117260095.550       -2381.234          26.000  
G26  20540211.907   107939510.808         309.701          12.000  
G29  23777653.873   124952477.892        -593.421          24.000  
G32  20775465.644   109175816.865       -1515.550          29.000    20775472.240    81527415.814       -1129.298          27.000  
J01  36573923.200   192197205.303        -472.175          23.000  
J02  38910133.575   204474160.517       -2131.131          27.000  
> 2021  9 30 11 20 23.9998305  0  9
C06  36570696.234   190433131.683        -790.418          24.000  
C16  36952281.068   192420181.895        -745.532          24.000  
C19  22028328.306   114707262.534       -3182.394          26.000  
C36  22518696.731   117260758.928       -2379.832          26.000  
G25  23540499.751   123706131.1411      -4780.315          26.000  
G26  20539824.575   107937467.139         312.298          14.000  
G32  20775424.273   109175599.023       -1514.534          29.000    20775431.168    81527252.690       -1131.683          29.000  
J01  36573683.366   192195943.763        -470.990          25.000  
J02  38910208.223   204474557.884       -2130.150          27.000  
> 2021  9 30 11 20 24.9998298  0  9
C06  36570641.672   190432829.596        -790.762          24.000  
C16  36952213.315   192419834.619        -744.716          25.000  
C19  22028729.428   114709353.600       -3185.646          25.000  
C36  22518944.359   117262046.113       -2380.403          25.000  
G25  23541200.666   123709807.895       -4779.904          26.000  
G26  20539554.762   107936050.654         315.266          18.000  
G32  20775502.219   109176011.375       -1515.600          30.000    20775510.313    81527560.829       -1132.707          28.000  
J01  36573563.149   192195312.377        -470.880          25.000  
J02  38910402.189   204475585.302       -2130.689          26.000  
> 2021  9 30 11 20 25.9998287  0  9
C06  36570467.492   190431903.030        -791.220          24.000  
C16  36952026.245   192418860.840        -742.777          26.000  
C36  22519073.570   117262709.455       -2379.920          27.000  
G10  22920738.203   120449291.6001      -4785.131          22.000  
G25  23541781.963   123712855.121       -4781.359          25.000  
G26  20539166.531   107934001.456         316.536          18.000  
G32  20775459.948   109175794.907       -1518.080          30.000    20775469.542    81527398.636       -1131.741          28.000  
J01  36573323.315   192194050.776        -471.856          26.000  
J02  38910477.737   204475983.182       -2130.243          28.000  
> 2021  9 30 11 20 26.9998282  0 10
C06  36570471.389   190431913.617        -792.056          25.000  
C16  36952019.349   192418822.603        -742.238          25.000  
C19  22029468.416   114713226.2681      -3185.113          24.000  
C36  22519382.956   117264309.428       -2382.024          26.000  
G10  22921500.575   120453288.551       -4784.549          23.000  
G25  23542542.537   123716848.892       -4781.494          25.000  
G26  20538956.976   107932897.787         315.452          19.000  
G32                                                                  20775608.645    81527942.733       -1134.103          27.000  
J01  36573263.656   192193736.084        -473.164          23.000  
J02  38910730.762   204477325.728       -2130.087          27.000  
> 2021  9 30 11 20 27.9998272  0  9
C06  36570324.491   190431144.880        -793.002          25.000  
C16  36951862.258   192418005.712        -744.947          25.000  
C19  22029779.901   114714850.761       -3185.884          25.000  
C36  22519541.846   117265130.514       -2382.313          27.000  
E08  21803950.739   114580449.0551      -1490.856          26.000  
G10  22922114.251   120456497.514       -4784.857          24.000  
G25  23543153.514   123720055.533       -4783.781          24.000  
G32  20775593.056   109176470.2251      -1518.850          27.000    20775597.553    81527899.960       -1133.782          28.000  
J01  36573050.204   192192633.586        -472.887          24.000  
> 2021  9 30 11 20 28.9998264  0  9
C06  36570236.352   190430689.211        -793.745          26.000  
C16  36951766.025   192417502.226        -745.595          26.000  
C19  22030151.643   114716789.163       -3188.201          22.000  
C36  22519760.394   117266264.314       -2383.162          27.000  
E08  21803992.410   114580680.329       -1491.449          26.000  
G26  20538298.032   107929430.4941        315.116          25.000  
G29  23776789.271   124947854.8381       -594.457          26.000  
G32  20775642.822   109176728.123       -1517.672          32.000    20775646.719    81528091.929       -1132.815          28.000  
J02  38910999.376   204478750.4721      -2129.821          27.000  
> 2021  9 30 11 20 29.9998254  0  9
C16  36951608.933   192416685.690        -743.555          27.000  
C36  22519917.486   117267085.807       -2382.357          30.000  
E08  21803975.022   114580595.054       -1489.148          25.000  
G25  23544432.429   123726786.4961      -4781.602          18.000  
G26  20537939.181   107927539.097         316.198          21.000  
G29  23776604.599   124946875.020        -596.293          21.000  
G32  20775632.929   109176669.328       -1517.059          26.000    20775635.627    81528048.114       -1134.929          27.000  
J01  36572682.659   192190739.5051       -470.303          24.000  
J02  38911103.703   204479304.437       -2128.412          29.000  
> 2021  9 30 11 20 30.9998246  0  6
C16  36951510.901   192416179.832        -742.497          27.000  
C36  22520133.636   117268219.118       -2382.176          32.000  
G10  22924077.891   120466755.4661      -4786.400          20.000  
G25  23545104.563   123730307.952       -4782.179          21.000  
G32                                                                  20775685.392    81528242.335       -1135.745          22.000  
J02  38911268.290   204480173.359       -2130.809          23.000  
> 2021  9 30 11 20 31.9998239  0  5
C06  36569944.654   190429173.6971       -797.198          19.000  
C19  22031240.490   114722451.4721      -3189.051          20.000  
C36  22520380.965   117269508.518       -2382.178          32.000  
G25  23545804.878   123733987.626       -4782.732          24.000  
G32  20775754.345   109177341.8271      -1519.292          34.000    20775763.638    81528553.617       -1135.617          15.000  
> 2021  9 30 11 20 32.9998231  0  6
C19  22031614.031   114724391.623       -3188.604          24.000  
C36  22520598.914   117270643.045       -2382.829          30.000  
G25  23546478.212   123737509.724       -4782.014          25.000  
G29  23776262.536   124945042.7611       -597.584          23.000  
G32  20775795.716                       -1521.133          34.000    20775813.703    81528748.742       -1134.314          17.000  
J01  36572261.150   192188528.8071       -471.974          21.000  
> 2021  9 30 11 20 33.9998221  0  7
C16  36951189.524   192414501.3471       -741.029          19.000  
C36  22520756.305   117271464.136       -2381.960          31.000  
G25  23547095.485   123740716.187       -4781.948          22.000  
G26  20536706.734   107921068.1691        312.146          25.000  
G32  20775786.422   109177487.8671      -1521.026          34.000    20775801.412    81528708.319       -1138.262          18.000  
J01  36572049.797   192187425.753        -472.473          25.000  
J02  38911744.960   204482627.8321      -2130.741          28.000  
> 2021  9 30 11 20 34.9998213  0  8
C19  22032299.057   114727962.0831      -3191.214          19.000  
C36  22520973.954   117272597.700       -2382.990          31.000  
G10  22926717.564   120480719.0921      -4796.435          17.000  
G25  23547767.020   123744237.697       -4782.315          22.000  
G26  20536406.042   107919497.110         308.197          25.000  
G32  20775839.486   109177748.082       -1520.774          34.000    20775849.978    81528904.121       -1136.029          18.000  
J01  36571898.102   192186637.794        -473.032          25.000  
J02  38911912.843   204483498.823       -2132.123          28.000  
> 2021  9 30 11 20 35.9998208  0  6
C19  22032758.938   114730371.365       -3191.194          18.000  
C36  22521281.241   117274200.136       -2382.690          30.000  
G25  23548532.390   123748232.599       -4783.245          21.000  
G32  20775981.287   109178481.320       -1520.932          35.000    20775987.583    81529450.768       -1136.464          17.000  
J01  36571836.644   192186323.910        -474.186          29.000  
J02  38912170.665   204484842.643       -2130.650          29.000  
> 2021  9 30 11 20 36.9998198  0  7
C19  22033073.121   114732002.322       -3191.490          18.000  
C36  22521438.932   117275021.989       -2383.781          30.000  
G25  23549144.267   123751440.375       -4783.354          22.000  
G29  23775734.302   124942243.3251       -600.938          24.000  
G32  20775967.497   109178427.233       -1521.212          35.000    20775975.591    81529411.139       -1138.822          17.000  
J01  36571627.689   192185222.200        -473.818          29.000  
J02  38912278.890   204485397.975       -2130.828          30.000  
> 2021  9 30 11 20 37.9998190  0  7
C19  22033446.063   114733946.957       -3194.183          17.000  
C36  22521655.682   117276157.104       -2383.984          28.000  
E30  22503654.044   118257562.2331      -1719.364          26.000  
G25  23549815.202   123754963.212       -4782.965          25.000  
G32                                                                  20776025.657    81529611.122       -1143.049          17.000  
J01  36571478.093   192184436.036        -474.206          27.000  
J02  38912444.975   204486267.892       -2130.713          29.000  
> 2021  9 30 11 20 38.9998180  0  8
C36  22521813.973   117276979.410       -2382.931          26.000  
E30  22503683.724   118257707.259       -1719.226          26.000  
G25  23550439.370   123758170.859       -4783.387          23.000  
G26  20535193.381   107913078.3841        306.492          18.000  
G29  23775427.614   124940608.1961       -600.355          26.000  
G32  20776010.367   109178635.6041      -1523.008          35.000    20776016.663    81529576.427       -1140.351          16.000  
J01  36571268.238   192183334.864        -474.658          28.000  
J02  38912550.202   204486822.541       -2129.583          29.000  
> 2021  9 30 11 20 39.9998175  0  8
C06  36569229.949   190425518.1991       -789.726          19.000  
C19  22034223.724   114737993.2001      -3195.236          16.000  
C36  22522122.159   117278581.961       -2383.396          26.000  
G26  20534987.424   107911983.275         309.652          17.000  
G29  23775394.637   124940420.412        -600.010          25.000  
G32  20776150.370   109179370.813       -1523.973          35.000    20776156.066    81530127.378       -1138.139          15.000  
J01  36571207.380   192183021.860        -475.295          28.000  
J02  38912804.726   204488164.757       -2130.765          29.000  
> 2021  9 30 11 20 40.9998164  0  8
C16  36950482.613   192410789.6991       -742.140          14.000  
C19  22034503.730   114739470.238       -3193.610          16.000  
C36  22522251.670   117279248.546       -2384.434          27.000  
G25  23551781.841   123765217.6721      -4784.166          24.000  
G29  23775177.887   124939288.153        -601.511          25.000  
G32  20776110.198   109179161.276       -1524.134          35.000    20776115.894    81529970.858       -1137.215          16.000  
J01  36570967.246   192181765.066        -475.472          28.000  
J02  38912881.773   204488562.695       -2131.166          29.000  
> 2021  9 30 11 20 41.9998157  0  8
C06  36568991.314   190424287.7601       -790.497          19.000  
C19  22034903.054   114741571.063       -3194.061          16.000  
C36  22522499.898   117280539.590       -2382.970          26.000  
G25  23552501.043   123769227.365       -4784.830          24.000  
G29  23775084.951   124938788.146        -603.649          24.000  
G32  20776190.243   109179582.346       -1524.806          35.000    20776195.039    81530284.441       -1137.470          16.000  
J01  36570846.430   192181136.961        -473.910          27.000  
J02  38913078.436   204489591.140       -2131.087          30.000  
> 2021  9 30 11 20 42.9998147  0  8
C06  36568842.917   190423517.830        -791.913          19.000  
C19  22035215.138   114743205.155       -3197.444          15.000  
C36  22522658.188   117281361.524       -2383.025          26.000  
G25  23553113.219   123772436.780       -4785.155          22.000  
G29  23774904.176   124937816.071        -604.035          24.000  
G32  20776180.949   109179531.235       -1525.778          35.000    20776184.247    81530245.550       -1137.844          15.000  
J01  36570635.376   192180035.570        -474.698          27.000    36570658.460   143511113.6391       -354.244          24.000  
J02  38913186.062   204490146.933       -2131.848          30.000  
> 2021  9 30 11 20 43.9998141  0  8
C19  22035647.439   114745464.749       -3196.817          16.000  
C36  22522935.496   117282808.623       -2384.273          26.000  
G25  23553842.314   123776276.623       -4785.112          21.000  
G26  20533748.382   107905397.8911        304.620          17.000  
G29  23774841.819   124937475.183        -604.882          24.000  
G32  20776293.072   109180110.758       -1525.268          35.000    20776294.870    81530677.923       -1138.414          16.000  
J01  36570545.738   192179565.394        -476.155          28.000    36570568.522   143510762.060        -353.471          24.000  
J02  38913412.705   204491333.231       -2131.341          29.000  
> 2021  9 30 11 20 44.9998131  0  7
C16  36950055.709   192408584.6151       -735.572          13.000  
C36  22523093.487   117283631.668       -2384.699          26.000  
G25  23554450.893   123779486.247       -4785.278          22.000  
G29  23774660.145   124936504.477        -604.383          26.000  
G32                                                                  20776284.977    81530639.839       -1138.690          16.000  
J01  36570336.483   192178466.086        -475.250          27.000    36570358.967   143509937.485        -352.038          24.000  
J02  38913518.532   204491889.367       -2132.140          30.000  
> 2021  9 30 11 20 45.9998124  0  6
C36  22523342.614   117284923.636       -2385.256          24.000  
G25  23555169.196   123783168.805       -4785.425          23.000  
G29  23774564.511   124936006.646        -606.394          26.000  
G32  20776366.221   109180483.7461      -1525.120          34.000    20776366.221    81530954.641       -1138.351          16.000  
J01  36570216.566   192177838.338        -475.695          26.000    36570240.249   143509467.645        -355.125          23.000  
J02  38913714.596   204492918.624       -2131.970          30.000  
> 2021  9 30 11 20 46.9998113  0  8
C06  36568430.103   190421381.8301       -792.412          20.000  
C36  22523468.827   117285592.392       -2386.875          26.000  
G25  23555774.776   123786220.915       -4785.571          23.000  
G26  20532731.186   107900079.4331        302.157          18.000  
G29  23774350.759   124934880.742        -606.951          26.000  
G32  20776327.848   109180276.862       -1526.658          34.000    20776326.648    81530799.264       -1139.059          17.000  
J01  36569977.032   192176581.347        -476.219          25.000    36570001.914   143508528.298        -356.286          25.000  
J02  38913789.844   204493317.160       -2130.392          31.000  
> 2021  9 30 11 20 47.9998108  0  7
C06  36568430.702   190421394.194        -793.118          20.000  
C36  22523777.913   117287198.572       -2386.468          27.000  
G25  23556564.130   123790579.180       -4788.338          16.000  
G29  23774318.082   124934700.999        -608.968          25.000  
G32  20776469.649   109181015.794       -1525.997          35.000    20776467.551    81531349.900       -1139.308          17.000  
J01  36569917.673   192176268.588        -474.728          29.000    36569942.556   143508295.791        -356.935          24.000  
J02  38914044.967   204494660.094       -2131.395          30.000  
> 2021  9 30 11 20 48.9998098  0 10
C06  36568281.705   190420625.074        -792.035          21.000  
C16  36949632.402   192406394.3311       -739.805          13.000  
C36  22523937.103   117288023.973       -2386.704          28.000  
G10                                                                  22936077.684    90006094.5781      -3575.644          24.000  
G25  23557187.099   123793790.599       -4785.614          15.000  
G26  20532167.276   107897117.1801        295.973          16.000  
G29  23774135.808   124933733.692        -606.264          24.000  
G32  20776458.857   109180967.550       -1528.004          35.000    20776458.557    81531313.015       -1139.835          17.000  
J01  36569708.717   192175168.850        -476.435          29.000  
J02  38914149.595   204495216.255       -2131.847          29.000  
> 2021  9 30 11 20 49.9998090  0  8
C06  36568193.866   190420168.715        -793.436          21.000  
C36  22524155.951   117289161.357       -2386.243          27.000  
G10  22936755.215   120533461.9151      -4791.259          26.000    22936750.718    90008730.166       -3577.829          22.000  
G25  23557860.433   123797313.788       -4781.561          17.000  
G26  20531868.083   107895562.978         289.353          16.000  
G32  20776509.222   109181234.704       -1528.212          35.000    20776509.522    81531511.877       -1140.180          16.000  
J01  36569560.320   192174384.477        -476.402          27.000  
J02  38914315.380   204496087.445       -2131.360          29.000  
> 2021  9 30 11 20 50.9998080  0  7
C06  36568045.769   190419400.285        -791.946          21.000  
C16  36949376.679   192405059.5021       -734.933          12.000  
C36  22524316.640   117289985.865       -2385.894          28.000  
G10                                                                  22937362.295    90011131.240       -3576.847          25.000  
G32  20776498.429   109181187.369       -1528.198          35.000    20776500.828    81531476.145       -1141.265          16.000  
J01  36569350.166   192173285.006        -475.755          28.000  
J02  38914421.207   204496643.901       -2131.845          28.000  
> 2021  9 30 11 20 51.9998072  0  7
C06  36567956.730   190418942.766        -790.904          21.000  
C36  22524536.688   117291123.073       -2385.947          27.000  
G10  22938041.924   120540209.5591      -4791.821          26.000    22938033.230    90013766.961       -3578.340          24.000  
G29  23773701.409   124931460.9181       -609.266          26.000  
G32  20776551.493   109181455.737       -1529.099          35.000    20776551.493    81531675.580       -1141.100          15.000  
J01  36569201.768   192172500.870        -476.706          28.000  
J02  38914586.692   204497515.675       -2131.704          29.000  
> 2021  9 30 11 20 52.9998067  0  6
C36  22524846.373   117292728.763       -2387.086          23.000  
G10                                                                  22938795.302    90016756.451       -3577.299          23.000  
G29  23773667.233   124931281.993        -608.817          28.000  
G32  20776693.894   109182197.081       -1529.622          36.000    20776691.796    81532229.241       -1142.508          15.000  
J01  36569142.110   192172190.008        -476.461          26.000  
J02  38914842.415   204498859.732       -2131.566          30.000  
> 2021  9 30 11 20 53.9998057  0  6
C36  22525004.364   117293554.803       -2387.432          26.000  
G10  22939412.875   120547429.7521      -4791.567          25.000    22939408.678    90019158.266       -3577.420          24.000  
G26  20530645.530   107889189.8121        296.509          17.000  
G29  23773483.160   124930315.442        -608.383          27.000  
G32  20776687.299   109182151.235       -1530.364          36.000    20776683.102    81532197.438       -1145.785          14.000  
J02  38914947.642   204499416.043       -2131.889          31.000  
> 2021  9 30 11 20 54.9998049  0  5
C36  22525223.812   117294692.722       -2386.513          26.000  
G25  23561234.896   123815124.8231      -4786.463          26.000  
G26  20530347.536   107887632.396         297.089          27.000  
G32  20776734.666   109182421.092       -1529.996          34.000    20776735.865    81532400.775       -1142.470          15.000  
J02  38915110.430   204500285.879       -2129.160          27.000  
> 2021  9 30 11 20 55.9998039  0  7
C06  36567582.889   190416967.6431       -796.671          21.000  
C36  22525380.903   117295518.041       -2386.735          28.000  
G25  23561848.572   123818337.065       -4788.968          25.000  
G29  23773168.978   124928700.4441       -612.473          25.000  
G32  20776724.173   109182375.993       -1530.712          33.000    20776728.070    81532366.704       -1142.467          16.000  
J01  36568574.303   192169204.7861       -474.542          24.000  
J02  38915214.158   204500839.958       -2129.707          28.000  
> 2021  9 30 11 20 56.9998034  0  7
C06  36567584.988   190416982.897        -795.377          20.000  
C36  22525688.191   117297124.303       -2386.976          30.000  
G25  23562618.139   123822339.538       -4791.687          24.000  
G29  23773135.401   124928524.380        -611.236          25.000  
G32  20776864.776   109183119.243       -1531.111          33.000    20776870.472    81532924.126       -1149.737          15.000  
J01  36568517.942   192168892.287        -474.356          28.000  
J02  38915468.981   204502182.718       -2130.552          30.000  
> 2021  9 30 11 20 57.9998024  0  5
C36  22525846.781   117297950.955       -2388.583          29.000  
G25  23563236.611   123825554.655       -4789.365          25.000  
G26  20529417.880   107882802.1871        294.743          20.000  
G29  23772951.928   124927561.110        -612.068          28.000  
G32  20776854.583   109183075.264       -1531.312          34.000    20776862.977    81532895.859       -1146.364          13.000  
> 2021  9 30 11 20 58.9998016  0  5
C36  22526065.329   117299090.452       -2388.285          26.000  
G10  22942724.382   120564927.6471      -4793.757          22.000  
G26  20529118.687   107881246.705         295.689          25.000  
G32                                                                  20776915.741    81533100.827       -1145.873          13.000  
J01  36568159.090   192167003.0141       -475.134          21.000  
> 2021  9 30 11 20 59.9998006  0  4
C36  22526222.721   117299917.632       -2388.316          25.000  
G26  20528758.936   107879376.628         294.065          24.000  
G32  20776897.753   109183303.9131      -1533.320          29.000    20776907.646    81533069.475       -1142.916          13.000  
J01  36567953.133   192165902.259        -474.938          28.000  
> 2021  9 30 11 21  0.9998001  0  7
C06  36567211.146   190415003.3791       -793.803          17.000  
C36  22526530.008   117301525.164       -2387.531          25.000  
G25  23565270.403   123836297.2521      -4788.283          24.000  
G26  20528554.178   107878295.272         292.870          26.000  
G29  23772609.865   124925772.7741       -611.567          18.000  
G32  20777038.655   109184049.248       -1534.506          30.000    20777049.148    81533603.250       -1142.504          10.000  
J01  36567894.374   192165590.421        -477.767          25.000  
> 2021  9 30 11 21  1.9997990  0  7
C06  36567033.669   190414078.569        -791.077          18.000  
C36  22526657.420   117302196.105       -2388.677          25.000  
E30  22505549.632   118267479.4771      -1731.397          25.000  
G25  23565849.302   123839352.618       -4788.221          24.000  
G26  20528169.244   107876269.812         292.268          27.000  
G32  20776997.284   109183849.813       -1531.811          31.000  
J01  36567657.537   192164335.993        -479.234          23.000  
> 2021  9 30 11 21  2.9997983  0  7
C36  22526905.948   117303492.654       -2390.288          27.000  
E30  22505667.451   118268108.038       -1732.605          27.000  
G25  23566546.020   123843038.482       -4789.297          24.000  
G26  20527902.729   107874874.276         293.119          24.000  
G29  23772296.582   124924160.9641       -613.819          20.000  
G32  20777079.127   109184281.197       -1534.670          30.000  
J01  36567538.520   192163711.322        -477.852          24.000  
> 2021  9 30 11 21  3.9997972  0  6
C19  22042876.334   114783052.7271      -3203.157          26.000  
C36  22527033.959   117304165.574       -2389.784          30.000  
G25  23567122.521   123846095.102       -4789.585          26.000  
G26  20527518.395   107872848.274         292.534          24.000  
G32  20777044.052   109184082.721       -1535.145          30.000  
J01  36567300.185   192162456.521        -478.656          25.000  
> 2021  9 30 11 21  4.9997967  0  7
C19  22043341.312   114785475.542       -3203.074          25.000  
C36  22527341.246   117305774.334       -2389.224          26.000  
G25  23567883.394   123850096.849       -4789.764          25.000  
G26  20527313.037   107871768.151         291.573          23.000  
G29  23772051.651   124922869.3771       -615.503          21.000  
G32  20777187.952   109184830.079       -1535.381          29.000  
J01  36567242.924   192162148.000        -479.367          25.000  
> 2021  9 30 11 21  5.9997957  0  5
C36  22527499.537   117306603.049       -2389.979          23.000  
G10  22947339.687   120589174.5721      -4794.824          26.000  
G26  20526961.380   107869901.898         290.615          22.000  
G29  23771854.088   124921906.517        -614.655          20.000  
J01  36567035.468   192161052.183        -480.211          26.000  
> 2021  9 30 11 21  6.9997949  0  5
C36  22527717.486   117307744.780       -2390.943          27.000  
G10  22948012.721   120592709.523       -4796.538          27.000  
G25  23569157.812   123856840.1611      -4789.674          24.000  
G26  20526668.183   107868351.365         289.803          23.000  
J01  36566887.670   192160272.070        -480.238          25.000  
> 2021  9 30 11 21  7.9997939  0  4
C36  22527877.275   117308572.971       -2388.493          19.000  
G25  23569767.589   123860054.531       -4789.811          26.000  
G32  20777220.929   109185025.4291      -1536.239          29.000  
J01  36566681.113   192159176.243        -479.553          26.000  
> 2021  9 30 11 21  8.9997934  0  5
C19  22044824.386   114793140.2461      -3204.939          24.000  
C36  22528186.661   117310182.810       -2391.638          20.000  
G26  20526108.471   107865409.1381        288.964          23.000  
G32  20777363.930   109185774.133       -1537.029          28.000  
J01  36566623.853   192158868.339        -479.260          26.000  
> 2021  9 30 11 21  9.9997924  0  8
C16  36947424.730   192394826.6011       -744.551          27.000  
C19  22045138.568   114794784.389       -3205.769          27.000  
C36  22528345.551   117311013.731       -2393.344          20.000  
G25  23571140.639   123867271.8681      -4791.075          19.000  
G26  20525752.917   107863545.161         287.982          23.000  
G29  23771333.948   124919174.6981       -617.950          19.000  
G32  20777357.335   109185736.037       -1537.841          31.000  
J01  36566417.896   192157771.019        -477.950          24.000  
> 2021  9 30 11 21 10.9997916  0  8
C16  36947329.096   192394321.508        -743.930          28.000  
C19  22045513.309   114796740.483       -3205.797          26.000  
G10  22950672.780   120606700.0821      -4794.892          19.000  
G26  20525459.120   107861997.517         286.672          24.000  
G29  23771217.628   124918532.536        -618.661          20.000  
G32  20777411.897   109186013.850       -1538.562          30.000  
J01  36566268.899   192156988.883        -478.613          26.000  
J02  38917613.697   204513440.4991      -2132.084          24.000  
> 2021  9 30 11 21 11.9997906  0  6
C16  36947172.605   192393504.532        -744.098          28.000  
C19  22045828.990   114798386.131       -3207.452          25.000  
G26  20525108.063   107860135.554         286.224          25.000  
G29  23771037.453   124917575.716        -618.603          21.000  
G32  20777405.901   109185977.032       -1538.883          31.000  
J02  38917717.425   204513997.246       -2132.352          24.000  
> 2021  9 30 11 21 12.9997901  0  8
C16  36947166.609   192393468.638        -745.278          27.000  
C19  22046294.268   114800813.968       -3210.043          25.000  
G10  22952047.328   120613927.9361      -4797.958          19.000  
G25  23573190.020   123878022.7021      -4792.045          23.000    23573201.112    92506334.5341      -3577.467          27.000  
G26  20524905.703   107859061.867         285.657          25.000  
G29  23771020.665   124917406.824        -618.950          21.000  
J01  36565996.687   192155585.5801       -481.639          27.000  
J02  38917970.150   204515342.062       -2133.122          24.000  
> 2021  9 30 11 21 13.9997893  0  9
C16  36947069.176   192392964.333        -744.143          27.000  
C19  22046669.908   114802775.113       -3210.356          25.000  
E08  21805724.611   114589716.3111      -1510.117          29.000  
G10  22952719.163   120617465.698       -4797.820          20.000  
G25  23573861.555   123881554.473       -4792.147          25.000    23573873.247    92508970.811       -3577.856          27.000  
G26  20524613.106   107857516.189         285.207          23.000  
G32  20777612.158                       -1541.283          32.000  
J01  36565848.890   192154807.378        -482.213          28.000  
J02  38918134.436   204516214.564       -2133.117          26.000  
> 2021  9 30 11 21 14.9997883  0  9
C16  36946911.186   192392147.600        -744.391          28.000  
C19  22046985.889   114804424.266       -3210.825          25.000  
E08  21805709.022   114589650.311       -1509.039          28.000  
G10  22953332.239   120620687.890       -4797.105          20.000  
G25  23574477.029   123884771.630       -4792.952          24.000    23574485.723    92511373.022       -3579.893          27.000  
G26  20524259.950   107855655.613         284.794          19.000  
G32  20777600.167   109187053.2281      -1540.382          32.000  
J01  36565639.934   192153713.732        -482.320          28.000  
J02  38918239.963   204516773.187       -2134.380          26.000  
> 2021  9 30 11 21 15.9997875  0 10
C06  36565714.583   190407228.9821       -793.827          26.000  
C16  36946811.655   192391642.835        -744.380          27.000  
C19  22047362.728   114806386.395       -3211.020          28.000  
E08  21805753.691   114589899.441       -1510.427          29.000  
G10  22954007.971   120624225.626       -4798.395          21.000  
G25  23575151.562   123888304.741       -4793.192          20.000    23575157.258    92514011.216       -3578.678          27.000  
G26  20523965.854   107854109.995         285.232          16.000  
G32  20777653.830   109187333.855       -1542.018          31.000  
J01  36565492.137   192152935.472        -482.697          27.000  
J02  38918406.648   204517646.780       -2133.701          26.000  
> 2021  9 30 11 21 16.9997865  0 11
C06  36565567.384   190406461.490        -793.361          25.000  
C16  36946654.263   192390825.040        -742.501          25.000  
C19  22047680.209   114808035.579       -3210.120          25.000  
C36  22529794.148   117318545.1761      -2391.367          25.000  
E08  21805739.001   114589834.039       -1512.134          29.000  
G10  22954621.047   120627448.943       -4799.249          25.000  
G25  23575763.738   123891522.312       -4793.030          21.000    23575769.734    92516414.300       -3579.419          27.000  
G26  20523614.497   107852250.116         283.884          23.000  
G32  20777651.131   109187299.760       -1541.844          33.000  
J01  36565283.181   192151842.379        -481.995          27.000  
J02  38918511.875   204518205.154       -2134.466          25.000  
> 2021  9 30 11 21 17.9997860  0  9
C06  36565570.382   190406473.176        -791.720          23.000  
C16  36946647.368   192390785.249        -741.513          22.000  
C19  22048143.988   114810464.952       -3210.137          26.000  
C36  22530105.632   117320156.493       -2392.492          25.000  
G25  23576527.010   123895527.448       -4793.152          20.000    23576531.807    92519405.578       -3579.532          27.000  
G29  23770387.503   124914051.2861       -622.883          17.000  
G32  20777795.332   109188053.980       -1541.878          33.000  
J01  36565222.923   192151536.622        -481.837          27.000  
J02  38918766.998   204519550.941       -2132.787          27.000  
> 2021  9 30 11 21 18.9997850  0  8
C06  36565422.585   190405704.048        -792.403          26.000  
C16  36946491.176   192389966.162        -743.088          29.000  
G25  23577139.186   123898744.599       -4792.778          24.000    23577144.882    92521808.214       -3579.528          27.000  
G26  20523050.888   107849324.6151        281.637          23.000    20523051.787    80536862.7441        210.166          29.000  
G29  23770212.125   124913099.420        -623.994          17.000  
G32  20777784.539   109188021.010       -1542.567          33.000  
J01                                                                  36565025.659   143489016.3231       -359.724          22.000  
J02  38918874.624   204520108.332       -2133.254          27.000  
> 2021  9 30 11 21 19.9997842  0  9
C06  36565335.645   190405247.518        -792.952          26.000  
C16  36946393.744   192389460.763        -744.689          26.000  
G10  22956676.723   120638221.2441      -4800.778          27.000  
G25  23577808.923   123902277.739       -4794.680          24.000    23577817.916    92524448.170       -3582.115          27.000  
G26  20522754.693   107847783.435         281.352          22.000    20522757.990    80535711.735         210.148          28.000  
G29  23770095.805   124912462.437        -623.243          17.000  
G32  20777839.101   109188303.649       -1542.054          35.000  
J01  36564865.271   192149662.6821       -480.202          27.000    36564877.262   143488435.099        -360.442          25.000  
J02  38919041.009   204520981.322       -2133.341          30.000  
> 2021  9 30 11 21 20.9997832  0  8
C06  36565189.046   190404479.727        -793.526          27.000  
C16  36946236.353   192388643.956        -743.856          27.000  
C19  22049145.594   114815727.9741      -3213.265          26.000  
G10  22957290.998   120641446.217       -4800.034          26.000  
G25                                                                  23578430.392    92526852.288       -3579.794          28.000  
G26  20522400.038   107845927.252         279.987          23.000    20522404.835    80534325.817         208.965          28.000  
J01  36564655.116   192148568.327        -480.636          25.000    36564668.906   143487619.376        -359.593          25.000  
J02  38919147.135   204521539.430       -2134.254          29.000  
> 2021  9 30 11 21 21.9997827  0  9
C06  36565192.644   190404493.154        -793.880          26.000  
C16  36946230.057   192388606.787        -743.294          27.000  
C19  22049613.870   114818160.273       -3213.048          27.000  
C36  22530959.741   117324581.1191      -2394.896          20.000  
G25                                                                  23579186.469    92529843.639       -3579.491          28.000  
G26  20522197.978   107844860.855         276.283          18.000    20522195.580    80533529.664         207.382          31.000  
G29  23769888.049   124911345.8741       -623.204          18.000  
J01  36564595.158   192148260.783        -480.644          22.000    36564605.051   143487391.688        -361.350          27.000  
J02  38919402.558   204522885.611       -2133.966          28.000  
> 2021  9 30 11 21 22.9997816  0  8
C06  36565014.867   190403569.964        -794.644          24.000  
C16  36946046.284   192387632.907        -742.946          23.000  
C36  22531088.952   117325258.362       -2394.453          20.000  
G10  22958636.766   120648524.9731      -4800.181          27.000  
G25  23579768.966   123912556.8351      -4791.673          19.000    23579768.966    92532128.868       -3580.155          27.000  
G26  20521812.445   107842849.397         279.419          19.000    20521812.145    80532027.747         207.376          28.000  
J01  36564356.523   192147008.073        -481.034          25.000    36564367.615   143486457.463        -360.303          26.000  
J02  38919480.205   204523286.838       -2134.147          28.000  
> 2021  9 30 11 21 23.9997809  0  6
C06  36564958.506   190403271.347        -793.712          24.000  
C16  36945978.831   192387283.218        -743.867          24.000  
G25  23580468.681   123916247.037       -4794.362          23.000    23580471.379    92534885.029       -3581.467          27.000  
G26  20521546.229   107841468.098         276.503          25.000    20521548.927    80530996.791         207.780          31.000  
J01                                                                  36564249.797   143485994.066        -361.794          25.000  
J02  38919672.072   204524317.299       -2133.240          21.000  
> 2021  9 30 11 21 24.9997798  0  9
C06  36564780.429   190402346.341        -791.579          24.000  
C16  36945791.461   192386310.285        -743.945          27.000  
C19  22050602.286   114823272.9131      -3212.963          26.000  
C36  22531468.189   117327235.9501      -2394.854          28.000  
G10  22959928.572   120655291.0801      -4800.837          22.000  
G25  23581050.578   123919308.587       -4795.153          24.000    23581054.476    92537172.064       -3581.016          27.000  
G26  20521161.296   107839459.468         276.134          22.000    20521166.692    80529495.300         208.124          27.000  
G32                                                                  20777991.696    81537301.3851      -1155.208          27.000  
J02  38919748.519   204524717.711       -2133.205          27.000  
> 2021  9 30 11 21 25.9997793  0 10
C06  36564782.528   190402357.900        -792.359          24.000  
C16  36945786.964   192386273.588        -743.896          24.000  
C19  22051067.863   114825706.206       -3215.341          26.000  
C36  22531778.474   117328850.613       -2395.863          28.000  
G10  22960694.542   120659303.701       -4800.194          24.000  
G25  23581811.751   123923315.860       -4795.368          25.000    23581817.148    92540165.348       -3581.249          29.000  
G26                                                                  20520963.732    80528699.361         207.257          27.000  
G32  20778146.688   109189851.6501      -1545.382          31.000    20778136.196    81537868.064       -1154.490          27.000  
J01  36563952.702   192144831.9721       -484.348          23.000  
J02  38920006.040   204526062.793       -2133.584          27.000  
> 2021  9 30 11 21 26.9997783  0  8
C06  36564634.131   190401589.783        -793.357          26.000  
C16  36945630.472   192385456.481        -744.897          26.000  
G10  22961307.917   120662526.762       -4800.377          24.000  
G25  23582423.028   123926536.181       -4796.994          26.000    23582429.624    92542570.382       -3580.848          28.000  
G26  20520601.883   107836541.2931        277.895          23.000    20520611.476    80527317.232         205.396          28.000  
G32  20778131.099   109189822.150       -1548.867          29.000    20778130.500    81537845.724       -1154.625          28.000  
J01  36563744.646   192143740.617        -484.201          22.000  
J02  38920113.966   204526621.476       -2134.887          27.000  
> 2021  9 30 11 21 27.9997775  0  8
C06  36564547.491   190401133.796        -793.107          21.000  
C16  36945533.040   192384952.935        -745.754          26.000  
G10  22961980.352   120666065.940       -4799.859          22.000  
G25                                                                  23583102.358    92545210.849       -3581.243          27.000  
G26                                                                  20520318.579    80526171.011         204.503          28.000  
G29  23769041.435   124906917.0951       -630.030          17.000  
G32  20778175.169   109190108.134       -1544.380          29.000    20778184.762    81538059.649       -1155.823          30.000  
J02  38920278.852   204527494.981       -2132.878          25.000  
> 2021  9 30 11 21 28.9997765  0  8
C06  36564401.192   190400364.700        -791.660          22.000  
C16  36945377.148   192384136.260        -744.293          23.000  
C19  22052079.363   114830981.6911      -3216.508          26.000  
C36  22532315.403   117331663.3411      -2396.050          18.000  
G25  23583699.844   123933292.7491      -4795.132          20.000    23583714.534    92547615.556       -3580.782          26.000  
G26                                                                  20519966.623    80524789.883         205.596          28.000  
G32  20778170.072   109190079.125       -1546.743          27.000    20778179.366    81538039.271       -1154.776          29.000  
J02  38920385.578   204528052.915       -2132.975          23.000  
> 2021  9 30 11 21 29.9997760  0  9
C06  36564402.391   190400375.737        -792.315          24.000  
C16  36945369.353   192384099.890        -744.398          24.000  
C19  22052548.239   114833417.347       -3216.642          28.000  
C36  22532625.088   117333279.227       -2396.378          25.000  
E08  21806337.687   114592962.1861      -1516.509          29.000  
G25  23584463.416   123937301.056       -4795.848          25.000    23584477.506    92550609.266       -3580.866          25.000  
G26  20519751.971   107832084.0571        276.515          22.000    20519763.663    80523995.534         207.544          26.000  
G32  20778314.572   109190838.640       -1547.684          29.000    20778323.566    81538606.928       -1156.136          27.000  
J02  38920642.200   204529398.752       -2134.154          27.000  
> 2021  9 30 11 21 30.9997750  0  9
C06  36564254.593   190399606.056        -790.649          23.000  
C19  22052866.618   114835071.897       -3215.902          26.000  
C36  22532785.177   117334115.525       -2397.593          21.000  
E08  21806329.592   114592901.533       -1513.473          26.000  
G10  22963966.777   120676525.1951      -4800.334          19.000  
G25  23585076.791   123940519.824       -4793.922          24.000    23585090.582    92553014.480       -3582.184          27.000  
G26  20519400.315   107830231.591         277.134          23.000    20519411.407    80522612.277         206.320          26.000  
G32  20778310.675   109190811.080       -1548.123          29.000    20778318.769    81538587.150       -1156.715          27.000  
J02  38920751.924   204529956.467       -2133.781          24.000  
> 2021  9 30 11 21 31.9997742  0 10
C06  36564167.354   190399149.248        -792.311          22.000  
C16  36945119.626   192382779.7741       -745.065          20.000  
C19  22053245.256   114837039.959       -3217.132          27.000  
C36  22533005.525   117335262.893       -2395.862          21.000  
G10  22964641.909   120680065.599       -4802.021          24.000  
G25  23585752.523   123944054.212       -4795.368          21.000    23585763.316    92555655.429       -3582.302          28.000  
G26  20519108.617   107828695.054         275.002          24.000    20519119.409    80521465.182         205.333          27.000  
G32  20778365.237   109191097.796       -1547.404          29.000    20778373.032    81538802.324       -1157.498          27.000  
J01  36562955.593   192139701.0671       -485.283          20.000  
J02  38920916.810   204530830.358       -2134.708          25.000  
> 2021  9 30 11 21 32.9997732  0 11
C06  36564018.057   190398381.380        -793.353          24.000  
C16  36944963.134   192381962.915        -744.209          22.000  
C19  22053563.036   114838696.595       -3217.997          27.000  
C36  22533166.513   117336097.971       -2396.188          29.000  
G10  22965257.083   120683292.070       -4801.242          24.000  
G25  23586365.899   123947274.392       -4796.483          24.000    23586376.092    92558060.058       -3580.980          28.000  
G26  20518760.558   107826845.378         273.676          23.000    20518767.753    80520084.399         203.646          26.000  
G29  23768330.327   124903287.5781       -629.040          25.000  
G32  20778361.340   109191070.216       -1548.559          28.000    20778368.535    81538782.260       -1156.189          27.000  
J01  36562747.836   192138609.877        -483.245          21.000  
J02  38921023.836   204531388.859       -2133.613          26.000  
> 2021  9 30 11 21 33.9997727  0  8
C06  36564018.956   190398393.033        -791.480          25.000  
C36  22533476.499   117337713.711       -2396.266          33.000  
G10  22966019.456   120687305.512       -4801.145          26.000  
G25                                                                  23587137.265    92561051.896       -3580.424          28.000  
G26  20518561.495   107825784.155         273.300          22.000    20518566.592    80519293.802         199.262          23.000  
G29  23768298.549   124903129.359        -629.880          24.000  
G32  20778503.741   109191831.312       -1549.337          30.000    20778515.433    81539351.828       -1159.767          25.000  
J01  36562692.375   192138304.620        -482.983          21.000  
> 2021  9 30 11 21 34.9997716  0  8
C19  22054323.609   114842632.4321      -3217.688          16.000  
C36  22533606.009   117338392.710       -2397.126          32.000  
G10  22966604.351   120690373.879       -4802.627          24.000  
G25  23587714.965   123954346.9431      -4796.941          26.000    23587720.361    92563337.713       -3580.813          25.000  
G26  20518179.860   107823778.457         272.007          23.000    20518186.755    80517799.926         200.849          19.000  
G29  23768085.097   124902026.467        -630.745          25.000  
G32                                                                  20778481.557    81539217.149       -1160.764          21.000  
J01  36562460.335   192137054.985        -483.982          21.000  
> 2021  9 30 11 21 35.9997709  0  5
C36  22533857.235   117339697.043       -2397.199          28.000  
G25                                                                  23588423.974    92566096.407       -3582.717          25.000  
G26  20517915.743   107822403.802         271.296          25.000    20517923.837    80516775.184         202.190          23.000  
G32                                                                  20778566.398    81539552.909       -1156.741          24.000  
J02  38921547.573   204534159.6681      -2130.431          18.000  
> 2021  9 30 11 21 36.9997701  0  8
C16  36944597.987   192380093.6701       -740.867          16.000  
C36  22534077.882   117340845.444       -2397.573          30.000  
G25  23589094.909   123961576.9191      -4796.789          24.000    23589096.708    92568737.899       -3583.995          24.000  
G26  20517623.145   107820872.455         270.659          29.000    20517629.141    80515629.544         205.950          20.000  
G29  23767869.247   124900925.4541       -631.389          24.000  
G32  20778616.763                       -1550.945          34.000    20778623.059    81539768.027       -1157.480          22.000  
J01  36562200.715   192135658.7051       -483.146          26.000  
J02  38921715.157   204535030.073       -2131.924          24.000  
> 2021  9 30 11 21 37.9997691  0  5
C36  22534238.271   117341681.239       -2397.068          31.000  
G25  23589710.383   123964798.781       -4797.578          25.000    23589709.784    92571145.206       -3584.884          24.000  
G26  20517271.189   107819026.783         269.528          28.000    20517276.285    80514247.781         206.111          19.000  
G32  20778613.765   109192343.5161      -1552.021          33.000    20778618.861    81539748.215       -1155.741          19.000  
J01  36561993.259   192134565.961        -483.146          22.000  
> 2021  9 30 11 21 38.9997686  0  5
C36  22534549.756   117343298.278       -2398.141          33.000  
G25                                                                  23590473.355    92574141.636       -3583.318          24.000  
G26  20517070.328   107817969.451         269.240          26.000    20517073.925    80513456.948         199.306          15.000  
G32  20778755.567   109193107.430       -1552.721          34.000    20778765.160    81540319.377       -1161.391          17.000  
J02  38922074.309   204536931.8811      -2132.173          19.000  
> 2021  9 30 11 21 39.9997676  0  9
C06  36563398.986   190395177.2371       -790.448          23.000  
C16  36944274.211   192378416.3791       -741.826          17.000  
C19  22056209.304   114852496.3171      -3225.052          18.000  
C36  22534712.543   117344135.510       -2398.490          33.000  
G10  22969960.827   120708083.7991      -4800.881          22.000  
G25  23590865.783   123970836.3621      -4801.733          15.000    23591085.531    92576546.788       -3579.925          23.000  
G26  20516718.371   107816125.185         268.416          22.000    20516721.369    80512083.505         192.216          14.000  
G32  20778750.171   109193084.178       -1551.458          34.000    20778761.563    81540305.004       -1162.531          17.000  
J01  36561725.244   192133171.1601       -484.726          24.000  
> 2021  9 30 11 21 40.9997668  0  6
C06  36563309.947   190394719.446        -791.513          25.000  
C19  22056587.942   114854472.109       -3224.479          24.000  
C36  22534935.589   117345284.558       -2397.939          35.000  
G25  23591546.013   123974376.435       -4799.161          20.000    23591757.366    92579186.319       -3581.480          23.000  
G26                                                                  20516432.969    80510950.592         192.764          13.000  
G32  20778807.431   109193376.564       -1553.091          36.000    20778818.223    81540525.118       -1161.122          17.000  
> 2021  9 30 11 21 41.9997658  0  8
C06  36563160.950   190393949.471        -791.454          25.000  
C19  22056907.221   114856135.205       -3224.280          23.000  
C36  22535097.776                       -2397.628          34.000  
G10  22971242.440   120714848.7351      -4800.525          22.000  
G25  23592164.484   123977599.554       -4798.379          21.000    23592370.442    92581591.963       -3584.220          22.000  
G26  20516070.820   107812754.2731        265.922          19.000    20516083.411    80509579.006         197.100          13.000  
G29  23767168.931   124897317.3851       -634.225          20.000  
G32  20778801.435   109193354.271       -1553.994          36.000    20778814.926    81540508.980       -1161.617          17.000  
