     3.04           OBSERVATION DATA    M: Mixed            RINEX VERSION / TYPE
Higeo_Hi1105        Huawei CBG          20220209 105759 UTC PGM / RUN BY / DATE 
************************************************************COMMENT             
* If you have any problem,                                 *COMMENT             
*     please contact with LBS Technology Group, thanks.    *COMMENT             
*                                                          *COMMENT             
* Version Higeo2RinexV1.1 2020.07.21                       *COMMENT             
* Fuction:  Convert Higeo Log to Rinex file                *COMMENT             
*                                                          *COMMENT             
* Note that the verision support B1C B2A signal            *COMMENT             
*     BDS: C1D L1D D1D S1D indicate BDS B1C                *COMMENT             
*     BDS: C5D L5D D5D S5D indicate BDS B2A                *COMMENT             
*     Reference: RINEX V3.04                               *COMMENT             
*                                                          *COMMENT             
* Copyright(C) Huawei Technologies Co., Ltd. 2019 - 2020   *COMMENT             
*     All rights reserved.                                 *COMMENT             
************************************************************COMMENT             
                                                            MARKER NAME         
                                                            MARKER NUMBER       
                                                            MARKER TYPE         
                                                            OBSERVER / AGENCY   
                                                            REC # / TYPE / VERS 
                                                            ANT # / TYPE        
        0.0000        0.0000        0.0000                  APPROX POSITION XYZ 
        0.0000        0.0000        0.0000                  ANTENNA: DELTA H/E/N
G    8 C1C L1C D1C S1C C5I L5I D5I S5I                      SYS / # / OBS TYPES 
R    4 C1C L1C D1C S1C                                      SYS / # / OBS TYPES 
E    8 C1C L1C D1C S1C C5I L5I D5I S5I                      SYS / # / OBS TYPES 
J    8 C1C L1C D1C S1C C5I L5I D5I S5I                      SYS / # / OBS TYPES 
C   12 C2I L2I D2I S2I C1D L1D D1D S1D C5D L5D D5D S5D      SYS / # / OBS TYPES 
  2022     1    25     3    14    4.0000000     GPS         TIME OF FIRST OBS   
  2022     1    25     3    32   56.0000000     GPS         TIME OF LAST OBS    
G                                                           SYS / PHASE SHIFT   
R                                                           SYS / PHASE SHIFT   
E                                                           SYS / PHASE SHIFT   
J                                                           SYS / PHASE SHIFT   
C                                                           SYS / PHASE SHIFT   
  0                                                         GLONASS SLOT / FRQ #
 C1C    0.000 C1P    0.000 C2C    0.000 C2P    0.000        GLONASS COD/PHS/BIS 
                                                            END OF HEADER       
> 2022  1 25  3 14  4.0000000  0  2                     
G31  20725432.343         339.117           0.407          24.000                                                                  
G32  20269401.900        5138.942         518.338          35.000                                                                  
> 2022  1 25  3 14  5.0000000  0  4                     
G31  20725442.827         315.170          -7.334          28.000                                                                  
G32  20269500.108        7869.560         519.702          35.000                                                                  
R 2  20207885.425                                          36.000  
C 6  36215140.733       -1783.720        -126.781          29.000                                                                                                                                  
> 2022  1 25  3 14  6.0000000  0  4                     
G31  20773877.335         275.683          -9.190          22.000                                                                  
G32  20269597.345       10599.251         517.866          29.000                                                                  
R 2  20207450.016                                          32.000  
C 6  36215112.564       -2474.739        -132.546          23.000                                                                                                                                  
> 2022  1 25  3 14  7.0000000  0  5                     
G25  21723974.909       29511.112        3143.176          19.000                                                                  
G31  20725441.579         231.804          -9.434          25.000                                                                  
G32  20269695.267       13325.937         518.010          34.000    20269696.848        3514.988         387.596          25.000  
R 2  20207007.766                                          26.000  
C 6  36215086.277       -3166.748        -132.874          24.000                                                                                                                                  
> 2022  1 25  3 14  9.0000000  0  8                     
G25  21807272.614       46036.912        3144.352          21.000                                                                  
G26  21344190.247      -25520.414       -2234.128          22.000                                                                  
G29  23057255.799       -1923.430       -1235.602          23.000                                                                  
G31  20725442.601         180.762          -7.834          29.000                                                                  
G32  20269794.311       16047.787         516.784          28.000    20269795.787        5036.579         387.804          25.000  
R 2  20206565.761                                          29.000  
R12  19681518.173                                          20.000  
C 6  36215062.973       -3865.975        -134.871          22.000                                                                                                                                  
> 2022  1 25  3 14 10.0000000  0  8                     
G25  21807866.026       62551.326        3141.845          25.000                                                                  
G26  21343767.053      -37272.630       -2234.786          19.000                                                                  
G29  23198419.671       -8415.386       -1235.488          19.000                                                                  
G31  20725440.594         142.783          -9.467          19.000                                                                  
G32  20269893.888       18770.255         518.984          33.000    20269893.724        6556.939         386.853          25.000  
R 2  20206124.480                                          22.000  
R12  19681498.795                                          23.000  
C 6  36215037.020       -4571.413        -136.201          23.000                                                                                                                                  
> 2022  1 25  3 14 11.0000000  0  7                     
G25  21808462.561       79053.737        3138.737          25.000                                                                  
G26  21343340.604      -49026.943       -2238.090          20.000                                                                  
G31  20725438.779          91.411          -8.604          18.000                                                                  
G32  20269990.997       21482.177         516.609          29.000    20269992.482        8076.027         387.024          20.000  
R 2  20205683.487                                          23.000  
R12  19681533.616                                          20.000  
C 6  36215010.145       -5288.104        -139.649          21.000                                                                                                                                  
> 2022  1 25  3 14 12.0000000  0 10                     
G25  21809061.601       95553.277        3140.166          21.000                                                                  
G26  21342907.250      -60790.244       -2238.162          21.000                                                                  
G29  23056546.579       -8522.992       -1235.893          17.000                                                                  
G31  20725437.139          44.161          -9.650          20.000                                                                  
G32  20270090.304       24204.325         516.085          36.000    20270090.812        9595.846         389.806          19.000  
R 1  19631790.464                                          20.000  
R 2  20205238.358                                          28.000  
R12  19681575.941                                          28.000  
E25  24955631.615       17231.581        2398.819          27.000                                                                  
C 6  36214982.768       -6015.958        -139.441          24.000                                                                                                                                  
> 2022  1 25  3 14 13.0000000  0 11                     
G25  21809659.786      112058.071        3141.035          20.000                                                                  
G26  21342486.228      -72549.434       -2236.856          23.000                                                                  
G29  23056311.525      -15014.715       -1234.364          18.000                                                                  
G31  20725434.866          -2.972          -8.673          23.000                                                                  
G32  20270189.070       26926.389         516.424          30.000    20270189.351       11114.574         387.858          22.000  
R 1  19632257.370                                          27.000  
R 2  20204797.173                                          23.000  
R12  19681623.990                                          25.000  
E25  24956086.490       29830.736        2397.180          21.000                                                                  
E30  25705868.696      -23964.543       -1991.204          20.000                                                                  
C 6  36214956.287       -6735.814        -138.378          17.000                                                                                                                                  
> 2022  1 25  3 14 14.0000000  0 12                     
G25  21810258.573      128555.935        3138.111          24.000                                                                  
G26  21342059.509      -84311.331       -2238.857          20.000                                                                  
G29  23056099.426      -21509.163       -1237.357          16.000                                                                  
G31  20725430.251         -54.707         -10.213          28.000                                                                  
G32  20270287.209       29645.867         515.623          29.000    20270288.056       12632.266         386.894          20.000  
R 1  19632699.157                                          27.000  
R 2  20204356.468                                          19.000  
R12  19681673.348                                          25.000  
E 8  24025760.804       -3101.417       -1289.035          28.000                                                                  
E25  24956542.394       42431.011        2397.785          22.000                                                                  
E30  25705490.420      -34415.585       -1988.287          17.000                                                                  
C 6  36214929.390       -7466.751        -142.698          17.000                                                                                                                                  
> 2022  1 25  3 14 15.0000000  0 12                     
G25  21810946.957      147532.716        3137.400          22.000    21810950.100       33329.848        2342.368          22.000  
G26  21341568.966      -97863.366       -2240.423          22.000                                                                  
G29  23055828.790      -28985.070       -1234.422          21.000                                                                  
G31  20725426.508        -112.769         -10.538          24.000                                                                  
G32  20270401.558       32774.566         517.233          23.000    20270402.092       14382.303         390.001          18.000  
R 1  19633215.789                                          21.000  
R 2  20203846.590                                          23.000  
R12  19681728.892                                          28.000  
E 8  24025478.354      -10915.933       -1292.639          30.000                                                                  
E25  24957067.018       56930.382        2396.593          23.000                                                                  
E30  25705053.669      -46444.187       -1987.848          24.000                                                                  
C 6  36214898.498       -8316.174        -141.194          20.000                                                                                                                                  
> 2022  1 25  3 14 16.0000000  0 15                     
G10  23322108.503      145026.806        3855.592          15.000                                                                  
G25  21811543.851      164024.559        3139.958          21.000    21811547.814       42524.209        2342.712          25.000  
G26  21341142.335     -109635.013       -2239.326          22.000                                                                  
G29  23055602.924      -35468.752       -1234.190          22.000                                                                  
G31  20725423.223        -167.478         -10.681          22.000                                                                  
G32  20270498.064       35496.043         517.808          22.000    20270501.809       15914.363         390.988          16.000  
R 1  19633664.713                                          19.000  
R 2  20203405.719                                          24.000  
R12  19681776.906                                          27.000  
E 8  24025232.271      -17705.244       -1292.547          30.000                                                                  
E25  24957522.861       69521.679        2396.137          24.000                                                                  
E30  25704673.386      -56890.508       -1987.792          25.000                                                                  
C 6  36214867.709       -9050.145        -141.106          20.000                                                                                                                                  
C24  23090970.719       -5032.881       -1125.772          28.000                                                                                                                                  
C26  21862046.507        2952.922         978.432          25.000                                                                                                                                  
> 2022  1 25  3 14 17.0000000  0 15                     
G10  23322842.024      165282.988        3852.180          14.000                                                                  
G25  21812139.819      180513.099        3136.159          22.000    21812144.943       51717.742        2342.979          25.000  
G26  21340716.157     -121401.257       -2238.834          22.000                                                                  
G29  23055361.482      -41954.721       -1234.567          24.000                                                                  
G31  20725420.641        -224.526         -11.665          21.000                                                                  
G32  20270596.778       38215.213         516.840          25.000                                                                  
R 1  19634113.637                                          20.000  
R 2  20202963.670                                          22.000  
R12  19681824.755                                          28.000  
E 8  24024985.866      -24496.685       -1292.848          29.000                                                                  
E25  24957978.748       82110.965        2395.376          24.000                                                                  
E30  25704296.348      -67339.136       -1988.710          25.000                                                                  
C 6  36214841.562       -9793.081        -144.630          20.000                                                                                                                                  
C24  23090755.523      -10896.230       -1129.075          28.000                                                                                                                                  
C26  21862235.537        8049.883         979.506          20.000                                                                                                                                  
> 2022  1 25  3 14 18.0000000  0 14                     
G25  21812736.364      196998.806        3137.751          21.000    21812742.037       60909.976        2342.858          22.000  
G26  21340287.963     -133168.081       -2240.114          23.000                                                                  
G29  23055124.404      -48444.408       -1235.362          25.000                                                                  
G31  20725419.794        -283.493         -12.053          23.000                                                                  
G32  20270695.850       40928.684         515.464          30.000                                                                  
R 1  19634563.320                                          20.000  
R 2  20202522.258                                          18.000  
R12  19681876.408                                          29.000  
E 8  24024739.980      -31291.447       -1293.298          25.000                                                                  
E25  24958433.850       94696.852        2394.824          29.000                                                                  
E30  25703917.427      -77791.057       -1989.238          26.000                                                                  
C 6  36214813.487      -10540.786        -142.191          19.000                                                                                                                                  
C24  23090538.965      -16772.964       -1126.719          25.000                                                                                                                                  
C26  21862424.357       13140.925         977.828          22.000                                                                                                                                  
> 2022  1 25  3 14 19.0000000  0 14                     
G25  21813333.641      213492.639        3138.128          18.000    21813338.886       70097.894        2335.933          21.000  
G26  21339863.068     -144937.812       -2240.365          24.000                                                                  
G29  23054890.545      -54940.329       -1237.050          24.000                                                                  
G31  20725419.314        -351.000         -13.013          20.000                                                                  
G32  20270792.906       43640.456         516.305          31.000    20270791.189       20488.677         385.811          20.000  
R 1  19635013.030                                          21.000  
R 2  20202081.596                                          22.000  
R12  19681925.015                                          28.000  
E 2  23174605.970         920.189         147.831          23.000                                                                  
E 8  24024493.592      -38089.195       -1293.647          24.000                                                                  
E25  24958889.667      107279.770        2394.164          28.000                                                                  
E30  25703539.159      -88245.981       -1989.776          25.000                                                                  
C 6  36214785.820      -11292.326        -146.394          17.000                                                                                                                                  
C24  23090323.063      -22636.823       -1126.388          25.000                                                                                                                                  
> 2022  1 25  3 14 20.0000000  0 18                     
G25  21813930.282      229971.526           0.004          23.000    21813935.361       79281.174        2341.683          21.000  
G26  21339435.799     -156710.483       -2239.977          24.000                                                                  
G29  23054653.867      -61444.408       -1237.625          23.000                                                                  
G31  20725418.412        -414.879         -12.744          21.000                                                                  
G32  20270891.847       46355.398         516.938          28.000    20270889.632       22004.164         386.126          19.000  
R 1  19635462.530                                          20.000  
R 2  20201641.545                                          25.000  
R12  19681973.622                                          28.000  
E 2  23174631.291        1695.670         146.918          23.000                                                                  
E 8  24024247.003      -44890.567       -1294.595          25.000                                                                  
E25  24959344.646      119858.283        2393.291          29.000                                                                  
E30  25703160.988      -98704.511       -1990.909          24.000                                                                  
J 2  38393891.095       62763.773         965.597          25.000                                                                  
C 6  36214757.212      -12056.993        -145.266          16.000                                                                                                                                  
C 9  37066699.024        -931.960        -226.264          26.000                                                                                                                                  
C24  23090107.308      -28505.045       -1128.560          26.000                                                                                                                                  
C26  21862794.799        6533.265         976.816          20.000                                                                                                                                  
C33  24765525.863      -12607.470       -2341.810          23.000                                                                                                                                  
> 2022  1 25  3 14 21.0000000  0 19                     
G25  21814526.669      246451.796        3135.691          23.000    21814532.176       88468.359        2343.436          21.000  
G26  21339008.618     -168484.980       -2242.987          25.000                                                                  
G29  23054418.152      -67946.057       -1236.817          21.000                                                                  
G31  20725415.812        -483.006         -13.636          18.000                                                                  
G32  20270991.215       49060.716         513.776          31.000    20270989.760       23516.518         385.465          20.000  
R 1  19635912.405                                          21.000  
R 2  20201201.852                                          27.000  
R12  19682023.364                                          29.000  
E 2  23174659.167        2470.787         148.314          21.000                                                                  
E 8  24024000.955      -51695.537       -1295.228          24.000                                                                  
E25  24959799.933      132432.825        2392.295          29.000                                                                  
E30  25702782.137     -109166.481       -1990.839          23.000                                                                  
J 2  38394074.872       67839.352         964.781          25.000                                                                  
C 6  36214729.495      -12810.605        -143.874          17.000                                                                                                                                  
C 9  37066653.776       -2123.464        -228.607          28.000                                                                                                                                  
C14  22810794.791       -2800.636       -1179.308          23.000                                                                                                                                  
C24  23089890.742      -34390.788       -1130.986          25.000                                                                                                                                  
C26  21862981.298       11622.778         973.469          17.000                                                                                                                                  
C33  24765081.808      -24811.075       -2343.311          21.000                                                                                                                                  
> 2022  1 25  3 14 22.0000000  0 16                     
G25  21815122.925      262928.747        3135.528          22.000    21815128.720       97654.500        2340.941          22.000  
G26  21338581.131     -180269.404       -2240.946          27.000                                                                  
G29  23054183.751      -74446.202       -1236.255          22.000                                                                  
G31  20725413.098        -557.851         -13.744          15.000                                                                  
G32  20271087.678       51772.234         518.275          31.000    20271087.549       25025.832         384.548          22.000  
R 1  19636362.569                                          20.000  
R 2  20200760.196                                          29.000  
R12  19682072.739                                          27.000  
E 8  24023754.322      -58504.078       -1295.760          26.000                                                                  
E25  24960255.785      145003.516        2391.712          30.000                                                                  
E30  25702403.616     -119631.723       -1991.657          23.000                                                                  
J 2  38394258.535       72905.066         963.198          27.000                                                                  
C 6  36214698.647      -13568.592        -146.327          19.000                                                                                                                                  
C 9  37066609.646       -3314.552        -228.222          27.000                                                                                                                                  
C24  23089673.583      -40276.955       -1130.620          23.000                                                                                                                                  
C26  21863169.237       16718.600         981.805          15.000                                                                                                                                  
> 2022  1 25  3 14 23.0000000  0 17                     
G25  21815720.045      279402.627        3133.849          20.000    21815725.683      106838.061        2340.908          24.000  
G26  21338153.610     -192054.146       -2241.483          28.000                                                                  
G29  23053948.051      -80947.332       -1237.318          21.000                                                                  
G31  20725413.653        -631.029         -14.332          15.000                                                                  
G32  20271185.074       54477.233         515.968          34.000    20271185.634       26534.358         384.265          24.000  
R 1  19636812.113                                          19.000  
R 2  20200319.342                                          30.000  
R12  19682122.210                                          29.000  
E 8  24023508.117      -65316.230       -1296.599          26.000                                                                  
E25  24960710.930      157569.803        2390.865          29.000                                                                  
E30  25702024.450     -130100.911       -1992.640          24.000                                                                  
J 2  38394442.094       77962.766         963.788          28.000                                                                  
C 6  36214668.770      -14338.417        -149.137          22.000                                                                                                                                  
C 9  37066565.638       -4504.153        -228.636          28.000                                                                                                                                  
C14  22810334.027       -7222.683       -1182.061          25.000                                                                                                                                  
C24  23089457.078      -46166.059       -1130.847          22.000                                                                                                                                  
C26  21863358.048       21837.373         981.473          17.000                                                                                                                                  
> 2022  1 25  3 14 24.0000000  0 17                     
G25  21816317.078      295877.359        3135.788          20.000    21816322.297      116020.601        2340.171          23.000  
G26  21337728.470     -203840.341       -2243.044          27.000                                                                  
G29  23053713.084      -87449.768       -1238.859          22.000                                                                  
G31  20725410.686        -714.203         -15.994          15.000                                                                  
G32  20271282.951       57181.010         513.795          33.000    20271284.078       28041.314         384.454          25.000  
R 1  19637261.456                                          19.000  
R 2  20199880.696                                          28.000  
R12  19682171.385                                          29.000  
E 8  24023261.284      -72131.448       -1296.961          27.000                                                                  
E25  24961166.006      170132.892        2390.523          28.000                                                                  
E30  25701645.615     -140572.746       -1993.238          24.000                                                                  
J 2  38394625.382       83019.433         958.723          28.000                                                                  
C 6  36214639.615      -15111.405        -147.917          24.000                                                                                                                                  
C 9  37066521.027       -5695.590        -230.380          28.000                                                                                                                                  
C14  22810113.509      -13377.103       -1182.589          24.000                                                                                                                                  
C24  23089240.329      -52043.357       -1127.584          19.000                                                                                                                                  
C26  21863549.941       26943.009         977.278          22.000                                                                                                                                  
> 2022  1 25  3 14 25.0000000  0 20                     
G25  21816914.250      312347.401        3133.990          20.000    21816918.772      125202.456        2340.924          23.000  
G26  21337302.156     -215624.893       -2242.533          26.000                                                                  
G29  23053477.419      -93959.423       -1238.464          20.000                                                                  
G31  20725407.842        -793.848         -15.229          15.000                                                                  
G32  20271380.461       59886.183         515.824          33.000    20271382.050       29548.208         384.298          25.000  
R 1  19637710.109                                          19.000  
R 2  20199438.246                                          30.000  
R12  19682217.907                                          28.000  
E 2  23174772.079        1737.719         142.572          19.000                                                                  
E 8  24023013.953      -78949.839       -1297.665          26.000                                                                  
E25  24961621.500      182693.002        2389.838          29.000                                                                  
E30  25701266.135     -151048.100       -1993.549          23.000                                                                  
J 2  38394806.638       88064.732         961.617          27.000                                                                  
C 6  36214610.353      -15885.446        -149.447          22.000                                                                                                                                  
C 7  37635183.268       -8779.736        -899.477          16.000                                                                                                                                  
C 9  37066476.784       -6902.625        -231.715          27.000                                                                                                                                  
C14  22809888.603      -19532.790       -1181.396          25.000                                                                                                                                  
C24  23089023.737      -57918.064       -1128.262          20.000                                                                                                                                  
C26  21863734.076       32022.756         974.383          21.000                                                                                                                                  
C35  25841209.761      -34544.342       -1785.958          17.000                                                                                                                                  
> 2022  1 25  3 14 26.0000000  0 20                     
G25  21817510.498      328812.140        3134.221          20.000    21817515.124      134382.558        2339.970          24.000  
G26  21336876.292     -227407.863       -2242.986          27.000    21336877.097      -17713.955       -1690.197          27.000  
G29  23053240.846     -100461.854       -1237.911          20.000                                                                  
G31  20725402.441        -876.896          -0.007          16.000                                                                  
G32  20271479.750       62584.246         511.618          31.000    20271480.136       31054.043         384.502          22.000  
R 1  19638159.016                                          20.000  
R 2  20198996.939                                          32.000  
R12  19592996.226                                          28.000  
E 2  23174796.562        2501.269         149.526          19.000                                                                  
E 8  24022767.347      -85771.253       -1298.183          25.000                                                                  
E25  24962076.218      195249.728        2389.057          28.000                                                                  
E30  25700886.681     -161525.794       -1993.896          24.000                                                                  
J 2  38394989.071       93115.115         956.940          28.000                                                                  
C 6  36214581.955      -16664.070        -149.406          19.000                                                                                                                                  
C 7  37635004.930      -13482.872        -911.983          16.000                                                                                                                                  
C 9  37066431.746       -8111.024        -233.233          29.000                                                                                                                                  
C14  22809662.038      -25681.539       -1179.996          24.000                                                                                                                                  
C24  23088807.529      -63792.986       -1127.772          21.000                                                                                                                                  
C26  21863920.951       37089.158         972.559          17.000                                                                                                                                  
C35  25840862.597      -43850.473       -1788.495          17.000                                                                                                                                  
> 2022  1 25  3 14 27.0000000  0 20                     
G25  21818106.912      345276.663        3133.073          30.000    21818112.096      143571.450        2343.520          19.000  
G26  21336449.774     -239201.026       -2244.019          17.000    21336444.750      -24377.863       -1687.537          19.000  
G29  23053004.030     -106965.085       -1237.436          20.000                                                                  
G31  20725403.013        -963.524         -16.584          20.000                                                                  
G32  20271576.213       65272.000         509.740          31.000    20271577.969       32557.652         382.903          26.000  
R 1  19638608.342                                          18.000  
R 2  20198553.843                                          27.000  
R12  19593045.619                                          24.000  
E 2  23174828.155        3273.790         144.005          20.000                                                                  
E 8  24022519.911      -92600.941       -1302.701          18.000                                                                  
E25  24962530.028      207802.516        2388.087          29.000                                                                  
E30  25700506.756     -172009.781       -1994.720          20.000                                                                  
J 2  38395170.632       98146.258         957.109          27.000                                                                  
C 6  36214552.874      -17451.955        -152.840          22.000                                                                                                                                  
C 7  37634831.401      -18188.166        -905.237          15.000                                                                                                                                  
C 9  37066386.123       -9332.319        -235.781          24.000                                                                                                                                  
C14  22809435.796      -31825.295       -1180.225          19.000                                                                                                                                  
C24  23088590.465      -69679.377       -1132.953          17.000                                                                                                                                  
C26  21864107.616       42149.522         970.227          23.000                                                                                                                                  
C35  25840519.093      -53166.242       -1788.417          16.000                                                                                                                                  
> 2022  1 25  3 14 28.0000000  0 19                     
G25  21818701.092      361737.669        3133.749          27.000    21818707.585      152748.946        2338.493          26.000  
G26  21336022.759     -250991.779       -2242.416          17.000    21336021.190      -30989.812       -1682.347          19.000  
G29  23052767.893     -113466.327       -1239.483          20.000                                                                  
G31  20725394.776       -1057.851         -19.098          25.000                                                                  
G32  20271672.022       67958.998         513.680          32.000    20271675.836       34060.347         383.762          25.000  
R 1  19639057.545                                          14.000  
R 2  20198108.391                                          25.000  
R12  19593093.938                                          26.000  
E 2  23174854.078        4027.343         142.747          20.000                                                                  
E25  24962984.310      220347.747        2387.159          28.000    24962987.967        3475.230        1782.995          24.000  
E30  25700127.172     -182492.639       -1994.854          18.000                                                                  
J 2  38395354.173      103179.953         956.737          28.000                                                                  
C 6  36214522.574      -18249.510        -153.954          27.000                                                                                                                                  
C 7  37634658.045      -22889.176        -899.576          12.000                                                                                                                                  
C 9  37066340.972      -10558.749        -234.842          18.000                                                                                                                                  
C14  22809208.394      -37998.981       -1183.572          17.000                                                                                                                                  
C24  23088372.739      -75584.417       -1133.300          15.000                                                                                                                                  
C26  21864296.462       47206.577         970.039          25.000                                                                                                                                  
C35  25840175.904      -62472.322       -1785.771          16.000                                                                                                                                  
> 2022  1 25  3 14 29.0000000  0 19                     
G25  21819296.868      378191.602        3132.425          25.000    21819303.510      161922.901        2337.923          27.000  
G26  21335597.296     -262780.834       -2243.724          16.000    21335597.568      -37575.108       -1676.696          20.000  
G29  23052532.359     -119983.313       -1239.850          21.000                                                                  
G31  20725387.692       -1163.810         -20.001          24.000                                                                  
G32  20271770.029       70649.743         512.219          33.000    20271773.451       35560.923         382.702          25.000  
R 1  19639506.653                                          12.000  
R 2  20197666.482                                          28.000  
R12  19593142.014                                          27.000  
E 2  23174881.143        4773.515         140.013          20.000                                                                  
E25  24963437.728      232890.762        2386.693          29.000    24963441.298       10469.087        1781.793          24.000  
E30  25699747.343     -192971.107       -1992.556          20.000                                                                  
J 2  38395535.088      108202.418         955.246          29.000                                                                  
C 6  36214492.649      -19055.577        -156.892          28.000                                                                                                                                  
C 7  37634485.300      -27576.549          -0.072          12.000                                                                                                                                  
C 9  37066296.151      -11775.030        -234.904          18.000                                                                                                                                  
C14  22808981.175      -44160.215       -1181.229          17.000                                                                                                                                  
C24  23088154.507      -81489.858       -1135.707          15.000                                                                                                                                  
C26  21864484.488       52260.876         970.571          27.000                                                                                                                                  
C35  25839829.514      -71785.900       -1787.821          15.000                                                                                                                                  
> 2022  1 25  3 14 30.0000000  0 19                     
G25  21819892.872      394648.481        3131.191          28.000    21819899.408      171096.696        2338.400          27.000  
G26  21335170.115     -274578.031       -2245.809          17.000    21335171.399      -44156.384       -1677.294          21.000  
G29  23052294.015     -126499.290          -0.007          22.000                                                                  
G31  20725385.594       -1282.205         -22.509          25.000                                                                  
G32  20271869.720       73342.524         511.529          30.000    20271871.126       37061.426         383.098          22.000  
R 2  20197226.806                                          30.000  
R12  19593188.894                                          25.000  
E 2  23174907.152        5507.357         139.106          21.000                                                                  
E25  24963891.407      245431.971        2386.129          27.000    24963895.998       17463.450        1783.970          21.000  
E30  25699367.862     -203454.038       -1995.935          22.000                                                                  
J 2  38395718.228      113227.955         956.860          27.000                                                                  
C 6  36214462.584      -19876.038        -158.462          25.000                                                                                                                                  
C 7  37634312.207      -32270.474          -0.072          12.000                                                                                                                                  
C 9  37066250.608      -12994.322        -233.683          17.000                                                                                                                                  
C14  22808754.226      -50309.988       -1181.403          17.000                                                                                                                                  
C24  23087936.894      -87401.833       -1136.192          19.000                                                                                                                                  
C26  21864668.893       57314.142         970.621          24.000                                                                                                                                  
C33  24761030.015      -55952.673       -2347.307          19.000                                                                                                                                  
C35  25839486.414      -81090.388       -1787.779          17.000                                                                                                                                  
> 2022  1 25  3 14 31.0000000  0 17                     
G25  21820487.261      411094.795        3129.858          30.000    21820495.263      180268.881        2338.879          23.000  
G26  21334742.925     -286375.461       -2245.137          17.000    21334745.116      -50736.025       -1676.810          18.000  
G29  23052057.495     -133017.025       -1239.702          21.000                                                                  
G31  20725382.618       -1385.451         -19.532          29.000                                                                  
G32  20271966.890       76030.001         513.183          34.000    20271968.689       38560.923         383.758          24.000  
R 2  20196782.515                                          26.000  
R12  19593239.028                                          25.000  
E 2  23174934.627        6256.513         143.433          20.000    23174937.508        1719.943         103.847          17.000  
E25  24964345.174      257967.363        2385.111          29.000    24964350.210       24457.606        1782.604          25.000  
E30                                                                  25764745.088      -21725.787       -1486.217          19.000  
J 2  38395901.333      118252.763         955.722          27.000                                                                  
C 6  36214432.710      -20686.081        -154.923          27.000                                                                                                                                  
C 9  37066204.594      -14222.987        -237.938          18.000                                                                                                                                  
C14  22808527.251      -56463.569       -1182.035          17.000                                                                                                                                  
C24  23087717.850      -93324.265       -1138.122          18.000                                                                    23087714.375       -5657.833        -853.247          18.000  
C26  21864854.965       62362.393         967.876          32.000                                                                                                                                  
C35  25839140.895      -90400.295       -1790.268          17.000                                                                                                                                  
> 2022  1 25  3 14 32.0000000  0 18                     
G25  21821082.113      427534.044        3127.966          29.000    21821090.770      189442.246        2337.591          25.000  
G26  21334317.986     -298173.211       -2244.325          18.000    21334316.905      -57324.700       -1678.658          18.000  
G29  23051821.271     -139529.008       -1239.589          21.000                                                                  
G31  20725379.530       -1499.045         -22.636          30.000                                                                  
G32  20272064.513       78719.545         510.879          32.000    20272066.094       40058.071         381.714          25.000  
R 2  20196339.916                                          28.000  
R12  19593286.301                                          28.000  
E 2  23174963.830        7012.250         142.694          20.000    23174967.784        2120.971         102.293          20.000  
E 8  24021281.862     -126773.585       -1302.157          25.000                                                                  
E25  24964798.862      270499.604        2384.403          29.000    24964804.326       31445.962        1781.096          26.000  
E30                                                                  25764366.253      -27561.496       -1487.574          17.000  
J 2  38396083.488      123272.641         956.887          25.000    38396088.297       64482.773         712.841          25.000  
C 6  36214402.767      -21501.368        -157.993          28.000                                                                                                                                  
C 9  37066158.822      -15465.037        -238.140          17.000                                                                                                                                  
C14  22808299.935      -62627.476       -1184.330          16.000                                                                                                                                  
C24  23087499.425      -99247.150       -1137.807          16.000                                                                                                                                  
C26  21865041.193       67403.509         967.042          31.000                                                                                                                                  
C35  25838797.044      -99725.539       -1791.343          17.000                                                                                                                                  
> 2022  1 25  3 14 33.0000000  0 19                     
G25  21821678.282      443972.204        3125.413          28.000    21821686.250      198609.059        2336.613          26.000  
G26  21333889.522     -309965.295       -2244.189          17.000    21333889.026      -63918.296       -1679.350          18.000  
G29  23051585.641     -146046.688       -1242.147          22.000                                                                  
G31  20725374.757       -1627.569         -25.007          25.000                                                                  
G32  20272162.607       81402.851         511.288          34.000    20272163.420       41554.920         382.252          25.000  
R 1  19641299.959                                          18.000  
R 2  20195896.654                                          31.000  
R12  19593332.343                                          30.000  
E 2  23174991.532        7765.600         142.793          19.000    23174994.779        2533.692         105.170          19.000  
E 8  24021032.708     -133620.182       -1303.473          20.000                                                                  
E25  24965252.385      283028.722        2383.867          29.000    24965258.180       38432.193        1779.928          25.000  
E30                                                                  25763986.964      -33403.748       -1489.207          17.000  
J 2  38396263.321      128293.252         954.480          28.000    38396269.875       67275.299         711.452          27.000  
C 6  36214372.214      -22330.864        -160.098          27.000                                                                                                                                  
C 9  37066112.912      -16702.389        -236.145          18.000                                                                                                                                  
C14  22808072.673      -68802.783       -1185.705          17.000                                                                                                                                  
C24  23087279.718     -105181.950       -1140.506          17.000                                                                                                                                  
C26  21865226.986       72446.046         969.343          28.000                                                                                                                                  
C35  25838452.897     -109058.430       -1793.066          17.000                                                                                                                                  
> 2022  1 25  3 14 34.0000000  0 19                     
G25  21822273.535      460407.427        3128.866          29.000    21822281.773      207776.529        2336.357          27.000  
G26  21333462.079     -321769.329       -2247.431          14.000    21333459.253      -70505.662       -1677.243          20.000  
G29  23051349.192     -152571.989       -1241.932          24.000                                                                  
G31  20725370.399       -1754.281         -21.857          25.000                                                                  
G32  20272259.838       84081.520         510.058          35.000    20272260.791       43050.809         381.797          26.000  
R 1  19641749.747                                          17.000  
R 2  20195455.391                                          32.000  
R12  19682656.099                                          27.000  
E 2  23175017.795        8509.791         140.947          20.000    23175022.098        2949.852         105.526          17.000  
E 8  24020784.557     -140474.784       -1303.976          19.000                                                                  
E25  24965706.090      295554.152        2383.331          30.000    24965711.911       45417.234        1780.719          26.000  
E30                                                                  25763602.588      -39248.294       -1489.860          17.000  
J 2  38396443.590      133296.842         952.444          29.000    38396451.357       70066.556         711.480          27.000  
C 6  36214341.713      -23159.219        -158.627          29.000                                                                                                                                  
C 9  37066068.466      -17938.222        -236.541          19.000                                                                                                                                  
C14  22807844.949      -74978.004       -1186.691          16.000                                                                                                                                  
C24  23087061.713     -111113.871       -1139.677          19.000                                                                                                                                  
C26  21865413.375       77489.892         966.266          29.000                                                                                                                                  
C35  25838108.163     -118395.026       -1792.890          19.000                                                                                                                                  
> 2022  1 25  3 14 35.0000000  0 19                     
G25  21822868.971      476845.858        3127.221          28.000    21822877.175      216942.533        2336.369          27.000  
G26  21333034.793     -333569.048       -2243.535          18.000    21333035.335      -77086.713       -1677.437          20.000  
G29  23051112.428     -159096.788       -1241.203          21.000                                                                  
G31  20725368.419       -1876.046         -23.802          27.000                                                                  
G32  20272358.022       86764.545         510.891          26.000    20272357.988       44545.690         381.520          24.000  
R 1  19642204.858                                          16.000  
R 2  20195014.677                                          30.000  
R12  19682704.611                                          24.000  
E 2  23175045.296        9252.675         141.497          21.000    23175048.238        3362.582         104.527          17.000  
E 8  24020536.624     -147331.426       -1306.775          21.000                                                                  
E25  24966159.168      308076.422        2382.639          28.000    24966165.521       52400.241        1780.142          24.000  
E30                                                                  25763223.185      -45101.862       -1491.471          14.000  
J 2  38396624.418      138305.719         954.265          25.000    38396632.560       72855.110         710.578          27.000  
C 6  36214311.769      -23990.370        -160.837          24.000                                                                                                                                  
C 9  37066021.990      -19173.092        -238.110          18.000                                                                                                                                  
C14  22807617.189      -81154.716       -1188.120          17.000                                                                                                                                  
C24  23086842.896     -117048.203       -1139.068          19.000                                                                                                                                  
C26  21865598.313       82522.623         964.552          25.000                                                                                                                                  
C35  25837763.885     -127736.524       -1793.221          18.000                                                                                                                                  
> 2022  1 25  3 14 36.0000000  0 19                     
G25  21823463.499      493279.594        3126.944          28.000    21823472.286      226107.357        2333.834          24.000  
G26  21332626.344     -345362.055       -2245.268          21.000    21332610.161      -83674.222       -1677.829          18.000  
G29  23050875.995     -165622.457       -1242.740          22.000                                                                  
G31  20725363.506       -1995.832         -22.187          26.000                                                                  
G32  20272456.603       89433.105         508.226          25.000                                                                  
R 1  19642655.344                                          14.000  
R 2  20194572.802                                          18.000  
R12  19682751.683                                          22.000  
E 2  23175071.786        9987.476         139.254          22.000    23175077.869        3773.473         106.342          17.000  
E 8  24020288.282     -154185.874       -1304.264          27.000                                                                  
E25  25134912.903      320597.010        2382.095          26.000    25134919.501       59388.606        1779.440          18.000  
E30                                                                  25762843.512      -50949.720       -1489.931          13.000  
J 2  38396806.450      143307.822         951.445          22.000    38396814.103       75648.491         710.822          20.000  
C 6  36214280.892      -24828.600        -162.186          17.000                                                                                                                                  
C 9  37065976.226      -20414.034        -239.357          23.000                                                                                                                                  
C14  22807388.172      -87344.296       -1188.980          18.000                                                                                                                                  
C24  23086623.800     -122978.700       -1138.943          17.000                                                                                                                                  
C26  21865783.843       87553.947         965.828          25.000                                                                                                                                  
C35  25837421.585     -137072.110       -1793.226          22.000                                                                                                                                  
> 2022  1 25  3 14 37.0000000  0 19                     
G25  21824058.795      509712.959        3124.976          28.000    21824067.286      235271.641        2334.628          24.000  
G26  21332211.413     -357162.153       -2245.485          21.000    21332181.208      -90255.160       -1678.445          19.000  
G29  23050638.148     -172151.173       -1242.007          24.000                                                                  
G31  20725358.651       -2113.955         -22.736          26.000                                                                  
G32  20272551.801       92107.691         509.533          27.000                                                                  
R 1  19643106.240                                          14.000  
R 2  20194129.392                                          19.000  
R12  19682799.697                                          20.000  
E 2  23175098.485       10719.041         139.365          22.000    23175104.873        4188.578         105.534          17.000  
E 8  24020040.183     -161043.285       -1304.964          25.000                                                                  
E25  25135366.051      333113.555        2381.648          26.000    25135373.215       66374.657        1779.298          17.000  
E30                                                                  25762464.039      -56794.347       -1488.385          12.000  
J 2  38396989.293      148302.331         951.188          25.000    38396994.015       78434.251         710.179          21.000  
C 6  36214249.885      -25670.870        -161.277          17.000                                                                                                                                  
C 9  37065928.912      -21663.049        -240.533          23.000                                                                                                                                  
C14  22807158.807      -93533.520       -1187.937          19.000                                                                                                                                  
C24  23086405.367     -128902.267       -1138.309          14.000                                                                    23086400.417      -25795.057        -855.855          17.000  
C26  21865969.418       92592.341         967.281          24.000                                                                                                                                  
C35  25837078.469     -146411.239       -1794.219          23.000                                                                                                                                  
> 2022  1 25  3 14 38.0000000  0 19                     
G25  21824654.938      526141.197        3128.934          28.000    21824661.562      244422.307        2329.956          20.000  
G26  21331774.045     -368965.678       -2246.691          16.000    21331753.446      -96840.654       -1680.148          19.000  
G29  23050401.968     -178683.434       -1242.927          17.000                                                                  
G31  20725351.008       -2238.585         -27.581          32.000                                                                  
G32  20272647.103       94789.000         510.719          30.000                                                                  
R 1  19643557.389                                          12.000  
R 2  20193685.118                                          33.000  
R12  19682848.121                                          22.000  
E 2  23175124.965       11448.181         137.173          20.000    23175132.933        4599.204         104.243          15.000  
E 8  24019791.055     -167902.351       -1305.306          28.000                                                                  
E25  25135819.765      345626.277        2381.062          28.000    25135821.040       73360.969        1780.018          18.000  
E30  25696339.918     -287259.023       -1999.555          14.000                                                                  
J 2  38397170.776      153299.802         950.249          28.000    38397174.564       81215.751         706.535          20.000  
C 6  36214219.193      -26509.966        -161.837          19.000                                                                                                                                  
C 9  37065883.236      -22916.367        -241.819          25.000                                                                                                                                  
C14  22806926.815      -99727.504       -1190.882          22.000                                                                                                                                  
C24  23086185.494     -134828.805       -1137.992          15.000                                                                    23086183.362      -29149.851        -853.729          16.000  
C26  21866154.931       97626.615         966.978          23.000                                                                                                                                  
C35  25836732.278     -155752.437       -1793.749          18.000                                                                                                                                  
> 2022  1 25  3 14 39.0000000  0 20                     
G25  21825248.795      542573.796        3125.607          29.000    21825256.344      253575.053        2333.647          23.000  
G26  21331346.567     -380770.289       -2245.884          19.000    21331326.038     -103427.596       -1678.616          17.000  
G29  23050165.780     -185222.262       -1244.804          22.000                                                                  
G31  20725344.813       -2378.494         -25.508          29.000                                                                  
G32  20272742.746       97461.940         506.253          24.000                                                                  
R 1  19644008.120                                          12.000  
R 2  20193244.431                                          27.000  
R12  19682898.072                                          24.000  
E 2  23175151.114       12174.245         138.566          24.000                                                                  
E 8  24019542.573     -174765.543       -1306.528          25.000    24019553.481       -1299.802        -976.883          21.000  
E25  25136273.235      358136.864        2380.269          28.000    25136276.919       80346.347        1778.959          18.000  
E30  25695959.225     -297772.338       -2001.916          15.000                                                                  
J 2  38397352.179      158288.825         950.011          24.000    38397354.737       83995.702         707.527          21.000  
C 6  36214189.135      -27351.660        -162.451          17.000                                                                                                                                  
C 9  37065836.220      -24186.252        -244.067          22.000                                                                                                                                  
C14  22806700.407     -105918.857       -1186.536          23.000                                                                                                                                  
C24  23085966.930     -140756.779       -1138.735          17.000                                                                    23085966.037      -32503.571        -856.843          19.000  
C26  21866339.711      102653.998         964.318          25.000                                                                                                                                  
C33  24756975.126      -16082.488       -2349.708          22.000                                                                                                                                  
C35  25836387.030     -165102.539       -1795.793          19.000                                                                                                                                  
> 2022  1 25  3 14 40.0000000  0 20                     
G25  21825843.499      558990.773        3121.897          28.000    21825850.742      262734.523        2333.766          28.000  
G26  21330919.010     -392578.672       -2249.847          17.000    21330897.792     -110022.351       -1681.323          19.000  
G29  23049927.628     -191767.361       -1245.203          20.000                                                                  
G31  20725341.559       -2507.812         -25.373          27.000                                                                  
G32  20272840.554      100130.384         509.001          26.000    20272842.117       52070.270         381.798          20.000  
R 1  19644458.990                                          14.000  
R 2  20192802.068                                          29.000  
R12  19682945.022                                          25.000  
E 2  23175177.743       12898.043         137.216          24.000                                                                  
E 8  24019293.811     -181634.816       -1305.418          18.000                                                                  
E25  25136726.321      370642.209        2379.366          28.000    25136728.452       87324.606        1776.786          23.000  
E30  25695578.113     -308297.524       -2003.538          13.000                                                                  
J 2  38397531.288      163279.027         948.490          24.000    38397534.850       86772.086         707.239          25.000  
C 6  36214157.491      -28193.837        -162.055          20.000                                                                                                                                  
C 9  37065789.419      -25456.473        -243.582          17.000                                                                                                                                  
C14  22806472.219     -112106.995       -1189.337          20.000                                                                                                                                  
C24  23085754.151     -146693.303       -1140.589          21.000                                                                    23085742.212      -35871.094        -860.536          18.000  
C26  21866525.050      107671.745         963.051          23.000                                                                                                                                  
C33  24756519.937      -28325.922       -2352.530          18.000                                                                                                                                  
C35  25836041.861     -174460.146       -1797.335          17.000                                                                                                                                  
> 2022  1 25  3 14 41.0000000  0 20                     
G25  21826436.981      575401.209        3123.920          24.000    21826445.655      271894.545        2334.861          19.000  
G26  21330474.274     -404400.819       -2249.367          15.000    21330469.860     -116613.946       -1679.708          19.000  
G29  23049690.900     -198314.089       -1246.360          20.000                                                                  
G31  20725336.299       -2642.241         -26.304          24.000                                                                  
G32  20272937.364      102814.558         510.401          31.000    20272936.676       53567.465         385.184          17.000  
R 2  20192358.745                                          27.000  
R12  19682992.295                                          21.000  
E 2  23175204.835       13622.536         138.037          23.000                                                                  
E 8  24019045.154     -188501.696       -1308.314          21.000                                                                  
E25  25137179.521      383146.631        2379.356          25.000    25137184.016       94303.521        1778.089          18.000  
E30  25695196.722     -318830.724       -2005.300          15.000                                                                  
J 2  38397712.710      168262.464         948.301          26.000    38397714.884       89544.578         702.962          19.000  
C 6  36214126.894      -29036.714        -161.317          19.000                                                                                                                                  
C 7  37632353.075      -26422.112        -923.820          15.000                                                                                                                                  
C 9  37065742.401      -26731.622        -245.272          23.000                                                                                                                                  
C14  22806245.453     -118301.407       -1189.829          21.000                                                                                                                                  
C24  23085531.861     -152634.154       -1140.316          20.000                                                                    23085523.378      -39242.187        -857.586          18.000  
C26  21866709.918      112684.415         962.924          19.000                                                                                                                                  
C33  24756061.790      -40578.188       -2353.341          19.000                                                                                                                                  
C35  25835696.798     -183818.459       -1796.103          20.000                                                                                                                                  
> 2022  1 25  3 14 42.0000000  0 20                     
G25  21827032.147      591817.327        3123.455          27.000                                                                  
G26  21330046.229     -416223.482       -2249.520          14.000    21330039.870     -123208.187       -1681.143          23.000  
G29  23049454.214     -204861.087       -1244.727          18.000                                                                  
G31  20725332.625       -2778.823         -24.621          20.000                                                                  
G32  20273034.202      105487.600         509.000          33.000    20273035.102       55081.997         385.151          15.000  
R 2  20191917.115                                          30.000  
R12  19683036.078                                          28.000  
E 2  23175230.974       14337.303         136.014          20.000                                                                  
E 8  24018796.428     -195370.665       -1306.367          18.000    24018805.049      -12815.519        -975.091          20.000  
E25  25137632.529      395648.256        2378.883          23.000    25137637.407      101284.280        1778.246          16.000  
E30  25694811.963     -329372.225       -2006.399          18.000                                                                  
J 2  38397893.197      173241.385         945.212          27.000    38397894.359       92307.070         704.382          19.000  
C 6  36214091.088      -29888.100        -165.149          24.000                                                                                                                                  
C 7  37632175.671      -31233.239        -925.336          12.000                                                                                                                                  
C 9  37065687.799      -28013.964        -248.681          20.000                                                                                                                                  
C14  22806017.510     -124500.680       -1191.798          18.000                                                                                                                                  
C24  23085312.765     -158580.150       -1142.369          20.000                                                                    23085306.497      -42619.262        -862.134          20.000  
C26  21866894.716      117701.110         962.192          26.000                                                                    21866888.823        6537.214         725.131          20.000  
C33  24755609.777      -52835.725       -2355.162          17.000                                                                                                                                  
C35  25835348.583     -193183.528       -1799.049          21.000                                                                                                                                  
> 2022  1 25  3 14 43.0000000  0 21                     
G25  21827628.796      608243.747        3124.884          25.000    21827631.432      290216.653        2333.699          19.000  
G26  21329626.979     -428044.726       -2248.624          17.000    21329611.467     -129801.604       -1681.350          21.000  
G29  23049215.669     -211398.625       -1244.772          18.000                                                                  
G31  20725327.696       -2918.198         -27.870          24.000                                                                  
G32  20273130.342      108162.968         509.511          31.000    20273133.258       56592.432         385.162          15.000  
R 1  19645806.190                                          17.000  
R 2  20191474.237                                          25.000  
R12  19683083.507                                          25.000  
E 2  23175256.783       15054.084         134.410          20.000                                                                  
E 8  24018547.247     -202252.362       -1308.989          18.000    24018556.366      -16642.670        -976.693          17.000  
E25  25138084.515      408139.716        2377.818          21.000    25138090.624      108262.254        1778.420          17.000  
E30  25694430.145     -339917.118       -2006.607          18.000                                                                  
J 2  38398073.458      178204.357         945.110          24.000    38398076.217       95070.804         704.260          16.000  
C 6  36214061.502      -30753.664        -165.394          25.000                                                                                                                                  
C 7  37631997.473      -36065.977        -931.380          13.000                                                                                                                                  
C 9  37065640.048      -29309.322        -248.323          18.000                                                                                                                                  
C14  22805787.815     -130730.010       -1197.254          16.000                                                                                                                                  
C24  23085094.611     -164530.063       -1143.115          20.000                                                                    23085088.728      -45994.574        -861.489          20.000  
C26  21867078.693      122705.529         961.703          26.000                                                                    21867073.168        9377.424         724.753          20.000  
C33  24755157.782      -65093.074       -2353.334          14.000                                                                                                                                  
C35  25835004.392     -202549.589       -1798.407          20.000                                                                                                                                  
> 2022  1 25  3 14 44.0000000  0 21                     
G25  21828224.616      624670.023        3124.215          27.000    21828229.364      299374.184        2332.740          19.000  
G26  21329199.047     -439862.540       -2248.771          16.000    21329182.462     -136396.253       -1680.144          20.000  
G29  23048979.123     -217931.275       -1241.713          18.000                                                                  
G31  20725323.243       -3063.025         -27.449          22.000                                                                  
G32  20273229.250      110821.462         506.066          31.000    20273231.773       58108.128         384.700          15.000  
R 1  19646255.821                                          17.000  
R 2  20191031.804                                          30.000  
R12  19683130.658                                          25.000  
E 2  23175282.165       15759.665         135.499          22.000    23175290.045        7081.563         100.913          15.000  
E 8  24018298.459     -209132.868       -1311.760          18.000    24018307.692      -20473.204        -976.766          16.000  
E25  25138537.349      420633.856        2377.245          22.000    25138543.876      115243.827        1778.982          17.000  
E30  25694048.196     -350465.399       -2007.887          17.000                                                                  
J 2  38398251.773      183166.207         943.680          25.000    38398255.622       97832.255         704.210          15.000  
C 6  36214030.364      -31612.224        -164.819          25.000                                                                                                                                  
C 7  37631819.118      -40902.348        -925.993          11.000                                                                                                                                  
C 9  37065592.278      -30605.172        -248.959          17.000                                                                                                                                  
C14  22805557.934     -136964.308       -1197.515          17.000                                                                                                                                  
C24  23084875.646     -170471.677       -1139.742          21.000                                                                    23084868.392      -49373.458        -861.830          21.000  
C26  21867262.802      127708.222         958.708          28.000                                                                    21867258.245       12218.760         723.576          20.000  
C33  24754706.720      -77353.066          -0.000          14.000                                                                                                                                  
C35  25834659.006     -211926.038       -1801.083          20.000                                                                                                                                  
> 2022  1 25  3 14 45.0000000  0 21                     
G25  21828817.706      641090.019        3125.141          26.000    21828823.954      308531.096        2331.333          24.000  
G26  21328770.915     -451685.523       -2250.824          18.000    21328753.675     -142993.315       -1679.863          20.000  
G29  23048742.690     -224459.986       -1242.507          19.000                                                                  
G31  20725317.799       -3211.777         -29.960          19.000                                                                  
G32  20273326.173      113492.608         508.384          29.000    20273329.752       59615.965         382.241          13.000  
R 1  19646705.208                                          17.000  
R 2  20190590.244                                          28.000  
R12  19683176.761                                          22.000  
E 2  23175308.139       16473.533         135.423          20.000    23175316.334        7484.967         102.185          14.000  
E 8  24018048.939     -216024.508       -1310.908          19.000    24018058.974      -24304.529        -977.977          14.000  
E25  25138989.004      433123.213        2376.327          26.000    25138997.643      122230.138        1780.611          14.000  
E30  25693666.133     -361016.787       -2007.574          17.000                                                                  
J 2  38398430.027      188127.634         942.498          22.000    38398434.923      100592.130         703.189          13.000  
C 6  36213998.310      -32479.547        -164.833          21.000                                                                                                                                  
C 7  37631641.295      -45724.907        -925.715          12.000                                                                                                                                  
C 9  37065546.098      -31896.368        -248.401          16.000                                                                                                                                  
C14  22805330.200     -143193.616       -1195.568          18.000                                                                                                                                  
C24  23084655.886     -176412.779       -1141.001          20.000                                                                    23084652.743      -52754.690        -863.414          20.000  
C26  21867447.261      132701.151         958.601          24.000                                                                    21867443.315       15060.594         723.593          19.000  
C33  24754254.087      -89627.693          -0.000          15.000                                                                                                                                  
C35  25834312.607     -221307.359       -1800.828          22.000                                                                                                                                  
> 2022  1 25  3 14 46.0000000  0 20                     
G25  21829411.022      657495.639        3121.653          25.000    21829416.381      317682.487        2330.252          27.000  
G26  21328332.504     -463506.143       -2249.376          19.000    21328325.019     -149591.366       -1681.950          22.000  
G29  23048504.233     -230998.511       -1244.396          19.000                                                                  
G31  20725311.438       -3376.339         -31.639          19.000                                                                  
G32  20273420.498      116160.592         506.328          30.000                                                                  
R 1  19647155.284                                          19.000  
R 2  20190148.186                                          30.000  
R12  19683223.135                                          22.000  
E 2  23175333.852       17182.217         133.958          18.000    23175342.334        7884.139         100.514          15.000  
E 8  24017802.306     -222917.572       -1310.132          20.000    24017806.513      -28144.147        -978.169          17.000  
E25  25139441.017      445609.548        2375.737          26.000    25139450.895      129208.854        1776.563          16.000  
E30  25693273.688     -371567.083       -2008.544          19.000                                                                  
J 2  38398608.342      193082.550         943.287          23.000    38398614.285      103352.707         703.444          14.000  
C 6  36213965.628      -33367.208        -168.587          19.000                                                                                                                                  
C 9  37065501.382      -33184.249        -247.988          19.000                                                                                                                                  
C14  22805101.367     -149408.686       -1191.150          17.000                                                                                                                                  
C24  23084436.424     -182358.738       -1141.076          20.000                                                                    23084433.629      -56131.392        -863.136          20.000  
C26  21867631.466      137694.357         960.191          24.000                                                                    21867627.833       17900.773         725.164          19.000  
C33  24753801.629     -101897.409          -0.000          17.000                                                                                                                                  
C35  25833968.920     -230686.990       -1800.178          22.000                                                                                                                                  
> 2022  1 25  3 14 47.0000000  0 20                     
G25  21830004.565      673902.806        3123.412          24.000    21830010.770      326831.909        2329.726          25.000  
G26  21327899.032     -475336.139       -2251.741          19.000    21327896.442     -156190.103       -1681.874          24.000  
G29  23048267.041     -237549.293       -1248.541          17.000                                                                  
G31  20725305.493       -3543.750         -31.281          17.000                                                                  
G32  20273519.413      118829.133         507.024          31.000                                                                  
R 1  19647604.557                                          19.000  
R 2  20189707.200                                          30.000  
R12  19683269.832                                          23.000  
E 2  23175359.713       17890.307         134.025          18.000    23175367.786        8274.662         100.515          14.000  
E 8  24017553.510     -229812.990       -1313.000          19.000    24017556.251      -31982.119        -979.100          19.000  
E25  25139892.960      458091.683        2375.041          26.000    25139899.741      136179.940        1774.652          16.000  
E30  25692891.826     -382116.767       -2006.237          20.000                                                                  
J 2  38398787.661      198037.410         942.248          24.000    38398792.208      106118.920         705.294          16.000  
C 6  36213932.568      -34254.161        -170.260          20.000                                                                                                                                  
C 9  37065452.951      -34484.446        -251.080          19.000                                                                                                                                  
C14  22804873.362     -155604.613       -1189.848          17.000                                                                                                                                  
C24  23084217.240     -188303.579       -1143.540          18.000                                                                    23084214.323      -59512.545        -857.447          20.000  
C26  21867815.391      142690.521         959.627          23.000                                                                    21867812.579       20744.302         724.745          19.000  
C33  24753351.204     -114160.341       -2353.408          16.000                                                                                                                                  
C35  25833623.645     -240065.736       -1801.726          24.000                                                                                                                                  
> 2022  1 25  3 14 48.0000000  0 20                     
G25  21830598.518      690314.240        3123.372          27.000    21830605.046      335981.535        2331.281          26.000  
G26  21327453.955     -487171.453       -2252.365          22.000    21327467.882     -162789.561       -1682.251          23.000  
G29  23048029.552     -244106.658       -1246.506          17.000                                                                  
G31  20725299.891       -3706.460         -32.045          21.000                                                                  
G32  20273614.707      121489.472         504.982          30.000    20273620.868       64098.256         378.142          18.000  
R 1  19648028.239                                          21.000  
R 2  20189264.645                                          29.000  
R12  19683317.698                                          23.000  
E 2  23175385.226       18590.503         130.843          19.000    23175391.160        8666.370          98.870          15.000  
E 8  24017301.153     -236702.073       -1311.883          20.000    24017306.974      -35837.757        -982.800          19.000  
E25  25140344.545      470570.527        2374.553          25.000    25140347.801      143142.598        1773.850          17.000  
E30  25692512.643     -392661.064       -2007.931          17.000                                                                  
J 2  38398967.075      202983.792         941.201          23.000    38398971.814      108883.264         703.619          14.000  
C 6  36213899.921      -35140.852        -169.936          20.000                                                                                                                                  
C 9  37065402.408      -35791.466        -251.242          17.000                                                                                                                                  
C14  22804643.630     -161806.782       -1190.675          18.000                                                                                                                                  
C24  23083996.966     -194262.925       -1147.004          20.000                                                                    23083995.192      -62883.754        -859.961          20.000  
C26  21868000.154      147689.617         959.334          25.000                                                                    21867995.230       23579.857         722.452          21.000  
C33  24752898.999     -126423.590       -2357.025          18.000                                                                                                                                  
C35  25833277.807     -249449.670       -1802.799          22.000                                                                                                                                  
> 2022  1 25  3 14 49.0000000  0 20                     
G25  21831191.502      706724.909        3123.605          29.000    21831199.165      345128.625        2330.697          30.000  
G26  21327035.019     -499009.615       -2253.656          21.000    21327039.357     -169389.753       -1682.263          21.000  
G29  23047784.874     -250662.489       -1249.111          17.000                                                                  
G31  20725292.571       -3874.284         -31.242          22.000                                                                  
G32  20273709.845      124147.832         505.552          23.000    20273718.624       65586.199         378.438          18.000  
R 1  19648485.767                                          21.000  
R 2  20188821.514                                          25.000  
R12  19683364.822                                          21.000  
E 2  23175409.918       19274.677         131.152          21.000    23175416.149        9049.841          96.795          14.000  
E 8  24017052.837     -243595.913       -1310.525          20.000    24017054.906      -39685.107        -979.776          20.000  
E25  24972495.580      483046.686        2374.113          23.000    24972498.626      150103.113        1772.747          24.000  
E30  25692130.065     -403200.229       -2008.021          16.000    25692131.236       -8638.873       -1498.948          20.000  
J 2  38399147.074      207920.320         937.583          19.000    38399151.351      111646.500         702.973          16.000  
C 6  36213866.593      -36023.886        -169.271          22.000                                                                                                                                  
C 9  37065354.621      -37088.487        -248.527          16.000                                                                                                                                  
C14  22804414.796     -168012.718       -1195.319          17.000                                                                                                                                  
C24  23083776.404     -200226.450       -1144.891          21.000                                                                    23083774.534      -66280.835        -867.354          19.000  
C26  21868183.896      152684.874         958.502          26.000                                                                    21868179.644       26412.913         719.834          23.000  
C33  24752447.457     -138702.635       -2359.715          18.000                                                                                                                                  
C35  25832931.878     -258833.660       -1802.705          21.000                                                                                                                                  
> 2022  1 25  3 14 50.0000000  0 20                     
G25  21831786.379      723131.062        3121.115          29.000    21831793.187      354274.494        2330.431          30.000  
G26  21326613.448     -510857.300       -2254.143          24.000    21326610.186     -176002.105       -1684.065          19.000  
G29  23047553.248     -257221.277       -1246.719          19.000                                                                  
G31  20725284.683       -4044.847         -32.624          25.000                                                                  
G32  20273806.280      126809.978         508.714          17.000    20273807.983       67067.648         376.988          20.000  
R 1  19648933.731                                          20.000  
R 2  20036213.023                                          23.000  
R12  19683412.234                                          18.000  
E 2  23175434.723       19959.440         131.236          22.000    23175440.902        9429.334          96.630          15.000  
E 8  24016803.752     -250484.505       -1310.587          19.000    24016804.216      -43537.111        -981.520          18.000  
E25  24972947.017      495518.604        2373.446          21.000    24972950.377      157057.928        1772.769          24.000  
E30  25691748.369     -413741.001       -2005.124          11.000    25691750.202      -14518.992       -1501.162          19.000  
J 2  38399325.546      212847.922         937.722          17.000    38399325.356      114404.351         701.765          19.000  
C 6  36213833.963      -36911.244        -170.363          17.000                                                                                                                                  
C 9  37065306.818      -38385.575        -251.165          17.000                                                                                                                                  
C14  22804184.401     -174232.541       -1192.766          18.000                                                                                                                                  
C24  23083556.758     -206188.207       -1145.760          23.000                                                                    23083553.981      -69679.527        -865.723          18.000  
C26  21868367.778      157674.226         956.386          23.000                                                                    21868364.608       29244.936         721.304          22.000  
C33  24751993.752     -150986.835       -2359.340          18.000                                                                                                                                  
C35  25832585.085     -268222.902       -1802.351          20.000                                                                                                                                  
> 2022  1 25  3 14 51.0000000  0 20                     
G25  21832383.264      739528.725        3120.699          32.000    21832387.105      363418.636        2329.739          29.000  
G26  21326188.029     -522695.896       -2252.199          22.000    21326181.129     -182613.452       -1685.820          17.000  
G29  23047313.020     -263775.655       -1247.244          20.000                                                                  
G31  20725276.783       -4218.371         -33.612          26.000                                                                  
G32  20273902.813      129475.553          -0.010          22.000    20273901.636       68553.003         377.503          20.000  
R 1  19649382.141                                          18.000  
R 2  20035770.765                                          25.000  
R12  19683459.603                                          17.000  
E 2  23175460.323       20657.698         132.896          22.000    23175465.899        9812.563          98.139          15.000  
E 8  24016553.473     -257393.362       -1316.601          16.000    24016554.530      -47384.734        -980.804          19.000  
E25  24973398.288      507987.557        2372.590          25.000    24973401.919      164010.523        1771.264          24.000  
E30  25691376.593     -424261.115       -2002.857          14.000    25691368.070      -20401.174       -1497.992          20.000  
J 2  38399504.210      217779.462         937.368          20.000    38399503.836      117157.341         697.876          20.000  
C 6  36213801.506      -37792.399        -169.557          17.000                                                                                                                                  
C 9  37065259.250      -39698.935        -253.648          19.000                                                                                                                                  
C14  22803955.236     -180448.007       -1194.805          13.000                                                                                                                                  
C24  23083337.173     -212152.811       -1145.220          22.000                                                                    23083333.515      -73075.703        -867.075          18.000  
C26  21868551.075      162654.217         956.130          24.000                                                                    21868549.449       32074.311         718.523          20.000  
C33  24751542.890     -163269.480       -2358.624          17.000                                                                                                                                  
C35  25832238.645     -277604.288       -1803.878          20.000                                                                                                                                  
> 2022  1 25  3 14 52.0000000  0 20                     
G25  21832975.097      755919.573        3117.645          32.000    21832980.892      372561.607        2329.569          29.000  
G26  21325758.688     -534537.174       -2253.914          21.000    21325751.805     -189226.663       -1684.065          15.000  
G29  23047075.479     -270335.265       -1248.937          20.000                                                                  
G31  20725271.627       -4400.169         -34.704          24.000                                                                  
G32  20274001.247      132133.086         505.167          25.000    20273996.956       70034.692         376.769          20.000  
R 1  19649830.812                                          17.000  
R 2  20035328.961                                          25.000  
R12  19683506.692                                          15.000  
E 2  23175485.067       21352.917         132.182          22.000    23175490.940       10196.474          96.888          13.000  
E 8  24016303.158     -264307.032       -1312.729          13.000    24016303.735      -51230.499        -982.735          20.000  
E25  24973849.577      520452.400        2371.856          25.000    24973853.627      170961.570        1770.282          24.000  
E30  25690995.394     -434788.140       -2004.621          13.000    25690986.783      -26290.593       -1503.086          18.000  
J 2  38399683.276      222707.610         938.285          22.000    38399683.329      119906.104         699.082          20.000  
C 6  36213769.094      -38697.339        -176.034          17.000                                                                                                                                  
C 9  37065210.782      -41013.803        -251.880          18.000                                                                                                                                  
C14  22803724.546     -186674.109          -0.010          12.000                                                                                                                                  
C24  23083117.335     -218117.860       -1145.415          20.000                                                                    23083112.691      -76477.980        -866.576          16.000  
C26  21868733.979      167625.036         953.915          21.000                                                                    21868733.505       34897.110         716.676          20.000  
C33  24751090.022     -175550.515       -2358.094          16.000                                                                                                                                  
C35  25831891.791     -286999.532       -1805.292          22.000                                                                                                                                  
> 2022  1 25  3 14 53.0000000  0 19                     
G25  21833568.230      772315.596        3120.105          30.000    21833574.583      381703.392        2329.055          30.000  
G26  21325328.732     -546384.582       -2254.060          22.000    21325324.223     -195836.439       -1685.299          16.000  
G29  23046838.688     -276905.058       -1249.931          20.000                                                                  
G31  20725265.484       -4582.483         -33.683          25.000                                                                  
G32  20274092.966      134787.328         503.738          28.000    20274093.072       71512.668         376.461          22.000  
R 1  19650279.640                                          17.000  
R 2  20034883.884                                          20.000  
R12  19683549.829                                          17.000  
E 2  23175510.824       22053.585         134.696          20.000    23175515.947       10579.618          98.334          14.000  
E 8  24016058.968     -271212.525       -1314.434          18.000    24016055.043      -55082.942        -981.105          20.000  
E25  24974300.857      532914.242        2371.415          21.000    24974305.073      177910.530        1770.138          27.000  
E30  25690613.854     -445325.049       -2005.965          13.000    25690603.918      -32188.137       -1502.796          17.000  
J 2  38399860.701      227630.043         936.197          22.000    38399862.238      122646.344         694.821          23.000  
C 6  36213735.409      -39612.642        -174.980          17.000                                                                                                                                  
C 9  37065162.499      -42326.832        -252.714          18.000                                                                                                                                  
C14  22803494.980     -192900.041          -0.010          18.000                                                                                                                                  
C24  23082897.602     -224082.733       -1146.903          20.000                                                                    23082894.493      -79870.351        -863.432          14.000  
C26  21868917.154      172595.713         954.643          24.000                                                                    21868917.064       37725.941         720.537          19.000  
C35  25831544.878     -296404.155       -1807.165          20.000                                                                                                                                  
> 2022  1 25  3 14 54.0000000  0 20                     
G25  21834160.386      788704.092        3118.700          29.000    21834168.083      390843.882        2328.913          29.000  
G26  21324899.431     -558230.814       -2254.938          20.000    21324896.221     -202446.786       -1685.790          18.000  
G29  23046606.427     -283473.410       -1250.163          21.000                                                                  
G31  20725259.442       -4767.378         -36.855          26.000                                                                  
G32  20274188.827      137432.775         503.935          21.000    20274189.107       72995.379         379.496          22.000  
R 1  19650721.637                                          17.000  
R 2  20034440.797                                          18.000  
R12  19683592.931                                          17.000  
E 2  23175536.073       22754.262         132.700          21.000    23175536.755       10967.057          98.646          16.000  
E 8  24015808.881     -278119.345       -1313.999          21.000    24015805.331      -58936.979        -982.623          22.000  
E25  24974751.613      545371.694        2370.213          23.000    24974756.379      184857.856        1770.105          26.000  
E30  25690232.132     -455867.373       -2006.608          14.000    25690220.660      -38087.136       -1504.010          17.000  
J 2  38400039.129      232541.965         935.885          20.000    38400041.094      125390.961         697.446          21.000  
C 6  36213701.950      -40521.517        -174.832          16.000                                                                                                                                  
C 9  37065112.975      -43658.896        -257.752          18.000                                                                                                                                  
C14  22803265.291     -199112.656       -1191.758          17.000                                                                                                                                  
C24  23082677.180     -230058.841       -1148.184          24.000                                                                    23082674.664      -83257.519        -862.869          17.000  
C26  21869100.521      177567.102         955.352          26.000                                                                    21869100.230       40549.901         719.168          22.000  
C33                                                                                                                                  25036503.750      -32523.496       -1780.011          19.000  
C35  25831197.553     -305817.136       -1809.041          20.000                                                                                                                                  
> 2022  1 25  3 14 55.0000000  0 20                     
G25  21834755.735      805091.494        3118.852          33.000    21834761.573      399981.869        2328.405          30.000  
G26  21324469.021     -570083.162       -2254.850          21.000    21324466.632     -209053.280       -1682.958          17.000  
G29  23046373.764     -290043.403       -1250.515          23.000                                                                  
G31  20725251.756       -4964.833         -38.048          22.000                                                                  
G32  20274284.956      140076.385         502.915          30.000    20274285.778       74472.381         377.244          17.000  
R 1  19651170.064                                          19.000  
R 2  20034000.013                                          28.000  
R12  19683647.777                                          19.000  
E 2  23175561.062       23445.548         131.278          22.000    23175562.006       11354.084          97.436          17.000  
E 8  24015558.732     -285027.835       -1315.197          20.000    24015556.447      -62771.307        -974.280          17.000  
E25  24975201.995      557825.036        2369.803          29.000    24975207.336      191801.482        1768.653          23.000  
E30  25689851.919     -466418.014       -2009.282          17.000    25689840.884      -43984.511       -1501.745          19.000  
J 2  38400217.688      237459.806         935.900          18.000    38400219.156      128136.812         697.446          19.000  
C 6  36213664.572      -41434.855        -175.923          23.000                                                                                                                                  
C 9  37065063.680      -45005.739        -258.397          17.000                                                                                                                                  
C14  22803039.774     -205321.523       -1193.064          17.000                                                                                                                                  
C24  23082456.583     -236043.478       -1151.356          27.000                                                                    23082454.015      -86645.438        -864.274          18.000  
C26  21869284.055      182537.825         953.855          29.000                                                                    21869282.788       43371.948         718.667          22.000  
C33                                                                                                                                  25036048.840      -39507.210       -1778.394          19.000  
C35  25830849.680     -315240.954       -1809.043          21.000                                                                                                                                  
> 2022  1 25  3 14 56.0000000  0 20                     
G25  21835350.194      821469.639        3115.879          31.000    21835355.107      409118.329        2330.384          23.000  
G26  21324039.222     -581933.163       -2254.466          24.000    21324038.037     -215655.191       -1683.469          19.000  
G29  23046132.541     -296619.959       -1251.124          22.000                                                                  
G31  20725243.266       -5163.661         -36.334          33.000                                                                  
G32  20274380.258      142716.340         501.793          33.000                                                                  
R 1  19651619.119                                          23.000  
R 2  20033556.079                                          29.000  
R12  19683694.579                                          26.000  
E 2  23175585.248       24129.143         129.850          23.000    23175592.107       11741.103          98.911          19.000  
E 8  24015308.304     -291944.550       -1316.997          26.000    24015306.595      -66599.261        -981.195          23.000  
E25  24975653.432      570271.602        2368.512          28.000    24975658.381      198742.515        1769.526          24.000  
E30  25689469.403     -476981.289       -2010.671          16.000    25689459.091      -49879.429       -1503.217          18.000  
J 2  38400396.012      242374.030         933.679          23.000    38400396.450      130873.510         697.725          22.000  
C 6  36213631.846      -42355.262        -177.127          27.000                                                                                                                                  
C 9  37065014.010      -46352.830        -259.096          23.000                                                                                                                                  
C14  22802813.331     -211544.781       -1197.028          22.000                                                                                                                                  
C24  23082235.489     -242043.179       -1153.317          22.000                                                                    23082233.793      -90038.494        -865.895          19.000  
C26  21869467.239      187508.554         953.548          30.000                                                                    21869465.701       46190.725         719.401          22.000  
C33                                                                                                                                  25035592.639      -46490.430       -1781.418          19.000  
C35  25830502.182     -324664.488       -1809.455          21.000                                                                                                                                  
> 2022  1 25  3 14 57.0000000  0 20                     
G25  21835943.850      837861.312        3120.191          29.000    21835947.586      418258.625        2328.983          21.000  
G26  21323610.252     -593780.040       -2252.911          20.000    21323608.526     -222261.380       -1683.283          17.000  
G29  23045894.938     -303186.649       -1248.781          23.000                                                                  
G31  20725238.127       -5350.171         -32.520          29.000                                                                  
G32  20274477.759      145366.765         508.161          33.000    20274474.297       77430.879         379.507          22.000  
R 1  19652077.589                                          22.000  
R 2  20033113.045                                          28.000  
R12  19683732.603                                          29.000  
E 2  23175611.022       24822.300         134.281          25.000    23175613.004       12126.875          97.288          19.000  
E 8  24015051.035     -298857.768       -1315.265          29.000    24015055.321      -70462.860        -985.017          23.000  
E25  24976104.616      582726.819        2370.481          26.000    24976109.277      205684.782        1768.544          21.000  
E30  25689086.677     -487550.728       -2011.634          13.000    25689076.313      -55775.834       -1503.129          14.000  
J 2  38400571.335      247281.675         934.423          27.000    38400574.878      133620.205         700.308          21.000  
C 6  36213598.684      -43275.988        -174.392          24.000                                                                                                                                  
C 9  37064962.410      -47704.522        -259.157          25.000                                                                                                                                  
C14  22802587.115     -217768.534       -1195.593          24.000                                                                                                                                  
C24  23082014.630     -248050.512       -1153.646          24.000                                                                    23082005.876      -93435.696        -864.977          18.000  
C26  21869651.478      192477.138         954.777          28.000                                                                    21869649.033       49014.363         718.214          22.000  
C33  24748810.736      -27971.225       -2363.968          20.000                                                                    24748839.264      -53480.219       -1781.164          17.000  
C35  25830154.996     -334084.772       -1810.533          19.000                                                                                                                                  
> 2022  1 25  3 14 58.0000000  0 20                     
G25  21836537.419      854264.082        3121.395          27.000    21836541.286      427398.076        2328.615          19.000  
G26  21323181.396     -605632.953       -2256.579          19.000    21323179.224     -228868.393       -1683.836          17.000  
G29  23045657.057     -309743.273       -1247.687          21.000                                                                  
G31  20725232.727       -5526.427         -35.605          23.000                                                                  
G32  20274572.671      148014.340         504.965          26.000                                                                  
R 1  19652526.295                                          19.000  
R 2  20032667.750                                          28.000  
R12  19683780.408                                          28.000  
E 2  23175636.246       25514.917         130.750          24.000    23175638.656       12508.505          96.210          21.000  
E 8  24014799.420     -305774.720       -1316.513          20.000    24014804.980      -74324.683        -982.020          19.000  
E25  24976555.242      595180.840        2369.611          26.000    24976560.286      212625.884        1768.143          21.000  
E30  25688703.803     -498123.538       -2011.999          19.000    25688693.186      -61677.706       -1504.372          18.000  
J 2  38400749.039      252179.896         932.956          20.000    38400753.211      136364.370         699.905          18.000  
C 6  36213564.614      -44190.932        -177.727          25.000                                                                                                                                  
C 9  37064913.054      -49044.682        -257.258          22.000                                                                                                                                  
C14  22802355.655     -224000.423       -1196.131          24.000                                                                                                                                  
C24  23081793.379     -254051.761       -1152.154          26.000                                                                    23081785.768      -96834.392        -865.410          19.000  
C26  21869834.697      197440.690         952.204          29.000                                                                    21869832.661       51839.234         719.127          22.000  
C33  24748355.242      -40275.462       -2360.809          23.000                                                                    24748388.229      -60470.267       -1779.870          17.000  
C35  25829807.636     -343503.763       -1808.395          18.000                                                                                                                                  
> 2022  1 25  3 14 59.0000000  0 20                     
G25  21837132.297      870669.120        3120.205          26.000    21837134.393      436534.322        2327.924          19.000  
G26  21322750.960     -617495.440       -2257.305          23.000    21322747.585     -235478.161       -1687.240          19.000  
G29  23045419.054     -316303.088       -1248.528          24.000                                                                  
G31  20725225.825       -5722.267         -37.706          26.000                                                                  
G32  20274667.197      150658.712         503.448          28.000    20274669.999       80368.444         374.455          19.000  
R 1  19652974.373                                          18.000  
R 2  20032225.256                                          31.000  
R12  19683825.831                                          21.000  
E 2  23175661.427       26200.521         130.162          24.000    23175664.491       12887.611          96.998          17.000  
E 8  24014554.280     -312683.401       -1314.014          21.000    24014553.958      -78178.752        -984.088          18.000  
E25  24977005.710      607628.178        2368.396          24.000    24977012.500      219586.942        1772.935          17.000  
E30  25688303.993     -508700.775       -2013.210          20.000    25688305.347      -67588.283       -1504.698          20.000  
J 2  38400924.684      257082.833         932.518          23.000    38400927.731      139108.205         696.646          20.000  
C 6  36213530.709      -45110.403        -176.272          24.000                                                                                                                                  
C 9  37064860.564      -50393.615        -259.667          25.000                                                                                                                                  
C14  22802126.481     -230216.082       -1192.496          23.000                                                                                                                                  
C24  23081572.084     -260039.029       -1149.742          29.000                                                                    23081567.858     -100234.334        -866.837          18.000  
C26  21870018.003      202400.021         954.060          28.000                                                                    21870015.723       54658.282         717.974          24.000  
C33  24747902.836      -52567.537       -2360.706          24.000                                                                    24747932.211      -67453.359       -1779.711          16.000  
C35  25829460.437     -352928.113       -1811.540          17.000                                                                                                                                  
> 2022  1 25  3 15  0.0000000  0 20                     
G25  21837724.575      887060.003        3118.963          19.000    21837727.264      445664.107        2326.924          20.000  
G26  21322321.047     -629360.310       -2257.147          19.000    21322314.252     -242094.764       -1686.195          17.000  
G29  23045181.678     -322878.180       -1252.437          19.000                                                                  
G31  20725218.566       -5934.273         -40.198          27.000                                                                  
G32  20274764.051      153281.475         497.844          20.000    20274763.773       81833.540         373.496          19.000  
R 1  19653423.262                                          16.000  
R 2  20031781.733                                          26.000  
R12  19683872.266                                          21.000  
E 2  23175686.346       26876.563         128.284          21.000    23175689.017       13264.935          95.531          17.000  
E 8  24014298.712     -319603.102       -1318.142          25.000    24014302.937      -82041.665        -984.236          20.000  
E25  24977456.833      620063.481        2366.270          24.000    24977464.103      226539.203        1770.936          17.000  
E30  25687921.407     -519266.050       -2006.171          16.000    25687922.979      -73484.868       -1505.633          17.000  
J 2  38401102.816      261972.949         930.739          19.000    38401104.545      141830.282         691.943          17.000  
C 6  36213496.526      -46033.930        -177.283          20.000                                                                                                                                  
C 9  37064810.736      -51745.263        -258.910          20.000                                                                                                                                  
C14  22801898.756     -236430.769       -1193.472          24.000                                                                                                                                  
C24  23081350.632     -266032.745       -1151.380          21.000                                                                    23081348.413     -103638.012        -867.525          17.000  
C26  21870200.820      207345.900         948.999          24.000                                                                    21870197.790       57460.959         712.845          18.000  
C33  24747450.265      -64863.350       -2361.328          22.000                                                                    24747479.910      -74435.917       -1780.947          17.000  
C35  25829112.597     -362360.832       -1811.371          18.000                                                                                                                                  
> 2022  1 25  3 15  1.0000000  0 20                     
G25  21838317.551      903442.479        3117.015          30.000    21838320.728      454799.274        2326.457          26.000  
G26  21321891.013     -641218.638       -2256.786          17.000    21321885.099     -248705.754       -1685.100          13.000  
G29  23044941.973     -329455.311       -1250.953          22.000                                                                  
G31  20725209.209       -6129.864         -35.894          28.000                                                                  
G32  20274859.650      155908.330         504.086          32.000    20274860.585       83303.383         376.277          15.000  
R 1  19653865.643                                          15.000  
R 2  20031340.155                                          30.000  
R12  19683920.044                                          25.000  
E 2  23175710.837       27564.571         132.182          18.000    23175712.365       13639.007          94.651          16.000  
E 8  24014047.805     -326530.290       -1317.673          21.000    24014052.186      -85893.606        -981.575          19.000  
E25  24977906.562      632503.535        2367.420          20.000    24977913.579      233490.638        1770.966          14.000  
E30  25687536.858     -529818.109       -2010.457          18.000    25687539.538      -79391.548       -1506.750          15.000  
J 2  38401279.578      266863.627         930.802          23.000    38401281.202      144548.426         692.130          14.000  
C 6  36213462.657      -46954.260        -178.432          23.000                                                                                                                                  
C 9  37064760.174      -53106.303        -261.196          21.000                                                                                                                                  
C14  22801669.486     -242647.757       -1194.577          16.000                                                                                                                                  
C24  23081129.878     -272027.021       -1151.931          21.000                                                                    23081127.589     -107040.886        -866.211          19.000  
C26  21870383.707      212295.958         951.112          29.000                                                                    21870379.464       60259.135         713.865          17.000  
C33  24746996.498      -77159.534       -2361.285          22.000                                                                    24747024.826      -81424.324       -1782.148          16.000  
C35  25828760.536     -371796.427       -1812.109          24.000                                                                                                                                  
> 2022  1 25  3 15  2.0000000  0 20                     
G25  21838909.288      919814.726        3115.022          21.000    21838913.285      463923.738        2326.217          17.000  
G26  21321462.584     -653066.565       -2253.625          18.000    21321463.336     -255322.515       -1687.410          17.000  
G29  23044704.415     -336032.825       -1251.922          20.000                                                                  
G31  20725202.970       -6337.241         -41.188          28.000                                                                  
G32  20274956.481      158548.172         501.495          21.000    20274958.219       84775.478         373.490          16.000  
R 1  19654313.756                                          15.000  
R 2  20030896.343                                          30.000  
R12  19683968.094                                          20.000  
E 2  23175736.611       28258.859         129.824          22.000    23175739.169       14018.616          96.379          16.000  
E 8  24013796.888     -333456.119       -1317.620          27.000    24013802.238      -89741.857        -981.636          18.000  
E25  24978356.638      644945.585        2367.245          22.000    24978365.103      240441.432        1771.296          15.000  
E30  25687154.324     -540382.386       -2012.487          15.000    25687155.678      -85305.068       -1506.012          15.000  
J 2  38401457.125      271750.595         927.198          18.000    38401457.598      147262.468         691.925          14.000  
C 6  36213428.623      -47892.451        -181.691          19.000                                                                                                                                  
C 9  37064709.815      -54470.865        -262.346          22.000                                                                                                                                  
C14  22801439.887     -248859.743       -1192.418          23.000                                                                                                                                  
C24  23080909.002     -278019.006       -1151.489          19.000                                                                    23080905.212     -110436.685        -864.722          17.000  
C26  21870567.397      217261.470         952.719          22.000                                                                    21870561.496       63059.922         714.661          17.000  
C33  24746542.871      -89462.835       -2362.616          23.000                                                                    24746571.155      -88413.101       -1778.741          13.000  
C35  25828417.017     -381235.297       -1812.333          21.000                                                                                                                                  
> 2022  1 25  3 15  3.0000000  0 20                     
G25  21839502.271      936192.294        3117.259          20.000    21839506.522      473056.361        2329.755          14.000  
G26  21321033.579     -664916.110       -2255.209          13.000    21321034.357     -261943.367       -1684.275          15.000  
G29  23044467.258     -342607.378       -1251.284          18.000                                                                  
G31  20725194.830       -6548.003         -39.665          20.000                                                                  
G32  20275052.063      161187.871         502.952          32.000    20275053.687       86243.171         373.467          14.000  
R 1  19654761.694                                          13.000  
R 2  20030456.162                                          25.000  
R12  19684016.658                                          28.000  
E 2  23175761.259       28932.228         125.818          18.000    23175764.323       14403.479          98.482          13.000  
E 8  24013546.311     -340374.355       -1314.122          17.000    24013553.197      -93588.673        -980.495          14.000  
E25  24978807.657      657381.513        2366.719          29.000    24978816.409      247389.081        1768.981          13.000  
E30  25686780.506     -550960.136       -2013.750           8.000    25686773.789      -91206.244       -1501.417          13.000  
J 2  38401634.716      276634.381         930.879          27.000    38401634.464      149983.613         694.066          16.000  
C 6  36213393.687      -48846.793        -182.955          20.000                                                                                                                                  
C 9  37064658.879      -55836.949        -262.512          22.000                                                                                                                                  
C14  22801210.356     -255070.718       -1193.563          24.000                                                                                                                                  
C24  23080687.715     -284020.939       -1154.536          23.000                                                                    23080684.834     -113832.669        -866.600          14.000  
C26  21870744.890      222211.112         949.126          17.000                                                                    21870739.984       65865.439         714.318          13.000  
C33                                                                                                                                  25032419.326      -95391.738       -1777.463          11.000  
C35  25828069.569     -390656.787           0.027          17.000                                                                                                                                  
> 2022  1 25  3 15  4.0000000  0 20                     
G25  21840094.087      952568.128        3116.465          19.000    21840100.362      482198.698        2329.479          15.000  
G26  21320604.644     -676763.537       -2254.337          15.000    21320605.326     -268552.600       -1684.857          16.000  
G29  23044228.565     -349176.211       -1249.201          19.000                                                                  
G31  20725186.803       -6755.137         -39.143          28.000                                                                  
G32  20275147.601      163837.036         503.910          17.000    20275148.946       87707.673         373.746          13.000  
R 1  19655209.632                                          13.000  
R 2  20182177.820                                          28.000  
R12  19684064.035                                          26.000  
E 2  23175785.175       29591.511         127.662          24.000    23175789.801       14793.158         101.393          14.000  
E 8  24013295.944     -347295.157       -1318.315          28.000    24013303.144      -97441.441        -983.555          14.000  
E25  24979258.457      669815.643        2365.943          24.000    24979267.018      254325.732        1767.400          14.000  
E30  25686397.362     -561541.339       -2013.346           9.000    25686391.134      -97101.137       -1501.846          16.000  
J 2  38401811.417      281516.926         929.158          19.000    38401814.428      152707.728         693.230          14.000  
C 6  36213358.580      -49797.213        -181.490          16.000                                                                                                                                  
C 9  37064608.049      -57208.276        -263.561          21.000                                                                                                                                  
C14  22800980.868     -261293.285       -1196.417          24.000                                                                                                                                  
C24  23080465.818     -290030.018       -1153.810          24.000                                                                    23080464.088     -117234.378        -867.053          17.000  
C26  21870927.175      227152.739          -0.009          24.000                                                                    21870922.120       68667.764         714.519          14.000  
C33  24745637.362      -20339.775       -2362.066          20.000                                                                    24745665.742     -102360.919       -1775.836          13.000  
C35  25827722.360     -400071.856           0.027          18.000                                                                                                                                  
> 2022  1 25  3 15  5.0000000  0 20                     
G25  21840687.272      968950.203        3117.259          19.000    21840694.245      491341.524        2329.646          16.000  
G26  21320175.661     -688612.594           0.002          16.000    21320176.238     -275162.803       -1683.983          18.000  
G29  23043990.457     -355742.693       -1251.501          18.000                                                                  
G31  20725179.051       -6959.345         -39.280          23.000                                                                  
G32  20275243.704      166490.504          -0.010          25.000    20275244.700       89179.637         375.303          17.000  
R 1  19655658.050                                          14.000  
R 2  20181735.004                                          28.000  
R12  19684109.510                                          27.000  
E 2  23175810.329       30269.493         129.243          24.000    23175815.828       15191.516         100.092          14.000  
E 8  24013045.106     -354227.715       -1319.544          20.000    24013052.646     -101301.521        -983.123          16.000  
E25  24979708.760      682247.074        2365.500          26.000    24979717.565      261261.452        1766.033          13.000  
E30  25686014.331     -572118.469       -2012.720          11.000    25686009.952     -102994.737       -1501.315          15.000  
J 2  38401988.100      286395.394         927.829          22.000    38401990.964      155423.860         691.029          16.000  
C 6  36213324.083      -50733.866        -180.073          16.000                                                                                                                                  
C 9  37064557.600      -58577.887        -263.720          19.000                                                                                                                                  
C14  22800751.764     -267512.261       -1193.145          24.000                                                                                                                                  
C24  23080244.576     -296036.772       -1153.168          24.000                                                                    23080242.549     -120631.015        -865.923          16.000  
C26  21871110.097      232104.880         952.786          19.000                                                                    21871106.080       71464.919         711.216          16.000  
C33  24745174.669      -32644.402       -2362.249          18.000                                                                                                                                  
C35  25827371.518     -409495.915       -1810.666          17.000                                                                                                                                  
> 2022  1 25  3 15  6.0000000  0 20                     
G25  21841276.810      985322.978        3112.711          28.000    21841289.149      500479.728        2327.274          23.000  
G26  21319746.507     -700466.316           0.002          17.000    21319747.512     -281781.798       -1687.868          17.000  
G29  23043752.333     -362317.437       -1251.409          22.000                                                                  
G31  20725169.392       -7166.740         -39.920          29.000                                                                  
G32  20275338.928      169130.349         501.440          25.000    20275340.491       90652.150         375.927          16.000  
R 1  19656110.901                                          15.000  
R 2  20181290.442                                          29.000  
R12  19684156.181                                          25.000  
E 2  23175833.870       30943.046         128.173          25.000    23175840.965       15583.388          99.956          17.000  
E 8  24012793.579     -361159.821       -1320.376          24.000    24012799.365     -105160.275        -984.538          18.000  
E25  24980158.059      694674.955        2364.028          27.000    24980163.767      268195.437        1766.878          19.000  
E30  25685631.334     -582695.546       -2013.059          12.000    25685627.776     -108882.748       -1498.682          13.000  
J 2  38402164.740      291273.433         930.677          18.000    38402167.726      158143.337         692.592          19.000  
C 6  36213288.698      -51678.272        -183.386          18.000                                                                                                                                  
C 9  37064506.508      -59954.158        -264.067          19.000                                                                                                                                  
C14  22800522.723     -273727.269       -1193.905          19.000                                                                                                                                  
C24  23080023.752     -302035.432       -1150.341          22.000                                                                    23080016.996     -124034.028        -868.326          19.000  
C26  21871290.122      237057.077         949.886          27.000                                                                    21871287.571       74257.183         711.594          15.000  
C33  24744722.124      -44938.289       -2362.747          20.000                                                                                                                                  
C35  25827023.305     -418927.700       -1811.928          19.000                                                                                                                                  
> 2022  1 25  3 15  7.0000000  0 21                     
G25  21841870.702     1001687.213        3113.629          25.000    21841880.842      509607.986        2324.891          22.000  
G26  21319317.127     -712324.017           0.002          17.000    21319317.774     -288402.217       -1686.602          16.000  
G29  23043511.555     -368890.400       -1250.142          22.000                                                                  
G31  20725163.974       -7387.045         -48.995          25.000                                                                  
G32  20275426.807      171759.709         501.095          25.000    20275437.470       92126.747         376.576          19.000  
R 1  19656559.275                                          14.000  
R 2  20180847.119                                          25.000  
R12  19684203.235                                          29.000  
E 2  23175857.828       31609.957         124.516          20.000    23175866.668       15976.469          99.328          17.000  
E 8  24012541.868     -368101.239       -1322.132          24.000                                                                  
E25  24980607.664      707102.111        2362.283          19.000    24980611.522      275125.836        1767.786          20.000  
E30  25685264.968     -593273.752       -2013.180          12.000    25685246.306     -114759.583       -1497.908          15.000  
J 2  38402342.130      296150.997         926.750          20.000    38402346.267      160853.601         689.759          21.000  
C 6  36213250.218      -52632.116        -181.441          23.000                                                                                                                                  
C 9  37064455.283      -61340.485        -267.368          23.000                                                                                                                                  
C14  22800293.366     -279945.309       -1194.447          22.000                                                                                                                                  
C21  23255466.802       71031.370        2996.675          17.000                                                                                                                                  
C24  23079801.445     -308037.004       -1153.978          29.000                                                                    23079792.996     -127441.809        -870.961          22.000  
C26  21871469.248      242002.617         948.614          23.000                                                                    21871468.548       77053.860         715.669          20.000  
C33  24744274.569      -57247.981       -2366.936          27.000                                                                                                                                  
C35  25826674.280     -428361.772       -1812.610          21.000                                                                                                                                  
> 2022  1 25  3 15  8.0000000  0 21                     
G25  21842461.497     1018050.880        3113.404          24.000    21842472.422      518733.420        2325.663          24.000  
G26  21318881.151     -724185.094       -2256.917          26.000    21318885.262     -295019.982       -1683.660          23.000  
G29  23043272.731     -375468.007       -1252.847          21.000                                                                  
G31  20725157.077       -7623.848         -46.827          24.000                                                                  
G32  20275524.928      174400.461         500.799          27.000    20275531.953       93606.802         375.897          21.000  
R 1  19657007.711                                          14.000  
R 2  20180402.252                                          28.000  
R12  19684249.548                                          29.000  
E 2  23175881.927       32276.651         126.760          22.000    23175886.012       16353.121          92.697          19.000  
E 8  24012291.030     -375044.927       -1321.218          25.000    24012292.244     -112899.945        -993.922          20.000  
E25  24981056.885      719523.245        2362.374          26.000    24981061.424      282052.952        1767.452          21.000  
E30  25684881.657     -603859.316       -2015.047          18.000    25684861.748     -120645.640       -1502.304          19.000  
J 2  38402518.779      301023.306         926.515          22.000    38402519.958      163560.042         689.168          19.000  
C 6  36213215.433      -53588.743        -184.644          24.000                                                                                                                                  
C 9  37064403.789      -62728.567        -266.867          23.000                                                                                                                                  
C14  22800063.520     -286166.252       -1194.556          24.000                                                                                                                                  
C21  23256044.971       86618.527        2988.782          16.000                                                                                                                                  
C24  23079579.819     -314048.496       -1156.117          31.000                                                                    23079573.298     -130844.913        -866.365          21.000  
C26  21871652.327      246942.228         948.136          29.000                                                                    21871650.841       79860.907         716.130          24.000  
C33  24743819.476      -69568.201       -2365.786          26.000                                                                    24743847.124     -130275.852       -1784.036          17.000  
C35  25826326.292     -437798.961       -1812.183          16.000                                                                                                                                  
> 2022  1 25  3 15  9.0000000  0 21                     
G25  21843056.802     1034412.077        3114.119          27.000    21843064.543      527849.912        2321.578          20.000  
G26  21318452.207     -736046.031       -2255.305          29.000    21318457.095     -301622.258       -1681.790          24.000  
G29  23043034.570     -382045.090       -1252.986          17.000                                                                  
G31  20725151.598       -7848.444         -43.121          27.000                                                                  
G32  20275622.060      177036.828         504.643          27.000    20275625.395       95088.572         374.938          19.000  
R 1  19657461.644                                          17.000  
R 2  20179957.542                                          27.000  
R12  19684295.381                                          27.000  
E 2  23175906.418       32943.508         127.965          23.000    23175910.634       16720.515          97.698          21.000  
E 8  24012039.695     -381996.127       -1323.459          23.000    24012040.595     -116782.183        -985.182          20.000  
E25  24981505.635      731929.953        2361.882          22.000    24981511.308      288984.774        1763.879          22.000  
E30  25684498.268     -614446.828       -2014.446          21.000    25684474.250     -126539.799       -1504.407          23.000  
J 2  38402695.846      305894.082         927.945          24.000    38402698.762      166263.041         687.603          17.000  
C 6  36213178.137      -54565.028        -189.456          22.000                                                                                                                                  
C 9  37064352.136      -64127.868        -268.875          23.000                                                                                                                                  
C14  22799834.320     -292384.322       -1194.970          22.000                                                                                                                                  
C21  23256619.232      102189.915        2992.054          17.000                                                                                                                                  
C24  23079358.061     -320055.525       -1152.077          28.000                                                                    23079351.890     -134249.281        -867.634          19.000  
C26  21871834.586      251886.901         947.970          26.000                                                                    21871832.524       82657.965         712.729          21.000  
C33  24743364.750      -81896.257       -2367.975          19.000                                                                    24743389.928     -137272.347       -1779.960          15.000  
C35  25825978.574     -447228.421       -1809.571          16.000                                                                                                                                  
> 2022  1 25  3 15 10.0000000  0 21                     
G25  21843648.199     1050757.527        3108.142          26.000    21843656.193      536961.179        2320.732          22.000  
G26  21318023.918     -747889.149       -2253.317          29.000    21318028.186     -308226.633       -1682.190          26.000  
G29  23042797.090     -388610.924       -1247.614          17.000                                                                  
G31  20725143.423       -8075.162         -44.086          28.000                                                                  
G32  20275717.485      179679.794         502.109          31.000    20275720.749       96554.301         373.347          20.000  
R 1  19657914.686                                          17.000  
R 2  20179514.280                                          24.000  
R12  19684341.424                                          27.000  
E 2  23175930.770       33615.123         127.305          27.000    23175935.553       17107.362          95.523          24.000  
E 8  24011787.548     -388951.111       -1325.410          26.000    24011790.420     -120645.789        -983.573          19.000  
E25  24981955.946      744344.341        2360.523          24.000    24981960.232      295896.628        1759.106          20.000  
E30  25684114.932     -625032.850       -2014.085          20.000    25684092.108     -132429.938       -1498.735          22.000  
J 2  38402873.603      310777.990         926.263          22.000    38402872.444      168961.103         687.994          19.000  
C 6  36213142.323      -55547.202        -188.592          24.000                                                                                                                                  
C 9  37064300.328      -65531.032        -269.875          21.000                                                                                                                                  
C14  22799604.676     -298611.730       -1197.819          20.000                                                                                                                                  
C21  23257194.155      117779.000        2995.087          17.000                                                                                                                                  
C24  23079136.679     -326059.903       -1152.781          24.000                                                                    23079130.612     -137660.430        -870.477          19.000  
C26  21872016.454      256817.096         945.995          27.000                                                                    21872014.549       85450.983         710.179          20.000  
C33  24742910.128      -94228.540       -2368.049          26.000                                                                    24742937.557     -144258.380       -1781.572          17.000  
C35  25825631.907     -456656.408       -1811.245          16.000                                                                                                                                  
> 2022  1 25  3 15 11.0000000  0 21                     
G25  21844241.358     1067108.318        3109.189          26.000    21844248.628      546085.812        2318.450          23.000  
G26  21317595.227     -759735.983       -2253.219          30.000    21317599.652     -314828.237       -1679.654          27.000  
G29  23042559.096     -395183.135       -1252.352          17.000                                                                  
G31  20725133.397       -8305.521         -45.568          28.000                                                                  
G32  20275813.662      182321.767         500.607          28.000    20275816.830       98005.876         369.844          20.000  
R 1  19658363.113                                          15.000  
R 2  20179070.530                                          24.000  
R12  19684387.265                                          25.000  
R13  22357610.599                                          16.000  
E 2  23175954.747       34281.331         125.505          23.000    23175959.460       17477.846          93.473          22.000  
E 8  24011536.247     -395904.337       -1325.181          27.000    24011540.471     -124518.628        -987.500          19.000  
E25  24982405.167      756745.437        2356.141          25.000    24982409.915      302820.997        1761.988          21.000  
E30  25683731.813     -635612.136       -2009.594          23.000    25683707.785     -138329.799       -1500.653          23.000  
J 2  38403052.546      315642.906         924.348          23.000    38403050.331      171668.263         689.715          19.000  
C 6  36213106.114      -56531.001        -190.167          25.000                                                                                                                                  
C 9  37064248.573      -66933.372        -269.017          24.000                                                                                                                                  
C21  23257773.642      133385.447        2996.853          17.000                                                                                                                                  
C24  23078915.436     -332064.740       -1151.827          24.000                                                                    23078909.221     -141067.943        -865.464          20.000  
C26  21872198.617      261749.248         942.708          28.000                                                                    21872197.052       88250.689         709.702          22.000  
C33  24742457.548     -106544.554       -2366.994          27.000                                                                    24742482.237     -151257.336       -1786.125          17.000  
C35  25825284.180     -466086.260       -1810.461          16.000                                                                                                                                  
> 2022  1 25  3 15 12.0000000  0 18                     
G25  21844833.077     1083444.742        3105.926          23.000    21844839.518      555191.018        2319.030          24.000  
G26  21317167.444     -771590.454       -2254.183          24.000    21317171.302     -321429.456       -1683.622          24.000  
G29  23042325.463     -401770.237       -1254.921          17.000                                                                  
G31  20725126.134       -8525.962         -42.664          23.000                                                                  
G32  20275909.374      184958.173         501.200          25.000    20275910.841       99458.054         368.466          19.000  
R 1  19658802.056                                          14.000  
R 2  20178627.277                                          20.000  
R12  19684433.316                                          25.000  
E 2  23175978.784       34947.869         127.172          23.000    23175982.974       17854.024          93.414          21.000  
E 8  24011284.824     -402853.145       -1324.312          23.000    24011289.668     -128376.522        -983.216          18.000  
E25  24982854.231      769149.326        2359.061          20.000                                                                  
E30  25683348.931     -646186.351       -2015.778          22.000    25683326.081     -144227.636       -1502.563          20.000  
J 2  38403228.209      320508.086         925.441          22.000    38403226.317      174376.542         690.337          18.000  
C 6  36213070.037      -57512.296        -189.221          22.000                                                                                                                                  
C24  23078693.487     -338069.726       -1153.280          24.000                                                                    23078687.752     -144477.960        -867.105          19.000  
C26  21872380.239      266672.850         944.063          26.000                                                                    21872379.145       91056.564         712.819          20.000  
C33  24742002.909     -118867.858       -2366.483          27.000                                                                    24742027.205     -158270.514       -1788.794          17.000  
C35  25824936.430     -475517.103       -1811.772          15.000                                                                                                                                  
> 2022  1 25  3 15 13.0000000  0 18                     
G25  21845425.774     1099781.726        3106.914          28.000    21845430.478      564290.476        2316.454          24.000  
G26  21316739.146     -783441.301       -2252.559          25.000    21316742.532     -328036.560       -1679.062          27.000  
G29  23042087.338     -408357.442       -1253.171          19.000                                                                  
G31  20725119.573       -8750.458         -43.609          23.000                                                                  
G32  20276002.966      187597.168         501.542          27.000    20276006.868      100919.321         377.409          20.000  
R 1  19659250.937                                          17.000  
R 2  20178182.401                                          20.000  
R12  19684478.164                                          23.000  
E 2  23176003.878       35621.846         127.514          24.000    23176008.006       18232.733         100.611          21.000  
E 8  24011033.026     -409808.940       -1325.795          19.000    24011039.039     -132238.945        -984.379          17.000  
E25  24983303.374      781555.130        2361.100          20.000    24983308.453      316662.538        1760.742          20.000  
E30  25682965.341     -656778.555       -2016.523          22.000    25682942.867     -150131.494       -1500.588          23.000  
J 2  38403402.685      325373.165         924.420          23.000    38403401.273      177083.940         686.510          20.000  
C 6  36213034.249      -58482.939        -187.119          20.000                                                                                                                                  
C24  23078471.965     -344073.676       -1156.088          23.000                                                                    23078466.850     -147877.415        -866.505          19.000  
C26  21872562.812      271594.400         944.714          23.000                                                                    21872561.448       93861.734         715.456          20.000  
C33  24741548.985     -131180.772       -2363.839          21.000                                                                    24741572.104     -165281.928       -1786.522          17.000  
C35  25824591.096     -484944.531       -1810.135          13.000                                                                                                                                  
> 2022  1 25  3 15 14.0000000  0 19                     
G25  21846017.738     1116113.340        3106.505          24.000    21846023.236      573414.708        2329.982          23.000  
G26  21316310.132     -795279.195       -2251.047          23.000    21316313.964     -334638.767       -1678.018          23.000  
G29  23041846.656     -414946.761       -1254.980          20.000                                                                  
G31  20725110.665       -8984.893         -46.762          20.000                                                                  
G32  20276097.761      190221.591         497.992          25.000    20276102.945      102403.813         378.143          18.000  
R 1  19659700.184                                          17.000  
R 2  20177739.872                                          21.000  
R12  19684526.309                                          23.000  
E 2  23176028.491       36301.367         130.428          22.000    23176033.387       18624.305          99.112          18.000  
E 8  24010780.696     -416773.114       -1324.969          18.000    24010787.285     -136109.097        -987.591          15.000  
E25  24983752.813      793966.813        2361.786          20.000    24983755.755      323552.770        1755.366          17.000  
E30  25682582.109     -667361.399       -2015.032          22.000    25682559.591     -156037.513       -1505.379          20.000  
J 2  38403577.597      330235.809         923.115          19.000    38403577.494      179786.141         688.390          18.000  
C 6  36212998.618      -59457.714        -187.502          23.000                                                                                                                                  
C21  23259512.460       45175.540        2998.131          19.000                                                                                                                                  
C24  23078250.173     -350093.735       -1156.447          20.000                                                                    23078246.715     -151274.322        -865.574          17.000  
C26  21872744.704      276525.300         947.701          22.000                                                                    21872743.707       96664.364         711.939          20.000  
C33  24741094.782     -143494.429       -2364.615          19.000                                                                    24741115.728     -172301.107       -1787.952          12.000  
C35  25824243.343     -494375.843       -1810.859          15.000                                                                                                                                  
> 2022  1 25  3 15 15.0000000  0 19                     
G25  21846609.387     1132468.238        3109.723          23.000    21846616.500      582556.696        2329.338          24.000  
G26  21315881.136     -807117.572       -2253.248          20.000    21315886.503     -341231.051       -1675.066          24.000  
G29  23041597.955     -421535.898       -1252.246          21.000                                                                  
G31  20725101.203       -9213.530         -43.493          21.000                                                                  
G32  20276195.620      192846.096         498.088          26.000    20276200.132      103900.861         382.849          18.000  
R 1  19660153.549                                          18.000  
R 2  20177297.343                                          23.000  
R12  19684572.709                                          21.000  
E 2  23176053.279       36979.508         128.077          20.000    23176058.298       19012.496          99.922          20.000  
E 8  24010528.733     -423738.577       -1324.171          20.000    24010534.685     -139981.629        -985.693          16.000  
E25  24984202.069      806371.415        2359.141          20.000    24984203.414      330445.210        1757.964          19.000  
E30  25682198.825     -677946.138       -2014.852          22.000    25682177.188     -161935.439       -1499.959          20.000  
J 2  38403752.247      335090.140         923.811          21.000    38403753.575      182493.179         690.217          19.000  
C 6  36212962.435      -60440.416        -188.057          19.000                                                                                                                                  
C21  23260087.776       60778.710        2996.887          19.000                                                                                                                                  
C24  23078028.782     -356102.267       -1151.912          21.000                                                                    23078025.385     -154675.955        -867.862          20.000  
C26  21872926.055      281461.102         947.721          23.000                                                                    21872925.311       99458.331         708.339          20.000  
C33  24740640.945     -155800.956       -2364.874          17.000                                                                    24740659.990     -179322.177       -1789.086          11.000  
C35  25823897.643     -503814.305           0.027          15.000                                                                                                                                  
> 2022  1 25  3 15 16.0000000  0 19                     
G25  21847201.891     1148803.303        3109.084          24.000    21847208.829      591691.993        2323.310          22.000  
G26  21315452.462     -818950.103       -2251.876          19.000    21315458.388     -347821.433       -1676.696          22.000  
G29  23041364.707     -428114.783       -1250.548          22.000                                                                  
G31  20725090.357       -9444.111         -43.272          23.000                                                                  
G32  20276293.629      195479.476         502.739          25.000    20276296.248      105381.352         373.085          21.000  
R 1  19660603.608                                          19.000  
R 2  20176854.710                                          23.000  
R12  19684618.812                                          21.000  
E 2  23176076.942       37655.027         128.981          21.000    23176083.522       19401.660          99.326          18.000  
E 8  24010277.066     -430692.888       -1324.010          20.000    24010281.639     -143851.948        -986.474          17.000  
E25  24984650.260      818773.747        2356.767          24.000    24984650.768      337328.823        1756.708          18.000  
E30  25681789.933     -688529.997       -2010.050          23.000    25681794.253     -167834.339       -1504.330          20.000  
J 2  38403927.483      339937.194         921.794          24.000    38403928.610      185185.876         686.621          19.000  
C 6  36212926.010      -61433.754        -191.324          21.000                                                                                                                                  
C21  23260662.342       76370.419        2996.078          19.000                                                                                                                                  
C24  23077808.264     -362098.497       -1150.891          25.000                                                                    23077804.317     -158085.044        -867.254          21.000  
C26  21873108.506      286396.023         948.200          23.000                                                                    21873106.331      102248.698         710.921          19.000  
C33  24740186.707     -168118.997       -2364.257          15.000                                                                    24740204.338     -186342.049       -1788.904          13.000  
C35  25823549.297     -513260.362           0.027          14.000                                                                                                                                  
> 2022  1 25  3 15 17.0000000  0 19                     
G25  21847794.727     1165145.151        3112.295          22.000    21847801.997      600824.471        2327.243          19.000  
G26  21315024.478     -830793.249       -2254.048          22.000    21315029.689     -354422.468       -1675.720          22.000  
G29  23041119.575     -434691.923       -1251.100          20.000                                                                  
G31  20725084.459       -9667.345         -42.864          28.000                                                                  
G32  20276388.364      198129.945         504.608          25.000    20276390.844      106850.044         376.422          17.000  
R 1  19661053.186                                          17.000  
R 2  20176413.193                                          27.000  
R12  19684668.074                                          25.000  
E 2  23176101.320       38328.805         128.540          21.000    23176109.043       19791.443          99.846          17.000  
E 8  24010025.215     -437645.909       -1321.612          23.000    24010030.391     -147724.120        -987.543          17.000  
E25  24985098.242      831162.238        2357.276          24.000    24985099.020      344233.671        1759.192          17.000  
E30  25681408.690     -699095.487       -2010.416          21.000    25681411.676     -173732.264       -1494.822          21.000  
J 2  38404101.967      344784.869         925.534          21.000    38404104.037      187883.977         687.484          17.000  
C 6  36212889.619      -62429.901        -190.136          20.000                                                                                                                                  
C21  23261237.528       91960.433        2992.397          20.000                                                                                                                                  
C24  23077586.812     -368101.825       -1152.511          21.000                                                                    23077583.284     -161484.928        -867.890          17.000  
C26  21873290.442      291330.826         946.599          23.000                                                                    21873290.954      105046.197         715.275          17.000  
C33  24739734.756     -180414.996       -2360.836          14.000                                                                                                                                  
C35  25823201.397     -522695.383           0.027          13.000                                                                                                                                  
> 2022  1 25  3 15 18.0000000  0 19                     
G25  21848386.552     1181485.332        3108.325          21.000    21848394.650      609952.635        2325.007          19.000  
G26  21314595.883     -842638.237       -2254.371          21.000    21314602.856     -361004.406       -1677.813          24.000  
G29  23040883.534     -441283.494       -1254.687          20.000                                                                  
G31  20725076.179       -9901.930         -45.538          24.000                                                                  
G32  20276484.504      200784.598         508.226          26.000    20276487.141      108336.651         381.222          19.000  
R 1  19661502.146                                          17.000  
R 2  20175968.387                                          25.000  
R12  19684714.719                                          22.000  
E 2  23176126.387       39008.372         130.392          21.000    23176130.323       20176.129          97.448          19.000  
E 8  24009774.211     -444593.509       -1322.499          23.000    24009775.094     -151601.605        -987.567          17.000  
E25  24985546.774      843545.910        2358.209          20.000    24985547.875      351138.441        1760.107          18.000  
E30  25681025.153     -709666.189       -2010.435          22.000    25681028.993     -179626.390       -1502.417          20.000  
J 2  38404275.955      349641.283         922.087          21.000    38404278.809      190575.085         686.053          18.000  
C 6  36212853.177      -63425.917        -192.638          19.000                                                                                                                                  
C21  23261811.827      107551.060        2996.540          23.000                                                                                                                                  
C24  23077365.918     -374099.252       -1151.616          21.000                                                                    23077362.268     -164891.545        -869.004          17.000  
C26  21873472.012      296257.039         945.254          20.000                                                                    21873473.117      107848.114         714.898          17.000  
C33  24739281.451     -192706.804       -2361.161          15.000                                                                                                                                  
C35  25822854.336     -532121.926           0.027          14.000                                                                                                                                  
> 2022  1 25  3 15 19.0000000  0 19                     
G25  21848979.780     1197822.376        3108.299          20.000    21848985.209      619078.057        2320.544          22.000  
G26  21314166.494     -854473.427       -2251.376          19.000    21314174.662     -367596.985       -1679.336          22.000  
G29  23040651.728     -447876.275       -1254.652          20.000                                                                  
G31  20725068.532      -10139.082         -42.914          21.000                                                                  
G32  20276582.623      203436.593         505.131          24.000    20276581.839      109808.834         374.195          19.000  
R 1  19661955.040                                          18.000  
R 2  20175523.145                                          25.000  
R12  19684759.435                                          23.000  
E 2  23176150.973       39693.186         132.051          20.000    23176153.243       20551.889          92.449          19.000  
E 8  24009522.649     -451546.944       -1321.123          18.000    24009524.902     -155480.112        -989.291          16.000  
E25  24985995.332      855942.957        2359.671          22.000    24985997.924      358052.166        1761.596          20.000  
E30  25680643.465     -720223.863       -2011.702          20.000    25680646.869     -185518.220       -1500.277          20.000  
J 2  38404450.492      354492.473         923.444          19.000    38404455.484      193290.153         694.712          18.000  
C 6  36212816.366      -64425.590        -190.017          17.000                                                                                                                                  
C21  23262387.317      123155.156        2997.308          25.000                                                                                                                                  
C24  23077145.217     -380095.808       -1153.098          19.000                                                                    23077142.038     -168297.355        -868.136          18.000  
C26  21873653.878      301182.148         946.994          24.000                                                                    21873652.104      110651.488         713.917          17.000  
C33  24738828.191     -205003.853          -0.000          15.000                                                                                                                                  
C35  25822506.609     -541552.032           0.027          15.000                                                                                                                                  
> 2022  1 25  3 15 20.0000000  0 20                     
G25  21849570.409     1214154.046        3108.188          21.000    21849576.387      628190.065        2321.759          22.000  
G26  21313737.925     -866304.144       -2251.473          19.000    21313746.355     -374192.663       -1680.594          23.000  
G29  23040412.721     -454465.647       -1252.938          19.000                                                                  
G31  20725058.699      -10357.758         -41.061          20.000                                                                  
G32  20276676.924      206097.774         509.667          28.000    20276676.969      111282.267         375.142          18.000  
R 1  19662406.870                                          18.000  
R 2  20175080.564                                          24.000  
R12  19684805.329                                          24.000  
E 2  23176176.337       40394.926         135.750          20.000    23176177.098       20915.732          94.052          18.000  
E 8  24009271.087     -458493.761       -1320.671          18.000    24009273.723     -159351.781        -985.820          16.000  
E25  24986443.968      868332.987        2358.410          21.000    24986445.924      364948.711        1756.926          18.000  
E30  25680260.635     -730796.939       -2013.368          20.000    25680265.122     -191400.034       -1498.694          17.000  
J 2  38404624.601      359335.490         923.768          22.000                                                                  
C 6  36212780.316      -65405.976        -186.311          19.000                                                                                                                                  
C 9  37063782.085       -3649.090        -268.723          19.000                                                                                                                                  
C21  23262967.310      138758.759        2995.457          25.000                                                                                                                                  
C24  23076924.227     -386092.592       -1150.685          20.000                                                                    23076921.301     -171702.500        -868.050          17.000  
C26  21873835.824      306112.177         946.617          22.000                                                                    21873835.263      113447.739         712.253          17.000  
C33  24738374.371     -217310.213          -0.000          16.000                                                                                                                                  
C35  25822158.974     -550976.765           0.027          12.000                                                                                                                                  
> 2022  1 25  3 15 21.0000000  0 20                     
G25  21850159.406     1230490.613        3109.257          19.000    21850167.644      637300.895        2323.726          20.000  
G26  21313309.723     -878131.035       -2251.751          21.000    21313320.116     -380756.214       -1675.291          22.000  
G29  23040174.202     -461051.074       -1252.010          23.000                                                                  
G31  20725050.235      -10581.409         -43.905          23.000                                                                  
G32  20276772.444      208764.030         508.193          28.000    20276772.673      112757.306         377.507          19.000  
R 1  19662853.142                                          18.000  
R 2  20174638.672                                          21.000  
R12  19684853.055                                          22.000  
E 2  23176201.745       41094.909         130.451          21.000    23176205.245       21290.380          96.877          17.000  
E 8  24009020.013     -465433.665       -1320.817          23.000    24009022.763     -163220.014        -983.079          15.000  
E25  24986892.630      880722.229        2359.027          21.000    24986895.250      371846.053        1760.535          18.000  
E30  25679878.075     -741362.410       -2010.962          20.000    25679882.649     -197283.820       -1500.938          18.000  
J 2  38404800.020      364186.689         924.771          21.000    38404807.202      198709.749         689.333          18.000  
C 6  36212744.614      -66381.525        -188.946          20.000                                                                                                                                  
C 9  37063731.700       -5053.331        -268.625          17.000                                                                                                                                  
C21  23263542.443      154354.382        2993.805          20.000                                                                                                                                  
C24  23076704.136     -392083.564       -1151.132          21.000                                                                    23076698.227     -175105.905        -865.209          19.000  
C26  21874017.769      311042.973         947.632          22.000                                                                    21874017.339      116254.466         716.748          16.000  
C33  24737920.692     -229612.712          -0.000          15.000                                                                                                                                  
C35  25821811.535     -560397.342           0.027          12.000                                                                                                                                  
> 2022  1 25  3 15 22.0000000  0 19                     
G25  21850750.943     1246824.902        3108.408          19.000    21850759.163      646417.611        2328.621          19.000  
G26  21312880.980     -889962.539       -2250.204          19.000    21312893.205     -387324.497       -1673.566          21.000  
G29  23039935.256     -467640.224       -1254.620          22.000                                                                  
G31  20725043.670      -10796.586         -40.848          23.000                                                                  
G32  20276867.145      211418.729         506.820          26.000    20276868.534      114238.386         375.059          19.000  
R 1  19663302.842                                          18.000  
R 2  20174194.354                                          20.000  
R12  19684900.808                                          28.000  
E 2  23176226.690       41776.757         128.863          21.000    23176230.330       21673.058          98.989          18.000  
E 8  24008768.651     -472376.939       -1320.594          19.000    24008772.335     -167079.851        -983.509          15.000  
E25  24987341.258      893117.452        2359.567          18.000    24987344.279      378757.094        1763.534          17.000  
E30  25679495.524     -751928.585       -2012.272          19.000    25679499.783     -203182.656       -1506.852          20.000  
J 2  38404975.639      369031.714         922.349          23.000    38404982.934      201415.186         689.724          17.000  
C 6  36212708.512      -67361.831        -185.180          17.000                                                                                                                                  
C21  23264121.101      169938.940        2991.769          24.000                                                                                                                                  
C24  23076483.496     -398071.493       -1151.144          21.000                                                                    23076476.539     -178501.565        -867.063          19.000  
C26  21874199.574      315977.004         947.472          21.000                                                                    21874199.772      119060.463         714.259          17.000  
C33  24737468.784     -241906.534          -0.000          15.000                                                                                                                                  
C35  25821464.515     -569808.009           0.027          12.000                                                                                                                                  
> 2022  1 25  3 15 23.0000000  0 19                     
G25  21851344.425     1263162.855        3110.450          22.000    21851351.450      655541.119        2327.515          21.000  
G26  21312452.926     -901784.867       -2251.252          18.000                                                                  
G29  23039696.066     -474236.116       -1254.245          22.000                                                                  
G31  20725035.887      -11009.181         -40.095          24.000                                                                  
G32  20276962.796      214070.185         505.251          25.000    20276964.578      115716.603         377.204          19.000  
R 1  19663759.305                                          19.000  
R 2  20173751.546                                          23.000  
R12  19684947.522                                          19.000  
E 2  23176251.146       42458.180         129.142          21.000    23176255.371       22060.731         100.430          17.000  
E 8  24008517.769     -479310.240       -1318.025          19.000    24008522.736     -170945.583        -986.102          16.000  
E25  24987790.575      905519.418        2362.125          21.000    24987793.430      385675.539        1763.128          16.000  
E30  25679112.841     -762493.419       -2011.377          19.000    25679116.228     -209091.979       -1505.667          17.000  
J 2  38405150.996      373874.646         922.016          25.000    38405157.951      204119.474         691.761          21.000  
C 6  36212672.591      -68337.294        -188.248          19.000                                                                                                                                  
C21  23264694.620      185523.653        2992.543          20.000                                                                                                                                  
C24  23076262.811     -404062.106       -1150.371          21.000                                                                    23076258.123     -181901.051        -868.154          19.000  
C26  21874380.629      320904.123         946.488          24.000                                                                    21874379.387      121862.635         714.310          19.000  
C33  24737015.322     -254202.820          -0.000          16.000                                                                                                                                  
C35  25821117.602     -579215.011           0.027          11.000                                                                                                                                  
> 2022  1 25  3 15 24.0000000  0 19                     
G25  21851937.078     1279507.261        3113.868          20.000    21851941.852      664637.157        2324.771          21.000  
G26  21312026.670     -913613.432       -2250.087          19.000    21312026.662     -400512.946       -1680.636          18.000  
G29  23039455.559     -480827.466       -1252.607          20.000                                                                  
G31  20725027.764      -11223.440         -41.533          25.000                                                                  
G32  20277057.913      216716.111         504.858          27.000    20277060.061      117187.915         372.981          19.000  
R 1  19664209.791                                          17.000  
R 2  20173311.260                                          24.000  
R12  19684994.969                                          22.000  
E 2  23176275.934       43138.785         127.688          21.000    23176279.103       22451.151          99.784          19.000  
E 8  24008266.303     -486244.382       -1317.172          20.000    24008272.700     -174816.709        -986.198          17.000  
E25  24988238.601      917914.522        2362.412          23.000    24988242.843      392586.703        1762.070          19.000  
E30  25678730.080     -773056.478       -2008.485          17.000    25678734.497     -214998.746       -1503.674          17.000  
J 2  38405326.318      378718.219         922.960          25.000    38405333.623      206820.405         682.534          20.000  
C 6  36212636.227      -69323.782        -190.764          18.000                                                                                                                                  
C21  23265269.561      201117.887        2994.252          20.000                                                                                                                                  
C24  23076041.673     -410054.537       -1149.945          21.000                                                                    23076037.622     -185307.585        -867.749          19.000  
C26  21874562.207      325826.752         943.464          19.000                                                                    21874560.372      124658.321         712.741          19.000  
C33  24736562.864     -266500.292          -0.000          14.000                                                                                                                                  
C35  25820770.637     -588624.253           0.027          13.000                                                                                                                                  
> 2022  1 25  3 15 25.0000000  0 19                     
G25  21852527.759     1295858.839        3110.996          22.000    21852533.877      673754.036        2326.141          19.000  
G26  21311599.933     -925436.912       -2250.000          19.000    21311603.940     -407101.903       -1679.758          19.000  
G29  23039216.369     -487423.835       -1251.038          24.000                                                                  
G31  20725020.269      -11440.936         -40.976          24.000                                                                  
G32  20277155.800      219369.452         505.420          28.000    20277154.703      118647.129         376.505          19.000  
R 1  19664660.582                                          17.000  
R 2  20172868.112                                          27.000  
R12  19685041.657                                          22.000  
E 2  23176301.028       43822.502         130.924          21.000    23176304.502       22843.154          99.999          17.000  
E 8  24008015.570     -493170.178       -1317.995          22.000    24008020.195     -178694.305        -987.303          17.000  
E25  24988687.830      930313.670        2360.170          19.000    24988690.345      399476.229        1754.564          17.000  
E30  25678347.956     -783619.898       -2011.092          19.000    25678353.010     -220897.438       -1502.684          17.000  
J 2  38405499.389      383556.351         922.091          23.000    38405507.697      209503.794         689.041          20.000  
C 6  36212599.487      -70321.773        -192.386          17.000                                                                                                                                  
C21  23265844.781      216715.688        2996.387          20.000                                                                                                                                  
C24  23075820.527     -416045.245       -1151.179          23.000                                                                    23075817.270     -188712.449        -867.659          18.000  
C26  21874743.462      330740.440         944.333          23.000                                                                    21874742.168      127454.346         711.280          15.000  
C33  24736109.691     -278789.379          -0.000          13.000                                                                                                                                  
C35  25820424.899     -598033.406           0.027          15.000                                                                                                                                  
> 2022  1 25  3 15 26.0000000  0 19                     
G25  21853119.696     1312205.722        3112.290          21.000    21853126.442      682877.449        2325.723          19.000  
G26  21311171.879     -937258.516       -2248.589          19.000    21311176.523     -413674.458       -1673.707          20.000  
G29  23038978.871     -494005.219       -1251.957          23.000                                                                  
G31  20725013.661      -11646.276         -39.066          21.000                                                                  
G32  20277250.501      222020.405         505.716          27.000    20277251.462      120130.311         381.037          20.000  
R 1  19665111.391                                          17.000  
R 2  20172426.953                                          24.000  
R12  19685089.584                                          21.000  
E 2  23176325.964       44512.208         130.397          20.000    23176330.171       23234.709          98.990          17.000  
E 8  24007764.217     -500109.872       -1324.130          20.000    24007768.249     -182577.570        -990.755          15.000  
E25  24989137.121      942713.917        2361.625          20.000    24989137.393      406356.798        1753.373          14.000  
E30  25677965.396     -794187.910       -2013.338          23.000    25677970.345     -226793.838       -1502.638          17.000  
J 2  38405675.610      388396.022         920.922          23.000    38405683.805      212206.833         690.038          20.000  
C 6  36212562.495      -71326.288        -193.342          17.000                                                                                                                                  
C21  23266420.359      232322.734        2999.302          20.000                                                                                                                                  
C24  23075599.494     -422036.251       -1151.497          24.000                                                                    23075595.957     -192112.602        -865.612          17.000  
C26  21874925.966      335664.226         946.352          25.000                                                                    21874925.029      130245.379         711.289          16.000  
C33  24735656.867     -291069.387          -0.000          13.000                                                                                                                                  
C35  25820077.908     -607442.932           0.027          14.000                                                                                                                                  
> 2022  1 25  3 15 27.0000000  0 19                     
G25  21853713.056     1328560.016        3112.105          19.000    21853719.287      692000.526        2324.397          18.000  
G26  21310744.035     -949078.197       -2248.503          20.000    21310750.973     -420254.557       -1679.010          19.000  
G29  23038740.047     -500591.462       -1253.994          20.000                                                                  
G31  20725007.047      -11858.746         -41.094          22.000                                                                  
G32  20277348.080      224681.148         508.534          27.000    20277348.134      121619.112         376.065          19.000  
R 1  19665569.992                                          18.000  
R 2  20171985.113                                          19.000  
R12  19685135.566                                          22.000  
E 2  23176351.110       45203.890         130.593          20.000    23176353.301       23624.945         100.363          18.000  
E 8  24007512.061     -507072.478       -1326.350          20.000    24007516.224     -186462.455        -990.529          17.000  
E25  24989586.551      955124.194        2361.649          19.000    24989586.440      413249.573        1756.775          16.000  
E30  25677582.723     -804763.990       -2014.446          18.000    25677584.216     -232686.019       -1500.693          17.000  
J 2  38405851.666      393233.403         920.561          22.000    38405859.895      214912.405         691.805          21.000  
C 6  36212524.122      -72326.615        -190.990          20.000                                                                                                                                  
C21  23266996.470      247934.498        2997.268          18.000                                                                                                                                  
C24  23075378.574     -428028.135       -1149.948          23.000                                                                    23075376.687     -195518.347        -869.502          17.000  
C26  21875107.971      340602.212         948.993          23.000                                                                    21875106.782      133039.878         711.444          18.000  
C33  24735205.011     -303356.975          -0.000          13.000                                                                                                                                  
C35  25819731.019     -616849.801           0.027          13.000                                                                                                                                  
> 2022  1 25  3 15 28.0000000  0 19                     
G25  21854305.168     1344917.450        3113.099          21.000    21854311.469      701120.948        2324.849          19.000  
G26  21310316.740     -960907.029       -2251.621          19.000    21310320.808     -426848.066       -1682.799          21.000  
G29  23038502.594     -507181.144       -1252.854          20.000                                                                  
G31  20724997.737      -12074.163         -41.712          23.000                                                                  
G32  20277445.634      227335.482         506.066          26.000    20277445.443      123102.190         382.449          23.000  
R 1  19666020.801                                          19.000  
R 2  20171542.872                                          25.000  
R12  19685183.231                                          21.000  
E 2  23176375.811       45883.598         130.154          21.000    23176373.945       24006.329          92.056          20.000  
E 8  24007260.944     -514027.121       -1321.461          21.000    24007265.552     -190346.435        -989.929          17.000  
E25  24990035.877      967526.591        2359.552          19.000    24990037.013      420139.973        1758.403          17.000  
E30  25677198.924     -815360.399       -2016.481          17.000    25677203.506     -238575.039       -1500.469          17.000  
J 2  38406026.787      398075.181         922.002          25.000    38406035.078      217615.946         688.849          23.000  
C 6  36212480.734      -73319.974        -191.146          21.000                                                                                                                                  
C21  23267572.100      263541.671        2996.418          21.000                                                                                                                                  
C24  23075157.820     -434013.977       -1148.876          25.000                                                                    23075155.113     -198934.309        -869.308          19.000  
C26  21875290.003      345537.254         947.438          26.000                                                                    21875285.464      135828.894         711.687          17.000  
C33  24734751.575     -315652.064          -0.000          13.000                                                                                                                                  
C35  25819382.868     -626263.895           0.027          13.000                                                                                                                                  
> 2022  1 25  3 15 29.0000000  0 19                     
G25  21854899.469     1361279.731        3112.414          23.000    21854903.371      710232.390        2325.321          21.000  
G26  21309888.800     -972728.372       -2248.268          21.000    21309893.478     -433433.829       -1676.533          19.000  
G29  23038263.953     -513773.285       -1254.906          21.000                                                                  
G31  20724990.304      -12295.362         -41.191          26.000                                                                  
G32  20277540.352      229993.406         506.474          29.000    20277541.531      124582.379         380.586          22.000  
R 1  19666475.300                                          18.000  
R 2  20171101.452                                          24.000  
R12  19685227.703                                          24.000  
E 2  23176401.026       46578.208         132.636          20.000    23176399.012       24371.403          95.506          19.000  
E 8  24007009.713     -520959.285       -1318.879          22.000    24007015.831     -194223.120        -984.656          19.000  
E25  24990484.583      979923.820        2358.564          20.000    24990485.134      427036.735        1759.423          17.000  
E30  25676816.111     -825958.634       -2016.832          19.000    25676824.663     -244471.630       -1503.173          19.000  
J 2  38406202.467      402914.727         920.562          24.000    38406210.845      220322.507         689.692          20.000  
C 6  36212445.958      -74313.460        -191.969          19.000                                                                                                                                  
C21  23268146.919      279143.913        2994.695          19.000                                                                                                                                  
C24  23074937.328     -439998.263       -1149.146          25.000                                                                    23074930.703     -202346.495        -868.867          18.000  
C26  21875471.878      350474.767         948.514          25.000                                                                    21875467.530      138613.841         710.087          17.000  
C33  24734298.454     -327939.137          -0.000          11.000                                                                                                                                  
C35  25819035.596     -635682.066           0.027          14.000                                                                                                                                  
> 2022  1 25  3 15 30.0000000  0 19                     
G25  21855489.618     1377628.214        3113.300          28.000    21855495.684      719346.959        2326.720          23.000  
G26  21309459.228     -984540.542       -2246.826          22.000    21309466.524     -440011.880       -1676.424          18.000  
G29  23038023.742     -520369.481       -1254.926          22.000                                                                  
G31  20724982.914      -12505.571         -39.765          27.000                                                                  
G32  20277637.556      232656.297         507.163          29.000    20277638.029      126078.134         381.221          23.000  
R 1  19666928.622                                          18.000  
R 2  20170659.481                                          28.000  
R12  19685275.359                                          21.000  
E 2  23176426.713       47267.293         132.362          22.000    23176427.264       24750.935          98.702          20.000  
E 8  24006758.648     -527892.681       -1319.516          28.000    24006760.237     -198089.150        -985.189          19.000  
E25  24990933.438      992314.019        2359.174          24.000    24990933.108      433940.921        1764.147          20.000  
E30  25676432.390     -836556.580       -2017.116          16.000    25676437.444     -250373.872       -1503.469          17.000  
J 2  38406378.034      407760.866         921.136          23.000    38406383.742      223017.279         686.959          23.000  
C 6  36212409.227      -75308.929        -189.167          19.000                                                                                                                                  
C21  23268722.095      294740.331        2996.216          17.000                                                                                                                                  
C24  23074716.268     -445995.537       -1152.804          23.000                                                                    23074710.429     -205749.633        -866.031          17.000  
C26  21875653.962      355411.227         947.432          22.000                                                                    21875649.859      141406.744         712.142          18.000  
C33  24733845.290     -340228.062          -0.000          12.000                                                                                                                                  
C35  25818688.480     -645094.612           0.027          13.000                                                                                                                                  
> 2022  1 25  3 15 31.0000000  0 19                     
G25  21856083.118     1393989.664        3112.616          24.000    21856088.119      728473.050        2325.466          22.000  
G26  21309031.654     -996348.214       -2246.237          19.000    21309038.915     -446595.362       -1678.595          17.000  
G29  23037787.911     -526965.612       -1255.890          22.000                                                                  
G31  20724977.609      -12719.325         -41.251          22.000                                                                  
G32  20277735.659      235310.788         504.987          28.000    20277733.942      127551.779         373.200          21.000  
R 1  19667385.434                                          18.000  
R 2  20170217.624                                          24.000  
R12  19685322.658                                          24.000  
E 2  23176451.501       47950.077         132.738          22.000    23176452.829       25140.421         100.082          17.000  
E 8  24006507.644     -534832.930       -1322.054          20.000    24006509.146     -201959.665        -986.660          17.000  
E25  24991380.539     1004701.389        2356.744          25.000    24991383.655      440860.971        1761.677          18.000  
E30  25676049.036     -847144.114       -2014.608          15.000    25676054.473     -256275.386       -1501.423          15.000  
J 2  38406552.379      412592.834         918.380          24.000    38406559.439      225719.999         691.898          20.000  
C 6  36212373.961      -76298.898        -192.246          18.000                                                                                                                                  
C21  23269297.961      310354.483        2998.693          22.000                                                                                                                                  
C24  23074496.003     -451990.017       -1149.830          23.000                                                                    23074490.381     -209146.566        -865.600          18.000  
C26  21875836.031      360346.349         947.482          21.000                                                                    21875831.526      144188.630         704.030          18.000  
C33  24733391.916     -352522.256          -0.000          11.000                                                                                                                                  
C35  25818343.610     -654490.298           0.027          13.000                                                                                                                                  
> 2022  1 25  3 15 32.0000000  0 19                     
G25  21856673.930     1410345.983        3111.266          29.000    21856680.562      737594.416        2323.573          20.000  
G26  21308606.553    -1008160.791       -2247.380          20.000    21308611.065     -453187.966       -1680.367          17.000  
G29  23037551.105     -533550.714       -1250.172          21.000                                                                  
G31  20724971.031      -12933.453         -38.972          23.000                                                                  
G32  20277831.058      237970.806         507.959          29.000    20277830.492      129037.748         378.208          24.000  
R 1  19667834.986                                          17.000  
R 2  20169774.973                                          20.000  
R12  19685372.505                                          20.000  
E 2  23176476.889       48649.693         129.836          20.000    23176479.718       25533.153          99.411          19.000  
E 8  24006256.559     -541774.716       -1318.854          22.000    24006257.232     -205833.154        -985.933          18.000  
E25  24991829.219     1017091.438        2358.333          22.000    24991831.811      447776.157        1761.974          19.000  
E30  25675666.128     -857718.279       -2008.556          14.000    25675671.766     -262172.600       -1502.363          14.000  
J 2  38406727.257      417418.286         920.896          24.000    38406734.797      228430.668         690.877          24.000  
C 6  36212336.811      -77297.357        -191.913          18.000                                                                                                                                  
C21  23269873.880      325965.512        2998.512          23.000                                                                                                                                  
C24  23074274.865     -457986.856       -1151.560          20.000                                                                    23074269.915     -212545.760        -864.633          19.000  
C26  21876018.377      365282.724         948.208          22.000                                                                    21876012.598      146961.519         710.076          17.000  
C33  24732938.445     -364818.517          -0.000          11.000                                                                                                                                  
C35  25817996.887     -663893.646           0.027          11.000                                                                                                                                  
> 2022  1 25  3 15 33.0000000  0 18                     
G25  21857267.909     1426705.808        3114.385          21.000    21857272.953      746715.742        2324.976          24.000  
G26  21308179.302    -1019977.044       -2249.852          17.000    21308186.092     -459785.680       -1680.448          17.000  
G29  23037314.070     -540117.210       -1249.523          19.000                                                                  
G31  20724962.895      -13140.326         -39.889          25.000                                                                  
G32  20277926.742      240631.590         505.683          27.000    20277926.822      130517.862         375.492          19.000  
R 1  19668286.616                                          18.000  
R 2  20169332.837                                          19.000  
R12  19685419.402                                          20.000  
E 2  23176500.901       49322.847         129.148          18.000    23176505.204       25921.409          98.552          17.000  
E 8  24006005.223     -548713.670       -1320.664          23.000    24006006.237     -209709.611        -988.375          17.000  
E25  24992277.541     1029480.726        2357.251          24.000    24992277.568      454687.552        1758.133          20.000  
E30  25675295.722     -868281.454       -2011.463          15.000    25675292.434     -268069.010       -1501.487          15.000  
J 2  38406901.994      422254.726         918.843          25.000    38406909.683      231128.224         683.676          19.000  
C 6  36212300.403      -78295.936        -191.578          18.000                                                                                                                                  
C21  23270449.819      341574.367        2996.537          19.000                                                                                                                                  
C24  23074054.094     -463976.310       -1149.590          21.000                                                                    23074050.627     -215947.339        -868.530          17.000  
C26  21876200.427      370214.710         946.969          23.000                                                                    21876194.273      149749.156         710.765          16.000  
C33  24732484.783     -377120.359          -0.000          12.000                                                                                                                                  
> 2022  1 25  3 15 34.0000000  0 18                     
G25  21857860.466     1443061.704        3112.002          24.000    21857864.638      755839.120        2327.559          22.000  
G26  21307750.681    -1031796.964       -2251.041          21.000    21307756.781     -466384.502       -1681.036          17.000  
G29  23037076.250     -546679.630       -1249.261          20.000                                                                  
G31  20724952.765      -13349.859         -38.496          23.000                                                                  
G32  20278023.696      243290.904         503.764          33.000    20278022.921      131993.437         376.755          20.000  
R 1  19668745.705                                          20.000  
R 2  20168891.556                                          24.000  
R12  19685470.269                                          24.000  
E 2  23176525.706       50004.816         131.910          21.000    23176530.594       26308.177          98.858          15.000  
E 8  24005754.446     -555654.783       -1320.948          20.000    24005754.674     -213587.748        -988.371          17.000  
E25  24992725.584     1041868.432        2355.325          23.000    24992726.877      461588.827        1758.939          18.000  
E30  25674912.839     -878855.119       -2012.670          14.000    25674910.022     -273962.139       -1500.066          14.000  
J 2  38407076.784      427083.110         919.536          27.000    38407083.923      233807.197         682.893          18.000  
C 6  36212263.498      -79298.190        -193.054          18.000                                                                                                                                  
C21  23271025.214      357168.049        2993.713          23.000                                                                                                                                  
C24  23073833.226     -469969.654       -1152.510          23.000                                                                    23073829.795     -219360.381        -869.324          18.000  
C26  21876382.598      375141.658         946.352          25.000                                                                    21876375.868      152540.239         711.878          17.000  
C33  24732031.025     -389437.986          -0.000          13.000                                                                                                                                  
> 2022  1 25  3 15 35.0000000  0 18                     
G25  21858450.266     1459406.423        3113.722          22.000    21858457.221      764966.047        2324.963          22.000  
G26  21307322.392    -1043608.409       -2242.240          25.000    21307327.689     -472973.078       -1681.365          21.000  
G29  23036838.342     -553240.009       -1248.055          21.000                                                                  
G31  20724943.778      -13558.872         -40.817          21.000                                                                  
G32  20278120.281      245962.535         511.997          28.000    20278120.230      133487.628         382.028          20.000  
R 1  19669191.436                                          24.000  
R 2  20168450.031                                          23.000  
R12  19685515.649                                          24.000  
E 2  23176551.463       50704.726         134.421          26.000    23176554.928       26691.517          97.514          20.000  
E 8  24005503.189     -562592.351       -1317.858          19.000    24005506.471     -217470.481        -988.121          18.000  
E25  24993173.304     1054239.644        2357.599          23.000    24993175.993      468491.935        1762.784          19.000  
E30  25674529.834     -889431.881       -2012.451          20.000    25674524.783     -279854.027       -1500.553          19.000  
J 2  38407252.238      431901.886         917.444          24.000    38407257.972      236489.557         689.221          20.000  
C 6  36212226.042      -80309.044        -194.552          20.000                                                                                                                                  
C21  23271599.588      372774.140        2996.418          27.000                                                                    23271588.330       20978.718        2255.010          21.000  
C24  23073611.975     -475968.633       -1151.071          25.000                                                                    23073611.423     -222767.557        -865.968          19.000  
C26  21876564.805      380078.015         949.920          25.000                                                                    21876562.603      155335.383         715.133          18.000  
C33  24731576.849     -401755.065          -0.000          12.000                                                                                                                                  
> 2022  1 25  3 15 36.0000000  0 18                     
G25  21859043.835     1475777.179        3115.294          24.000    21859049.578      774086.601        2325.930          25.000  
G26  21306895.577    -1055396.808       -2244.648          22.000    21306899.609     -479556.849       -1677.077          17.000  
G29  23036600.914     -559797.207       -1248.854          19.000                                                                  
G31  20724937.318      -13778.470         -41.097          25.000                                                                  
G32  20278216.892      248636.122         507.724          24.000    20278218.211      134978.360         380.538          19.000  
R 1  19669643.100                                          19.000  
R 2  20168009.107                                          24.000  
R12  19685563.872                                          21.000  
E 2  23176576.783       51399.531         129.741          20.000                                                                  
E 8  24005252.272     -569524.838       -1319.672          20.000    24005255.659     -221340.605        -984.461          15.000  
E25  24993622.194     1066630.367        2359.526          18.000    24993626.549      475416.288        1767.936          19.000  
E30  25674146.820     -900008.623       -2012.853          20.000    25674144.326     -285743.604       -1500.585          18.000  
J 2  38407427.194      436726.018         918.522          20.000    38407433.844      239188.526         688.933          17.000  
C 6  36212188.814      -81320.617        -193.542          19.000                                                                                                                                  
C21  23272175.419      388383.152        2999.120          24.000                                                                    23272167.677       29847.244        2261.067          24.000  
C24  23073391.256     -481960.018       -1149.501          23.000                                                                    23073387.824     -226165.456        -864.703          17.000  
C26  21876746.837      385019.915         949.370          23.000                                                                    21876747.322      158136.905         715.182          19.000  
C33  24731122.846     -414066.765          -0.000          14.000                                                                                                                                  
> 2022  1 25  3 15 37.0000000  0 17                     
G25  21859636.697     1492152.876        3111.894          29.000    21859642.143      783206.117        2319.140          22.000  
G26  21306470.830    -1067192.828       -2244.449          21.000    21306473.073     -486138.746       -1678.241          19.000  
G29  23036363.094     -566354.727       -1246.976          18.000                                                                  
G31  20724929.142      -14002.361         -44.612          25.000                                                                  
G32  20278317.647      251315.778         506.532          30.000    20278312.833      136475.436         380.345          20.000  
R 1  19670095.121                                          17.000  
R 2  20167567.783                                          22.000  
R12  19685613.187                                          23.000  
E 2  23176601.807       52105.604         134.668          22.000    23176606.755       27457.604          99.380          19.000  
E 8  24005001.295     -576450.300       -1319.388          22.000    24005003.381     -225199.333        -982.642          18.000  
E25  24994070.525     1079027.695        2351.852          25.000    24994076.224      482346.129        1760.422          20.000  
E30  25673753.153     -910579.115       -2009.907          19.000    25673761.976     -291635.569       -1502.443          17.000  
J 2  38407602.594      441556.739         917.125          24.000    38407608.765      241890.509         687.472          19.000  
C 6  36212151.830      -82324.719        -193.012          19.000                                                                                                                                  
C21  23272751.189      403998.747        2998.417          21.000                                                                    23272745.323       38730.662        2263.746          18.000  
C24  23073171.060     -487938.166       -1147.415          24.000                                                                    23073165.290     -229569.150        -866.182          17.000  
C26  21876929.348      389966.642         948.878          25.000                                                                    21876926.309      160945.425         715.481          19.000  
> 2022  1 25  3 15 38.0000000  0 18                     
G25  21860228.661     1508534.068        3113.531          27.000    21860234.613      792323.569        2318.728          24.000  
G26  21306042.662    -1078988.957       -2243.480          19.000    21306045.395     -492710.793       -1670.628          22.000  
G29  23036125.989     -572913.211       -1248.717          21.000                                                                  
G31  20724919.737      -14215.588         -40.618          28.000                                                                  
G32  20278413.236      254010.881         508.569          31.000    20278409.285      137966.697         382.212          22.000  
R 1  19670544.840                                          18.000  
R 2  20167126.807                                          22.000  
R 8  23122194.986                                          18.000  
R12  19685661.018                                          23.000  
E 2  23176627.197       52815.479         132.447          23.000    23176629.938       27847.838          97.827          20.000  
E 8  24004750.334     -583373.227       -1320.244          24.000    24004752.727     -229059.794        -983.315          17.000  
E25  24994519.972     1091422.353        2357.122          25.000    24994525.741      489280.098        1764.397          21.000  
E30  25673370.558     -921145.218       -2010.879          20.000    25673379.442     -297530.938       -1502.323          18.000  
J 2  38407777.341      446393.889         918.651          24.000    38407779.637      244575.934         681.510          22.000  
C 6  36212115.282      -83323.201        -190.659          20.000                                                                                                                                  
C21  23273327.404      419616.124        2999.308          22.000                                                                    23273322.480       47614.024        2264.092          16.000  
C24  23072950.961     -493912.616       -1147.245          24.000                                                                    23072945.627     -232975.837        -866.677          17.000  
C26  21877111.694      394913.938         948.034          24.000                                                                    21877107.765      163753.094         711.441          20.000  
> 2022  1 25  3 15 39.0000000  0 18                     
G25  21860821.410     1524906.908        3110.551          27.000    21860826.882      801442.775        2314.724          28.000  
G26  21305615.019    -1090781.626       -2242.306          20.000    21305616.355     -499287.705       -1678.372          19.000  
G29  23035889.017     -579479.928       -1250.677          22.000                                                                  
G31  20724912.189      -14425.073         -40.534          24.000                                                                  
G32  20278510.529      256701.651         512.723          28.000    20278506.561      139456.015         372.437          21.000  
R 1  19670980.301                                          17.000  
R 2  20166685.726                                          19.000  
R 8  23123021.533                                          17.000  
R12  19685707.357                                          21.000  
E 2  23176652.133       53510.183         128.132          22.000    23176656.392       28236.222          96.767          20.000  
E 8  24004499.592     -590302.197       -1318.636          21.000    24004503.450     -232917.482        -980.701          19.000  
E25  24994968.836     1103826.089        2359.630          22.000    24994975.747      496218.246        1770.072          19.000  
E30  25672993.076     -931713.080       -2008.936          20.000    25672997.431     -303434.576       -1503.329          16.000  
J 2  38407951.136      451229.432         917.264          23.000    38407956.608      247255.737         684.008          21.000  
C 6  36212078.785      -84312.606        -190.873          20.000                                                                                                                                  
C21  23273903.392      435232.893        2999.026          23.000                                                                    23273899.288       56493.161        2263.262          17.000  
C24  23072729.709     -499891.847       -1147.821          21.000                                                                    23072726.391     -236368.659        -863.081          19.000  
C26  21877294.102      399862.202         949.561          23.000                                                                    21877291.158      166555.593         714.579          19.000  
> 2022  1 25  3 15 40.0000000  0 18                     
G25  21861414.534     1541253.273        3112.883          24.000    21861419.265      810560.279        2324.609          23.000  
G26  21305186.467    -1102573.689       -2245.686          23.000    21305190.352     -505873.711       -1674.364          19.000  
G29  23035651.546     -586042.732       -1247.414          24.000                                                                  
G31  20724905.991      -14646.415         -43.259          22.000                                                                  
G32  20278605.483      259403.489         510.837          27.000    20278602.849      140916.791         372.811          17.000  
R 1  19671426.433                                          19.000  
R 2  20166245.213                                          19.000  
R 8  23123850.163                                          20.000  
R12  19685757.884                                          27.000  
E 2  23176676.747       54188.670         130.885          21.000    23176679.898       28599.681          92.891          17.000  
E 8  24004249.731     -597229.589       -1316.573          21.000    24004253.633     -236768.990        -980.929          17.000  
E25  24995417.446     1116224.413        2362.202          18.000    24995424.506      503140.837        1761.257          23.000  
E30  25672610.795     -942270.097       -2008.774          18.000    25672614.278     -309339.410       -1503.153          16.000  
J 2  38408125.787      456044.679         915.289          21.000    38408131.346      249943.004         686.213          18.000  
C 6  36212041.837      -85315.126        -194.807          19.000                                                                                                                                  
C21  23274479.572      450850.336        2998.190          23.000                                                                    23274475.547       65363.351        2260.674          21.000  
C24  23072509.252     -505869.467       -1146.984          24.000                                                                    23072506.902     -239753.191        -862.759          18.000  
C26  21877476.561      404807.523         949.445          24.000                                                                    21877473.269      169362.209         716.374          17.000  
> 2022  1 25  3 15 41.0000000  0 18                     
G25  21862009.325     1557619.059        3108.009          27.000    21862011.324      819673.133        2316.150          23.000  
G26  21304760.263    -1114370.367       -2244.550          20.000    21304763.982     -512440.154       -1672.178          20.000  
G29  23035417.451     -592592.652       -1247.815          24.000                                                                  
G31  20724898.583      -14865.779         -40.942          24.000                                                                  
G32  20278705.287      262113.915         510.237          28.000    20278699.303      142397.102         377.368          19.000  
R 1  19671884.693                                          18.000  
R 2  20165805.503                                          17.000  
R 8  23124669.372                                          16.000  
R12  19685806.980                                          26.000  
E 2  23176703.341       54906.085         135.734          21.000    23176703.630       28970.920          97.938          20.000  
E 8  24003999.713     -604145.222       -1317.560          20.000    24004003.824     -240618.093        -980.891          15.000  
E25  24995867.321     1128634.000        2354.476          24.000    24995873.003      510049.532        1753.548          22.000  
E30                                                                  25737985.895     -315236.135       -1500.123          16.000  
J 2  38408300.760      460872.683         916.877          23.000    38408306.843      252640.774         686.219          18.000  
C 6  36212004.888      -86319.852        -195.030          22.000                                                                                                                                  
C21  23275056.293      466475.991        3000.767          22.000                                                                    23275052.224       74239.733        2262.050          18.000  
C24  23072289.039     -511844.878       -1147.437          23.000                                                                    23072286.166     -243143.313        -857.364          20.000  
C26  21877658.115      409740.647         945.587          24.000                                                                    21877653.025      172168.285         713.736          19.000  
> 2022  1 25  3 15 42.0000000  0 18                     
G25  21862602.117     1573969.787        3110.577          27.000    21862604.989      828791.875        2327.189          24.000  
G26  21304333.056    -1126168.411       -2245.274          18.000    21304337.472     -519006.311       -1668.855          20.000  
G29  23035181.419     -599138.596       -1244.606          21.000                                                                  
G31  20724890.888      -15084.152         -41.748          22.000                                                                  
G32  20278800.913      264792.327         510.558          28.000    20278799.152      143892.564         382.602          19.000  
R 1  19672339.856                                          17.000  
R 2  20165366.062                                          16.000  
R 8  23125497.420                                          17.000  
R12  19685856.626                                          24.000  
E 2  23176728.783       55614.711         135.451          20.000    23176731.393       29375.835         101.865          19.000  
E 8  24003747.619     -611071.401       -1316.942          19.000    24003748.039     -244459.795        -977.950          14.000  
E25  24996315.643     1141025.849        2357.136          23.000    24996320.217      516947.640        1751.507          21.000  
E30  25671850.657      -17152.651       -2008.593          16.000    25671852.089     -321122.968       -1502.459          17.000  
J 2  38408475.123      465710.148         921.530          22.000    38408478.937      255336.299         686.382          18.000  
C 6  36211968.218      -87333.099        -194.653          21.000                                                                                                                                  
C21  23275632.097      482096.836        2999.241          22.000                                                                    23275628.421       83111.682        2260.321          16.000  
C24  23072068.407     -517822.587       -1148.047          21.000                                                                    23072063.885     -246523.871        -863.855          20.000  
C26  21877839.946      414671.858         947.133          21.000                                                                    21877834.133      174970.689         717.319          20.000  
> 2022  1 25  3 15 43.0000000  0 18                     
G25  21863193.382     1590332.214        3110.595          28.000    21863198.122      837927.042        2320.546          28.000  
G26  21303905.621    -1137962.825       -2242.509          19.000    21303911.696     -525569.734       -1670.756          22.000  
G29  23034948.285     -605685.045       -1245.585          20.000                                                                  
G31  20724882.298      -15306.496         -41.716          22.000                                                                  
G32  20278897.480      267478.583         511.268          25.000    20278894.821      145382.720         377.173          19.000  
R 1  19672792.262                                          17.000  
R 2  20164924.589                                          16.000  
R 8  23126332.640                                          19.000  
R12  19685905.216                                          19.000  
E 2  23176755.107       56325.662         134.428          20.000    23176754.585       29771.387          99.322          21.000  
E 8  24003496.728     -618001.874       -1318.127          19.000    24003499.112     -248293.858        -978.144          14.000  
E25  24996764.454     1153426.645        2356.158          23.000    24996768.469      523852.670        1759.199          22.000  
E30  25671468.751      -27692.554       -2002.608          19.000    25671470.934     -327013.545       -1500.191          17.000  
J 2  38408650.803      470549.241         919.325          22.000    38408655.603      258031.835         687.541          19.000  
C 6  36211931.276      -88336.266        -192.813          19.000                                                                                                                                  
C21  23276207.989      497719.326        2999.620          23.000                                                                    23276201.949       91983.515        2261.627          18.000  
C24  23071847.697     -523808.179       -1149.314          19.000                                                                    23071845.557     -249920.791        -863.225          20.000  
C26  21878021.873      419600.825         947.879          23.000                                                                    21878016.705      177778.939         710.653          20.000  
> 2022  1 25  3 15 44.0000000  0 18                     
G25  21863786.498     1606706.565        3111.042          29.000    21863791.377      847063.065        2328.353          28.000  
G26  21303478.684    -1149744.774       -2241.785          22.000    21303484.052     -532142.191       -1672.263          22.000  
G29  23034710.709     -612226.791       -1244.671          23.000                                                                  
G31  20724874.463      -15525.140         -41.651          24.000                                                                  
G32  20278993.838      270164.155         510.722          28.000    20278995.768      146880.816         382.649          20.000  
R 1  19673244.850                                          17.000  
R 2  20164484.155                                          16.000  
R 8  23127160.086                                          17.000  
R12  19685953.894                                          20.000  
E 2  23176780.444       57029.066         133.761          20.000    23176783.455       30170.331          99.945          20.000  
E 8  24003246.195     -624922.683       -1318.484          20.000    24003250.053     -252130.202        -977.380          16.000  
E25  24997212.794     1165822.252        2355.601          25.000    24997217.114      530767.004        1763.247          23.000  
E30  25671079.525      -38235.167       -2004.713          19.000    25671090.224     -332894.327       -1496.462          19.000  
J 2  38408827.041      475367.322         915.576          24.000    38408831.013      260731.310         686.335          20.000  
C 6  36211895.322      -89347.153        -194.098          21.000                                                                                                                                  
C21  23276784.091      513340.244        2998.793          19.000                                                                    23276777.824      100850.899        2257.569          18.000  
C24  23071627.152     -529791.956       -1149.468          23.000                                                                    23071626.565     -253309.602        -864.683          19.000  
C26  21878204.586      424540.215         950.824          24.000                                                                    21878201.259      180584.160         715.068          21.000  
> 2022  1 25  3 15 45.0000000  0 18                     
G25  21864379.081     1623063.536        3112.702          29.000    21864384.178      856193.468        2321.948          28.000  
G26  21303051.394    -1161527.704       -2242.402          22.000    21303057.276     -538714.135       -1674.526          22.000  
G29  23034473.839     -618766.041       -1243.105          27.000                                                                  
G31  20724868.355      -15730.915         -38.721          20.000                                                                  
G32  20279091.566      272864.161         515.094          27.000    20279092.388      148373.728         382.463          21.000  
R 1  19673709.724                                          17.000  
R 2  20164043.624                                          15.000  
R 8  23127992.531                                          17.000  
R12  19686002.868                                          22.000  
E 2  23176805.746       57740.917         138.001          21.000    23176808.549       30566.741         100.189          22.000  
E 8  24002995.514     -631850.431       -1319.726          18.000    24002996.380     -255974.798        -980.581          17.000  
E25  24997661.212     1178208.024        2356.109          25.000    24997666.344      537686.467        1758.986          22.000  
E30  25670698.553      -48770.633       -2007.041          20.000    25670708.894     -338767.278       -1498.511          18.000  
J 2  38409001.744      480182.259         916.705          24.000    38409004.503      263410.065         684.356          21.000  
C 6  36211857.772      -90361.703        -194.476          20.000                                                                                                                                  
C21  23277360.585      528958.737        2998.200          20.000                                                                    23277354.379      109711.138        2258.947          16.000  
C24  23071406.555     -535773.146       -1147.214          19.000                                                                    23071406.125     -256703.008        -867.854          21.000  
C26  21878386.679      429488.421         949.297          25.000                                                                    21878379.932      183393.237         710.618          25.000  
> 2022  1 25  3 15 46.0000000  0 18                     
G25  21864971.193     1639420.673        3112.449          29.000    21864976.988      865322.594        2322.354          29.000  
G26  21302626.001    -1173308.978       -2241.109          22.000    21302631.150     -545278.814       -1670.558          21.000  
G29  23034237.232     -625310.328       -1242.446          25.000                                                                  
G31  20724861.454      -15935.461         -39.206          23.000                                                                  
G32  20279186.598      275561.188         512.964          27.000    20279189.950      149882.989         384.384          20.000  
R 1  19674162.618                                          18.000  
R 2  20163603.608                                          17.000  
R 8  23128825.578                                          17.000  
R12  19686052.461                                          25.000  
E 2  23176831.773       58459.131         136.710          20.000    23176833.773       30956.012         100.713          19.000  
E 8  24002744.414     -638786.393       -1316.889          19.000    24002748.089     -259830.514        -984.763          15.000  
E25  24998109.927     1190602.036        2359.776          25.000    24998115.705      544608.326        1764.375          24.000  
E30  25670317.180      -59331.117       -2012.354          19.000    25670325.479     -344647.818       -1499.897          16.000  
J 2  38409176.177      485002.371         917.890          23.000    38409181.195      266106.684         685.777          22.000  
C 6  36211820.648      -91374.893           0.099          22.000                                                                                                                                  
C21  23277936.381      544571.193        2998.821          23.000                                                                    23277930.489      118581.644        2260.430          18.000  
C24  23071186.456     -541745.776       -1148.138          19.000                                                                    23071186.462     -260096.022        -864.235          18.000  
C26  21878568.632      434426.281         947.142          24.000                                                                    21878562.967      186207.993         713.018          22.000  
> 2022  1 25  3 15 47.0000000  0 18                     
G25  21865563.183     1655778.835        3113.817          30.000    21865570.173      874456.611        2323.927          28.000  
G26  21302199.657    -1185086.402       -2240.842          24.000    21302205.278     -551831.980       -1674.454          22.000  
G29  23033998.583     -631836.918       -1239.848          21.000                                                                  
G31  20724854.330      -16135.115         -38.372          20.000                                                                  
G32  20279285.181      278256.522         513.682          24.000    20279288.184      151404.483         388.809          21.000  
R 1  19674606.988                                          17.000  
R 2  20163163.574                                          16.000  
R 8  23129657.596                                          17.000  
R12  19686101.138                                          24.000  
E 2  23176857.722       59178.843         138.210          19.000    23176859.390       31345.842          97.682          19.000  
E 8  24002493.611     -645714.872       -1318.414          18.000    24002497.740     -263687.175        -980.341          15.000  
E25  24998559.298     1203003.916        2360.110          26.000    24998565.093      551531.905        1763.042          23.000  
E30  25669934.611      -69899.360       -2011.800          19.000    25669943.529     -350531.253       -1499.703          18.000  
J 2  38409350.365      489831.032         919.343          22.000    38409355.078      268788.037         683.182          21.000  
C 6  36211783.226      -92383.345        -193.726          20.000                                                                                                                                  
C21  23278512.818      560186.758        3000.034          23.000                                                                    23278507.685      127459.670        2262.784          15.000  
C24  23070967.185     -547705.794       -1144.260          20.000                                                                    23070966.772     -263483.706        -864.128          20.000  
C26  21878751.589      439363.841         950.330          24.000                                                                    21878745.165      189011.112         712.662          23.000  
> 2022  1 25  3 15 48.0000000  0 18                     
G25  21866156.002     1672157.952        3119.725          26.000    21866163.036      883586.451        2322.708          29.000  
G26  21301773.558    -1196858.730       -2239.176          20.000    21301779.963     -558385.563       -1670.680          20.000  
G29  23033763.921     -638353.073       -1238.571          22.000                                                                  
G31  20724847.010      -16343.350         -40.230          18.000                                                                  
G32  20279382.997      280948.020         512.577          29.000    20279385.284      152912.572         382.634          20.000  
R 1  19675060.153                                          17.000  
R 2  20162726.961                                          17.000  
R 8  23130484.753                                          15.000  
R12  19686150.366                                          25.000  
E 2  23176883.827       59897.273         136.439          23.000    23176884.082       31746.316         103.326          19.000  
E 8  24002243.279     -652639.167       -1316.582          18.000    24002248.193     -267530.900        -982.475          13.000  
E25  24999009.322     1215401.128        2358.861          25.000    24999013.267      558441.137        1759.680          21.000  
E30  25669551.301      -80463.170       -2011.631          19.000    25669559.059     -356414.659       -1499.083          18.000  
J 2  38409525.853      494660.827         918.771          23.000    38409529.972      271480.853         683.969          20.000  
C 6  36211746.138      -93393.708        -193.343          22.000                                                                                                                                  
C21  23279089.015      575803.871        2999.023          26.000                                                                    23279084.685      136343.861        2263.827          16.000  
C24  23070747.932     -553659.083       -1143.864          20.000                                                                    23070745.015     -266877.837        -868.069          18.000  
C26  21878933.848      444315.822         950.087          25.000                                                                    21878927.563      191813.086         712.304          25.000  
> 2022  1 25  3 15 49.0000000  0 18                     
G25  21866749.702     1688544.938        3119.284          24.000    21866756.919      892730.460        2330.734          22.000  
G26  21301346.437    -1208635.865       -2242.165          24.000    21301351.787     -564964.393       -1672.273          24.000  
G29  23033529.495     -644861.367       -1237.903          24.000                                                                  
G31  20724839.532      -16546.477         -37.694          17.000                                                                  
G32  20279480.498      283650.038         516.108          23.000    20279483.396      154432.413         388.135          20.000  
R 1  19675513.571                                          19.000  
R 2  20162287.137                                          17.000  
R 8  23131317.591                                          17.000  
R12  19686199.854                                          25.000  
E 2  23176909.156       60605.091         134.981          20.000    23176910.912       32153.186         103.970          22.000  
E 8  24001992.607     -659563.089       -1316.353          18.000    24001998.253     -271381.056        -981.928          16.000  
E25  24999457.374     1227793.280        2361.587          25.000    24999461.136      565341.713        1759.115          19.000  
E30  25669171.184      -91025.288       -2010.483          23.000    25669175.216     -362304.849       -1503.901          22.000  
J 2  38409699.613      499489.790         920.209          21.000    38409703.463      274156.641         680.566          19.000  
C 6  36211708.666      -94407.151        -193.481          22.000                                                                                                                                  
C21  23279666.050      591426.047        2999.626          22.000                                                                    23279661.816      145230.054        2263.310          17.000  
C24  23070528.260     -559617.982       -1146.782          20.000                                                                    23070524.366     -270277.593        -866.493          19.000  
C26  21879115.758      449253.724         950.402          25.000                                                                    21879110.206      194624.019         716.684          19.000  
> 2022  1 25  3 15 50.0000000  0 18                     
G25  21867343.559     1704931.370        3122.630          23.000    21867350.130      901871.012        2327.371          21.000  
G26  21300921.263    -1220413.922       -2241.155          21.000    21300926.316     -571513.661       -1673.522          27.000  
G29  23033292.809     -651370.466       -1238.767          24.000                                                                  
G31  20724831.711      -16764.990         -42.135          17.000                                                                  
G32  20279580.608      286359.761         515.621          24.000    20279581.168      155936.274         385.490          18.000  
R 1  19675981.175                                          19.000  
R 2  20161847.479                                          14.000  
R 8  23132152.584                                          16.000  
R12  19686248.593                                          25.000  
E 2  23176935.646       61315.729         134.630          19.000    23176936.904       32556.852         102.685          18.000  
E 8  24001741.847     -666490.645       -1317.069          15.000    24001746.455     -275230.704        -980.669          14.000  
E25  24999906.856     1240202.144        2362.565          24.000    24999909.676      572251.108        1762.331          17.000  
E30  25668789.662     -101581.062       -2009.190          25.000    25668795.378     -368190.728       -1499.531          23.000  
J 2  38409875.843      504327.067         920.699          20.000    38409877.310      276831.068         683.570          19.000  
C 6  36211671.464      -95419.569        -195.243          23.000                                                                                                                                  
C21  23280242.257      607047.124        2998.525          20.000                                                                    23280238.973      154116.574        2263.141          17.000  
C24  23070308.064     -565583.619       -1146.297          20.000                                                                    23070300.453     -273677.963        -864.628          22.000  
C26  21879298.060      454192.823         949.984          25.000                                                                    21879292.779      197433.973         715.222          23.000  
> 2022  1 25  3 15 51.0000000  0 18                     
G25  21867936.482     1721322.305        3119.719          20.000    21867943.002      911000.292        2320.777          20.000  
G26  21300496.551    -1232180.984       -2240.612          22.000    21300499.685     -578079.344       -1674.034          27.000  
G29  23033057.416     -657889.370       -1239.426          23.000                                                                  
G31  20724823.893      -16981.321         -41.616          15.000                                                                  
G32  20279679.470      289067.133         514.771          22.000    20279679.140      157443.715         383.134          18.000  
R 1  19676434.750                                          20.000  
R 2  20161415.447                                          14.000  
R 8  23132989.008                                          15.000  
R12  19686300.760                                          26.000  
E 2  23176961.559       62028.609         137.040          20.000    23176962.747       32957.704          97.384          20.000  
E 8  24001499.586     -673397.542       -1313.744          13.000    24001497.275     -279069.472        -978.105          14.000  
E25  25000355.344     1252603.275        2363.181          24.000    25000359.298      579176.958        1766.720          19.000  
E30  25668407.259     -112133.363       -2009.188          24.000    25668413.010     -374076.971       -1500.366          24.000  
J 2  38410051.514      509156.038         918.267          20.000    38410052.659      279525.981         686.718          18.000  
C 6  36211633.519      -96440.884        -195.347          23.000                                                                                                                                  
C21  23280819.196      622671.326        2999.126          21.000                                                                    23280818.896      162997.347        2263.428          17.000  
C24  23070087.874     -571554.736       -1149.637          24.000                                                                    23070081.606     -277056.620        -862.823          21.000  
C26  21879480.930      459141.160         950.474          29.000                                                                    21879475.352      200247.556         715.074          24.000  
> 2022  1 25  3 15 52.0000000  0 17                     
G25  21868530.182     1737708.865        3119.861          19.000    21868536.990      920139.635        2332.010          19.000  
G26  21300071.045    -1243953.232       -2241.505          22.000    21300073.873     -584635.148       -1674.856          27.000  
G29  23032821.428     -664409.154       -1239.490          20.000                                                                  
G31  20724818.545      -17199.296         -42.311          14.000                                                                  
G32  20279778.114      291774.346         516.932          22.000    20279776.903      158950.838         383.807          18.000  
R 1  19676888.761                                          20.000  
R 2  20160975.675                                          15.000  
R12  19686347.736                                          24.000  
E 2  23176987.455       62746.890         136.781          19.000    23176987.911       33344.200          94.711          18.000  
E 8  24001249.524     -680303.781       -1314.320          12.000    24001247.702     -282913.861        -981.526          14.000  
E25  25000804.539     1265004.551        2361.846          22.000    25000809.270      586104.654        1764.453          18.000  
E30  25668025.344     -122687.701       -2012.053          20.000    25668031.078     -379955.543       -1498.645          20.000  
J 2  38410225.388      513983.284         918.569          20.000    38410227.850      282221.573         689.537          18.000  
C 6  36211596.125      -97456.565        -193.080          19.000                                                                                                                                  
C21  23281395.664      638280.417          -0.013          18.000                                                                    23281396.193      171885.708        2265.816          16.000  
C24  23069866.884     -577531.978       -1147.088          23.000                                                                    23069860.948     -280452.223        -868.117          19.000  
C26  21879663.007      464078.419         948.922          25.000                                                                    21879657.185      203047.640         714.248          23.000  
> 2022  1 25  3 15 53.0000000  0 17                     
G25  21869123.481     1754093.956        3118.551          21.000    21869131.824      929294.126        2333.766          20.000  
G26  21299644.832    -1255727.921       -2240.931          22.000    21299647.442     -591196.568       -1674.828          28.000  
G29  23032586.382     -670937.437       -1240.671          20.000                                                                  
G31  20724810.814      -17414.497         -41.397          14.000                                                                  
G32  20279877.299      294491.982         515.913          22.000    20279874.500      160459.847         383.618          19.000  
R 1  19677338.043                                          20.000  
R 2  20160535.685                                          14.000  
R12  19686395.750                                          20.000  
E 2  23177013.762       63470.664         138.452          20.000    23177012.891       33727.126          98.695          17.000  
E 8  24000999.419     -687211.685       -1314.284          12.000    24000997.597     -286766.733        -981.579          13.000  
E25  25001254.092     1277417.689        2362.633          21.000    25001258.560      593022.695        1762.107          17.000  
E30  25667642.732     -133254.279       -2011.447          23.000    25667649.006     -385835.909       -1504.573          19.000  
J 2  38410400.205      518806.035         918.046          19.000    38410403.618      284924.841         687.317          18.000  
C 6  36211558.820      -98470.032        -194.329          17.000                                                                                                                                  
C21  23281972.350      653905.776        3000.199          22.000                                                                    23281973.822      180779.474        2264.345          16.000  
C24  23069646.470     -583504.499       -1149.291          25.000                                                                    23069638.528     -283859.685        -868.853          17.000  
C26  21879845.501      469019.506         949.673          21.000                                                                    21879839.862      205860.232         715.721          17.000  
> 2022  1 25  3 15 54.0000000  0 17                     
G25  21869718.760     1770478.319        3118.771          22.000    21869725.611      938446.419        2336.993          19.000  
G26  21299220.102    -1267496.429       -2237.606          24.000    21299221.596     -597754.820       -1674.486          28.000  
G29  23032349.495     -677451.945       -1240.068          19.000                                                                  
G31  20724815.382      -17626.637          -0.007          14.000                                                                  
G32  20279973.387      297203.952         516.293          22.000    20279972.612      161966.781         383.507          19.000  
R 1  19677790.475                                          18.000  
R 2  20160095.268                                          14.000  
R12  19686444.035                                          22.000  
E 2  23177039.754       64196.092         137.936          19.000    23177040.026       34118.751         101.922          18.000  
E 8  24000749.383     -694117.373       -1313.862          12.000                                                                  
E25  25001703.749     1289835.642        2364.390          19.000    25001707.092      599928.148        1759.465          17.000  
E30  25667260.652     -143803.095       -2010.401          24.000    25667266.430     -391730.323       -1502.368          18.000  
J 2  38410575.536      523638.249         920.175          20.000    38410578.085      287615.849         684.852          18.000  
C 6  36211521.845      -99473.596        -191.309          15.000                                                                                                                                  
C21  23282549.027      669530.882        3000.333          21.000                                                                    23282547.340      189669.858        2265.850          17.000  
C24  23069425.839     -589488.770       -1151.382          25.000                                                                    23069417.756     -287268.348        -868.125          18.000  
C26  21880028.101      473967.676         950.374          17.000                                                                    21880022.479      208670.903         715.443          16.000  
> 2022  1 25  3 15 55.0000000  0 19                     
G10  23394163.627       31898.768        3815.961          19.000                                                                  
G25  21870313.568     1786860.078        3120.433          22.000    21870319.371      947595.016        2332.740          22.000  
G26  21298795.835    -1279241.998       -2234.776          23.000    21298796.020     -604306.713       -1674.922          31.000  
G29  23032113.656     -683966.484       -1239.466          19.000                                                                  
G31  20724807.975      -17832.375          -0.007          16.000                                                                  
G32  20280072.956      299919.181         516.954          23.000    20280070.558      163471.565         385.533          19.000  
R 1  19678245.376                                          18.000  
R 2  20159655.287                                          14.000  
R12  19686493.585                                          18.000  
E 2  23177066.618       64920.138         139.473          22.000    23177065.730       34516.481         101.545          18.000  
E 8  22241773.379     -701020.445       -1313.959           7.000                                                                  
E25  25002153.738     1302258.238        2362.926          18.000    25002155.938      606836.930        1761.569          17.000  
E30  25666878.441     -154362.019       -2009.230          19.000    25666884.253     -397622.161       -1502.249          19.000  
J 2  38410750.675      528478.995         922.856          19.000    38410752.596      290306.799         684.447          19.000  
C 6  36211486.622     -100474.930           0.099          15.000                                                                                                                                  
C 7  37619159.091       -7781.073        -931.178          19.000                                                                                                                                  
C21  23283125.408      685149.691        2999.517          20.000                                                                    23283126.496      198562.677        2264.593          17.000  
C24  23069205.992     -595463.959       -1148.027          25.000                                                                    23069197.491     -290662.261        -863.527          18.000  
C26  21880210.281      478907.236         948.978          17.000                                                                    21880207.853      211486.454         719.187          14.000  
> 2022  1 25  3 15 56.0000000  0 18                     
G10  23394878.991       51951.811        3813.246          23.000                                                                  
G25  21870906.177     1803249.529        3117.881          20.000    21870911.876      956724.930        2329.393          19.000  
G26  21298369.265    -1290998.693       -2240.991          23.000    21298370.618     -610856.913       -1674.042          30.000  
G29  23031877.894     -690478.962       -1238.640          21.000                                                                  
G31  20724800.558      -18039.119          -0.007          13.000                                                                  
G32  20280168.930      302632.152         517.752          24.000    20280168.661      164991.548         388.871          19.000  
R 1  19678700.826                                          17.000  
R 2  20159215.218                                          13.000  
R12  19686542.524                                          16.000  
E 2  23177092.880       65658.962         138.932          19.000    23177093.510       34922.320         103.734          19.000  
E 8  24000266.484     -707921.716       -1313.241           9.000                                                                  
E25  25002603.028     1314668.011        2363.148          15.000    25002606.764      613747.310        1760.587          16.000  
E30  25666498.036     -164901.894       -2007.185          21.000    25666502.889     -403508.093       -1501.427          25.000  
J 2  38410923.685      533316.669         920.187          21.000    38410928.293      293005.494         691.155          19.000  
C 6  36211449.770     -101475.431           0.099          13.000                                                                                                                                  
C21  23283702.897      700777.941        3001.766          20.000                                                                    23283702.737      207452.405        2263.898          17.000  
C24  23068985.386     -601440.433       -1146.496          27.000                                                                    23068985.427     -294060.375        -869.426          20.000  
C26  21880392.304      483846.405         948.305          16.000                                                                    21880390.940      214304.224         718.381          13.000  
> 2022  1 25  3 15 57.0000000  0 18                     
G10  23395604.004       72003.019        3814.933          23.000                                                                  
G25  21871498.909     1819631.268        3120.285          20.000    21871505.602      965865.699        2328.941          20.000  
G26  21297940.172    -1302761.700       -2237.761          24.000    21297945.330     -617403.956       -1673.131          25.000  
G29  23031642.255     -696987.449       -1239.408          20.000                                                                  
G31  20724793.239      -18242.475          -0.007          13.000                                                                  
G32  20280266.606      305350.773         520.107          27.000    20280268.710      166526.360         390.580          18.000  
R 1  19679155.213                                          17.000  
R 2  20158775.229                                          13.000  
R12  19686587.616                                          16.000  
E 2  23177120.504       66406.209         141.200          21.000    23177121.509       35319.420          97.601          19.000  
E 8  24000016.535     -714824.368       -1313.965          10.000                                                                  
E25  25003052.738     1327085.495        2361.919          15.000    25003055.767      620659.842        1762.351          15.000  
E30  25666116.252     -175447.034       -2006.634          22.000    25666121.358     -409394.456       -1501.316          25.000  
J 2  38411097.733      538145.563         919.070          22.000    38411103.921      295714.599         691.015          18.000  
C 6  36211412.987     -102474.756           0.099          12.000                                                                                                                                  
C21  23284279.993      716421.900        3004.783          20.000                                                                    23284286.516      216340.167        2266.318          15.000  
C24  23068765.671     -607409.006       -1148.239          26.000                                                                    23068762.030     -297475.733        -867.904          19.000  
C26  21880574.545      488787.033         949.999          14.000                                                                    21880574.927      217135.572         722.034          14.000  
> 2022  1 25  3 15 58.0000000  0 18                     
G10  23396329.385       92058.534        3815.753          20.000                                                                  
G25  21872091.815     1836024.705        3119.782          19.000    21872099.302      975015.575        2330.624          17.000  
G26  21297514.928    -1314535.713       -2245.158          27.000    21297519.554     -623950.552       -1667.297          28.000  
G29  23031406.433     -703493.089       -1237.804          22.000                                                                  
G31  20724786.268      -18436.485          -0.007          14.000                                                                  
G32  20280364.116      308074.617         520.098          23.000    20280367.284      168057.169         389.136          18.000  
R 1  19679609.765                                          17.000  
R 2  20158335.413                                          12.000  
R12  19686636.921                                          16.000  
E 2  23177146.330       67133.898         138.380          22.000    23177148.556       35719.742         102.958          19.000  
E 8  23999766.570     -721727.228       -1313.302          10.000                                                                  
E25  25003502.474     1339503.054        2363.015          16.000    25003500.922      627578.349        1762.030          15.000  
E30  25665734.826     -185986.642       -2007.826          24.000    25665739.068     -415294.223       -1501.736          26.000  
J 2  38411271.703      542961.381         913.182          22.000    38411277.900      298399.579         681.925          17.000  
C 6  36211375.148     -103468.301           0.099          13.000                                                                                                                                  
C21  23284857.577      732065.989        3005.111          20.000                                                                    23284864.162      225233.824        2264.387          14.000  
C24  23068545.100     -613388.701       -1150.032          20.000                                                                    23068540.237     -300874.152        -865.435          15.000  
C26  21880757.214      493738.924         951.116          14.000                                                                    21880759.314      219973.103         723.353           9.000  
> 2022  1 25  3 15 59.0000000  0 18                     
G10  23397057.032      112113.370        3815.713          19.000                                                                  
G25  21872685.584     1852422.569        3120.844          17.000    21872692.976      984162.189        2331.419          16.000  
G26  21297087.567    -1326313.450       -2238.954          24.000    21297094.479     -630483.355       -1665.495          27.000  
G29  23031172.286     -710001.966       -1238.915          20.000                                                                  
G31  20724779.427      -18626.261          -0.007          14.000                                                                  
G32  20280464.025      310799.165         515.733          23.000    20280466.495      169583.174         389.097          18.000  
R 1  19680063.907                                          17.000  
R 2  20157895.807                                          13.000  
R12  19686686.375                                          12.000  
E 2  23177172.724       67864.209         139.263          22.000    23177174.723       36120.256         101.936          18.000  
E 8  23999516.691     -728627.861       -1313.024           9.000                                                                  
E25  25003943.938     1351934.059        2366.164          12.000    25003950.702      634502.548        1765.799          13.000  
E30  25665353.540     -196535.555       -2008.846          26.000    25665357.939     -421167.290       -1496.062          21.000  
J 2  38411448.605      547772.826         916.646          23.000    38411452.114      301080.299         684.493          17.000  
C 6  36211338.965     -104451.601           0.099          13.000                                                                                                                                  
C21  23285434.569      747710.144        3004.208          19.000                                                                    23285436.529      234118.176        2262.912          15.000  
C24  23068324.520     -619369.356       -1148.703          19.000                                                                    23068319.510     -304274.872        -868.826          14.000  
C26  21880939.970      498693.783          -0.009          11.000                                                                    21880944.060      222816.161         724.952          10.000  
