     3.04           OBSERVATION DATA    M: Mixed            RINEX VERSION / TYPE
Higeo_Hi1105        Huawei CBG          20220123 111818 UTC PGM / RUN BY / DATE 
************************************************************COMMENT             
* If you have any problem,                                 *COMMENT             
*     please contact with LBS Technology Group, thanks.    *COMMENT             
*                                                          *COMMENT             
* Version Higeo2RinexV1.1 2020.07.21                       *COMMENT             
* Fuction:  Convert Higeo Log to Rinex file                *COMMENT             
*                                                          *COMMENT             
* Note that the verision support B1C B2A signal            *COMMENT             
*     BDS: C1D L1D D1D S1D indicate BDS B1C                *COMMENT             
*     BDS: C5D L5D D5D S5D indicate BDS B2A                *COMMENT             
*     Reference: RINEX V3.04                               *COMMENT             
*                                                          *COMMENT             
* Copyright(C) Huawei Technologies Co., Ltd. 2019 - 2020   *COMMENT             
*     All rights reserved.                                 *COMMENT             
************************************************************COMMENT             
                                                            MARKER NAME         
                                                            MARKER NUMBER       
                                                            MARKER TYPE         
                                                            OBSERVER / AGENCY   
                                                            REC # / TYPE / VERS 
                                                            ANT # / TYPE        
        0.0000        0.0000        0.0000                  APPROX POSITION XYZ 
        0.0000        0.0000        0.0000                  ANTENNA: DELTA H/E/N
G    8 C1C L1C D1C S1C C5I L5I D5I S5I                      SYS / # / OBS TYPES 
R    4 C1C L1C D1C S1C                                      SYS / # / OBS TYPES 
E    8 C1C L1C D1C S1C C5I L5I D5I S5I                      SYS / # / OBS TYPES 
J    8 C1C L1C D1C S1C C5I L5I D5I S5I                      SYS / # / OBS TYPES 
C   12 C2I L2I D2I S2I C1D L1D D1D S1D C5D L5D D5D S5D      SYS / # / OBS TYPES 
  2022     1    20     8    44   49.0000000     GPS         TIME OF FIRST OBS   
  2022     1    20     9     7   58.0000000     GPS         TIME OF LAST OBS    
G                                                           SYS / PHASE SHIFT   
R                                                           SYS / PHASE SHIFT   
E                                                           SYS / PHASE SHIFT   
J                                                           SYS / PHASE SHIFT   
C                                                           SYS / PHASE SHIFT   
  0                                                         GLONASS SLOT / FRQ #
 C1C    0.000 C1P    0.000 C2C    0.000 C2P    0.000        GLONASS COD/PHS/BIS 
                                                            END OF HEADER       
> 2022  1 20  8 44 49.0000000  0  2                     
G 4                     15277.378        2614.378          26.000                                                                  
G 8                     -1111.070        -153.379          33.000                                                                  
> 2022  1 20  8 44 50.0000000  0  5                     
G 4                     29017.094        2616.161          28.000                                                                  
G 8                     -1912.650        -151.107          34.000                                                                  
G 9                      2692.928        1224.779          27.000                                                                  
G21                    -41074.498       -3044.765          31.000                                                                  
R 9                                                        20.000  
> 2022  1 20  8 44 51.0000000  0  5                     
G 4                     42768.193        2617.506          28.000                                                                  
G 8                     -2701.003        -149.012          30.000                                                                  
G 9                      9133.103        1225.804          28.000                                                                  
G21                    -57070.193       -3041.214          29.000                                                                  
R 9                                                        19.000  
> 2022  1 20  8 44 52.0000000  0  8                     
G 4                     56526.980        2619.120          28.000                       19629.624        1955.743          27.000  
G 7                    -31358.750       -3228.198          16.000                                                                  
G 8                     -3478.513        -146.152          31.000                                                                  
G 9                     15590.844        1231.737          27.000                                                                  
G21                    -73051.077       -3041.851          29.000                                                                  
R 9                                                        19.000  
R20                                                        25.000  
C 6                      7929.410        1284.065          34.000                                                                                                                                  
> 2022  1 20  8 44 53.0000000  0  9                     
G 4                     70298.630        2622.231          29.000                       27306.666        1956.872          27.000  
G 7                    -48322.220       -3228.234          17.000                                                                  
G 8                     -4244.722        -146.171          32.000                                                                  
G 9                     22066.100        1233.339          28.000                                                                  
G21                    -89030.949       -3040.166          30.000                                                                  
R 8                                                        20.000  
R 9                                                        20.000  
R20                                                        26.000  
C 6                     14625.412        1287.208          33.000                                                                                                                                  
> 2022  1 20  8 44 54.0000000  0  9                     
G 4                     84069.927        2619.207          24.000                       34985.633        1956.957          25.000  
G 7                    -65295.804       -3229.952          18.000                                                                  
G 8                     -5015.090        -144.086          20.000                                                                  
G 9                     28537.706        1232.220          27.000                                                                  
G21                   -105004.006       -3037.516          31.000                                                                  
R 8                                                        19.000  
R 9                                                        21.000  
R20                                                        27.000  
C 6                     21320.454        1284.388          34.000                                                                                                                                  
> 2022  1 20  8 44 55.0000000  0 10                     
G 4                     97836.384        2619.398          25.000                       42666.984        1958.552          24.000  
G 7                    -82278.455       -3229.324          17.000                                                                  
G 8                     -5774.973        -144.114          33.000                                                                  
G 9                     35015.676        1233.951          20.000                                                                  
G21                   -120967.897       -3037.529          37.000                                                                  
G27                     47837.443        1902.337          33.000                                                                  
R 8                                                        20.000  
R 9                                                        32.000  
R20                                                        30.000  
C 6                     28024.465        1289.928          30.000                                                                                                                                  
> 2022  1 20  8 44 56.0000000  0 10                     
G 4                    111614.860        2624.324          27.000                       50352.344        1960.010          21.000  
G 7                    -99243.652       -3228.800          17.000                                                                  
G 8                     -6524.823        -140.604          37.000                                                                  
G 9                     41498.329           0.001          19.000                                                                  
G21                   -136922.734       -3035.201          37.000                                                                  
G27                     57833.243        1902.275          33.000                                                                  
R 8                                                        20.000  
R 9                                                        29.000  
R20                                                        29.000  
C 6                     34732.510        1288.822          34.000                                                                                                                                  
> 2022  1 20  8 44 57.0000000  0 10                     
G 4                    125402.655        2623.098          26.000                       58043.600        1959.195          24.000  
G 7                   -116205.307       -3227.914          21.000                                                                  
G 8                     -7265.941        -141.516          35.000                                                                  
G 9                     47980.865           0.001          18.000                                                                  
G21                   -152876.318       -3035.351          36.000                                                                  
G27                     67830.593        1903.758          32.000                                                                  
R 8                                                        18.000  
R 9                                                        28.000  
R20                                                        29.000  
C 6                     41441.979        1288.347          34.000                                                                                                                                  
> 2022  1 20  8 44 58.0000000  0 12                     
G 4                    139194.283        2625.219          27.000                       65732.996        1959.329          24.000  
G 7                   -133155.746       -3223.460          18.000                                                                  
G 8                     -8007.188        -140.093          36.000                                                                  
G 9                     54470.687           0.001          25.000                                                                  
G21                   -168823.878       -3034.371          32.000                                                                  
G27                     77830.619        1903.734          29.000                                                                  
R 8                                                        19.000  
R 9                                                        25.000  
R20                                                        28.000  
C 3                      -576.522        -178.094          32.000                                                                                                                                  
C 6                     48155.478        1289.359          34.000                                                                                                                                  
C35                      -661.466        -190.665          28.000                                                                                                                                  
> 2022  1 20  8 44 59.0000000  0 13                     
G 4                    153003.803        2628.886          28.000                       73427.604        1961.266          28.000  
G 7                   -150101.695       -3223.681          17.000                                                                  
G 8                     -8734.520        -137.291          37.000                                                                  
G 9                     60970.901        1237.076          25.000                                                                  
G21                   -184769.180       -3033.150          35.000                                                                  
G27                     87845.608        1902.602          20.000                                                                  
R 8                                                        18.000  
R 9                                                        29.000  
R20                                                        23.000  
C 2                      -796.087        -154.863          30.000                                                                                                                                  
C 3                     -1425.171        -166.324          31.000                                                                                                                                  
C 6                     54878.334        1295.028          34.000                                                                                                                                  
C35                     -1611.557        -189.748          31.000                                                                                                                                  
> 2022  1 20  8 45  0.0000000  0 12                     
G 4                    166809.768        2627.756          30.000                       81125.022        1961.483          28.000  
G 7                   -167045.898       -3223.149          17.000                                                                  
G 8                     -9453.649        -137.088          37.000                                                                  
G 9                     67469.397        1236.953          25.000                                                                  
G21                   -200697.912       -3029.996          34.000                                                                  
G27                     97855.826        1905.214          20.000                                                                  
R 9                                                        25.000  
R20                                                        23.000  
C 2                     -1543.255        -135.546          31.000                                                                                                                                  
C 3                     -2260.431        -158.330          32.000                                                                                                                                  
C 6                     61606.936        1291.763          34.000                                                                                                                                  
C35                     -2579.425        -188.341          30.000                                                                                                                                  
> 2022  1 20  8 45  1.0000000  0 13                     
G 4                    180618.163        2627.464          28.000                       88824.062        1962.495          26.000  
G 7                   -183982.676       -3222.954          14.000                                                                  
G 8                    -10167.304        -134.563          37.000                                                                  
G 9                     73976.311        1239.885          26.000                                                                  
G21                   -216627.609       -3031.385          33.000                                                                  
G27                    107874.415        1907.714          26.000                                                                  
R 9                                                        26.000  
R20                                                        24.000  
J 3                     20835.052         444.555          32.000                                                                  
C 2                     -2320.183        -136.773          29.000                                                                                                                                  
C 3                     -3088.553        -160.667          32.000                                                                                                                                  
C 6                     68339.000        1295.113          34.000                                                                                                                                  
C35                     -3568.118        -189.986          29.000                                                                                                                                  
> 2022  1 20  8 45  3.0000000  0 16                     
G 4                    199946.042        2629.506          24.000                       99607.145        1963.043          26.000  
G 7                   -207685.678       -3222.596          16.000                                                                  
G 8                    -11160.369        -133.217          37.000                                                                  
G 9                     83115.004        1245.343          29.000                                                                  
G21                   -238912.497       -3027.098          31.000                                                                  
G27                    121914.580        1908.913          23.000                                                                  
R 9                                                        28.000  
R20                                                        25.000  
E 9                     22026.238        2316.129          27.000                                                                  
J 3                     24124.831         447.608          32.000                                                                  
C 2                     -3251.498        -128.222          31.000                                                                                                                                  
C 3                     -4242.230        -158.412          34.000                                                                                                                                  
C 6                     77766.330        1292.423          34.000                                                                                                                                  
C 9                      3863.237         845.907          31.000                                                                                                                                  
C10                      -808.942        -183.386          29.000                                                                                                                                  
C35                     -4947.856        -188.306          29.000                                                                                                                                  
> 2022  1 20  8 45  4.0000000  0 17                     
G 4                                                                                    107311.203        1963.844          25.000  
G 7                   -224622.902           0.011          15.000                                                                  
G 8                    -11861.522        -133.397          34.000                                                                  
G 9                     89646.635        1244.535          25.000                                                                  
G21                   -254827.504       -3030.060          33.000                                                                  
G27                    131946.597        1909.240          24.000                                                                  
R 9                                                        31.000  
R20                                                        28.000  
E 9                     34198.623        2316.406          24.000                                                                  
E12                    -22007.653       -2078.728          24.000                                                                  
J 3                     26471.534         446.216          32.000                                                                  
C 2                     -3913.287        -123.077          30.000                                                                                                                                  
C 3                     -5064.812        -158.641          34.000                                                                                                                                  
C 6                     84502.977        1292.466          34.000                                                                                                                                  
C 9                      8259.888         844.083          30.000                                                                                                                                  
C10                     -1768.571        -184.180          27.000                                                                                                                                  
C35                     -5925.380        -185.700          29.000                                                                                                                                  
> 2022  1 20  8 45  5.0000000  0 20                     
G 4                                                                                    115015.581        1964.111          24.000  
G 7                   -241561.173           0.011          13.000                                                                  
G 8                    -12558.474        -132.439          29.000                                                                  
G 9                     96181.020        1245.221          27.000                                                                  
G21                   -270748.595       -3026.495          32.000                                                                  
G27                    141983.491        1909.884          28.000                                                                  
R 9                                                        26.000  
R20                                                        26.000  
E 9                     46371.991        2316.748          24.000                                                                  
E12                    -32934.012       -2079.118          23.000                                                                  
E24                    -26300.022       -1245.197          29.000                                                                  
J 3                     28814.915         445.893          31.000                                                                  
C 2                     -4576.098        -129.140          28.000                                                                                                                                  
C 3                     -5887.039        -159.511          32.000                                                                                                                                  
C 6                     91245.466        1295.499          33.000                                                                                                                                  
C 9                     12651.547         845.441          31.000                                                                                                                                  
C10                     -2720.892        -180.715          28.000                                                                                                                                  
C26                     -7845.003       -1497.511          29.000                                                                                                                                  
C29                     25357.662        2426.864          17.000                                                                                                                                  
C35                     -6895.495        -187.003          28.000                                                                                                                                  
> 2022  1 20  8 45  6.0000000  0 19                     
G 4                    241399.378        2628.390          24.000                      122721.497        1963.764          23.000  
G 7                   -258495.225           0.011          17.000                                                                  
G 8                    -13257.238        -132.628          25.000                                                                  
G 9                    102732.347        1247.671          28.000                                                                  
G27                    152024.357        1912.734          28.000                                                                  
R 9                                                        27.000  
R20                                                        27.000  
E 9                     58547.042        2317.021          24.000                                                                  
E12                    -43859.305       -2079.119          19.000                                                                  
E24                    -32839.773       -1244.430          24.000                                                                  
J 3                     31164.621         448.259          31.000                                                                  
C 2                     -5243.535        -116.150          28.000                                                                                                                                  
C 3                     -6707.183        -156.910          30.000                                                                                                                                  
C 6                     97988.479        1295.325          30.000                                                                                                                                  
C 9                     17061.023         848.186          31.000                                                                                                                                  
C10                     -3666.418        -183.117          25.000                                                                                                                                  
C26                    -15620.897       -1491.500          30.000                                                                                                                                  
C29                     37997.123        2428.184          17.000                                                                                                                                  
C35                     -7862.521        -185.868          30.000                                                                                                                                  
> 2022  1 20  8 45  7.0000000  0 19                     
G 4                    255207.297        2629.195          25.000                      130429.214        1964.148          24.000  
G 7                   -275423.673       -3220.698          17.000                                                                  
G 8                    -13948.877        -132.139          22.000                                                                  
G 9                    109277.522        1243.950          28.000                        3156.924         927.761          22.000  
G27                    162073.332        1910.085          33.000                                                                  
R 9                                                        28.000  
R20                                                        26.000  
E 9                     70724.581        2316.870          22.000                                                                  
E12                    -54768.395       -2074.693          19.000                                                                  
E24                    -39379.004       -1244.242          23.000                                                                  
J 3                     33519.803         445.856          33.000                        1240.252         334.206          24.000  
C 2                     -5836.004        -126.384          29.000                                                                                                                                  
C 3                     -7526.400        -157.939          30.000                                                                                                                                  
C 6                    104732.041        1295.691          32.000                                                                                                                                  
C 9                     21467.275         844.695          32.000                                                                                                                                  
C10                     -4622.635        -182.606          23.000                                                                                                                                  
C26                    -23389.816       -1494.061          30.000                                                                                                                                  
C29                     50639.418        2430.589          18.000                                                                                                                                  
C35                     -8828.383        -185.179          29.000                                                                                                                                  
> 2022  1 20  8 45  8.0000000  0 19                     
G 4                    269027.814        2630.478          26.000                      138138.514        1963.815          25.000  
G 7                   -292348.605       -3221.240          17.000                                                                  
G 8                    -14639.017        -128.900          28.000                                                                  
G 9                    115821.447        1246.569          28.000                        6807.150         930.631          23.000  
G21                   -318474.693       -3026.927          31.000                                                                  
G27                    172123.827        1910.591          32.000                                                                  
R 9                                                        28.000  
R20                                                        24.000  
E12                    -65680.432       -2077.519          20.000                                                                  
E24                    -45917.059       -1244.181          23.000                                                                  
J 3                     35875.293         448.492          31.000                        2553.904         334.884          24.000  
C 2                     -6496.093        -127.378          28.000                                                                                                                                  
C 3                     -8371.662        -160.541          28.000                                                                                                                                  
C 6                    111475.560        1296.048          30.000                                                                                                                                  
C 9                     25870.689         845.506          32.000                                                                                                                                  
C10                     -5578.170        -183.957          20.000                                                                                                                                  
C26                    -31170.943       -1493.386          30.000                                                                                                                                  
C29                     63307.796        2427.921          17.000                                                                                                                                  
C35                     -9789.905        -184.306          29.000                                                                                                                                  
> 2022  1 20  8 45  9.0000000  0 21                     
G 4                    282853.445        2630.263          27.000                      145849.828        1965.439          26.000  
G 7                   -309277.072       -3221.929          16.000                                                                  
G 8                    -15321.333        -129.533          26.000                                                                  
G 9                    122372.927        1245.183          27.000                       10458.868         931.098          23.000  
G21                   -334386.205       -3029.282          31.000                                                                  
G27                    182176.699        1914.178          30.000                                                                  
R 9                                                        25.000  
R20                                                        25.000  
E12                    -76580.956       -2074.723          20.000                                                                  
E24                    -52449.807       -1243.240          24.000                                                                  
J 3                     38230.785         447.776          30.000                        3868.736         335.621          24.000  
C 2                     -7146.089        -128.718          28.000                                                                                                                                  
C 3                     -9163.749        -156.901          28.000                                                                                                                                  
C 5                     -1162.476        -100.008          26.000                                                                                                                                  
C 6                    118220.785        1295.364          29.000                                                                                                                                  
C 9                     30285.663         846.253          31.000                                                                                                                                  
C10                     -6525.111        -180.669          21.000                                                                                                                                  
C24                    -88639.700       -2849.166          15.000                                                                                                                                  
C26                    -38944.474       -1491.956          30.000                                                                                                                                  
C29                     75955.597        2429.655          17.000                                                                                                                                  
C35                    -10751.544        -183.153          29.000                                                                                                                                  
> 2022  1 20  8 45 10.0000000  0 21                     
G 4                    296682.499        2631.333          27.000                      153560.598        1964.593          23.000  
G 7                   -326210.944       -3220.926          17.000                                                                  
G 8                    -15996.066        -128.090          29.000                                                                  
G 9                    128922.228        1248.318          26.000                       14111.387         930.926          21.000  
G21                   -350277.250       -3022.990          32.000                                                                  
G27                    192235.325        1912.771          28.000                                                                  
R 9                                                        30.000  
R20                                                        27.000  
E12                    -87489.047       -2075.820          23.000                                                                  
E24                    -58984.624       -1243.787          28.000                      -13473.627        -896.975          27.000  
J 3                     40582.293         448.004          30.000                        5183.559         335.404          24.000  
C 2                     -7816.564        -124.505          29.000                                                                                                                                  
C 3                     -9964.735        -149.961          27.000                                                                                                                                  
C 5                     -1687.346         -98.841          25.000                                                                                                                                  
C 6                    124965.069        1295.883          29.000                                                                                                                                  
C 9                     34699.859         847.397          32.000                                                                                                                                  
C10                     -7470.599        -181.500          20.000                                                                                                                                  
C24                   -103477.587       -2850.795          16.000                                                                                                                                  
C26                    -46714.428       -1491.318          32.000                                                                                                                                  
C29                     88609.794        2429.236          17.000                                                                                                                                  
C35                    -11709.908        -184.745          29.000                                                                                                                                  
> 2022  1 20  8 45 11.0000000  0 21                     
G 4                    310519.150        2633.828          28.000                      161273.333        1965.658          23.000  
G 7                   -343138.554       -3220.197          17.000                                                                  
G 8                    -16676.551        -129.033          24.000                                                                  
G 9                    135485.710        1249.061          26.000                       17767.383         931.192          20.000  
G21                   -366176.245       -3024.069          33.000                                                                  
G27                    202290.067        1915.800          30.000                                                                  
R 9                                                        30.000  
R20                                                        26.000  
E12                    -98396.219       -2075.266          25.000                                                                  
E24                    -65518.246       -1243.234          27.000                      -17099.208        -903.127          26.000  
J 3                     42946.466         450.948          30.000                        6499.141         335.705          25.000  
C 2                     -8413.536        -113.234          29.000                                                                                                                                  
C 3                    -10740.358        -155.029          28.000                                                                                                                                  
C 5                     -2270.082        -125.346          25.000                                                                                                                                  
C 6                    131718.580        1298.042          30.000                                                                                                                                  
C 9                     39104.180         847.696          31.000                                                                                                                                  
C10                     -8415.736        -181.672          22.000                                                                                                                                  
C24                   -118318.051       -2849.770          17.000                                                                                                                                  
C26                    -54484.819       -1491.184          33.000                                                                                                                                  
C29                    101266.416        2429.741          18.000                                                                                                                                  
C35                    -12660.935        -181.350          27.000                                                                                                                                  
> 2022  1 20  8 45 12.0000000  0 22                     
G 4                    324360.674        2634.131          26.000                      168988.358        1965.839          24.000  
G 7                   -360057.646       -3220.199          15.000                                                                  
G 8                    -17346.437        -126.905          38.000                                                                  
G 9                    142044.964        1249.346          27.000                       21426.566         933.324          26.000  
G21                   -382063.592       -3025.252          32.000                                                                  
G27                    212354.855        1916.093          26.000                                                                  
R 9                                                        31.000  
R20                                                        23.000  
E12                   -109298.350       -2074.801          23.000                                                                  
E24                    -72048.799       -1242.621          30.000                      -20780.926        -967.761          24.000  
E31                     10974.174         297.383           8.000                                                                  
J 3                     45304.642         447.534          30.000                        7816.524         335.959          23.000  
C 2                     -9014.077        -126.494          29.000                                                                                                                                  
C 3                    -11562.851        -154.958          27.000                                                                                                                                  
C 5                     -2880.178        -106.216          25.000                                                                                                                                  
C 6                    138476.288        1298.186          29.000                                                                                                                                  
C 9                     43532.619         848.695          31.000                                                                                                                                  
C10                     -9363.266        -181.378          24.000                                                                                                                                  
C24                   -133144.324       -2843.113          17.000                                                                                                                                  
C26                    -62252.633       -1492.575          33.000                                                                                                                                  
C29                    113918.006        2430.407          17.000                                                                                                                                  
C35                    -13601.550        -182.111          32.000                                                                                                                                  
> 2022  1 20  8 45 13.0000000  0 23                     
G 4                    338192.581        2631.362          23.000                      176705.002        1966.088          24.000  
G 7                   -376980.473       -3221.239          16.000                                                                  
G 8                    -18015.019        -126.997          39.000                        -212.359        -104.100          19.000  
G 9                    148613.668        1251.158          29.000                       25087.488         933.494          26.000  
G21                   -397955.741       -3024.175          29.000                                                                  
G27                    222423.685        1915.315          27.000                                                                  
R 9                                                        25.000  
R20                                                        21.000  
E 9                    143829.907        2320.878          12.000                                                                  
E12                   -120194.844       -2072.078          19.000                                                                  
E24                    -78578.204       -1242.386          34.000                                                                  
E31                     12538.970         297.673          10.000                                                                  
J 3                     47669.063         452.051          28.000                        9134.915         336.309          20.000  
C 2                     -9713.939        -123.958          27.000                                                                                                                                  
C 3                    -12323.476        -140.202          28.000                                                                                                                                  
C 5                     -3442.070        -100.372          26.000                                                                                                                                  
C 6                    145239.216        1298.071          31.000                                                                                                                                  
C 9                     47950.741         848.398          34.000                                                                                                                                  
C10                    -10301.268        -179.614          29.000                                                                                                                                  
C24                   -147957.712       -2845.507          17.000                                                                                                                                  
C26                    -70011.357       -1490.414          33.000                                                                                       -3916.632       -1122.169          26.000  
C29                    126576.111        2431.227          16.000                                                                                                                                  
C35                    -14549.428        -181.148          32.000                                                                                                                                  
> 2022  1 20  8 45 14.0000000  0 23                     
G 1                    -42525.554       -3994.058          16.000                                                                  
G 4                    352022.129        2633.613          26.000                      184421.478        1966.239          22.000  
G 7                   -393907.682       -3220.959          16.000                                                                  
G 8                    -18680.650        -127.107          34.000                        -583.045         -92.496          23.000  
G 9                    155174.179        1246.614          25.000                       28750.054         935.456          23.000  
G27                    232489.212        1915.409          31.000                                                                  
R 9                                                        23.000  
R20                                                        19.000  
E 9                    156025.373        2320.578          19.000                                                                  
E12                   -131078.521       -2068.719          16.000                                                                  
E24                    -85107.165       -1242.376          30.000                                                                  
E31                     14103.605         297.620           9.000                                                                  
J 3                     50031.006         451.910          25.000                       10455.824         336.960          21.000  
C 2                    -10338.112        -117.913          30.000                                                                                                                                  
C 3                    -13124.529        -157.429          30.000                                                                                                                                  
C 5                     -4013.027         -97.508          28.000                                                                                                                                  
C 6                    151991.518        1294.246          30.000                                                                                                                                  
C 9                     52373.357         849.082          32.000                                                                                                                                  
C10                    -11242.026        -182.806          30.000                                                                                                                                  
C24                   -162766.230       -2841.736          14.000                                                                                                                                  
C26                    -77771.754       -1491.736          31.000                                                                                       -8321.989       -1121.965          24.000  
C29                    139240.567        2432.332          17.000                                                                                                                                  
C35                    -15482.011        -179.089          33.000                                                                                        -211.690        -135.341          22.000  
> 2022  1 20  8 45 15.0000000  0 23                     
G 4                    365864.196        2633.246          21.000                      192138.364        1968.243          21.000  
G 7                   -410829.678       -3218.905          17.000                                                                  
G 8                    -19341.223        -124.539          36.000                        -950.924         -92.536          22.000  
G 9                    161730.895        1250.885          28.000                       32414.759         935.022          23.000  
G21                    -10120.487       -3022.870          33.000                                                                  
G27                    242562.494        1916.661          32.000                                                                  
R 9                                                        25.000  
R20                                                        18.000  
E 9                    168218.791        2319.973          24.000                                                                  
E12                   -141967.494       -2070.524          14.000                                                                  
E24                    -91633.695       -1241.846          32.000                                                                  
E31                     15669.066         298.162          10.000                                                                  
J 3                     52396.447         449.335          29.000                       11776.246         338.715          20.000  
C 2                    -10992.830        -124.824          26.000                                                                                                                                  
C 3                    -13987.339        -162.952          28.000                                                                                                                                  
C 5                     -4606.013        -113.467          27.000                                                                                                                                  
C 6                    158748.670        1300.118          30.000                                                                                                                                  
C 9                     56800.899         851.198          33.000                                                                                                                                  
C10                    -12178.286        -179.589          30.000                                                                                                                                  
C24                   -177556.056       -2839.931          15.000                                                                                                                                  
C26                    -85517.791       -1488.780          30.000                                                                                      -12726.119       -1121.702          24.000  
C29                    151911.475        2433.475          14.000                                                                                                                                  
C35                    -16418.113        -179.331          35.000                                                                                        -742.620        -134.857          23.000  
> 2022  1 20  8 45 16.0000000  0 24                     
G 1                    -84509.236       -3994.343          20.000                                                                  
G 4                    379713.478           0.002          18.000                      199859.054        1968.302          22.000  
G 7                   -427729.896       -3214.616          19.000                                                                  
G 8                    -19995.776        -123.839          35.000                       -1316.419         -92.284          24.000  
G 9                    168310.208        1251.794          29.000                       36081.880         936.532          22.000  
G21                    -25998.603       -3022.132          33.000                                                                  
G27                    252636.582        1916.732          33.000                                                                  
R 9                                                        27.000  
R20                                                        17.000  
E 9                    180411.100        2320.082          24.000                                                                  
E12                   -152846.115       -2067.406          13.000                                                                  
E24                    -98159.009       -1241.494          32.000                                                                  
E31                     17236.602         298.481          10.000                                                                  
J 3                     54758.898         449.256          29.000                       13102.782         337.990          18.000  
C 2                    -11694.494        -129.834          26.000                                                                                                                                  
C 3                    -14793.649        -160.232          27.000                                                                                                                                  
C 5                     -5263.327        -124.161          27.000                                                                                                                                  
C 6                    165512.320        1297.060          29.000                                                                                                                                  
C 9                     61228.535         850.737          32.000                                                                                                                                  
C10                    -13114.253        -179.416          29.000                                                                                                                                  
C24                   -192343.061           0.002          11.000                                                                                                                                  
C26                    -93272.125       -1488.501          32.000                                                                                      -17128.876       -1121.243          24.000  
C29                    164583.991        2432.629          15.000                                                                                                                                  
C35                    -17345.423        -177.741          35.000                                                                                       -1271.166        -133.789          24.000  
> 2022  1 20  8 45 17.0000000  0 23                     
G 1                   -105516.800       -3996.021          19.000                                                                  
G 4                    393569.888           0.002          19.000                      207581.165        1969.979          22.000  
G 7                   -444618.773       -3214.108          18.000                                                                  
G 8                    -20647.143        -124.832          35.000                       -1678.794         -91.315          23.000  
G 9                    174893.040        1253.553          28.000                       39751.474         935.632          23.000  
G21                    -41879.508       -3020.662          33.000                                                                  
G27                    262711.031        1918.930          32.000                                                                  
R 9                                                        25.000  
R20                                                        16.000  
E 9                    192605.598        2320.342          23.000                                                                  
E24                   -104681.836       -1241.071          31.000                                                                  
E31                     18806.554         298.975          11.000                                                                  
J 3                     57122.294         449.395          30.000                       14429.710         338.683          19.000  
C 2                    -12362.138        -112.892          25.000                                                                                                                                  
C 3                    -15600.650        -150.624          28.000                                                                                                                                  
C 5                     -5900.419        -119.745          27.000                                                                                                                                  
C 6                    172277.369        1300.006          27.000                                                                                                                                  
C 9                     65656.344         850.655          32.000                                                                                                                                  
C10                    -14049.222        -179.471          29.000                                                                                                                                  
C24                   -207133.979           0.002          12.000                                                                                                                                  
C26                   -101019.386       -1488.443          32.000                                                                                      -21529.359       -1120.212          25.000  
C29                    177246.818        2431.097          15.000                                                                                                                                  
C35                    -18273.391        -177.315          34.000                                                                                       -1797.044        -133.761          23.000  
> 2022  1 20  8 45 18.0000000  0 23                     
G 1                   -126527.206       -3999.206          19.000                                                                  
G 4                    407425.085        2636.933          18.000                      215304.611        1968.700          22.000  
G 7                   -461504.707       -3214.224          18.000                                                                  
G 8                    -21292.915        -123.342          35.000                       -2038.819         -90.423          25.000  
G 9                    181485.525        1252.427          29.000                       43423.002         935.872          23.000  
G21                    -57752.157       -3021.974          31.000                                                                  
G27                    272793.583        1918.516          33.000                                                                  
R 9                                                        26.000  
R20                                                        14.000  
E 9                    204802.586        2321.114          25.000                                                                  
E24                   -111202.776       -1240.743          31.000                                                                  
E31                     20378.261         299.204          11.000                                                                  
J 3                     59488.657         451.263          29.000                       15756.340         339.146          17.000  
C 2                    -12989.582        -120.117          27.000                                                                                                                                  
C 3                    -16397.826        -169.770          27.000                                                                                                                                  
C 5                     -6497.798        -105.800          27.000                                                                                                                                  
C 6                    179045.352        1296.484          28.000                                                                                                                                  
C 9                     70084.439         850.311          33.000                                                                                                                                  
C10                    -14981.023        -178.756          28.000                                                                                                                                  
C24                   -221925.052           0.002          13.000                                                                                                                                  
C26                   -108768.709       -1485.624          34.000                                                                                      -25928.572       -1120.778          25.000  
C29                    189902.307           0.008          13.000                                                                                                                                  
C35                    -19194.603        -177.836          35.000                                                                                       -2320.182        -133.213          24.000  
> 2022  1 20  8 45 19.0000000  0 22                     
G 4                    421277.903        2636.365          18.000                      223028.512        1969.397          22.000  
G 7                   -478395.212       -3213.062          17.000                                                                  
G 8                    -21937.950        -122.076          35.000                       -2397.766         -91.409          24.000  
G 9                    188071.825        1253.604          27.000                       47096.259         936.110          22.000  
G21                    -73622.447       -3020.715          31.000                                                                  
G27                    282881.323        1921.682          32.000                                                                  
R 9                                                        25.000  
R20                                                        17.000  
E 9                    216999.317        2320.882          24.000                                                                  
E24                   -117723.418       -1240.678          32.000                                                                  
E31                     21950.500         299.247          11.000                                                                  
J 3                     61866.943         451.451          30.000                       17084.903         338.210          18.000  
C 2                    -13569.023        -114.293          25.000                                                                                                                                  
C 3                    -17204.532        -148.880          27.000                                                                                                                                  
C 5                     -7053.874         -94.892          27.000                                                                                                                                  
C 6                    185807.741        1300.960          27.000                                                                                                                                  
C 9                     74515.587         849.952          33.000                                                                                                                                  
C10                    -15910.655        -178.760          29.000                                                                                                                                  
C24                   -236725.325           0.002          13.000                                                                                                                                  
C26                   -116513.246       -1486.726          32.000                                                                                      -30326.395       -1119.801          25.000  
C29                    202558.217           0.008          13.000                                                                                                                                  
C35                    -20118.368        -175.037          34.000                                                                                       -2841.369        -130.584          23.000  
> 2022  1 20  8 45 20.0000000  0 23                     
G 1                   -168542.038       -3996.251          20.000                                                                  
G 4                    435137.132        2636.888          19.000                      230753.800        1969.085          24.000  
G 7                   -495288.311       -3215.497          16.000                                                                  
G 8                    -22575.818        -121.497          38.000                       -2754.520         -90.435          25.000  
G 9                    194653.969        1252.349          27.000                       50776.800         937.550          21.000  
G21                    -89495.338       -3021.098          23.000                                                                  
G27                    292973.546        1918.388          25.000                                                                  
R 9                                                        24.000  
R20                                                        18.000  
E 9                    229198.636        2321.368          25.000                                                                  
E24                   -124242.798       -1240.431          30.000                                                                  
E31                     23522.477         299.176          12.000                                                                  
J 3                     64229.868         449.987          32.000                       18411.228         339.618          18.000  
C 2                    -14125.792        -103.317          26.000                                                                                                                                  
C 3                    -18017.708        -162.290          27.000                                                                                                                                  
C 5                     -7554.263         -97.455          26.000                                                                                                                                  
C 6                    192577.803        1301.122          26.000                                                                                                                                  
C 9                     78947.487         853.398          30.000                                                                                                                                  
C10                    -16843.648        -178.135          26.000                                                                                                                                  
C24                   -251509.139           0.002          14.000                                                                                                                                  
C26                   -124255.578       -1485.985          28.000                                                                                      -34722.463       -1119.312          24.000  
C29                    215218.321           0.008          14.000                                                                                                                                  
C35                    -21027.697        -174.951          34.000                                                                                       -3360.720        -131.890          23.000  
> 2022  1 20  8 45 21.0000000  0 22                     
G 1                   -189528.613       -3991.789          17.000                                                                  
G 4                    448993.249           0.002          20.000                      238481.448        1968.765          22.000  
G 7                   -512179.059       -3213.716          13.000                                                                  
G 8                    -23212.998        -120.466          39.000                       -3108.697         -90.190          27.000  
G 9                    201263.416        1259.355          27.000                       54453.903         937.275          21.000  
G27                    303053.547        1918.225          20.000                                                                  
R 9                                                        27.000  
R20                                                        20.000  
E 9                    241399.351        2322.217          24.000                                                                  
E24                   -130760.483       -1240.138          31.000                                                                  
E31                     25097.360         299.731          12.000                                                                  
J 3                     66603.186         450.079          30.000                       19737.185         335.269          20.000  
C 2                    -14689.439        -100.608          24.000                                                                                                                                  
C 3                    -18800.150        -140.852          26.000                                                                                                                                  
C 5                     -8031.230        -113.717          27.000                                                                                                                                  
C 6                    199348.942        1300.174          25.000                                                                                                                                  
C 9                     83393.002         851.948          30.000                                                                                                                                  
C10                    -17776.370        -179.096          28.000                                                                                                                                  
C24                   -266295.749           0.002          11.000                                                                                                                                  
C26                   -131993.801       -1485.550          31.000                                                                                      -39117.597       -1120.120          25.000  
C29                    227868.582           0.008          14.000                                                                                                                                  
C35                    -21937.847        -175.727          33.000                                                                                       -3878.068        -131.290          24.000  
> 2022  1 20  8 45 22.0000000  0 24                     
G 1                   -210507.196       -3991.406          16.000                                                                  
G 4                    462858.268           0.002          19.000                      246209.048        1969.262          22.000  
G 7                   -529060.333       -3211.220          14.000                                                                  
G 8                    -23845.414        -120.349          38.000                       -3461.382         -90.090          27.000  
G 9                    207864.209        1255.447          27.000                       58133.146         938.404          20.000  
G21                    -29388.878       -3020.069          19.000                                                                  
G27                    313141.360        1921.369          21.000                                                                  
R 9                                                        26.000  
R20                                                        20.000  
E 9                    253599.915        2321.603          25.000                                                                  
E24                   -137278.076       -1240.169          32.000                                                                  
E31                     26674.900         300.530          12.000                                                                  
J 3                     68979.174         452.174          29.000                       21068.475         338.201          18.000  
C 2                    -15269.680        -126.971          24.000                                                                                                                                  
C 3                    -19499.639        -128.426          24.000                                                                                                                                  
C 5                     -8619.010        -109.420          27.000                                                                                                                                  
C 6                    206119.281        1301.149          25.000                                                                                                                                  
C 9                     87833.918         853.418          29.000                                                                                                                                  
C10                    -18705.647        -177.412          29.000                                                                                                                                  
C16                    132399.392        1359.285          28.000                                                                                                                                  
C24                   -281092.895           0.002          11.000                                                                                                                                  
C26                   -139729.783       -1485.029          32.000                                                                                      -43511.689       -1120.311          26.000  
C29                    240521.667           0.008          15.000                                                                                                                                  
C35                    -22844.853        -173.733          31.000                                                                                       -4393.981        -132.545          22.000  
> 2022  1 20  8 45 23.0000000  0 23                     
G 1                   -231490.666       -3994.042          17.000                                                                  
G 4                    476725.689        2639.717          18.000                      253937.890        1969.093          22.000  
G 7                   -545940.111       -3212.414          15.000                                                                  
G 8                    -24474.223        -119.616          38.000                       -3812.047         -89.832          26.000  
G 9                    214463.290        1257.994          25.000                       61814.865         939.580          20.000  
G27                    323234.368        1920.255          21.000                                                                  
R 9                                                        25.000  
R20                                                        19.000  
E 9                    265801.454        2321.933          23.000                                                                  
E24                   -143794.371       -1239.863          31.000                                                                  
E31                     28255.214         300.813          12.000                                                                  
J 3                     71358.015         452.350          29.000                       22393.763         337.013          18.000  
C 2                    -15966.193        -125.530          25.000                                                                                                                                  
C 3                    -20163.153        -116.868          25.000                                                                                                                                  
C 5                     -9180.317        -106.221          27.000                                                                                                                                  
C 6                    212892.164        1300.532          25.000                                                                                                                                  
C 9                     92275.119         853.137          30.000                                                                                                                                  
C10                    -19632.967        -177.715          30.000                                                                                                                                  
C16                    139476.158        1356.154          29.000                                                                                                                                  
C24                   -295900.675           0.002          10.000                                                                                                                                  
C26                   -147464.776       -1485.362          32.000                                                                                      -47904.539       -1119.625          27.000  
C29                    253182.759           0.008          14.000                                                                                                                                  
C35                    -23749.123        -173.535          31.000                                                                                       -4907.319        -131.436          23.000  
> 2022  1 20  8 45 24.0000000  0 24                     
G 1                   -252484.788       -3994.932          17.000                                                                  
G 4                    490597.096        2640.439          20.000                      261667.452        1968.758          23.000  
G 7                   -562829.788           0.011          16.000                                                                  
G 8                    -25100.085        -119.151          38.000                       -4160.924         -89.151          27.000  
G 9                    221067.313        1256.364          25.000                       65496.593         938.534          20.000  
G21                    -61113.671       -3018.264          19.000                                                                  
G27                    333323.690        1920.571          25.000                                                                  
R 9                                                        23.000  
R20                                                        20.000  
E 9                    278003.675        2322.309          24.000                                                                  
E24                   -150310.276       -1239.719          30.000                                                                  
E31                     29838.064         301.446          12.000                                                                  
J 3                     73731.066         451.707          29.000                       23720.330         337.827          19.000  
C 2                    -16578.879        -123.791          25.000                                                                                                                                  
C 3                    -20798.245        -133.312          25.000                                                                                                                                  
C 5                     -9794.408        -117.818          26.000                                                                                                                                  
C 6                    219665.546        1303.508          27.000                                                                                                                                  
C 9                     96722.149         853.396          30.000                                                                                                                                  
C10                    -20570.599        -179.472          29.000                                                                                                                                  
C16                    146536.373        1355.979          29.000                                                                                                                                  
C24                   -310721.072           0.002          13.000                                                                                                                                  
C26                   -155197.913       -1485.329          31.000                                                                                      -52296.321       -1118.802          28.000  
C29                    265854.422           0.008          13.000                                                                                                                                  
C35                    -24649.825        -172.561          32.000                                                                                       -5418.850        -130.970          23.000  
> 2022  1 20  8 45 25.0000000  0 23                     
G 1                   -273482.053       -3996.656          17.000                                                                  
G 4                    504467.283        2639.976          20.000                      269398.608        1969.579          23.000  
G 7                   -579725.330           0.011          17.000                                                                  
G 8                    -25720.932        -117.190          38.000                       -4507.756         -88.258          26.000  
G 9                    227673.739        1256.864          25.000                       69180.872         938.728          19.000  
G27                    343416.121        1921.693          28.000                                                                  
R 9                                                        21.000  
R20                                                        20.000  
E 9                    290207.832        2322.231          23.000                                                                  
E24                   -156824.523       -1239.440          30.000                                                                  
E31                     31420.933         301.209          11.000                                                                  
J 3                     76106.655         454.800          28.000                       25048.028         338.385          18.000  
C 2                    -17212.739        -118.455          25.000                                                                                                                                  
C 3                    -21531.014        -146.994          25.000                                                                                                                                  
C 5                    -10395.495        -112.395          26.000                                                                                                                                  
C 6                    226447.860        1300.275          28.000                                                                                                                                  
C 9                    101163.661         851.631          30.000                                                                                                                                  
C10                    -21495.222        -176.722          28.000                                                                                                                                  
C16                    153613.170        1360.667          30.000                                                                                                                                  
C24                   -325551.141           0.002          12.000                                                                                                                                  
C26                   -162936.651       -1484.915          30.000                                                                                      -56686.595       -1119.060          25.000  
C29                    278531.709           0.008          14.000                                                                                                                                  
C35                    -25544.809        -172.743          32.000                                                                                       -5927.447        -129.187          23.000  
> 2022  1 20  8 45 26.0000000  0 23                     
G 1                   -294485.724       -3997.771          18.000                                                                  
G 4                    518326.404           0.002          21.000                      277130.571        1969.692          22.000  
G 7                   -596625.227       -3215.814          16.000                                                                  
G 8                    -26340.423        -116.542          38.000                       -4852.272         -88.460          26.000  
G 9                    234281.691           0.001          25.000                       72878.442         944.115          20.000  
G27                    353521.812        1922.563          25.000                                                                  
R 9                                                        23.000  
R20                                                        19.000  
E 9                    302413.996        2322.895          25.000                       12894.178        1734.939          18.000  
E24                   -163337.404       -1239.340          29.000                                                                  
E31                     33005.162         301.607          12.000                                                                  
J 3                     78490.420         453.112          28.000                       26382.892         341.884          19.000  
C 2                    -17797.877        -108.868          26.000                                                                                                                                  
C 3                    -22317.807        -156.728          24.000                                                                                                                                  
C 5                    -11007.004        -123.635          27.000                                                                                                                                  
C 6                    233218.874        1301.579          27.000                                                                                                                                  
C 9                    105604.918         855.108          30.000                                                                                                                                  
C10                    -22421.063        -178.188          30.000                                                                                                                                  
C16                    160691.170        1357.990          29.000                                                                                                                                  
C24                   -340373.840           0.002           9.000                                                                                                                                  
C26                   -170663.444       -1484.390          32.000                                                                                      -61075.239       -1118.699          27.000  
C29                    291206.095           0.008          13.000                                                                                                                                  
C35                    -26436.348        -167.702          32.000                                                                                       -6435.478        -129.884          22.000  
> 2022  1 20  8 45 27.0000000  0 22                     
G 1                   -315497.226       -3998.157          17.000                                                                  
G 4                    532184.093        2638.255          20.000                      284865.589        1972.026          20.000  
G 7                   -613511.147       -3212.132          17.000                                                                  
G 8                    -26955.140        -116.585          39.000                       -5195.128         -87.350          28.000  
G 9                    240889.010        1257.508          25.000                       76571.997         942.047          19.000  
G27                    363623.204        1922.208          24.000                                                                  
R 9                                                        31.000  
R20                                                        19.000  
E 9                    314620.593        2322.889          25.000                       19700.984        1732.849          18.000  
E24                   -169849.892       -1239.064          32.000                                                                  
E31                     34591.128         301.880          13.000                                                                  
J 3                     80871.839         455.350          28.000                       27711.113         336.951          20.000  
C 2                    -18393.300        -110.274          24.000                                                                                                                                  
C 3                    -23119.131        -135.403          23.000                                                                                                                                  
C 5                    -11674.705        -123.567          26.000                                                                                                                                  
C 6                    239988.562        1300.527          23.000                                                                                                                                  
C 9                    110061.023         854.516          28.000                                                                                                                                  
C10                    -23347.680        -177.189          31.000                                                                                                                                  
C16                    167755.354        1356.141          26.000                                                                                                                                  
C26                   -178388.823       -1482.760          35.000                                                                                      -65463.017       -1117.811          26.000  
C29                    303875.636           0.008          13.000                                                                                                                                  
C35                    -27322.323        -170.687          32.000                                                                                       -6941.299        -130.170          22.000  
> 2022  1 20  8 45 28.0000000  0 21                     
G 1                   -336504.460       -3996.834          17.000                                                                  
G 4                    546055.720           0.002          17.000                      292599.929        1971.280          21.000  
G 7                   -630385.452       -3208.609          19.000                                                                  
G 8                    -27565.658        -115.373          39.000                       -5535.081         -87.516          30.000  
G 9                    247498.966        1257.909          24.000                       80263.105         940.445          22.000  
G27                    373732.109        1926.248          32.000                                                                  
R 9                                                        30.000  
R20                                                        18.000  
E 9                    326830.268        2323.494          22.000                       26503.507        1733.295          18.000  
E24                   -176359.596       -1238.666          33.000                                                                  
E31                     36178.382         302.417          12.000                                                                  
J 3                     83263.440         454.561          25.000                       29041.926         339.339          23.000  
C 3                    -23795.010        -126.803          25.000                                                                                                                                  
C 5                    -12321.952        -116.375          25.000                                                                                                                                  
C 6                    246770.064        1304.325          22.000                                                                                                                                  
C 9                    114506.613         854.018          30.000                                                                                                                                  
C10                    -24273.270        -178.028          33.000                                                                                                                                  
C16                    174826.430        1358.033          20.000                                                                                                                                  
C26                   -186114.184       -1485.016          34.000                                                                                      -69849.006       -1118.582          28.000  
C29                    316548.071           0.008          14.000                                                                                                                                  
C35                    -28210.397        -169.647          33.000                                                                                       -7443.008        -127.141          23.000  
> 2022  1 20  8 45 29.0000000  0 21                     
G 1                   -357505.001       -3995.835          15.000                                                                  
G 4                    559938.256           0.002          14.000                      300335.505        1970.243          20.000  
G 7                   -647246.197       -3208.756          20.000                                                                  
G 8                    -28173.465        -115.188          38.000                       -5873.137         -86.453          29.000  
G 9                    254121.921        1259.908          24.000                       83956.565         941.878          22.000  
G27                    383854.218        1924.405          32.000                                                                  
R 9                                                        28.000  
R20                                                        19.000  
E 9                    339039.523        2323.468          23.000                       33309.909        1734.603          17.000  
E24                   -182869.494       -1238.702          33.000                                                                  
E31                     37769.051         302.821          12.000                                                                  
J 3                     85654.819         454.621          27.000                       30372.074         341.035          22.000  
C 3                    -24433.888        -136.563          27.000                                                                                                                                  
C 5                    -12906.066        -104.507          27.000                                                                                                                                  
C 6                    253563.934        1303.065          24.000                                                                                                                                  
C 9                    118954.915         854.600          30.000                                                                                                                                  
C10                    -25196.276        -176.887          33.000                                                                                                                                  
C16                    181894.731        1358.232          21.000                                                                                                                                  
C26                   -193835.232       -1482.414          34.000                                                                                      -74233.678       -1117.288          28.000  
C29                    329220.679           0.008          14.000                                                                                                                                  
C35                    -29090.011        -168.313          33.000                                                                                       -7944.063        -127.976          23.000  
> 2022  1 20  8 45 30.0000000  0 23                     
G 1                   -378506.419          -0.015          15.000                                                                  
G 4                    573812.917           0.002          14.000                      308072.191        1970.170          20.000  
G 7                   -664106.871       -3208.170          20.000                                                                  
G 8                    -28779.988        -115.201          38.000                       -6209.715         -86.079          29.000  
G 9                    260741.804        1259.656          26.000                       87654.763         941.505          21.000  
G21                    -12243.865       -3014.264          27.000                                                                  
G27                    393969.244        1925.968          32.000                                                                  
R 9                                                        30.000  
R20                                                        19.000  
E 9                    351249.371        2323.488          23.000                       40118.947        1733.457          16.000  
E12                    -41769.885       -2065.858          18.000                                                                  
E24                   -189378.410       -1238.517          33.000                                                                  
E31                     39362.350         303.293          11.000                                                                  
J 3                     88045.443         455.558          27.000                       31701.993         337.496          22.000  
C 3                    -25136.983        -131.517          26.000                                                                                                                                  
C 5                    -13477.147         -99.082          25.000                                                                                                                                  
C 6                    260349.872        1301.995          23.000                                                                                                                                  
C 9                    123406.718         854.145          30.000                                                                                                                                  
C10                    -26123.672        -176.598          33.000                                                                                                                                  
C16                    188962.143        1356.565          22.000                                                                                                                                  
C26                   -201553.734       -1483.578          34.000                                                                                      -78617.534       -1117.479          27.000  
C29                    341894.663           0.008          13.000                                                                                                                                  
C35                    -29959.361        -168.663          34.000                                                                                       -8446.672        -130.666          21.000  
> 2022  1 20  8 45 31.0000000  0 22                     
G 1                   -399511.852          -0.015          13.000                                                                  
G 4                    587682.118           0.002          14.000                      315809.941        1971.400          21.000  
G 7                   -680967.813       -3208.225          19.000                                                                  
G 8                    -29382.445        -113.809          38.000                       -6544.207         -84.689          28.000  
G 9                    267362.625        1262.334          27.000                       91351.238         942.427          23.000  
G21                    -28083.339       -3014.555          30.000                                                                  
G27                    404086.702        1928.188          32.000                                                                  
R 9                                                        30.000  
R20                                                        17.000  
E 9                    363461.389        2324.013          23.000                       46923.867        1736.277          17.000  
E24                   -195886.320       -1238.336          33.000                                                                  
E31                     40955.269         302.932          10.000                                                                  
J 3                     90433.517         453.671          26.000                       33033.756         338.988          22.000  
C 3                    -25915.728        -145.828          26.000                                                                                                                                  
C 5                    -14042.811        -118.565          25.000                                                                                                                                  
C 6                    267131.790        1302.288          23.000                                                                                                                                  
C 9                    127851.203         852.965          31.000                                                                                                                                  
C10                    -27046.055        -177.018          32.000                                                                                                                                  
C16                    196033.427        1357.806          22.000                                                                                                                                  
C26                   -209270.029       -1480.948          34.000                                                                                      -82999.946       -1116.828          27.000  
C29                    354564.796           0.008          11.000                                                                                                                                  
C35                    -30837.874        -168.215          32.000                                                                                       -8944.746        -126.501          22.000  
> 2022  1 20  8 45 32.0000000  0 22                     
G 1                   -420519.544          -0.015          15.000                                                                  
G 4                    601547.366           0.002          12.000                      323549.331        1971.921          21.000  
G 7                   -697840.443       -3210.553          17.000                                                                  
G 8                    -29977.537        -113.827          38.000                       -6876.920         -84.688          29.000  
G 9                    274001.691        1263.948          28.000                       95048.964         942.957          22.000  
G21                    -43917.053       -3010.542          31.000                                                                  
G27                    414207.926        1928.362          32.000                                                                  
R 9                                                        30.000  
R20                                                        16.000  
E 9                    375673.735        2324.066          24.000                       53739.114        1735.637          17.000  
E24                   -202392.856       -1237.995          33.000                                                                  
E31                     42547.631         303.011          10.000                                                                  
J 3                     92821.089         453.448          25.000                       34365.743         338.618          22.000  
C 3                    -26763.631        -165.893          26.000                                                                                                                                  
C 5                    -14664.702        -112.446          26.000                                                                                                                                  
C 6                    273918.376        1302.885          23.000                                                                                                                                  
C 9                    132302.188         852.732          30.000                                                                                                                                  
C10                    -27971.907        -176.733          33.000                                                                                                                                  
C16                    203105.866        1357.076          20.000                                                                                                                                  
C26                   -216984.758       -1481.889          35.000                                                                                      -87381.273       -1117.296          26.000  
C29                    367230.865           0.008          12.000                                                                                                                                  
C35                    -31708.675        -166.053          32.000                                                                                       -9439.844        -125.953          21.000  
> 2022  1 20  8 45 33.0000000  0 22                     
G 1                   -441532.589          -0.015          14.000                                                                  
G 4                    615409.049           0.002          14.000                      331289.843        1972.968          22.000  
G 7                   -714704.176       -3207.341          17.000                                                                  
G 8                    -30574.085        -113.145          38.000                       -7207.557         -84.371          30.000  
G 9                    280640.069        1263.871          26.000                       98748.341         942.298          21.000  
G21                    -59744.926       -3013.931          30.000                                                                  
G27                    424336.839        1925.862          33.000                                                                  
R 9                                                        30.000  
R20                                                        16.000  
E 9                    387887.433        2324.388          24.000                       60552.776        1736.308          18.000  
E24                   -208898.658       -1237.980          33.000                                                                  
E31                     44141.822         303.864          10.000                                                                  
J 3                     95209.864         455.574          25.000                       35698.305         338.023          22.000  
C 3                    -27634.906        -172.707          26.000                                                                                                                                  
C 5                    -15200.290        -105.907          26.000                                                                                                                                  
C 6                    280697.750        1302.415          23.000                                                                                                                                  
C 9                    136751.346         854.343          31.000                                                                                                                                  
C10                    -28895.336        -177.713          33.000                                                                                                                                  
C16                    210175.819        1360.498          20.000                                                                                                                                  
C26                   -224694.921       -1480.619          33.000                                                                                      -91760.914       -1116.518          27.000  
C29                    379912.141           0.008          14.000                                                                                                                                  
C35                    -32576.338        -166.262          32.000                                                                                       -9928.931        -125.662          24.000  
> 2022  1 20  8 45 34.0000000  0 22                     
G 1                   -462546.518          -0.015          14.000                                                                  
G 4                    629265.929           0.002          15.000                      339030.150        1971.380          22.000  
G 7                   -731566.593       -3208.093          16.000                                                                  
G 8                    -31163.623        -111.751          38.000                       -7536.005         -83.926          29.000  
G 9                    287285.386        1266.551          28.000                      102450.985         943.470          22.000  
G21                    -75580.350       -3010.708          31.000                                                                  
G27                    434462.676        1926.824          33.000                                                                  
R 9                                                        29.000  
R20                                                        16.000  
E 9                    400102.637        2324.625          24.000                       67362.618        1734.546          17.000  
E24                   -215403.274       -1237.760          33.000                                                                  
E31                     45737.233         303.104          11.000                                                                  
J 3                     97600.662         455.429          25.000                       37031.751         339.541          22.000  
C 3                    -28471.855        -158.937          27.000                                                                                                                                  
C 5                    -15777.451        -119.815          25.000                                                                                                                                  
C 6                    287481.503        1303.852          24.000                                                                                                                                  
C 9                    141207.916         855.132          31.000                                                                                                                                  
C10                    -29819.170        -177.283          32.000                                                                                                                                  
C16                    217258.765        1359.678          20.000                                                                                                                                  
C26                   -232405.020       -1479.828          33.000                                                                                      -96139.638       -1116.546          27.000  
C29                    392596.164           0.008          14.000                                                                                                                                  
C35                    -33441.212        -166.968          33.000                                                                                      -10420.214        -124.798          23.000  
> 2022  1 20  8 45 35.0000000  0 21                     
G 1                   -483557.120          -0.015          13.000                                                                  
G 4                                                                                    346772.820        1974.029          22.000  
G 7                   -748417.977       -3206.022          17.000                                                                  
G 8                    -31748.755        -111.748          37.000                       -7862.963         -83.409          30.000  
G 9                    293939.072        1264.883          25.000                      106158.465         944.405          21.000  
G21                    -91398.764       -3011.022          31.000                                                                  
G27                    444587.054        1926.899          34.000                        3538.230        1440.162          23.000  
R 9                                                        28.000  
R20                                                        17.000  
E 9                    412317.688        2324.641          24.000                       74172.213        1736.185          17.000  
E24                   -221907.296       -1237.470          32.000                                                                  
E31                     47330.293         303.082          10.000                                                                  
J 3                     99989.414         456.374          27.000                       38365.843         339.454          22.000  
C 3                    -29292.566        -156.987          27.000                                                                                                                                  
C 5                    -16443.954        -127.844          27.000                                                                                                                                  
C 6                    294275.286        1304.315          25.000                                                                                                                                  
C 9                    145666.166         857.822          31.000                                                                                                                                  
C10                    -30743.023        -177.737          32.000                                                                                                                                  
C26                   -240116.456       -1480.361          34.000                                                                                     -100516.796       -1114.876          27.000  
C29                    405283.874           0.008          14.000                                                                                                                                  
C35                    -34302.302        -163.326          33.000                                                                                      -10908.924        -124.619          24.000  
> 2022  1 20  8 45 36.0000000  0 22                     
G 1                   -504563.264          -0.015          14.000                                                                  
G 4                                                                                    354515.518        1973.671          22.000  
G 7                   -765272.545       -3210.145          16.000                                                                  
G 8                    -32331.556        -111.686          37.000                       -8188.106         -82.893          30.000  
G 9                    300577.543        1263.722          22.000                      109863.526         945.281          21.000  
G21                   -107222.179       -3009.461          32.000                                                                  
G27                    454716.292        1925.800          33.000                        9188.760        1439.822          23.000  
R 9                                                        32.000  
R20                                                        17.000  
E 9                    424534.079        2324.531          25.000                       80984.247        1735.884          19.000  
E24                   -228410.487       -1237.554          32.000                                                                  
E31                     48924.698         303.590          11.000                                                                  
J 3                    102381.318         455.417          26.000                       39699.162         339.029          23.000  
C 3                    -30125.854        -165.323          26.000                                                                                                                                  
C 5                    -17027.835        -109.046          26.000                                                                                                                                  
C 6                    301065.554        1303.664          25.000                                                                                                                                  
C 9                    150133.829         859.169          30.000                                                                                                                                  
C10                    -31662.689        -175.519          33.000                                                                                                                                  
C16                      8880.679        1360.344          19.000                                                                                                                                  
C26                   -247821.189       -1479.312          34.000                                                                                     -104893.425       -1114.704          28.000  
C29                    417959.784           0.008          13.000                                                                                                                                  
C35                    -35159.099        -165.608          32.000                                                                                      -11397.247        -125.450          25.000  
> 2022  1 20  8 45 37.0000000  0 23                     
G 1                   -525557.868          -0.015          15.000                                                                  
G 4                                                                                    362258.599        1973.250          21.000  
G 7                   -782129.670       -3207.399          15.000                                                                  
G 8                    -32914.932        -109.361          37.000                       -8511.935         -82.023          28.000  
G 9                    307215.420        1263.280          23.000                      113570.194         945.779          21.000  
G21                   -123039.084       -3010.796          31.000                                                                  
G27                    464851.873        1929.836          33.000                       14839.362        1436.459          22.000  
R 9                                                        28.000  
R20                                                        17.000  
E 9                    436751.437        2324.743          23.000                       87799.745        1737.288          18.000  
E12                    -12677.311       -2066.170          18.000                                                                  
E24                   -234913.238       -1237.248          33.000                                                                  
E31                     50519.787         303.572          10.000                                                                  
J 3                    104771.711         454.719          26.000                       41034.428         340.426          23.000  
C 3                    -31039.502        -169.648          27.000                                                                                                                                  
C 5                    -17588.230        -117.867          25.000                                                                                                                                  
C 6                    307868.213        1308.748          25.000                                                                                                                                  
C 9                    154599.824         858.377          32.000                                                                                                                                  
C10                    -32588.452        -177.611          32.000                                                                                                                                  
C16                     15969.241        1364.679          17.000                                                                                                                                  
C26                   -255522.305       -1476.435          36.000                                                                                     -109269.134       -1114.389          26.000  
C29                    430635.513           0.008          15.000                                                                                                                                  
C35                    -36011.741        -164.456          32.000                                                                                      -11878.436        -122.619          22.000  
> 2022  1 20  8 45 38.0000000  0 23                     
G 1                   -546565.321          -0.015          14.000                                                                  
G 4                                                                                    370004.386        1973.849          22.000  
G 7                   -798986.453       -3206.382          15.000                                                                  
G 8                    -33490.221        -108.138          37.000                       -8833.454         -82.786          29.000  
G 9                    313858.597        1265.690          21.000                      117278.827         944.863          21.000  
G21                   -138861.512       -3009.693          31.000                                                                  
G27                    474985.732        1928.561          34.000                       20494.290        1441.720          22.000  
R 9                                                        28.000  
R20                                                        16.000  
E 9                    448969.836        2324.936          24.000                       94616.155        1737.673          17.000  
E12                    -23527.831       -2063.542          18.000                                                                  
E24                   -241415.469       -1237.185          33.000                                                                  
E31                     52115.496         303.750          10.000                                                                  
J 3                    107167.717         455.394          26.000                       42369.086         339.311          22.000  
C 3                    -31863.923        -155.882          26.000                                                                                                                                  
C 5                    -18232.001        -141.738          26.000                                                                                                                                  
C 6                    314678.599        1307.483          25.000                                                                                                                                  
C 9                    159070.854         855.608          32.000                                                                                                                                  
C10                    -33504.218        -178.774          32.000                                                                                                                                  
C16                     23056.698        1358.659          18.000                                                                                                                                  
C26                   -263225.565       -1477.791          34.000                                                                                     -113643.175       -1114.858          29.000  
C29                    443312.698           0.008          14.000                                                                                                                                  
C35                    -36863.504        -162.729          33.000                                                                                      -12363.027        -124.682          24.000  
> 2022  1 20  8 45 39.0000000  0 22                     
G 1                   -567580.918          -0.015          13.000                                                                  
G 4                                                                                    377749.159        1973.497          21.000  
G 7                   -815831.841       -3205.527          14.000                                                                  
G 8                    -34061.578        -108.907          36.000                       -9153.797         -81.687          29.000  
G 9                    320511.369        1266.473          21.000                      120988.073         945.126          21.000  
G21                   -154681.066       -3010.892          33.000                                                                  
G27                    485123.922        1929.304          34.000                       26148.006        1441.422          21.000  
R 9                                                        28.000  
R20                                                        17.000  
E 9                    461187.472        2324.808          23.000                      101429.347        1735.703          17.000  
E24                   -247917.802       -1237.250          33.000                                                                  
E31                     53713.485         304.505          10.000                                                                  
J 3                    109565.248         457.001          27.000                       43703.741         340.481          22.000  
C 3                    -32606.420        -150.608          27.000                                                                                                                                  
C 5                    -18922.667        -122.315          25.000                                                                                                                                  
C 6                    321482.751        1307.032          26.000                                                                                                                                  
C 9                    163532.588         857.518          31.000                                                                                                                                  
C10                    -34429.047        -177.127          31.000                                                                                                                                  
C16                     30135.315        1361.156          19.000                                                                                                                                  
C26                   -270926.426       -1478.584          33.000                                                                                     -118016.959       -1113.911          26.000  
C29                    455991.404           0.008          14.000                                                                                                                                  
C35                    -37716.295        -162.941          32.000                                                                                      -12845.164        -122.417          23.000  
> 2022  1 20  8 45 40.0000000  0 22                     
G 1                   -588582.769          -0.015          15.000                                                                  
G 4                     16205.487        2642.032          20.000                      385495.051        1973.434          21.000  
G 7                   -832670.665       -3203.428          15.000                                                                  
G 8                    -34631.653        -107.115          37.000                       -9471.717         -80.565          29.000  
G 9                    327162.560        1266.425          25.000                      124697.892         944.256          22.000  
G21                   -170494.713       -3009.212          32.000                                                                  
G27                    495267.889        1930.474          34.000                       31799.960        1437.859          20.000  
R 9                                                        27.000  
R20                                                        18.000  
E 9                    473406.402        2325.010          23.000                      108238.795        1735.175          17.000  
E24                   -254419.081       -1237.099          33.000                                                                  
E31                     55313.930         304.526          11.000                                                                  
J 3                    111964.234         458.195          25.000                       45038.877         339.141          23.000  
C 3                    -33450.756        -154.426          27.000                                                                                                                                  
C 5                    -19502.680        -114.470          26.000                                                                                                                                  
C 6                    328282.690        1305.183          24.000                                                                                                                                  
C 9                    167999.885         858.099          32.000                                                                                                                                  
C10                    -35345.931        -173.809          32.000                                                                                                                                  
C16                     37220.799        1361.084          20.000                                                                                                                                  
C26                   -278625.607       -1478.017          33.000                                                                                     -122389.414       -1114.145          28.000  
C29                    468680.480           0.008          13.000                                                                                                                                  
C35                    -38568.668        -164.019          33.000                                                                                      -13325.342        -122.996          23.000  
> 2022  1 20  8 45 41.0000000  0 24                     
G 1                   -609595.917          -0.015          13.000                                                                  
G 4                     30095.026        2644.730          20.000                      393243.041        1974.910          22.000  
G 7                   -849503.058           0.011          16.000                                                                  
G 8                    -35196.601        -106.801          37.000                       -9788.680         -80.567          29.000  
G 9                    333821.271        1267.341          24.000                      128409.649         947.042          22.000  
G21                   -186306.263       -3009.555          31.000                                                                  
G27                    505406.999        1929.855          34.000                       37447.643        1437.722          20.000  
R 9                                                        27.000  
R20                                                        17.000  
E 9                    485626.247        2325.250          23.000                      115051.440        1735.063          17.000  
E12                    -23472.503       -2056.731          18.000                                                                  
E24                   -260919.469       -1236.830          33.000                                                                  
E31                     56914.864         304.878          11.000                                                                  
J 3                    114362.584         456.371          25.000                       46379.827         341.166          23.000  
C 3                    -34292.035        -159.247          27.000                                                                                                                                  
C 5                    -20154.454        -125.334          25.000                                                                                                                                  
C 6                    335082.727        1305.942          26.000                                                                                                                                  
C 9                    172468.992         859.343          32.000                                                                                                                                  
C10                    -36265.571        -175.165          31.000                                                                                                                                  
C16                     44314.929        1363.122          18.000                                                                                                                                  
C24                    -80597.570       -2837.763          14.000                                                                                                                                  
C26                   -286322.761       -1477.546          33.000                                                                                     -126761.069       -1113.567          27.000  
C29                    481377.873           0.008          13.000                                                                                                                                  
C35                    -39405.413        -161.081          33.000                                                                                      -13804.275        -121.950          22.000  
> 2022  1 20  8 45 42.0000000  0 23                     
G 1                   -630618.149          -0.015          13.000                                                                  
G 4                     43981.044        2641.182          16.000                      400991.482        1974.592          22.000  
G 7                   -866333.380           0.011          15.000                                                                  
G 8                    -35760.595        -106.901          37.000                      -10102.476         -79.927          29.000  
G 9                    340482.237        1267.397          24.000                      132124.425         946.133          22.000  
G21                   -202114.386       -3007.500          32.000                                                                  
G27                    515553.339        1930.978          34.000                       43108.885        1442.306          21.000  
R 9                                                        26.000  
R20                                                        17.000  
E 9                    497848.371        2325.899          23.000                      121859.653        1736.421          17.000  
E24                   -267418.154       -1236.543          33.000                                                                  
E31                     58518.457         305.373          11.000                                                                  
J 3                    116759.274         455.744          26.000                       47715.687         339.166          23.000  
C 3                    -35129.230        -145.197          27.000                                                                                                                                  
C 5                    -20829.059        -135.597          24.000                                                                                                                                  
C 6                    341879.120        1305.557          25.000                                                                                                                                  
C 9                    176938.886         858.584          32.000                                                                                                                                  
C10                    -37183.706        -176.074          31.000                                                                                                                                  
C16                     51407.236        1361.360          18.000                                                                                                                                  
C24                    -95392.335       -2840.354          15.000                                                                                                                                  
C26                   -294015.480       -1477.131          33.000                                                                                     -131130.504       -1113.026          27.000  
C29                    494082.869           0.008          15.000                                                                                                                                  
C35                    -40243.440        -160.506          33.000                                                                                      -14281.053        -121.740          22.000  
> 2022  1 20  8 45 43.0000000  0 24                     
G 1                   -651639.096          -0.015          13.000                                                                  
G 4                     57861.809        2642.705          15.000                      408741.231        1973.917          21.000  
G 7                   -883161.616           0.011          13.000                                                                  
G 8                    -36319.529        -105.968          37.000                      -10414.361         -79.651          29.000  
G 9                    347143.361        1268.560          23.000                      135842.760         947.028          22.000  
G21                   -217920.003       -3007.167          32.000                                                                  
G27                    525705.427        1932.111          34.000                       48769.141        1439.905          20.000  
R 9                                                        27.000  
R20                                                        17.000  
E 9                    510072.289        2326.382          23.000                      128677.731        1736.152          18.000  
E12                    -20572.314       -2054.914          19.000                                                                  
E24                   -273914.808       -1235.988          33.000                                                                  
E31                     60122.872         304.977           9.000                                                                  
J 3                    119155.023         456.190          25.000                       49055.282         341.222          23.000  
C 3                    -35903.412        -148.629          27.000                                                                                                                                  
C 5                    -21480.430        -119.843          25.000                                                                                                                                  
C 6                    348683.607        1307.053          25.000                                                                                                                                  
C 9                    181411.608         858.976          31.000                                                                                                                                  
C10                    -38101.964        -176.070          32.000                                                                                                                                  
C16                     58488.490        1359.745          19.000                                                                                                                                  
C24                   -110175.636       -2839.610          17.000                                                                                                                                  
C26                   -301706.364       -1476.264          33.000                                                                                     -135498.558       -1112.848          27.000  
C29                    506798.712           0.008          16.000                                                                                                                                  
C35                    -41077.741        -159.572          33.000                                                                                      -14753.866        -119.003          23.000  
> 2022  1 20  8 45 44.0000000  0 24                     
G 1                   -672646.004          -0.015          13.000                                                                  
G 4                     71752.732           0.002          17.000                      416493.403        1974.715          21.000  
G 7                   -899994.928           0.011          15.000                                                                  
G 8                    -36871.258        -105.368          37.000                      -10723.380         -78.257          27.000  
G 9                    353808.485        1268.933          22.000                      139564.402         950.922          20.000  
G21                   -233721.531       -3006.499          33.000                                                                  
G27                    535864.245        1932.911          33.000                       54434.529        1443.465          21.000  
R 9                                                        28.000  
R20                                                        17.000  
E 9                    522297.819        2326.727          23.000                      135486.877        1734.586          17.000  
E12                    -31381.775       -2056.811          18.000                                                                  
E24                   -280409.386       -1235.604          34.000                                                                  
E31                     61726.217         305.300           8.000                                                                  
J 3                    121555.724         455.740          26.000                       50394.336         341.038          22.000  
C 3                    -36756.895        -173.859          27.000                                                                                                                                  
C 5                    -22072.812        -124.622          26.000                                                                                                                                  
C 6                    355488.379        1306.965          24.000                                                                                                                                  
C 9                    185887.133         860.376          32.000                                                                                                                                  
C10                    -39017.772        -176.312          31.000                                                                                                                                  
C16                     65568.391        1359.569          16.000                                                                                                                                  
C24                   -124964.150       -2839.420          15.000                                                                                                                                  
C26                   -309394.291       -1476.064          34.000                                                                                     -139864.761       -1112.365          27.000  
C29                    519525.517        2444.121          15.000                                                                                                                                  
C35                    -41907.326        -159.106          33.000                                                                                      -15225.755        -120.382          22.000  
> 2022  1 20  8 45 45.0000000  0 24                     
G 1                   -693647.550          -0.015          15.000                                                                  
G 4                     85641.940           0.002          17.000                      424246.127        1976.048          20.000  
G 7                   -916831.974           0.011          15.000                                                                  
G 8                    -37422.658        -104.901          38.000                      -11030.857         -78.738          28.000  
G 9                    360476.298        1269.284          23.000                      143285.459         949.554          19.000  
G21                   -249521.027       -3005.832          33.000                                                                  
G27                    546022.995        1933.778          33.000                       60098.245        1443.830          20.000  
R 9                                                        26.000  
R20                                                        17.000  
E 9                    534524.802        2326.898          22.000                      142299.463        1736.767          17.000  
E12                    -42183.101       -2055.438          18.000                                                                  
E24                   -286903.283       -1235.681          33.000                                                                  
E31                     63329.474         304.977          10.000                                                                  
J 3                    123953.981         457.665          25.000                       51733.661         340.479          22.000  
C 3                    -37640.113        -152.951          25.000                                                                                                                                  
C 5                    -22670.275        -107.153          26.000                                                                                                                                  
C 6                    362292.488        1306.003          23.000                                                                                                                                  
C 9                    190366.911         860.243          31.000                                                                                                                                  
C10                    -39933.955        -176.313          32.000                                                                                                                                  
C16                     72659.029        1363.431          15.000                                                                                                                                  
C24                   -139738.306       -2838.681          15.000                                                                                                                                  
C26                   -317079.954       -1475.463          34.000                                                                                     -144229.509       -1112.609          26.000  
C29                    532255.581        2443.957          15.000                                                                                                                                  
C35                    -42731.208        -157.079          31.000                                                                                      -15694.443        -118.764          22.000  
> 2022  1 20  8 45 46.0000000  0 24                     
G 1                   -714646.235          -0.015          17.000                                                                  
G 4                     99537.893           0.002          17.000                      431998.449        1974.787          21.000  
G 7                   -933672.107       -3203.552          17.000                                                                  
G 8                    -37970.560        -103.501          33.000                      -11335.680         -75.560          25.000  
G 9                    367151.604        1270.688          25.000                      147007.188         946.940          21.000  
G21                   -265319.741       -3005.897          33.000                                                                  
G27                    556180.299        1933.720          25.000                       65768.070        1448.872          20.000  
R 9                                                        23.000  
R20                                                        17.000  
E 9                    546749.051        2325.836          23.000                      149112.289        1734.472          18.000  
E12                    -53005.742       -2060.073          16.000                                                                  
E24                   -293397.231       -1235.459          28.000                                                                  
E31                     64932.309         305.575          11.000                                                                  
J 3                    126366.675         459.732          24.000                       53075.856         343.314          20.000  
C 3                    -38424.514        -151.165          24.000                                                                                                                                  
C 5                    -23165.212         -87.647          27.000                                                                                                                                  
C 6                    369095.090        1306.264          25.000                                                                                                                                  
C 9                    194840.993         861.660          29.000                                                                                                                                  
C10                    -40850.748        -176.614          27.000                                                                                                                                  
C16                     79758.014        1361.944          25.000                                                                                                                                  
C24                   -154514.356       -2838.643          14.000                                                                                                                                  
C26                   -324763.625       -1473.668          29.000                                                                                     -148593.288       -1111.309          25.000  
C29                    544978.865           0.008          14.000                                                                                                                                  
C35                    -43553.827        -157.212          31.000                                                                                      -16162.828        -117.941          22.000  
> 2022  1 20  8 45 47.0000000  0 24                     
G 1                   -735651.617          -0.015          14.000                                                                  
G 4                    113440.761        2644.382          20.000                      439754.211        1977.259          18.000  
G 7                   -950503.610       -3200.571          17.000                                                                  
G 8                    -38516.908        -102.560          30.000                      -11641.686         -77.987          24.000  
G 9                    373829.638        1271.594          25.000                      150731.962         949.206          22.000  
G21                   -281118.199       -3003.960          33.000                                                                  
G27                    566342.575        1933.319          30.000                       71450.220        1448.751          17.000  
R 9                                                        24.000  
R20                                                        13.000  
E 9                    558975.639        2327.121          22.000                      155925.535        1736.876          17.000  
E12                    -63820.438       -2057.048          20.000                                                                  
E24                   -299892.488       -1235.830          27.000                                                                  
E31                     66538.803         305.640          11.000                                                                  
J 3                    128764.384         454.983          21.000                       54417.801         342.295          17.000  
C 3                    -39151.344        -137.109          22.000                                                                                                                                  
C 5                    -23699.906        -104.776          27.000                                                                                                                                  
C 6                    375896.993        1306.880          21.000                                                                                                                                  
C 9                    199325.443         860.946          29.000                                                                                                                                  
C10                    -41765.832        -175.604          27.000                                                                                                                                  
C16                     86859.205        1363.605          18.000                                                                                                                                  
C24                   -169294.810       -2839.127          14.000                                                                                                                                  
C26                   -332449.850       -1476.867          21.000                                                                                     -152957.699       -1111.647          23.000  
C29                    557706.711           0.008          13.000                                                                                                                                  
C35                    -44379.220        -158.599          33.000                                                                                      -16629.033        -118.383          20.000  
> 2022  1 20  8 45 48.0000000  0 22                     
G 4                    127339.759        2644.730          20.000                      447510.852        1976.201          24.000  
G 7                   -967325.037       -3202.021          18.000                                                                  
G 8                    -39057.456        -102.116          32.000                      -11945.936         -77.778          24.000  
G 9                    380506.930        1271.514          29.000                      154458.087         948.299          21.000  
G21                   -296907.807          -0.008          25.000                                                                  
G27                    576508.438        1934.752          26.000                       77137.982        1448.569          17.000  
R 9                                                        25.000  
R20                                                        19.000  
E 9                    571202.263        2325.498          21.000                      162737.717        1736.108          18.000  
E12                    -74632.654       -2056.706          24.000                                                                  
E24                   -306386.447       -1235.538          23.000                                                                  
E31                     68143.366         305.079          11.000                                                                  
J 3                    131160.103         456.372          30.000                       55758.151         340.973          22.000  
C 5                    -24306.570        -110.815          27.000                                                                                                                                  
C 6                    382696.812        1307.901          31.000                                                                                                                                  
C 9                    203803.388         860.317          34.000                                                                                                                                  
C10                    -42668.548        -173.941          23.000                                                                                                                                  
C16                     93956.283        1362.452          29.000                                                                                                                                  
C24                   -184078.795       -2839.822          13.000                                                                                                                                  
C26                   -340133.943       -1474.593          21.000                                                                                     -157319.970       -1110.623          20.000  
C29                    570438.318           0.008          14.000                                                                                                                                  
C35                    -45202.280        -157.469          30.000                                                                                      -17096.324        -119.778          23.000  
> 2022  1 20  8 45 49.0000000  0 24                     
G 4                    141246.223        2646.755          23.000                      455267.535        1976.580          26.000  
G 7                   -984149.688       -3201.450          17.000                                                                  
G 8                    -39604.977        -104.934          30.000                      -12255.287         -78.121          18.000  
G 9                    387189.800        1271.549          27.000                      158182.678         948.243          18.000  
G21                   -312694.267       -3003.158          28.000                                                                  
G27                    586678.701        1935.304          27.000                       82818.215        1446.553          19.000  
R 9                                                        30.000  
R20                                                        24.000  
E 9                    583420.514        2325.290          23.000                      169552.574        1737.215          17.000  
E12                    -85429.000       -2054.077          27.000                                                                  
E24                   -312878.871       -1235.079          29.000                                                                  
E31                     69748.506         305.761          10.000                                                                  
J 3                    133559.245         455.441          28.000                       57102.210         341.712          27.000  
C 2                     -1063.250        -116.358          27.000                                                                                                                                  
C 3                    -40600.075        -147.931          31.000                                                                                                                                  
C 5                    -24844.613         -99.371          24.000                                                                                                                                  
C 6                    389511.496        1310.272          34.000                                                                                                                                  
C 9                    208288.675         861.845          32.000                                                                                                                                  
C10                    -43572.663        -174.364          23.000                                                                                                                                  
C16                    101060.309        1363.967          33.000                                                                                                                                  
C24                   -198872.152           0.002          16.000                                                                                                                                  
C26                   -347809.563       -1473.337          24.000                                                                                     -161685.001       -1114.260          18.000  
C29                    583175.697           0.008          16.000                                                                                                                                  
C35                    -46022.013        -158.137          19.000                                                                                      -17556.872        -118.383          21.000  
> 2022  1 20  8 45 50.0000000  0 24                     
G 4                                                                                    463025.328        1976.688          27.000  
G 7                  -1000978.275       -3201.513          20.000                                                                  
G 8                    -40139.725         -98.202          28.000                      -12559.564         -76.656          18.000  
G 9                    393879.712        1273.425          28.000                      161899.359         946.193          17.000  
G21                   -328480.415       -3002.897          27.000                                                                  
G27                    596853.065        1935.271          31.000                       88490.461        1446.380          20.000  
R 9                                                        31.000  
R20                                                        22.000  
E 9                    595651.811        2328.180          25.000                      176368.341        1736.673          18.000  
E12                    -96222.065       -2053.600          27.000                                                                  
E24                   -319369.086       -1234.893          27.000                                                                  
E31                     71356.570         305.658           8.000                                                                  
J 3                    135963.954         458.297          29.000                       58444.771         342.310          25.000  
C 2                     -1655.758        -122.910          28.000                                                                                                                                  
C 3                    -41382.224        -147.803          31.000                                                                                                                                  
C 5                    -25350.658         -90.961          26.000                                                                                                                                  
C 6                    396329.803        1309.889          33.000                                                                                                                                  
C 9                    212774.576         860.175          33.000                                                                                                                                  
C10                    -44478.562        -174.112          22.000                                                                                                                                  
C16                    108161.594        1364.228          34.000                                                                                                                                  
C24                   -213670.662           0.002          15.000                                                                                                                                  
C26                   -355484.304       -1475.005          25.000                                                                                     -166053.210       -1110.362          21.000  
C29                    595913.088           0.008          15.000                                                                                                                                  
C35                    -46849.392        -159.473          18.000                                                                                      -18017.463        -116.479          24.000  
> 2022  1 20  8 45 51.0000000  0 24                     
G 4                                                                                    470783.518        1977.052          19.000  
G 7                  -1017801.537       -3201.213          19.000                                                                  
G 8                    -40667.004        -101.022          36.000                      -12855.867         -75.287          30.000  
G 9                    400571.015        1272.097          27.000                      165615.388         948.309          18.000  
G21                     -4131.469       -3003.901          34.000                                                                  
G27                    607027.587        1936.997          25.000                       94164.383        1446.261          19.000  
R 9                                                        28.000  
R20                                                        17.000  
E 9                    607884.359        2327.371          22.000                      183184.154        1736.352          17.000  
E12                   -107014.690       -2055.439          18.000                                                                  
E24                   -325857.809       -1234.984          32.000                                                                  
E31                     72965.364         306.134           9.000                                                                  
J 3                    138361.042         454.549          28.000                       59784.021         343.055          19.000  
C 2                     -2260.074        -115.756          26.000                                                                                                                                  
C 3                    -42185.508        -173.469          22.000                                                                                                                                  
C 5                    -25910.962        -102.116          25.000                                                                                                                                  
C 6                    403142.514        1308.975          21.000                                                                                                                                  
C 9                    217256.026         860.262          24.000                                                                                                                                  
C10                    -45381.815        -175.461          30.000                                                                                                                                  
C16                    115265.079        1363.996          23.000                                                                                                                                  
C24                   -228468.188           0.002          16.000                                                                                                                                  
C26                   -363162.352       -1475.019          33.000                                                                                     -170411.313       -1110.753          24.000  
C29                    608644.910           0.008          13.000                                                                                                                                  
C35                    -47661.547        -154.786          33.000                                                                                      -18478.013        -120.439          19.000  
> 2022  1 20  8 45 52.0000000  0 23                     
G 4                                                                                    478547.518        1976.435          20.000  
G 7                  -1034614.367       -3199.586          17.000                                                                  
G 8                    -41199.037         -99.847          37.000                      -13150.755         -74.843          29.000  
G 9                    407268.819        1277.205          25.000                      169335.682         948.978          19.000  
G21                    -19910.549       -3003.563          33.000                                                                  
G27                    617206.528        1936.038          26.000                       99849.703        1449.148          17.000  
R 9                                                        27.000  
R20                                                        13.000  
E 9                    620116.590        2327.567          20.000                      189996.512        1736.909          17.000  
E24                   -332347.926       -1234.975          31.000                                                                  
E31                     74576.480         306.655           9.000                                                                  
J 3                    140764.300         459.035          24.000                       61124.369         342.470          18.000  
C 2                     -2879.327        -126.272          25.000                                                                                                                                  
C 3                    -43029.763        -175.962          24.000                                                                                                                                  
C 5                    -26509.775        -119.244          25.000                                                                                                                                  
C 6                    409956.115           0.098          16.000                                                                                                                                  
C 9                    221745.308         862.619          27.000                                                                                                                                  
C10                    -46298.638        -176.222          32.000                                                                                                                                  
C16                    122374.422        1365.432          20.000                                                                                                                                  
C24                   -243271.320           0.002          15.000                                                                                                                                  
C26                   -370833.381       -1474.298          31.000                                                                                     -174769.039       -1109.817          26.000  
C29                    621374.849           0.008          14.000                                                                                                                                  
C35                    -48469.321        -152.902          32.000                                                                                      -18938.721        -115.452          19.000  
> 2022  1 20  8 45 53.0000000  0 25                     
G 1                    -25754.383       -3994.174          19.000                                                                  
G 4                                                                                    486298.490        1976.843          18.000  
G 7                  -1051424.128       -3198.705          15.000                                                                  
G 8                    -41717.317         -97.273          37.000                      -13442.753         -74.176          29.000  
G 9                    413973.364        1275.868          24.000                      173066.914         953.540          20.000  
G21                    -35687.947       -3003.800          32.000                                                                  
G27                    627383.060        1940.428          27.000                      105529.414        1447.318          17.000  
R 8                                                        19.000  
R 9                                                        27.000  
R20                                                        13.000  
E 9                    632350.847        2325.942          19.000                      196817.113        1738.716          17.000  
E24                   -338834.442       -1234.342          30.000                       -4293.840        -921.323          24.000  
E31                     76186.652         306.065          10.000                                                                  
J 3                    143174.099         458.501          22.000                       62472.135         342.287          17.000  
C 2                     -3501.989        -126.094          26.000                                                                                                                                  
C 3                    -43865.433        -155.211          24.000                                                                                                                                  
C 5                    -27086.276        -106.940          25.000                                                                                                                                  
C 6                    416775.833           0.098          17.000                                                                                                                                  
C 9                    226237.302         862.299          28.000                                                                                                                                  
C10                    -47211.931        -174.559          32.000                                                                                                                                  
C16                    129481.852        1363.838          22.000                                                                                                                                  
C24                   -258077.039           0.002          16.000                                                                                                                                  
C26                   -378506.201       -1474.457          31.000                                                                                     -179124.146       -1109.658          27.000  
C29                    634107.447           0.008          13.000                                                                                                                                  
C35                    -49271.110        -152.399          32.000                                                                                      -19394.402        -116.813          18.000  
> 2022  1 20  8 45 54.0000000  0 21                     
G 1                    -46737.253       -3992.938          22.000                                                                  
G 4                                                                                    494055.200        1976.234          17.000  
G 7                  -1068232.274           0.011          15.000                                                                  
G 8                    -42236.403         -99.375          36.000                      -13732.433         -73.391          28.000  
G 9                    420676.063        1275.514          22.000                      176807.572         952.438          17.000  
G21                    -51463.930       -3003.083          34.000                                                                  
G27                    637574.222        1938.587          27.000                      111208.283        1448.478          16.000  
R 8                                                        18.000  
R 9                                                        25.000  
R20                                                        16.000  
E 9                    644569.627        2324.212          19.000                      203639.329        1739.129          17.000  
E12                   -139357.053       -2051.537          18.000                                                                  
E24                   -345319.248       -1233.789          31.000                       -7906.146        -920.513          21.000  
E31                     77797.383         306.976          10.000                                                                  
J 3                    145584.342         457.223          21.000                       63814.014         342.572          17.000  
C 9                    230734.409         863.684          28.000                                                                                                                                  
C10                    -48120.843        -174.512          31.000                                                                                                                                  
C24                   -272883.582       -2844.738          17.000                                                                                                                                  
C26                     -3862.621       -1470.510          30.000                                                                                     -183477.680       -1109.038          26.000  
C29                    646845.915           0.008          12.000                                                                                                                                  
C35                    -50061.531        -150.091          31.000                                                                                      -19853.919        -116.217          17.000  
> 2022  1 20  8 45 55.0000000  0 21                     
G 1                    -67719.623       -3994.358          21.000                                                                  
G 4                                                                                    501816.834        1978.582          18.000  
G 7                  -1085040.677           0.011          14.000                                                                  
G 8                    -42747.794         -97.281          36.000                      -14019.345         -73.155          26.000  
G 9                    427381.409        1276.345          23.000                      180546.753         953.580          20.000  
G21                    -67236.396       -3000.615          35.000                                                                  
G27                    647764.521        1940.750          24.000                      116889.288        1449.255          17.000  
R 8                                                        19.000  
R 9                                                        28.000  
R20                                                        16.000  
E 9                    656796.733        2328.774          19.000                      210467.084        1740.281          17.000  
E12                   -150130.962       -2049.083          16.000                                                                  
E24                   -351801.849       -1233.454          30.000                      -11526.007        -924.674          19.000  
E31                     79414.367         307.988           8.000                                                                  
J 3                      2218.778         459.399          20.000                       65158.749         344.828          16.000  
C 9                    235220.984         860.795          26.000                                                                                                                                  
C10                    -49030.175        -173.714          32.000                                                                                                                                  
C24                   -287693.882       -2844.191          17.000                                                                                                                                  
C26                    -11514.262       -1469.192          28.000                                                                                     -187829.461       -1109.102          25.000  
C29                    659588.640           0.008          16.000                                                                                                                                  
C35                    -50852.101        -151.301          31.000                                                                                      -20310.148        -115.874          17.000  
> 2022  1 20  8 45 56.0000000  0 20                     
G 1                    -88693.743       -3990.013          19.000                                                                  
G 4                     13471.412        2649.941          22.000                      509566.887        1973.936          20.000  
G 7                  -1101851.151           0.011          13.000                                                                  
G 8                    -43260.524         -97.028          36.000                      -14305.776         -72.712          26.000  
G 9                    434083.353        1274.910          23.000                      184288.675         954.437          20.000  
G21                    -83003.394       -3000.021          33.000                                                                  
G27                    657953.349        1938.270          23.000                      122575.949        1448.530          18.000  
R 8                                                        17.000  
R 9                                                        27.000  
R20                                                        15.000  
E 9                    669027.396        2327.354          19.000                      217293.417        1737.904          17.000  
E12                   -160906.769       -2049.280          13.000                                                                  
E24                   -358286.333       -1234.062          30.000                      -15152.733        -922.513          18.000  
E31                     81034.542         308.628           8.000                                                                  
J 3                      4626.003         458.305          22.000                       66510.196         343.729          17.000  
C 9                    239709.696         863.656          28.000                                                                                                                                  
C24                   -302495.287       -2842.059          17.000                                                                                                                                  
C26                    -19169.727       -1470.871          28.000                                                                                     -192181.150       -1108.433          25.000  
C29                    672343.782           0.008          15.000                                                                                                                                  
C35                    -51642.078        -151.633          30.000                                                                                      -20760.676        -114.980          19.000  
> 2022  1 20  8 45 57.0000000  0 21                     
G 1                   -109665.895       -3990.400          19.000                                                                  
G 4                     27390.532        2650.301          19.000                      517331.303        1976.502          21.000  
G 7                  -1118666.885           0.011          15.000                                                                  
G 8                    -43770.635         -97.630          35.000                      -14592.294         -72.635          28.000  
G 9                    440789.639        1277.790          25.000                      188029.767         953.884          20.000  
G21                    -98776.746       -3001.318          34.000                                                                  
G27                    668142.877        1938.876          23.000                      128256.013        1448.468          19.000  
R 8                                                        17.000  
R 9                                                        28.000  
R20                                                        12.000  
E 9                    681245.007        2326.704          23.000                      224117.097        1739.538          19.000  
E12                   -171661.313       -2045.247          15.000                                                                  
E24                   -364772.603       -1234.448          29.000                      -18776.136        -921.942          19.000  
E31                     82655.831         308.651           9.000                                                                  
J 3                      7039.106         459.717          24.000                       67856.637         342.694          17.000  
C 9                    244202.090         861.518          25.000                                                                                                                                  
C10                      -628.052        -175.571          30.000                                                                                                                                  
C24                   -317294.406       -2841.931          18.000                                                                                                                                  
C26                    -26836.421       -1473.860          28.000                                                                                     -196533.566       -1108.927          25.000  
C29                    685101.352           0.008          14.000                                                                                                                                  
C35                    -52425.470        -150.315          31.000                                                                                      -21210.392        -114.626          19.000  
> 2022  1 20  8 45 58.0000000  0 21                     
G 1                   -130637.675       -3992.392          16.000                                                                  
G 4                     41325.133           0.002          18.000                      525096.732        1977.978          25.000  
G 7                  -1135478.321           0.011          16.000                                                                  
G 8                    -44277.980         -94.048          35.000                      -14875.231         -72.096          26.000  
G 9                    447504.078        1279.143          25.000                      191776.009         955.574          21.000  
G21                   -114540.560       -2999.285          33.000                                                                  
G27                    678333.403        1939.990          25.000                      133940.282        1449.332          24.000  
R 8                                                        17.000  
R 9                                                        30.000  
R20                                                        14.000  
E 9                    693482.196        2329.461          26.000                      230943.629        1739.787          19.000  
E12                   -182407.673       -2045.218          16.000                                                                  
E24                   -371255.499       -1233.294          31.000                      -22396.023        -924.003          19.000  
E31                     84278.550         308.841           9.000                                                                  
J 3                      9458.550         461.288          30.000                       69207.848         344.490          18.000  
C 9                    248687.022         859.851          28.000                                                                                                                                  
C10                     -1533.140        -172.384          29.000                                                                                                                                  
C24                   -332093.512           0.002          18.000                                                                                                                                  
C26                    -34496.564       -1469.227          30.000                                                                                     -200883.088       -1107.909          25.000  
C29                    697861.846           0.008          15.000                                                                                                                                  
C35                    -53207.491        -150.113          32.000                                                                                      -21653.622        -112.491          21.000  
> 2022  1 20  8 45 59.0000000  0 19                     
G 1                   -151617.209       -3992.048          21.000                                                                  
G 4                     55252.009           0.002          20.000                      532866.216        1979.410          24.000  
G 7                  -1152295.914       -3200.333          15.000                                                                  
G 8                    -44774.314         -93.570          28.000                      -15154.549         -69.721          27.000  
G 9                    454222.952        1278.617          26.000                      195524.397         955.524          20.000  
G21                   -130304.641       -2999.301          33.000                                                                  
G27                    688527.273        1940.202          35.000                      139626.924        1449.259          25.000  
R 8                                                        17.000  
R 9                                                        30.000  
R20                                                        17.000  
E 9                    705727.574        2330.243          24.000                      237771.421        1740.854          20.000  
E12                   -193160.117       -2046.999          19.000                                                                  
E24                   -377734.068       -1232.633          27.000                      -26013.180        -919.612          22.000  
E31                     85902.855         309.168          10.000                                                                  
J 3                     11879.945         460.551          33.000                       70556.490         343.860          19.000  
C 9                    253175.104         862.625          29.000                                                                                                                                  
C24                   -346886.405       -2837.608          19.000                                                                                                                                  
C26                    -42143.117       -1466.991          26.000                                                                                     -205230.983       -1108.439          23.000  
C35                    -53985.603        -147.984          35.000                                                                                      -22095.785        -113.196          21.000  
> 2022  1 20  8 46  0.0000000  0 22                     
G 1                   -172594.033       -3989.920          17.000                                                                  
G 4                                                                                    540633.662        1979.257          26.000  
G 7                  -1169116.669       -3200.990          14.000                                                                  
G 8                    -45269.254         -96.218          30.000                      -15433.547         -70.959          26.000  
G 9                    460940.659        1278.553          24.000                      199272.765         955.131          20.000  
G21                   -146060.327       -2999.880          33.000                                                                  
G27                    698728.375        1940.281          32.000                      145314.670        1449.234          26.000  
R 8                                                        16.000  
R 9                                                        30.000  
R20                                                        23.000  
E 9                    717967.086        2329.379          25.000                      244609.876        1740.011          19.000  
E12                   -203921.459       -2048.683          23.000                                                                  
E24                   -384214.240       -1233.265          25.000                      -29627.400        -921.285          24.000  
E31                     87527.628         309.401          10.000                                                                  
J 3                     14300.875         460.197          33.000                       71906.434         344.244          25.000  
C 2                      -469.523        -123.674          29.000                                                                                                                                  
C 3                      -633.357        -135.377          29.000                                                                                                                                  
C 6                      3684.523        1311.239          27.000                                                                                                                                  
C 9                    257673.212         864.173          29.000                                                                                                                                  
C24                   -361659.520       -2837.233          17.000                                                                                                                                  
C26                    -49792.538       -1469.560          31.000                                                                                     -209576.760       -1107.154          20.000  
C35                    -54763.761        -149.295          33.000                                                                                      -22536.099        -112.091          23.000  
> 2022  1 20  8 46  1.0000000  0 19                     
G 1                   -193569.397       -3993.893          19.000                                                                  
G 4                     83115.766        2650.656          23.000                      548410.545        1986.008          23.000  
G 7                  -1185933.773       -3200.944          15.000                                                                  
G 8                    -45767.867         -94.142          38.000                      -15709.854         -69.707          28.000  
G 9                    467659.741        1278.109          20.000                      203024.975         956.764          19.000  
G21                   -161816.247       -2997.670          36.000                                                                  
G27                    708916.803        1940.064          30.000                      151003.807        1451.350          21.000  
R 9                                                        26.000  
R20                                                        19.000  
E 9                    730214.626        2330.522          23.000                      251440.868        1743.078          18.000  
E12                   -214683.753       -2047.392          20.000                                                                  
E24                   -390692.843       -1232.708          33.000                      -33242.908        -918.609          22.000  
E31                     89154.546         310.020           9.000                                                                  
J 3                     16719.744         461.802          30.000                       73254.112         342.893          21.000  
C 9                    262180.153         865.268          30.000                                                                                                                                  
C10                      -511.024        -173.170          30.000                                                                                                                                  
C24                   -376432.574       -2837.313          17.000                                                                                                                                  
C26                    -57444.858       -1470.516          30.000                                                                                     -213926.173       -1106.579          25.000  
C35                    -55533.755        -148.082          34.000                                                                                      -22972.642        -109.838          21.000  
> 2022  1 20  8 46  2.0000000  0 20                     
G 1                   -214559.374       -3996.838          19.000                                                                  
G 4                     97052.676        2652.462          22.000                      556180.164        1980.147          22.000  
G 7                  -1202753.187           0.011          11.000                                                                  
G 8                    -46259.259         -93.378          39.000                      -15984.937         -69.938          28.000  
G 9                    474384.164        1281.372          19.000                      206792.782         960.503          19.000  
G21                   -177566.935       -2998.965          37.000                                                                  
G27                    719118.813        1940.772          30.000                      156689.740        1449.443          17.000  
R 9                                                        21.000  
R20                                                        18.000  
E 9                    742458.290        2330.271          23.000                      258279.247        1741.211          17.000  
E12                   -225446.085       -2049.287          19.000                                                                  
E24                   -397171.737       -1233.005          34.000                      -36856.945        -920.358          22.000  
E31                     90784.488         310.559          11.000                                                                  
J 3                     19136.437         460.274          28.000                       74604.210         344.323          23.000  
C 6                      3828.834        1312.247          27.000                                                                                                                                  
C 9                    266688.057         865.384          29.000                                                                                                                                  
C10                     -1416.023        -173.987          31.000                                                                                                                                  
C24                   -391207.398       -2837.624          14.000                                                                                                                                  
C26                    -65097.923       -1467.990          31.000                                                                                     -218271.093       -1107.212          26.000  
C35                    -56300.697        -147.025          33.000                                                                                      -23410.245        -111.530          22.000  
> 2022  1 20  8 46  3.0000000  0 17                     
G 1                   -235551.424       -3992.618          18.000                                                                  
G 4                    110987.579        2651.595          23.000                      563949.824        1981.356          21.000  
G 8                    -46748.934         -92.771          39.000                      -16259.038         -68.844          27.000  
G 9                    481124.973        1282.938          21.000                      210553.013         956.954          19.000  
G21                   -193319.200       -2995.505          37.000                                                                  
G27                    729320.510        1940.946          30.000                      162377.440        1450.609          17.000  
R 9                                                        24.000  
E 9                    754701.487        2330.132          22.000                      265112.396        1741.714          17.000  
E12                   -236224.237       -2049.219          16.000                                                                  
E24                   -403651.046       -1232.729          34.000                      -40471.278        -918.683          22.000  
E31                     92417.231         310.893          11.000                                                                  
J 3                     21546.629         459.731          28.000                       75954.699         343.760          21.000  
C 9                    271194.634         864.776          31.000                                                                                                                                  
C10                     -2327.850        -174.478          32.000                                                                                                                                  
C24                   -405990.296       -2840.694          13.000                                                                                                                                  
C26                    -72738.843       -1467.899          30.000                                                                                     -222614.813       -1105.801          26.000  
C35                    -57067.514        -145.646          33.000                                                                                      -23845.051        -110.336          21.000  
> 2022  1 20  8 46  4.0000000  0 19                     
G 4                    124920.214        2651.393          23.000                      571721.972        1979.805          20.000  
G 7                  -1236394.924           0.011          15.000                                                                  
G 8                    -47233.431         -92.217          38.000                      -16530.020         -68.706          27.000  
G 9                    487865.716        1283.184          22.000                      214308.060         960.251          20.000  
G21                   -209064.598       -2997.747          38.000                                                                  
G27                    739525.867        1942.482          32.000                      168064.879        1450.375          18.000  
R 9                                                        25.000  
R20                                                        18.000  
E 9                    766948.342        2329.785          20.000                      271941.072        1739.477          17.000  
E12                   -246983.885       -2045.185          13.000                                                                  
E24                   -410127.223       -1232.471          34.000                      -44083.325        -924.000          20.000  
E31                     94049.797         310.621          12.000                                                                  
J 3                     23971.018         461.480          27.000                       77304.505         345.125          23.000  
C 6                      3823.365        1312.170          28.000                                                                                                                                  
C 9                    275700.139         865.279          32.000                                                                                                                                  
C10                     -3224.135        -173.074          32.000                                                                                                                                  
C24                   -420782.251           0.002          14.000                                                                                                                                  
C26                    -80387.914       -1467.926          30.000                                                                                     -226957.294       -1106.433          27.000  
C35                    -57825.332        -145.451          34.000                                                                                      -24273.793        -109.896          22.000  
> 2022  1 20  8 46  5.0000000  0 19                     
G 1                   -277524.065       -3993.063          18.000                                                                  
G 4                    138858.272        2652.928          23.000                      579495.882        1981.380          23.000  
G 7                  -1253198.729       -3195.879          17.000                                                                  
G 8                    -47716.086         -91.115          38.000                      -16798.750         -67.564          26.000  
G 9                    494609.180        1282.249          20.000                      218066.558         957.676          20.000  
G21                   -224809.048       -2995.097          37.000                                                                  
G27                    749739.730        1944.614          32.000                      173754.786        1451.193          18.000  
R 9                                                        23.000  
R20                                                        17.000  
E 9                    779199.198        2331.744          18.000                      278764.200        1739.198          17.000  
E12                   -257746.664       -2049.143          12.000                                                                  
E24                   -416602.833       -1232.196          33.000                      -47696.414        -920.217          21.000  
E31                     95683.068         310.934          11.000                                                                  
J 3                     26390.608         458.668          25.000                       78655.714         344.683          24.000  
C 9                    280209.927         868.459          32.000                                                                                                                                  
C10                     -4125.276        -172.929          31.000                                                                                                                                  
C24                   -435570.847           0.002          12.000                                                                                                                                  
C26                    -88030.789       -1466.749          28.000                                                                                     -231297.765       -1105.448          27.000  
C35                    -58586.251        -145.986          33.000                                                                                      -24704.147        -109.182          22.000  
> 2022  1 20  8 46  6.0000000  0 19                     
G 1                   -298506.961       -3991.704          19.000                                                                  
G 4                    152799.745        2652.659          24.000                      587270.808        1981.867          20.000  
G 7                  -1269992.018       -3195.636          18.000                                                                  
G 8                    -48195.711         -89.971          37.000                      -17066.198         -67.380          25.000  
G 9                    501349.771        1283.428          20.000                      221826.649         959.681          19.000  
G21                   -240549.185       -2995.623          38.000                                                                  
G27                    759959.279        1943.165          32.000                      179447.875        1449.930          18.000  
R 9                                                        25.000  
R20                                                        17.000  
E 9                    791441.419        2328.789          17.000                      285591.050        1739.506          16.000  
E12                   -268514.833       -2049.160          12.000                                                                  
E24                   -423077.202       -1231.824          33.000                      -51306.282        -919.825          20.000  
E31                     97315.708         310.535           9.000                                                                  
J 3                     28808.331         461.122          27.000                       80007.672         344.538          21.000  
C 9                    284725.023         867.032          32.000                                                                                                                                  
C10                     -5037.536        -176.096          32.000                                                                                                                                  
C24                   -450354.896           0.002          12.000                                                                                                                                  
C26                    -95666.452       -1466.290          30.000                                                                                     -235637.326       -1105.697          27.000  
C35                    -59339.852        -145.962          33.000                                                                                      -25132.365        -108.856          20.000  
> 2022  1 20  8 46  7.0000000  0 19                     
G 1                   -319488.716       -3991.862          20.000                                                                  
G 4                    166740.328        2652.541          25.000                      595046.384        1979.926          20.000  
G 7                  -1286777.534       -3192.946          19.000                                                                  
G 8                    -48668.913         -89.990          37.000                      -17330.777         -66.895          27.000  
G 9                    508097.240        1284.654          18.000                      225590.362         960.878          21.000  
G21                   -256289.755       -2995.351          37.000                                                                  
G27                    770177.814        1943.896          33.000                      185138.838        1448.919          19.000  
R 9                                                        24.000  
R20                                                        16.000  
E 9                                                                                    292415.197        1740.060          16.000  
E12                   -279280.970       -2048.775          11.000                      -27878.049       -1532.537          17.000  
E24                   -429549.897       -1231.735          33.000                      -54916.054        -919.609          22.000  
E31                     98945.587         309.794           9.000                                                                  
J 3                     31233.158         459.227          27.000                       81360.537         344.153          23.000  
C 9                    289241.761         866.092          32.000                                                                                                                                  
C10                     -5927.796        -171.718          30.000                                                                                                                                  
C24                   -465142.693           0.002          12.000                                                                                                                                  
C26                   -103302.912       -1466.925          29.000                                                                                     -239975.197       -1105.208          26.000  
C35                    -60090.682        -142.336          34.000                                                                                      -25559.592        -109.916          21.000  
> 2022  1 20  8 46  8.0000000  0 19                     
G 1                   -340462.005       -3992.416          19.000                                                                  
G 4                    180680.736           0.002          20.000                      602824.086        1982.861          19.000  
G 7                  -1303562.701       -3195.423          19.000                                                                  
G 8                    -49141.374         -88.709          33.000                      -17595.126         -66.922          25.000  
G 9                    514848.796           0.001          19.000                      229348.504         957.051          18.000  
G21                   -272031.559       -2995.790          37.000                                                                  
G27                    780393.024        1942.783          31.000                      190834.349        1453.917          18.000  
R 9                                                        24.000  
R20                                                        15.000  
E 9                                                                                    299241.566        1740.223          17.000  
E12                   -290045.493       -2048.081          10.000                      -33892.885       -1530.428          17.000  
E24                   -436026.166       -1232.460          28.000                      -58522.841        -919.695          21.000  
E31                    100571.833         309.434          10.000                                                                  
J 3                     33658.027         461.651          28.000                       82713.325         345.021          20.000  
C 9                    293758.476         867.528          32.000                                                                                                                                  
C10                     -6837.538        -177.428          31.000                                                                                                                                  
C24                   -479925.828           0.002          13.000                                                                                                                                  
C26                   -110950.442       -1471.479          30.000                                                                                     -244313.401       -1105.168          26.000  
C35                    -60840.795        -144.607          32.000                                                                                      -25983.654        -107.378          22.000  
> 2022  1 20  8 46  9.0000000  0 20                     
G 1                   -361445.498       -3993.898          18.000                                                                  
G 4                    194625.545           0.002          17.000                      610603.176        1981.766          21.000  
G 7                  -1320347.857       -3193.872          17.000                                                                  
G 8                    -49612.246         -88.189          36.000                      -17858.430         -66.628          26.000  
G 9                    521594.809        1283.979          17.000                      233108.011         958.688          20.000  
G21                   -287765.248       -2993.699          37.000                                                                  
G27                    790613.818        1946.940          31.000                      196536.747        1452.495          18.000  
R 8                                                        19.000  
R 9                                                        22.000  
R20                                                        15.000  
E 9                     33661.525        2330.646          22.000                      306067.588        1739.032          17.000  
E12                   -300806.557       -2046.880          17.000                      -39898.746       -1528.809          17.000  
E24                   -442500.424       -1231.858          33.000                      -62133.926        -919.486          23.000  
E31                    102197.206         309.083          10.000                                                                  
J 3                     36084.422         461.676          29.000                       84064.771         345.529          20.000  
C 9                    298274.507         869.091          30.000                                                                                                                                  
C10                     -7745.446        -170.431          30.000                                                                                                                                  
C24                   -494705.390           0.002          16.000                                                                                                                                  
C26                   -118596.432       -1466.102          32.000                                                                                     -248651.240       -1105.089          25.000  
C35                    -61581.799        -143.916          30.000                                                                                      -26408.666        -107.728          22.000  
> 2022  1 20  8 46 10.0000000  0 20                     
G 1                   -382431.259       -3994.264          18.000                                                                  
G 4                    208588.476           0.002          18.000                      618379.427        1981.654          23.000  
G 7                  -1337127.898       -3193.811          16.000                                                                  
G 8                    -50077.738         -89.019          37.000                      -18119.617         -66.295          27.000  
G 9                    528342.105        1283.656          17.000                      236873.664         958.134          20.000  
G21                   -303498.404       -2993.748          38.000                                                                  
G27                    800838.990        1943.464          25.000                      202232.269        1451.997          18.000  
R 8                                                        16.000  
R 9                                                        24.000  
R20                                                        16.000  
E 9                     45911.056        2330.763          24.000                      312904.963        1743.229          16.000  
E12                   -311560.412       -2045.594          21.000                      -45903.697       -1528.487          17.000  
E24                   -448974.335       -1232.038          29.000                      -65743.918        -919.437          23.000  
E31                    103823.936         309.888           9.000                                                                  
J 3                     38505.776         460.342          30.000                       85417.042         345.207          20.000  
C 9                    302793.556         867.208          29.000                                                                                                                                  
C10                     -8641.368        -172.114          29.000                                                                                                                                  
C24                   -509482.408           0.002          18.000                                                                                                                                  
C26                   -126232.912       -1466.634          29.000                                                                                     -252986.819       -1104.308          25.000  
C35                    -62324.570        -141.729          32.000                                                                                      -26830.419        -106.711          20.000  
> 2022  1 20  8 46 11.0000000  0 20                     
G 1                   -403415.481       -3990.700          17.000                                                                  
G 4                    222545.666        2655.373          25.000                      626155.163        1981.922          23.000  
G 7                  -1353909.643       -3192.602          14.000                                                                  
G 8                    -50551.795         -93.367          20.000                      -18378.887         -63.703          22.000  
G 9                    535093.853        1285.692          23.000                      240635.450         958.090          19.000  
G21                   -319232.385       -2991.813          35.000                                                                  
G27                    811053.651        1944.960          30.000                      207931.484        1450.019          22.000  
R 8                                                        14.000  
R 9                                                        24.000  
R20                                                        20.000  
E 9                     58158.251        2331.534          25.000                      319750.102        1744.656          17.000  
E12                   -322305.749       -2043.952          24.000                      -51903.065       -1528.339          17.000  
E24                   -455454.415       -1234.688          21.000                      -69351.475        -919.776          20.000  
E31                    105453.930         310.293           9.000                                                                  
J 3                     40924.361         463.121          29.000                       86770.543         346.041          22.000  
C 9                    307308.284         868.743          27.000                                                                                                                                  
C10                     -9538.323        -173.210          18.000                                                                                                                                  
C24                   -524273.228       -2840.049          18.000                                                                                                                                  
C26                   -133865.520       -1464.233          28.000                                                                                     -257325.734       -1103.919          19.000  
C35                    -63064.615        -141.420          24.000                                                                                      -27250.119        -105.554          20.000  
> 2022  1 20  8 46 12.0000000  0 19                     
G 4                    236499.522        2656.452          22.000                      633937.633        1982.954          22.000  
G 7                  -1370699.663       -3197.124          19.000                                                                  
G 8                    -51026.394         -90.679          19.000                      -18626.206         -62.233          19.000  
G 9                    541858.204        1288.606          26.000                      244403.786         960.816          20.000  
G21                   -334959.693       -2993.024          35.000                                                                  
G27                    821284.854        1948.078          31.000                      213638.431        1454.518          20.000  
R 8                                                        17.000  
R 9                                                        24.000  
R20                                                        21.000  
E 9                     70414.804        2332.267          25.000                      326592.465        1744.881          17.000  
E12                   -333036.601       -2042.578          25.000                      -57899.916       -1525.572          18.000  
E24                   -461929.040       -1233.022          20.000                      -72963.822        -920.577          19.000  
E31                    107083.880         310.688           8.000                                                                  
J 3                     43356.875         463.291          28.000                       88126.701         346.608          23.000  
C 9                    311829.633         867.229          30.000                                                                                                                                  
C24                   -539058.552       -2838.682          19.000                                                                                                                                  
C26                   -141494.354       -1463.211          19.000                                                                                     -261655.000       -1103.274          17.000  
C29                     74166.331        2461.160          15.000                                                                                                                                  
C35                    -63808.886        -143.598          18.000                                                                                      -27667.413        -106.304          20.000  
> 2022  1 20  8 46 13.0000000  0 21                     
G 4                    250456.746        2655.821          22.000                      641720.550        1984.245          25.000  
G 7                  -1387497.742       -3193.976          19.000                                                                  
G 8                    -51503.104         -88.211          26.000                      -18879.752         -64.157          26.000  
G 9                    548625.435        1286.810          27.000                      248174.962         957.184          20.000  
G21                   -350676.297       -2990.491          36.000                                                                  
G27                    831511.409        1947.832          31.000                      219345.155        1455.178          26.000  
R 8                                                        17.000  
R 9                                                        33.000  
R20                                                        20.000  
E 9                     82671.938        2332.605          26.000                      333434.522        1744.444          18.000  
E12                   -343765.014       -2040.813          25.000                      -63885.424       -1523.264          20.000  
E24                   -468399.032       -1230.262          28.000                      -76571.204        -919.680          22.000  
E31                    108719.004         311.440           8.000                                                                  
J 3                     45784.550         463.150          32.000                       89482.841         346.217          23.000  
C 2                      -470.630        -112.325          28.000                                                                                                                                  
C 3                      -620.389        -139.745          27.000                                                                                                                                  
C 9                    316354.636         867.858          29.000                                                                                                                                  
C24                   -553836.015       -2838.516          18.000                                                                                                                                  
C26                   -149116.412       -1465.263          32.000                                                                                     -265987.477       -1104.402          18.000  
C29                     86981.676        2459.063          13.000                                                                                                                                  
C35                    -64548.313        -140.912          26.000                                                                                      -28081.556        -104.537          22.000  
> 2022  1 20  8 46 14.0000000  0 20                     
G 4                    264411.236           0.002          21.000                      649501.501        1981.225          22.000  
G 7                  -1404277.546       -3193.797          14.000                                                                  
G 8                    -51957.937         -87.230          36.000                      -19132.521         -64.513          29.000  
G 9                    555385.670        1285.787          20.000                      251947.625         962.045          19.000  
G21                   -366397.462       -2991.516          38.000                                                                  
G27                    841753.200        1949.474          32.000                      225040.268        1448.564          20.000  
R 8                                                        17.000  
R 9                                                        28.000  
R20                                                        18.000  
E 9                     94929.098        2332.256          22.000                      340276.107        1743.364          19.000  
E12                   -354490.732       -2041.037          22.000                      -69859.685       -1522.430          20.000  
E24                   -474866.919       -1230.456          32.000                      -80178.070        -919.452          21.000  
E31                    110356.021         311.544           7.000                                                                  
J 3                     48218.737         464.661          31.000                       90838.789         346.788          21.000  
C 9                    320873.945         866.621          33.000                                                                                                                                  
C10                     -2106.033        -172.142          32.000                                                                                                                                  
C24                   -568615.684       -2838.831          16.000                                                                                                                                  
C26                   -156743.970       -1463.594          31.000                                                                                     -270318.956       -1102.771          27.000  
C29                     99811.178        2467.582          13.000                                                                                                                                  
C35                    -65274.959        -136.044          34.000                                                                                      -28494.843        -103.831          20.000  
> 2022  1 20  8 46 15.0000000  0 20                     
G 4                    278361.321        2655.837          21.000                      657279.193        1982.440          18.000  
G 7                  -1421067.141       -3194.027          17.000                                                                  
G 8                    -52407.633         -84.865          36.000                      -19381.612         -62.661          27.000  
G 9                    562137.717        1284.906          18.000                      255719.196         961.123          17.000  
G21                   -382115.144       -2991.019          38.000                                                                  
G27                    851990.590        1948.255          34.000                      230725.561        1449.857          18.000  
R 8                                                        19.000  
R 9                                                        29.000  
R20                                                        20.000  
E 9                    107186.569        2333.520          20.000                      347114.755        1742.469          16.000  
E12                   -365208.922       -2039.567          20.000                      -75837.621       -1522.727          17.000  
E24                   -481331.909       -1229.773          29.000                      -83782.764        -917.778          20.000  
E31                    111995.582         311.869           9.000                                                                  
J 3                     50658.115         463.631          30.000                       92199.069         347.840          19.000  
C 9                    325405.986         869.307          32.000                                                                                                                                  
C10                     -3001.213        -173.092          31.000                                                                                                                                  
C24                   -583392.087       -2836.137          16.000                                                                                                                                  
C26                   -164368.065       -1463.723          33.000                                                                                     -274647.000       -1102.035          25.000  
C29                    112644.659        2460.238          18.000                                                                                                                                  
C35                    -65995.505        -138.954          33.000                                                                                      -28901.472        -106.237          20.000  
> 2022  1 20  8 46 16.0000000  0 20                     
G 4                    292321.322           0.002          19.000                      665062.213        1984.386          19.000  
G 7                  -1437837.888       -3192.346          19.000                                                                  
G 8                    -52853.008         -85.456          36.000                      -19631.034         -63.049          24.000  
G 9                    568897.393        1287.343          23.000                      259490.483         962.768          17.000  
G21                   -397830.620       -2990.697          39.000                                                                  
G27                    862221.209        1947.815          28.000                      236430.114        1456.072          26.000  
R 8                                                        20.000  
R 9                                                        32.000  
R20                                                        17.000  
E 9                    119452.140        2333.183          22.000                      353956.095        1743.720          16.000  
E12                   -375928.726       -2036.945          14.000                      -81820.710       -1523.704          15.000  
E24                   -487799.799       -1230.854          34.000                      -87389.625        -918.916          25.000  
E31                    113634.669         311.960           9.000                                                                  
J 3                     53094.163         462.998          26.000                       93558.487         347.417          18.000  
C 9                    329928.018         867.507          27.000                                                                                                                                  
C10                     -3907.461        -174.442          31.000                                                                                                                                  
C24                   -598156.172           0.002          14.000                                                                                                                                  
C26                   -171988.016       -1463.311          37.000                                                                                     -278973.956       -1102.932          20.000  
C29                    125460.201        2463.843          15.000                                                                                                                                  
C35                    -66724.825        -139.467          30.000                                                                                      -29309.047        -101.951          19.000  
> 2022  1 20  8 46 17.0000000  0 18                     
G 4                    306281.548        2656.647          18.000                      672844.502        1983.361          17.000  
G 7                  -1454613.101       -3192.586          17.000                                                                  
G 8                    -53297.742         -82.623          36.000                      -19879.549         -62.955          23.000  
G 9                    575667.115        1288.528          24.000                      263270.075         965.137          18.000  
G21                   -413549.303       -2990.997          39.000                                                                  
G27                    872462.864        1950.608          30.000                      242140.510        1455.796          24.000  
R 9                                                        31.000  
E 9                    131708.173        2333.931          20.000                      360799.344        1743.675          16.000  
E12                   -386638.273       -2039.798          17.000                      -87805.456       -1524.940          15.000  
E24                   -494268.659       -1230.958          30.000                      -90996.725        -919.032          24.000  
E31                    115275.272         312.617           9.000                                                                  
J 3                     55530.551         464.648          28.000                       94919.969         347.886          18.000  
C 9                    334450.662         867.934          27.000                                                                                                                                  
C10                     -4813.769        -173.849          30.000                                                                                                                                  
C24                   -612918.582           0.002          15.000                                                                                                                                  
C26                   -179607.405       -1463.983          37.000                                                                                     -283305.381       -1102.946          19.000  
C29                    138290.043        2465.415          13.000                                                                                                                                  
C35                    -67446.130        -137.972          30.000                                                                                      -29717.289        -103.536          20.000  
> 2022  1 20  8 46 18.0000000  0 21                     
G 1                   -550100.254          -0.015          14.000                                                                  
G 4                    320249.037        2656.286          20.000                      680625.069        1984.261          23.000  
G 7                  -1471402.171       -3197.615          17.000                                                                  
G 8                    -53744.562         -83.092          35.000                      -20128.865         -62.728          25.000  
G 9                    582441.563        1289.865          20.000                      267052.274         961.209          20.000  
G21                   -429272.319       -2992.985          34.000                                                                  
G27                    882705.398        1948.133          23.000                      247850.930        1457.321          23.000  
R 8                                                        18.000  
R 9                                                        29.000  
R20                                                        18.000  
E 9                    143966.294        2331.411          24.000                      367639.105        1744.895          17.000  
E12                   -397362.495       -2042.409          18.000                      -93788.273       -1523.983          17.000  
E24                   -500741.217       -1231.439          27.000                      -94608.811        -921.140          19.000  
E31                    116917.605         312.320           9.000                                                                  
J 3                     57964.996         462.223          33.000                       96279.172         346.193          24.000  
C 9                    338970.630         869.742          33.000                                                                                                                                  
C10                     -5718.596        -173.342          28.000                                                                                                                                  
C24                   -627689.232       -2835.548          17.000                                                                                                                                  
C26                   -187234.417       -1462.885          25.000                                                                                     -287633.234       -1102.360          24.000  
C29                    151125.924        2463.215          16.000                                                                                                                                  
C35                    -68167.494        -137.380          34.000                                                                                      -30125.709        -101.514          22.000  
> 2022  1 20  8 46 19.0000000  0 18                     
G 4                    334206.470        2653.946          20.000                      688409.798        1984.733          21.000  
G 7                  -1488205.224       -3195.051          16.000                                                                  
G 8                    -54184.993         -82.892          35.000                      -20373.389         -62.234          24.000  
G 9                    589224.753        1290.993          18.000                      270824.703         961.665          19.000  
G21                   -444987.111       -2989.405          39.000                                                                  
G27                    892945.342        1951.335          35.000                      253569.714        1458.666          19.000  
R 9                                                        29.000  
E 9                    156222.888        2332.336          21.000                      374489.743        1748.299          17.000  
E12                   -408096.705       -2042.103          18.000                      -99765.017       -1522.187          16.000  
E24                   -507207.914       -1230.428          29.000                      -98229.231        -920.804          19.000  
E31                    118559.628         312.808           9.000                                                                  
J 3                     60397.513         462.609          28.000                       97637.038         346.821          21.000  
C 9                    343497.159         869.412          33.000                                                                                                                                  
C10                     -6617.115        -173.452          32.000                                                                                                                                  
C24                   -642453.025       -2835.377          16.000                                                                                                                                  
C26                   -194855.279       -1463.156          33.000                                                                                     -291959.988       -1102.019          24.000  
C29                    163945.438        2460.826          15.000                                                                                                                                  
C35                    -68879.097        -136.156          35.000                                                                                      -30527.869        -101.358          20.000  
> 2022  1 20  8 46 20.0000000  0 21                     
G 1                   -592031.797          -0.015          17.000                                                                  
G 4                    348157.032        2655.505          22.000                      696198.193        1986.169          20.000  
G 7                  -1504993.172       -3193.616          16.000                                                                  
G 8                    -54617.988         -82.332          37.000                      -20617.130         -61.732          26.000  
G 9                    596011.198           0.001          21.000                      274595.289         961.606          18.000  
G21                   -460695.328       -2990.519          35.000                                                                  
G27                    903194.531        1947.939          32.000                      259285.984        1456.603          20.000  
R 8                                                        18.000  
R 9                                                        35.000  
R20                                                        23.000  
E 9                    168481.224        2332.992          20.000                      381340.870        1742.973          17.000  
E12                   -418820.340       -2040.147          20.000                     -105743.597       -1522.974          17.000  
E24                   -513673.229       -1230.070          32.000                     -101841.678        -917.493          21.000  
E31                    120203.918         313.326          10.000                                                                  
J 3                     62828.618         464.091          30.000                       98992.247         345.529          21.000  
C 9                    348026.836         870.212          29.000                                                                                                                                  
C10                     -7522.053        -172.900          27.000                                                                                                                                  
C24                   -657219.219       -2835.704          18.000                                                                                                                                  
C26                   -202468.463       -1462.730          33.000                                                                                     -296285.337       -1103.059          23.000  
C29                    176763.665        2461.385          16.000                                                                                                                                  
C35                    -69588.559        -135.056          31.000                                                                                      -30931.976        -100.865          21.000  
> 2022  1 20  8 46 21.0000000  0 21                     
G 1                   -612996.225       -3990.519          18.000                                                                  
G 4                    362117.655           0.002          25.000                      703990.507        1987.152          22.000  
G 7                  -1521770.556       -3192.538          17.000                                                                  
G 8                    -55047.842         -81.086          38.000                      -20856.059         -60.387          28.000  
G 9                    602792.641        1290.694          19.000                      278378.771         964.288          21.000  
G21                    -10029.877       -2989.536          38.000                                                                  
G27                    913442.061        1952.167          30.000                      265004.181        1457.950          22.000  
R 8                                                        16.000  
R 9                                                        32.000  
R20                                                        23.000  
E 9                    180744.254        2333.633          22.000                      388177.653        1743.563          18.000  
E12                   -429550.289       -2041.954          18.000                     -111730.583       -1526.405          17.000  
E24                   -520135.877       -1229.774          30.000                     -105444.569        -916.825          21.000  
E31                    121850.937         313.552          10.000                                                                  
J 3                     65271.042         464.020          32.000                      100351.544         345.538          20.000  
C 9                    352563.489         870.065          33.000                                                                                                                                  
C10                     -8418.628        -171.190          27.000                                                                                                                                  
C24                   -671984.879       -2836.448          15.000                                                                                                                                  
C26                   -210077.794       -1461.549          33.000                                                                                     -300606.746       -1101.186          26.000  
C29                    189582.412        2462.038          16.000                                                                                                                                  
C35                    -70292.256        -134.990          31.000                                                                                      -31332.524        -101.054          22.000  
> 2022  1 20  8 46 22.0000000  0 20                     
G 1                   -633968.422       -3989.197          17.000                                                                  
G 4                    376083.354        2658.895          24.000                      711780.053        1985.764          22.000  
G 7                  -1538542.111           0.011          17.000                                                                  
G 8                    -55472.585         -79.270          31.000                      -21093.491         -59.518          25.000  
G 9                    609578.995        1292.556          24.000                      282159.624         962.172          19.000  
G21                    -25730.050       -2986.292          33.000                                                                  
G27                    923695.052        1950.343          26.000                      270724.583        1457.814          26.000  
R 9                                                        24.000  
R20                                                        29.000  
E 9                    193007.814        2333.938          26.000                      395015.334        1743.407          17.000  
E12                   -440273.217       -2038.180          20.000                     -117722.492       -1526.843          17.000  
E24                   -526597.517       -1229.378          24.000                     -109049.040        -918.756          20.000  
E31                    123499.004         314.040          11.000                                                                  
J 3                     67710.604         463.811          31.000                      101712.537         346.752          25.000  
C 9                    357111.213         872.423          29.000                                                                                                                                  
C10                     -9307.455        -171.148          19.000                                                                                                                                  
C24                   -686752.337       -2834.256          13.000                                                                                                                                  
C26                   -217686.761       -1460.824          28.000                                                                                     -304933.330       -1099.578          20.000  
C29                    202397.466        2460.329          22.000                                                                                                                                  
C35                    -71004.890        -135.589          32.000                                                                                      -31730.692        -102.225          20.000  
> 2022  1 20  8 46 23.0000000  0 19                     
G 4                    390060.875        2661.283          24.000                      719572.819        1986.679          19.000  
G 7                  -1555306.941       -3189.023          17.000                                                                  
G 8                    -55887.666         -78.860          37.000                      -21328.573         -58.677          24.000  
G 9                    616369.387           0.001          20.000                      285934.840         964.012          18.000  
G21                     -5944.605       -2987.398          39.000                                                                  
G27                    933953.834        1952.022          34.000                      276440.228        1454.987          20.000  
R 9                                                        26.000  
R20                                                        21.000  
E 9                    205272.111        2333.631          22.000                      401858.944        1743.022          18.000  
E12                   -450970.410       -2034.763          19.000                     -123710.692       -1526.033          13.000  
E24                   -533057.563       -1229.362          31.000                     -112651.093        -917.056          17.000  
E31                    125152.503         315.224          12.000                                                                  
J 3                     70150.947         462.697          26.000                      103075.295         347.841          22.000  
C 9                    361649.850         871.186          33.000                                                                                                                                  
C10                    -10196.387        -171.888          30.000                                                                                                                                  
C24                   -701502.715       -2830.653          15.000                                                                                                                                  
C26                   -225297.172       -1460.757          31.000                                                                                     -309247.251       -1100.378          23.000  
C29                    215206.649        2458.025          18.000                                                                                                                                  
C35                    -71696.270        -132.772          34.000                                                                                      -32121.901         -99.940          21.000  
> 2022  1 20  8 46 24.0000000  0 18                     
G 4                    404033.772        2659.292          22.000                      727372.523        1988.299          19.000  
G 7                  -1572063.524       -3189.728          17.000                                                                  
G 8                    -56308.849         -80.492          36.000                      -21564.058         -59.953          24.000  
G 9                    623150.735        1291.252          21.000                      289724.553         968.271          18.000  
G21                    -21642.041       -2986.743          39.000                                                                  
G27                    944215.160        1951.230          34.000                      282147.754        1455.867          19.000  
R 9                                                        25.000  
E 9                    217532.817        2332.084          19.000                      408694.704        1741.091          19.000  
E12                   -461671.386       -2036.212          17.000                     -129698.402       -1525.258          14.000  
E24                   -539519.655       -1229.616          31.000                     -116255.185        -922.299          20.000  
E31                    126808.945         315.027          11.000                                                                  
J 3                     72587.057         464.661          24.000                      104433.711         346.857          20.000  
C 9                    366183.346         872.769          33.000                                                                                                                                  
C10                    -11092.727        -172.545          32.000                                                                                                                                  
C24                   -716247.308           0.002          14.000                                                                                                                                  
C26                   -232905.574       -1462.246          31.000                                                                                     -313566.441       -1098.754          24.000  
C29                    228008.167        2458.011          14.000                                                                                                                                  
C35                    -72398.798        -133.535          33.000                                                                                      -32518.198        -100.145          21.000  
> 2022  1 20  8 46 25.0000000  0 18                     
G 4                    418007.935        2658.250          20.000                      735170.960        1988.344          19.000  
G 7                  -1588824.366       -3189.943          18.000                                                                  
G 8                    -56731.872         -79.009          36.000                      -21796.859         -59.129          23.000  
G 9                    629943.469        1293.554          23.000                      293515.575         965.654          18.000  
G21                    -37334.312       -2986.432          40.000                                                                  
G27                    954477.987        1952.131          34.000                      287866.900        1458.194          19.000  
R 9                                                        25.000  
E 9                    229790.519        2333.548          18.000                      415527.053        1743.280          18.000  
E12                   -472365.172       -2032.408          18.000                     -135684.497       -1522.776          13.000  
E24                   -545980.283       -1229.505          30.000                     -119882.382        -924.089          19.000  
E31                    128464.959         315.711          11.000                                                                  
J 3                     75025.692         464.121          25.000                      105794.227         347.194          22.000  
C 9                    370724.221         870.328          32.000                                                                                                                                  
C10                    -11983.691        -171.865          31.000                                                                                                                                  
C24                   -731001.822           0.002          16.000                                                                                                                                  
C26                   -240507.537       -1459.107          33.000                                                                                     -317885.807       -1101.024          24.000  
C29                    240804.663        2457.429          12.000                                                                                                                                  
C35                    -73088.206        -134.151          33.000                                                                                      -32911.406         -99.664          22.000  
> 2022  1 20  8 46 26.0000000  0 20                     
G 1                   -717865.320          -0.015          15.000                                                                  
G 4                    431978.855        2658.183          22.000                      742969.189        1986.943          22.000  
G 7                  -1605586.248       -3188.230          16.000                                                                  
G 8                    -57147.226         -77.455          33.000                      -22027.966         -59.013          23.000  
G 9                    636743.293        1293.211          21.000                      297308.465         968.914          17.000  
G21                    -53027.525       -2985.645          35.000                                                                  
G27                    964739.152        1953.927          32.000                      293588.970        1459.129          24.000  
R 9                                                        24.000  
R20                                                        20.000  
E 9                    242056.966        2334.555          23.000                      422368.806        1744.252          16.000  
E12                   -483047.233       -2034.061          17.000                     -141659.083       -1523.564          16.000  
E24                   -552428.525       -1224.384          20.000                     -123502.377        -921.321          18.000  
E31                    130124.882         316.204          10.000                                                                  
J 3                     77467.530         464.273          35.000                      107155.508         347.275          23.000  
C 9                    375256.082         871.396          29.000                                                                                                                                  
C10                    -12876.570        -171.829          19.000                                                                                                                                  
C24                   -745768.700       -2834.942          19.000                                                                                                                                  
C26                   -248115.959       -1460.765          21.000                                                                                     -322204.464       -1106.512          19.000  
C29                    253610.785        2460.033          19.000                                                                                                                                  
C35                    -73776.151        -130.737          33.000                                                                                      -33307.093         -97.607          21.000  
> 2022  1 20  8 46 27.0000000  0 20                     
G 1                   -738844.651          -0.015          17.000                                                                  
G 4                    445950.840           0.002          21.000                      750764.876        1986.711          20.000  
G 7                  -1622335.637       -3186.933          17.000                                                                  
G 8                    -57554.973         -78.172          33.000                      -22256.420         -58.571          23.000  
G 9                    643549.541        1295.987          20.000                      301111.354         968.008          17.000  
G21                    -68707.413       -2984.661          35.000                                                                  
G27                    975007.768        1954.348          35.000                      299315.777        1459.910          23.000  
R 9                                                        29.000  
R20                                                        20.000  
E 9                    254324.738        2334.079          25.000                      429205.312        1741.540          17.000  
E12                   -493728.516       -2035.263          19.000                     -147635.644       -1522.379          17.000  
E24                   -558876.337       -1229.121          21.000                     -127111.674        -919.285          20.000  
E31                    131789.810         317.294           9.000                                                                  
J 3                     79911.402         465.734          34.000                      108518.379         347.826          22.000  
C 9                    379803.589         872.087          29.000                                                                                                                                  
C10                    -13779.026           0.003          20.000                                                                                                                                  
C24                   -760528.984       -2835.338          21.000                                                                                                                                  
C26                   -255719.345       -1458.963          22.000                                                                                     -326543.447       -1105.286          17.000  
C29                    266413.344        2458.175          18.000                                                                                                                                  
C35                    -74456.692        -130.627          31.000                                                                                      -33699.450        -100.658          19.000  
> 2022  1 20  8 46 28.0000000  0 20                     
G 1                   -759827.944          -0.015          17.000                                                                  
G 4                                                                                    758558.174        1985.019          24.000  
G 7                  -1639086.396       -3187.585          17.000                                                                  
G 8                    -57961.956         -78.109          26.000                      -22484.224         -59.112          25.000  
G 9                    650360.165        1294.851          20.000                      304911.696         967.892          18.000  
G21                    -84395.452       -2985.538          34.000                                                                  
G27                    985278.362        1954.070          31.000                      305042.539        1458.652          23.000  
R 9                                                        25.000  
R20                                                        19.000  
E 9                    266590.539        2333.984          25.000                      436039.555        1740.802          17.000  
E12                   -504428.764       -2034.518          19.000                     -153612.634       -1523.800          18.000  
E24                   -565349.820       -1235.822          16.000                     -130712.718        -918.876          20.000  
E31                    133457.993         317.684           7.000                                                                  
J 3                     82352.688         465.459          34.000                      109879.584         345.793          24.000  
C 9                    384346.443         872.494          32.000                                                                                                                                  
C10                    -14672.751        -171.267          20.000                                                                                                                                  
C24                   -775295.234       -2836.023          20.000                                                                                                                                  
C26                   -263316.124       -1461.111          18.000                                                                                     -330869.133       -1099.379          19.000  
C29                    279214.945        2458.197          19.000                                                                                                                                  
C35                    -75140.109        -130.172          29.000                                                                                      -34088.097         -99.622          21.000  
