     3.03           OBSERVATION DATA    M: Mixed            RINEX VERSION / TYPE
RTKCONV demo5 b33c                      20200407 083802 UTC PGM / RUN BY / DATE 
log: E:\sparse and urban jiulongtang midundao Huawei VINS   COMMENT             
format: u-blox                                              COMMENT             
                                                            MARKER NAME         
                                                            MARKER NUMBER       
                                                            MARKER TYPE         
                                                            OBSERVER / AGENCY   
                                                            REC # / TYPE / VERS 
                                                            ANT # / TYPE        
 -2417718.4308  5384801.4839  2408300.5357                  APPROX POSITION XYZ 
        0.0000        0.0000        0.0000                  ANTENNA: DELTA H/E/N
G    4 C1C L1C D1C S1C                                      SYS / # / OBS TYPES 
C    4 C2I L2I D2I S2I                                      SYS / # / OBS TYPES 
  2020     3    14     8    44   32.0030000     GPS         TIME OF FIRST OBS   
  2020     3    14     9    28   38.9930000     GPS         TIME OF LAST OBS    
G                                                           SYS / PHASE SHIFT   
C                                                           SYS / PHASE SHIFT   
  0                                                         GLONASS SLOT / FRQ #
 C1C    0.000 C1P    0.000 C2C    0.000 C2P    0.000        GLONASS COD/PHS/BIS 
                                                            END OF HEADER       
> 2020  3 14  8 44 32.0030000  0 18                     
G 1  21235337.734 1 111592451.48211      1094.732          42.000  
G 7  21356332.413 1 112228271.35211       830.201          44.000  
G11  21470291.933 1 112827152.40711     -1457.965          43.000  
G30  23124182.004 1 121518347.41211      2512.021          45.000  
C 3  37166003.598 1 193533107.54511       -57.676          41.000  
C12  22718767.130 1 118302563.34611       -17.128          43.000  
C24  23166981.731 1 120636523.26611      1344.531          47.000  
G 8  23363952.323 2 122778339.474 1     -2383.611          36.000  
C 7  36991781.880 1 192625882.958 1       443.241          41.000  
C26  22844356.905 4 118956574.07312     -1428.950          33.000  
C10  37974887.082 1 197745182.106 1       469.850          41.000  
C 8  37412284.279 1 194815558.85811       875.271          38.000  
C 2  38025151.876 1 198006915.112 1       -72.594          40.000  
C13  38413564.301 1 200029511.30011      1144.006          42.000  
C25  27120820.865 4 141225209.759 2      2939.922          32.000  
C 5  40137607.738 2 209007021.297 1       -66.839          37.000  
C 6  40423312.684 4 210494785.64013     -1447.180          27.000  
G17  24995924.327 4 131354466.72122      1758.386          35.000  
> 2020  3 14  8 44 33.0030000  0 18                     
G 1  21235129.692 1 111591357.512 1      1093.477          42.000  
G 7  21356174.908 1 112227441.666 1       829.172          45.000  
G11  21470569.426 1 112828610.736 1     -1458.619          43.000  
G30  23123704.147 1 121515835.757 1      2511.181          45.000  
C 3  37166014.905 1 193533165.429 1       -57.906          41.000  
C12  22718770.655 1 118302580.719 1       -17.727          43.000  
C24  23166723.642 1 120635179.133 1      1343.977          47.000  
G 8  23364406.029 2 122780723.480 1     -2384.039          36.000  
C 7  36991696.758 1 192625440.246 1       442.722          41.000  
C26  22844631.327 4 118958002.885 2     -1428.392          33.000  
C10  37974797.213 1 197744712.293 1       469.500          41.000  
C 8  37412116.408 1 194814683.822 1       875.287          39.000  
C 2  38025166.150 1 198006987.945 1       -72.692          40.000  
C13  38413344.498 1 200028367.376 1      1144.000          41.000  
C25  27120255.932 4 141222269.277 2      2940.546          31.000  
C 5  40137620.686 1 209007088.502 1       -67.442          37.000  
C 6  40423589.828 4 210496233.135 3     -1447.805          27.000  
G17  24995589.876 2 131352708.78421      1757.713          36.000  
> 2020  3 14  8 44 34.0030000  0 18                     
G 1  21234921.616 1 111590264.208 1      1092.889          42.000  
G 7  21356017.402 1 112226612.624 1       828.569          45.000  
G11  21470847.164 1 112830069.572 1     -1459.168          43.000  
G30  23123226.255 1 121513324.501 1      2510.936          45.000  
C 3  37166026.353 1 193533223.353 1       -58.248          41.000  
C12  22718773.970 1 118302598.482 1       -18.229          43.000  
C24  23166465.903 1 120633835.383 1      1343.402          47.000  
G 8  23364859.979 2 122783107.488 1     -2384.078          36.000  
C 7  36991611.671 1 192624997.513 1       442.662          41.000  
C26  22844905.959 2 118959432.228 1     -1429.668          34.000  
C10  37974706.926 1 197744242.437 1       469.691          41.000  
C 8  37411948.467 1 194813808.963 1       874.875          39.000  
C 2  38025180.005 1 198007060.799 1       -73.031          40.000  
C13  38413124.695 1 200027223.627 1      1143.654          42.000  
C25  27119691.138 4 141219328.841 2      2940.890          32.000  
C 5  40137633.355 2 209007155.729 1       -67.463          37.000  
C 6  40423866.728 4 210497680.478 3     -1447.652          27.000  
G17  24995255.356 2 131350951.17121      1756.669          35.000  
> 2020  3 14  8 44 35.0030000  0 19                     
G 1  21234713.714 1 111589171.562 1      1092.061          42.000  
G 7  21355860.106 1 112225784.205 1       827.835          45.000  
G11  21471124.762 1 112831528.866 1     -1460.040          43.000  
G30  23122748.154 1 121510813.650 1      2510.271          45.000  
C 3  37166037.067 1 193533281.239 1       -58.331          41.000  
C12  22718777.356 1 118302616.614 1       -18.634          43.000  
C24  23166207.814 1 120632491.991 1      1342.825          47.000  
G 8  23365313.370 2 122785491.508 1     -2384.594          36.000  
C 7  36991526.653 1 192624554.762 1       442.488          41.000  
C26  22845180.695 2 118960861.952 1     -1430.264          34.000  
C10  37974616.638 1 197743772.517 1       469.745          41.000  
C 8  37411780.387 1 194812934.261 1       874.369          39.000  
C 2  38025194.070 1 198007133.632 1       -73.397          40.000  
C13  38412905.102 1 200026079.955 1      1143.459          41.000  
C25  27119127.776 4 141216388.447 2      2939.932          31.000  
C 1  37712074.692 9               9       -54.781          30.000  
C 5  40137646.372 2 209007222.932 1       -67.748          37.000  
C 6  40424144.361 4 210499127.770 3     -1447.571          27.000  
G17  24994921.114 2 131349193.75721      1756.793          35.000  
> 2020  3 14  8 44 36.0030000  0 19                     
G 1  21234506.161 1 111588079.735 1      1091.398          42.000  
G 7  21355702.740 1 112224956.563 1       827.306          45.000  
G11  21471402.639 1 112832988.774 1     -1460.101          43.000  
G30  23122270.123 1 121508303.343 1      2509.705          45.000  
C 3  37166048.200 1 193533339.270 1       -58.054          41.000  
C12  22718781.369 1 118302635.255 1       -19.118          43.000  
C24  23165949.760 1 120631149.111 1      1342.534          47.000  
G 8  23365766.866 2 122787875.618 1     -2384.134          35.000  
C 7  36991441.636 1 192624112.098 1       442.266          41.000  
C26  22845455.327 2 118962292.273 1     -1430.639          34.000  
C10  37974526.490 1 197743302.697 1       469.524          41.000  
C 8  37411612.271 1 194812059.861 1       874.213          39.000  
C 2  38025208.240 1 198007206.591 1       -73.248          40.000  
C13  38412685.648 1 200024936.545 1      1143.381          41.000  
C25  27118565.879 8 141213448.201 3      2939.777          31.000  
C 1  37712089.874 9               9       -87.305          30.000  
C 5  40137659.181 2 209007290.250 1       -67.032          37.000  
C 6  40424421.610 4 210500575.090 3     -1447.933          27.000  
G17  24994586.454 2 131347436.79521      1756.489          35.000  
> 2020  3 14  8 44 37.0030000  0 19                     
G 1  21234298.783 1 111586988.698 1      1090.589          42.000  
G 7  21355545.478 1 112224129.655 1       826.610          45.000  
G11  21471680.656 1 112834449.281 1     -1460.817          43.000  
G30  23121792.406 1 121505793.514 1      2509.750          44.000  
C 3  37166059.648 1 193533397.413 1       -58.283          41.000  
C12  22718784.894 1 118302654.372 1       -19.343          43.000  
C24  23165692.125 1 120629806.684 1      1342.232          47.000  
G 8  23366220.607 2 122790259.839 1     -2384.043          35.000  
C 7  36991356.548 1 192623669.510 1       442.359          41.000  
C26  22845730.133 2 118963723.133 1     -1431.632          34.000  
C10  37974435.994 1 197742832.896 1       469.819          41.000  
C 8  37411444.330 1 194811185.742 1       874.133          39.000  
C 2  38025222.305 1 198007279.659 1       -73.116          40.000  
C13  38412466.089 1 200023793.344 1      1143.325          41.000  
C25  27117999.270 8 141210508.047 3      2939.981          31.000  
C 1  37712102.578 9 196376782.81135       -72.329          30.000  
C 5  40137671.989 1 209007357.699 1       -67.553          37.000  
C 6  40424698.476 4 210502022.332 3     -1446.758          27.000  
G17  24994252.387 2 131345679.66411      1756.946          35.000  
> 2020  3 14  8 44 38.0030000  0 19                     
G 1  21234091.265 1 111585897.768 1      1090.839          42.000  
G 7  21355388.252 1 112223302.827 1       826.853          45.000  
G11  21471958.463 1 112835909.704 1     -1460.373          43.000  
G30  23121314.235 1 121503283.549 1      2510.115          44.000  
C 3  37166070.641 1 193533454.985 1       -57.376          41.000  
C12  22718788.559 1 118302673.313 1       -18.844          43.000  
C24  23165434.350 1 120628464.092 1      1342.689          47.000  
G 8  23366674.243 2 122792643.511 1     -2383.176          35.000  
C 7  36991271.636 1 192623226.375 1       443.437          41.000  
C26  22846004.939 2 118965153.855 1     -1431.125          34.000  
C10  37974345.636 1 197742362.500 1       470.626          41.000  
C 8  37411276.320 1 194810311.233 1       874.850          39.000  
C 2  38025236.265 1 198007352.176 1       -72.247          40.000  
C13  38412246.286 1 200022649.722 1      1143.927          41.000  
C25  27117432.592 8 141207567.314 3      2941.114          31.000  
C 1  37712115.630 9               9       -71.680          30.000  
C 5  40137684.833 2 209007424.560 1       -66.273          37.000  
C 6  40424976.737 4 210503469.034 3     -1446.359          27.000  
G17  24993918.111 2 131343922.794 1      1757.140          35.000  
> 2020  3 14  8 44 39.0030000  0 20                     
G 1  21233883.782 1 111584807.566 1      1089.528          42.000  
G 7  21355231.060 1 112222476.701 1       825.351          45.000  
G11  21472236.550 1 112837370.676 1     -1461.586          43.000  
G30  23120836.204 1 121500774.051 1      2508.658          44.000  
C 3  37166081.356 1 193533512.631 1       -58.220          41.000  
C12  22718792.049 1 118302692.711 1       -20.066          43.000  
C24  23165176.820 1 120627121.936 1      1341.502          47.000  
G 8  23367127.669 2 122795027.192 1     -2383.676          35.000  
C 7  36991186.339 1 192622783.265 1       442.591          41.000  
C26  22846279.640 4 118966585.060 2     -1431.745          34.000  
C10  37974255.349 1 197741892.083 1       469.675          41.000  
C 8  37411108.588 1 194809436.972 1       873.722          39.000  
C 4  39240341.309 9               9       -74.951          28.000  
C 2  38025250.295 1 198007424.740 1       -73.270          40.000  
C13  38412026.972 1 200021506.260 1      1143.157          41.000  
C25  27116865.285 8 141204626.699 3      2940.374          30.000  
C 1  37712127.113 9               9       -68.066          29.000  
C 5  40137697.711 2 209007491.501 1       -67.342          37.000  
C 6  40425256.219 4 210504915.592 3     -1446.984          27.000  
G17  24993583.834 2 131342166.259 1      1755.727          35.000  
> 2020  3 14  8 44 40.0030000  0 21                     
G 1  21233676.717 1 111583718.798 1      1088.195          43.000  
G 7  21355074.183 1 112221651.954 1       824.132          45.000  
G11  21472514.951 1 112838832.884 1     -1462.863          43.000  
G30  23120358.242 1 121498265.684 1      2507.931          44.000  
C 3  37166092.873 1 193533571.022 1       -58.870          41.000  
C12  22718795.923 1 118302713.218 1       -20.974          43.000  
C24  23164919.220 1 120625780.880 1      1340.423          47.000  
G 8  23367581.340 2 122797411.670 1     -2384.795          34.000  
C 7  36991101.042 1 192622340.853 1       442.260          41.000  
C26  22846554.865 2 118968017.510 1     -1433.272          34.000  
C10  37974164.992 1 197741422.356 1       469.509          41.000  
C 8  37410940.926 1 194808563.656 1       872.736          39.000  
C11  25920310.137 1 134973825.06711      2125.252          40.000  
C 4  39240349.022 9               9       -88.623          27.000  
C 2  38025264.011 1 198007498.053 1       -73.945          40.000  
C13  38411807.239 1 200020363.691 1      1141.791          41.000  
C25  27116304.156 4 141201686.816 2      2940.020          31.000  
C 1  37712141.177 9               7       -73.110          30.000  
C 5  40137710.624 1 209007559.197 1       -68.222          37.000  
C 6  40425532.945 4 210506362.862 3     -1447.448          27.000  
G17  24993249.697 2 131340410.730 1      1754.691          35.000  
> 2020  3 14  8 44 41.0030000  0 21                     
G 1  21233469.897 1 111582631.088 1      1087.271          43.000  
G 7  21354917.515 1 112220828.217 1       823.339          45.000  
G11  21472793.596 1 112840295.940 1     -1463.411          43.000  
G30  23119880.560 1 121495758.106 1      2507.293          43.000  
C 3  37166104.111 1 193533629.754 1       -58.730          41.000  
C12  22718800.146 1 118302734.508 1       -21.713          43.000  
C24  23164661.864 1 120624440.566 1      1339.910          47.000  
G 8  23368034.767 2 122799796.477 2     -2384.876          34.000  
C 7  36991016.060 1 192621898.822 1       441.993          41.000  
C26  22846830.194 2 118969450.707 1     -1433.304          34.000  
C10  37974075.018 1 197740952.942 1       469.402          41.000  
C 8  37410773.265 1 194807690.841 1       872.478          39.000  
C11  25919902.081 1 134971700.004 1      2124.908          40.000  
C 4  39240366.612 9               9       -96.777          27.000  
C 2  38025278.355 1 198007571.702 1       -73.716          40.000  
C13  38411587.994 1 200019221.579 1      1141.900          41.000  
C25  27115737.617 8 141198747.345 2      2939.568          31.000  
C 1  37712156.778 9 196377057.26134       -74.173          30.000  
C 5  40137723.956 1 209007627.233 1       -68.248          37.000  
C 6  40425809.950 4 210507810.409 3     -1447.594          27.000  
G17  24992915.665 2 131338655.878 1      1754.184          35.000  
> 2020  3 14  8 44 42.0030000  0 21                     
G 1  21233263.287 1 111581544.251 1      1086.372          42.000  
G 7  21354760.916 1 112220005.325 1       822.607          45.000  
G11  21473071.997 1 112841759.709 1     -1464.193          43.000  
G30  23119402.843 1 121493251.145 1      2506.621          43.000  
C 3  37166115.139 1 193533688.734 1       -59.085          41.000  
C12  22718804.543 1 118302756.358 1       -22.155          43.000  
C24  23164404.543 1 120623100.839 1      1339.417          47.000  
G 8  23368488.088 4 122802181.542 2     -2386.152          33.000  
C 7  36990931.356 1 192621456.991 1       441.606          41.000  
C26  22847105.698 4 118970884.601 2     -1434.294          34.000  
C10  37973984.975 1 197740483.689 1       469.277          41.000  
C 8  37410605.847 1 194806818.420 1       872.557          39.000  
C11  25919494.060 1 134969575.443 1      2124.160          40.000  
C 4  39240383.399 9               9      -100.000          28.000  
C 2  38025292.524 1 198007645.584 1       -74.229          40.000  
C13  38411368.715 1 200018079.813 1      1141.420          41.000  
C25  27115175.476 8 141195808.140 3      2937.286          31.000  
C 1  37712171.855 8 196377130.83123       -73.359          30.000  
C 5  40137737.079 1 209007695.523 1       -68.820          37.000  
C 6  40426089.537 4 210509257.968 4     -1447.205          27.000  
G17  24992581.668 2 131336901.444 1      1754.686          35.000  
> 2020  3 14  8 44 43.0030000  0 21                     
G 1  21233056.746 1 111580458.182 1      1085.373          43.000  
G 7  21354604.562 1 112219183.142 1       821.670          45.000  
G11  21473350.537 1 112843224.012 1     -1464.742          43.000  
G30  23118925.230 1 121490744.642 1      2506.267          42.000  
C 3  37166126.691 1 193533747.766 1       -59.183          41.000  
C12  22718808.975 1 118302778.663 1       -22.729          43.000  
C24  23164147.536 1 120621761.552 1      1338.866          47.000  
G 8  23368941.445 4 122804566.610 2     -2385.522          33.000  
C 7  36990846.339 1 192621015.192 1       441.568          41.000  
C26  22847381.168 4 118972318.957 2     -1434.516          33.000  
C10  37973894.827 1 197740014.468 1       469.072          41.000  
C 8  37410438.360 1 194805946.243 1       872.123          39.000  
C11  25919086.248 1 134967451.226 1      2123.930          40.000  
C 4  39240395.579 9               9       -84.570          27.000  
C 2  38025306.694 1 198007719.520 1       -73.880          40.000  
C13  38411149.331 1 200016938.216 1      1141.265          41.000  
C25  27114613.195 8 141192868.871 3      2939.081          30.000  
C 1  37712186.269 4 196377204.49323       -74.328          30.000  
C 5  40137750.201 2 209007763.822 1       -68.649          37.000  
C 6  40426369.857 4 210510705.589 4     -1447.387          27.000  
G17  24992247.985 2 131335147.389 1      1753.428          35.000  
> 2020  3 14  8 44 44.0030000  0 21                     
G 1  21232850.205 1 111579372.790 1      1084.920          42.000  
G 7  21354448.104 1 112218361.621 1       821.222          45.000  
G11  21473629.357 1 112844688.843 1     -1465.297          43.000  
G30  23118447.443 1 121488238.584 1      2505.599          42.000  
C 3  37166138.208 1 193533806.830 1       -59.219          41.000  
C12  22718813.338 1 118302801.379 1       -22.961          43.000  
C24  23163890.425 1 120620422.671 1      1338.583          47.000  
G 8  23369394.802 4 122806951.688 2     -2384.822          32.000  
C 7  36990761.496 1 192620573.397 1       441.768          41.000  
C26  22847657.021 4 118973753.816 2     -1435.384          34.000  
C10  37973804.610 1 197739545.196 1       469.106          41.000  
C 8  37410270.873 1 194805074.275 1       871.851          39.000  
C11  25918678.297 1 134965327.325 1      2123.603          40.000  
C 4  39240408.073 9               9       -77.441          28.000  
C 2  38025320.898 1 198007793.506 1       -73.880          40.000  
C13  38410929.877 1 200015796.779 1      1141.432          41.000  
C25  27114050.041 4 141189929.705 2      2939.810          30.000  
C 1  37712200.404 8 196377278.29723       -75.744          30.000  
C 5  40137763.463 2 209007832.166 1       -68.226          37.000  
C 6  40426646.723 4 210512153.105 4     -1447.263          27.000  
G17  24991913.918 2 131333393.661 1      1753.042          35.000  
> 2020  3 14  8 44 45.0030000  0 21                     
G 1  21232643.979 1 111578288.114 1      1084.074          42.000  
G 7  21354291.855 1 112217540.762 1       820.316          45.000  
G11  21473908.106 1 112846154.156 1     -1465.806          43.000  
G30  23117969.621 1 121485732.946 1      2505.188          42.000  
C 3  37166149.342 1 193533865.929 1       -59.360          41.000  
C12  22718817.770 1 118302824.483 1       -23.329          43.000  
C24  23163633.383 1 120619084.185 1      1338.106          47.000  
G 8  23369848.019 4 122809336.801 2     -2384.757          32.000  
C 7  36990676.548 1 192620131.620 1       441.637          41.000  
C26  22847932.874 4 118975189.132 2     -1435.573          34.000  
C10  37973714.288 1 197739075.886 1       469.145          41.000  
C 8  37410103.630 1 194804202.500 1       871.328          39.000  
C11  25918270.660 1 134963203.728 1      2123.398          40.000  
C 4  39240417.252 9               9       -40.869          27.000  
C 2  38025334.719 1 198007867.507 1       -74.227          40.000  
C13  38410710.772 1 200014655.457 1      1141.272          41.000  
C25  27113485.492 8 141186990.663 3      2938.946          31.000  
C 1  37712214.433 8 196377351.91324       -73.669          30.000  
C 5  40137776.446 1 209007900.564 1       -68.748          37.000  
C 6  40426924.111 4 210513600.579 4     -1447.587          27.000  
G17  24991579.677 2 131331640.195 1      1752.851          35.000  
> 2020  3 14  8 44 46.0030000  0 21                     
G 1  21232437.612 1 111577204.218 1      1083.644          42.000  
G 7  21354135.745 1 112216720.636 1       819.835          45.000  
G11  21474186.926 1 112847620.074 1     -1466.125          43.000  
G30  23117492.183 1 121483227.805 1      2504.976          42.000  
C 3  37166160.510 1 193533925.101 1       -59.157          41.000  
C12  22718822.377 1 118302848.073 1       -23.643          43.000  
C24  23163376.272 1 120617746.171 1      1337.814          47.000  
G 8  23370300.852 4 122811722.019 2     -2385.326          32.000  
C 7  36990591.670 1 192619689.909 1       441.649          41.000  
C26  22848208.482 4 118976624.936 2     -1435.458          34.000  
C10  37973624.140 1 197738606.614 1       469.476          41.000  
C 8  37409936.143 1 194803331.000 1       871.334          39.000  
C11  25917862.988 1 134961080.509 1      2123.095          40.000  
C 4  39240433.306 9               9       -87.988          27.000  
C 2  38025349.028 1 198007941.614 1       -74.140          40.000  
C13  38410491.737 1 200013514.367 1      1140.979          41.000  
C25  27112920.489 8 141184051.642 3      2939.420          30.000  
C 1  37712228.603 8 196377425.77423       -73.771          30.000  
C 5  40137789.778 1 209007969.019 1       -68.303          37.000  
C 6  40427202.233 4 210515047.970 4     -1446.906          27.000  
G17  24991245.889 2 131329887.110 1      1752.961          34.000  
> 2020  3 14  8 44 47.0030000  0 21                     
G 1  21232231.455 1 111576120.955 1      1082.976          42.000  
G 7  21353979.880 1 112215901.128 1       819.096          45.000  
G11  21474466.025 1 112849086.437 1     -1466.726          43.000  
G30  23117014.711 1 121480723.056 1      2504.430          41.000  
C 3  37166172.167 1 193533984.263 1       -58.999          41.000  
C12  22718826.635 1 118302872.026 1       -24.222          43.000  
C24  23163119.335 1 120616408.499 1      1337.493          47.000  
G 8  23370753.615 4 122814107.219 2     -2384.737          31.000  
C 7  36990506.827 1 192619248.136 1       441.874          41.000  
C26  22848484.335 4 118978061.254 2     -1436.371          33.000  
C10  37973534.027 1 197738137.269 1       469.553          41.000  
C 8  37409768.725 1 194802459.657 1       871.133          39.000  
C11  25917455.281 1 134958957.520 1      2123.057          40.000  
C 4  39240449.046 9               9       -86.279          27.000  
C 2  38025363.337 1 198008015.682 1       -74.101          40.000  
C13  38410272.492 1 200012373.377 1      1140.870          41.000  
C25  27112355.241 8 141181112.688 3      2938.266          30.000  
C 1  37712243.157 9               9       -71.436          30.000  
C 5  40137802.901 1 209008037.460 1       -68.437          37.000  
C 6  40427478.470 4 210516495.347 4     -1447.706          27.000  
G17  24990912.171 2 131328134.286 1      1752.093          34.000  
> 2020  3 14  8 44 48.0030000  0 21                     
G 1  21232025.333 1 111575038.361 1      1082.792          42.000  
G 7  21353823.944 1 112215082.219 1       819.179          45.000  
G11  21474745.228 1 112850553.267 1     -1466.489          43.000  
G30  23116537.342 1 121478218.670 1      2504.877          41.000  
C 3  37166183.335 1 193534043.404 1       -58.587          41.000  
C12  22718831.242 1 118302896.327 1       -23.796          43.000  
C24  23162862.712 1 120615071.184 1      1337.753          47.000  
G 8  23371203.552 4 122816492.387 3     -2384.123          31.000  
C 7  36990421.880 1 192618806.362 1       442.389          41.000  
C26  22848760.189 4 118979497.963 2     -1437.059          33.000  
C10  37973444.019 1 197737667.856 1       470.205          41.000  
C 8  37409601.483 1 194801588.444 1       871.741          39.000  
C11  25917047.539 1 134956834.817 1      2123.174          39.000  
C 4  39240466.078 9               9       -46.729          26.000  
C 2  38025377.402 1 198008089.712 1       -73.230          40.000  
C13  38410053.701 1 200011232.484 1      1141.240          41.000  
C25  27111790.029 8 141178173.617 3      2939.901          30.000  
C 1  37712257.117 9 196377587.82535       -71.694          30.000  
C 5  40137816.023 1 209008105.897 1       -67.963          37.000  
C 6  40427755.614 4 210517942.450 4     -1446.289          27.000  
G17  24990578.453 4 131326381.721 2      1751.887          34.000  
> 2020  3 14  8 44 49.0030000  0 21                     
G 1  21231819.142 1 111573955.771 1      1082.236          42.000  
G 7  21353667.521 1 112214263.287 1       818.743          45.000  
G11  21475023.978 1 112852019.893 1     -1466.803          43.000  
G30  23116060.114 1 121475714.032 1      2504.463          41.000  
C 3  37166194.363 1 193534101.874 1       -58.211          41.000  
C12  22718835.953 1 118302920.348 1       -24.254          43.000  
C24  23162605.914 1 120613733.576 1      1337.500          47.000  
G 8  23371649.579 8 122818876.837 3     -2383.956          31.000  
C 7  36990336.967 1 192618363.895 1       442.353          41.000  
C26  22849036.042 2 118980934.363 2     -1436.144          34.000  
C10  37973353.696 1 197737197.727 1       470.038          41.000  
C 8  37409434.205 1 194800716.759 1       871.547          39.000  
C11  25916639.798 1 134954711.736 1      2122.853          39.000  
C 4  39240479.759 9               9      -105.566          27.000  
C 2  38025391.502 1 198008163.087 1       -73.036          40.000  
C13  38409834.317 1 200010091.020 1      1141.591          41.000  
C25  27111223.804 4 141175234.001 3      2939.618          30.000  
C 1  37712271.182 8 196377660.95824       -72.507          30.000  
C 5  40137828.937 1 209008173.628 1       -67.272          37.000  
C 6  40428034.853 4 210519388.906 4     -1446.443          27.000  
G17  24990244.595 4 131324628.708 2      1752.665          34.000  
> 2020  3 14  8 44 50.0030000  0 21                     
G 1  21231613.543 1 111572874.547 1      1080.510          42.000  
G 7  21353511.795 1 112213445.687 1       816.715          45.000  
G11  21475303.356 1 112853487.728 1     -1468.815          43.000  
G30  23115583.269 1 121473210.486 1      2502.867          41.000  
C 3  37166206.055 1 193534161.060 1       -59.729          41.000  
C12  22718840.979 1 118302945.450 1       -25.861          43.000  
C24  23162349.326 1 120612397.036 1      1335.747          47.000  
G 8  23372104.611 8 122821262.008 2     -2385.639          31.000  
C 7  36990252.264 1 192617922.083 1       441.212          41.000  
C26  22849312.104 2 118982371.995 1     -1438.420          34.000  
C10  37973263.479 1 197736728.224 1       469.015          41.000  
C 8  37409267.206 1 194799845.930 1       870.298          39.000  
C11  25916232.230 1 134952589.612 1      2121.340          39.000  
C 4  39240492.811 9               9       -45.605          27.000  
C 2  38025405.706 1 198008237.170 1       -74.632          40.000  
C13  38409615.247 1 200008950.379 1      1140.107          41.000  
C25  27110659.150 8 141172295.029 3      2938.653          30.000  
C 1  37712285.595 9               9       -67.285          30.000  
C 5  40137842.164 1 209008242.101 1       -69.296          37.000  
C 6  40428312.381 4 210520835.906 3     -1447.691          27.000  
G17  24989910.703 2 131322876.681 1      1751.417          34.000  
> 2020  3 14  8 44 51.0030000  0 21                     
G 1  21231407.840 1 111571794.546 1      1079.418          42.000  
G 7  21353356.209 1 112212629.256 1       815.940          44.000  
G11  21475582.769 1 112854956.559 1     -1469.215          43.000  
G30  23115106.843 1 121470707.889 1      2502.080          41.000  
C 3  37166217.642 1 193534220.742 1       -59.626          41.000  
C12  22718846.005 1 118302971.439 1       -26.473          43.000  
C24  23162092.983 1 120611061.386 1      1335.181          47.000  
G 8  23372558.770 8 122823647.676 3     -2385.668          31.000  
C 7  36990167.560 1 192617480.767 1       440.993          41.000  
C26  22849588.271 4 118983810.524 2     -1438.787          34.000  
C10  37973173.575 1 197736259.168 1       469.075          41.000  
C 8  37409100.068 1 194798975.792 1       869.896          39.000  
C11  25915824.872 1 134950468.305 1      2120.672          39.000  
C 4  39240507.714 9               9       -78.223          27.000  
C 2  38025420.190 1 198008311.761 1       -74.777          40.000  
C13  38409396.317 1 200007810.368 1      1139.723          41.000  
C25  27110098.893 8 141169356.617 3      2938.000          30.000  
C 1  37712300.044 9 196377811.13834       -73.702          31.000  
C 5  40137855.391 2 209008311.048 1       -69.297          37.000  
C 6  40428591.375 4 210522283.346 4     -1447.621          27.000  
G17  24989576.880 2 131321125.483 2      1750.683          34.000  
> 2020  3 14  8 44 52.0030000  0 21                     
G 1  21231202.556 1 111570715.439 1      1078.701          42.000  
G 7  21353200.797 1 112211813.686 1       815.097          44.000  
G11  21475862.217 1 112856426.112 1     -1470.066          43.000  
G30  23114630.801 1 121468205.902 1      2501.809          42.000  
C 3  37166228.880 1 193534280.692 1       -60.358          41.000  
C12  22718851.170 1 118302998.026 1       -26.736          43.000  
C24  23161836.604 1 120609726.329 1      1334.843          47.000  
G 8  23373014.535 4 122826033.594 2     -2385.984          31.000  
C 7  36990082.857 1 192617039.682 1       440.900          41.000  
C26  22849864.648 4 118985249.734 2     -1439.308          34.000  
C10  37973083.532 1 197735790.305 1       468.869          41.000  
C 8  37408932.965 1 194798106.074 1       869.197          39.000  
C11  25915417.759 1 134948347.494 1      2120.551          39.000  
C 4  39240521.569 9               9       -61.719          27.000  
C 2  38025434.534 1 198008386.570 1       -74.793          40.000  
C13  38409177.631 1 200006670.707 1      1139.321          41.000  
C25  27109531.936 8 141166418.432 3      2938.283          30.000  
C 1  37712314.493 8 196377885.71523       -74.007          30.000  
C 5  40137868.409 2 209008380.246 1       -69.281          37.000  
C 6  40428869.427 4 210523730.920 3     -1447.640          27.000  
G17  24989243.442 2 131319374.782 2      1750.019          34.000  
> 2020  3 14  8 44 53.0030000  0 21                     
G 1  21230997.271 1 111569637.056 1      1078.113          42.000  
G 7  21353045.490 1 112210998.806 1       814.568          44.000  
G11  21476141.979 1 112857896.183 1     -1470.437          43.000  
G30  23114155.283 1 121465704.366 1      2501.487          42.000  
C 3  37166240.606 1 193534340.649 1       -59.954          41.000  
C12  22718856.545 1 118303025.058 1       -27.147          43.000  
C24  23161580.295 1 120608391.703 1      1334.506          47.000  
G 8  23373460.702 8 122828419.550 3     -2385.989          31.000  
C 7  36989998.293 1 192616598.582 1       441.188          41.000  
C26  22850141.408 4 118986689.440 2     -1440.553          34.000  
C10  37972993.245 1 197735321.415 1       469.005          41.000  
C 8  37408766.001 1 194797236.560 1       869.608          39.000  
C11  25915010.750 1 134946227.011 1      2120.371          39.000  
C 4  39240537.659 9               9       -70.898          27.000  
C 2  38025448.878 1 198008461.424 1       -74.446          40.000  
C13  38408958.631 1 200005531.173 1      1139.669          41.000  
C25  27108969.271 4 141163480.318 2      2938.374          30.000  
C 1  37712328.837 8 196377960.32424       -73.191          30.000  
C 5  40137881.601 2 209008449.475 1       -68.987          37.000  
C 6  40429145.489 4 210525178.382 3     -1447.239          27.000  
G17  24988910.282 2 131317624.377 1      1750.164          34.000  
> 2020  3 14  8 44 54.0030000  0 21                     
G 1  21230792.161 1 111568559.291 1      1077.469          42.000  
G 7  21352890.428 1 112210184.509 1       814.105          44.000  
G11  21476421.636 1 112859366.688 1     -1470.655          43.000  
G30  23113679.625 1 121463203.200 1      2500.990          42.000  
C 3  37166252.263 1 193534400.562 1       -59.973          41.000  
C12  22718861.466 1 118303052.415 1       -27.246          43.000  
C24  23161324.056 1 120607057.395 1      1334.298          47.000  
G 8  23373918.352 8 122830805.438 3     -2385.943          31.000  
C 7  36989913.415 1 192616157.439 1       441.125          41.000  
C26  22850418.134 4 118988129.525 2     -1440.248          33.000  
C10  37972903.236 1 197734852.419 1       469.232          41.000  
C 8  37408598.758 1 194796367.185 1       869.291          39.000  
C11  25914603.950 1 134944106.760 1      2120.226          39.000  
C 4  39240540.555 9               9        22.754          27.000  
C 2  38025463.397 1 198008536.245 1       -74.852          40.000  
C13  38408739.700 1 200004391.749 1      1139.449          41.000  
C25  27108400.743 4 141160542.152 3      2938.463          29.000  
C 1  37712343.321 8 196378034.89823       -74.182          30.000  
C 5  40137894.794 2 209008518.671 1       -69.186          37.000  
C 6  40429424.134 4 210526625.778 3     -1447.325          27.000  
G17  24988576.913 2 131315874.229 1      1749.973          34.000  
> 2020  3 14  8 44 55.0030000  0 21                     
G 1  21230587.191 1 111567482.180 1      1076.929          42.000  
G 7  21352735.365 1 112209370.814 1       813.432          44.000  
G11  21476701.467 1 112860837.640 1     -1471.077          43.000  
G30  23113203.862 1 121460702.402 1      2500.524          42.000  
C 3  37166263.292 1 193534460.444 1       -59.824          41.000  
C12  22718866.561 1 118303080.123 1       -27.800          43.000  
C24  23161067.957 1 120605723.444 1      1333.796          47.000  
G 8  23374371.674 8 122833191.319 2     -2385.752          31.000  
C 7  36989828.607 1 192615716.244 1       441.255          41.000  
C26  22850694.720 4 118989570.008 2     -1440.524          33.000  
C10  37972813.298 1 197734383.330 1       468.884          41.000  
C 8  37408431.864 1 194795497.932 1       869.305          39.000  
C11  25914196.837 1 134941986.787 1      2119.823          39.000  
C 4  39240533.226 9               9        86.768          27.000  
C 2  38025477.706 1 198008611.019 1       -74.858          40.000  
C13  38408521.014 1 200003252.409 1      1139.458          41.000  
C25  27107836.019 4 141157604.008 2      2938.407          29.000  
C 1  37712357.874 8 196378109.50424       -75.032          30.000  
C 5  40137908.230 2 209008587.824 1       -68.745          37.000  
C 6  40429703.058 4 210528072.962 4     -1447.353          27.000  
G17  24988243.614 2 131314124.252 1      1749.887          33.000  
> 2020  3 14  8 44 56.0030000  0 20                     
G 1  21230382.500 1 111566405.757 1      1075.666          42.000  
G 7  21352580.442 1 112208557.760 1       812.626          44.000  
G11  21476981.474 1 112862309.088 1     -1471.916          43.000  
G30  23112728.763 1 121458201.981 1      2500.204          42.000  
C 3  37166274.809 1 193534520.340 1       -60.096          41.000  
C12  22718871.831 1 118303108.209 1       -28.317          43.000  
C24  23160811.683 1 120604389.846 1      1333.302          47.000  
G 8  23374829.567 4 122835577.183 2     -2386.300          31.000  
C 7  36989743.974 1 192615275.023 1       440.913          41.000  
C26  22850971.096 4 118991010.950 2     -1441.676          33.000  
C10  37972723.220 1 197733914.173 1       468.944          41.000  
C 8  37408265.145 1 194794628.871 1       868.583          39.000  
C11  25913789.584 1 134939867.077 1      2119.170          39.000  
C 2  38025492.120 1 198008685.786 1       -75.129          40.000  
C13  38408302.328 1 200002113.193 1      1139.034          41.000  
C25  27107273.598 4 141154665.853 2      2937.985          29.000  
C 1  37712371.974 9 196378186.03935       -75.678          30.000  
C 5  40137921.597 1 209008656.984 1       -69.436          37.000  
C 6  40429980.377 4 210529520.082 4     -1447.228          27.000  
G17  24987910.385 2 131312374.626 2      1749.069          33.000  
> 2020  3 14  8 44 57.0030000  0 20                     
G 1  21230177.844 1 111565330.061 1      1075.279          42.000  
G 7  21352425.903 1 112207745.391 1       812.097          44.000  
G11  21477261.585 1 112863781.071 1     -1472.328          43.000  
G30  23112253.628 1 121455702.033 1      2499.821          43.000  
C 3  37166286.500 1 193534580.288 1       -59.959          41.000  
C12  22718877.590 1 118303136.736 1       -28.675          43.000  
C24  23160555.898 1 120603056.690 1      1332.957          47.000  
G 8  23375284.704 4 122837963.070 2     -2385.596          31.000  
C 7  36989659.236 1 192614833.846 1       441.022          41.000  
C26  22851247.996 4 118992452.381 2     -1441.679          33.000  
C10  37972633.107 1 197733445.033 1       468.981          41.000  
C 8  37408098.565 1 194793760.026 1       868.835          39.000  
C11  25913382.645 1 134937747.720 1      2118.875          39.000  
C 2  38025506.499 1 198008760.622 1       -74.890          40.000  
C13  38408083.432 1 200000974.159 1      1138.755          41.000  
C25  27106705.803 8 141151727.761 4      2938.150          29.000  
C 1  37712386.318 8 196378260.58124       -74.142          30.000  
C 5  40137934.790 1 209008726.162 1       -68.743          37.000  
C 6  40430257.626 4 210530967.132 4     -1446.943          27.000  
G17  24987577.050 4 131310625.314 2      1748.627          33.000  
> 2020  3 14  8 44 58.0030000  0 20                     
G 1  21229973.258 1 111564255.038 1      1074.626          42.000  
G 7  21352271.294 1 112206933.645 1       811.449          44.000  
G11  21477542.044 1 112865253.519 1     -1472.699          43.000  
G30  23111778.598 1 121453202.472 1      2499.447          43.000  
C 3  37166297.878 1 193534640.235 1       -60.128          41.000  
C12  22718883.104 1 118303165.620 1       -29.156          42.000  
C24  23160300.078 1 120601723.884 1      1332.666          47.000  
G 8  23375738.933 4 122840348.938 2     -2385.410          31.000  
C 7  36989574.602 1 192614392.622 1       441.270          41.000  
C26  22851525.001 2 118993894.234 1     -1441.601          33.000  
C10  37972543.238 1 197732975.807 1       469.311          41.000  
C 8  37407931.846 1 194792891.338 1       869.191          39.000  
C11  25912975.636 1 134935628.595 1      2118.831          39.000  
C 2  38025520.634 1 198008835.428 1       -74.639          40.000  
C13  38407864.746 1 199999835.226 1      1138.829          41.000  
C25  27106141.428 4 141148789.709 3      2937.819          29.000  
C 1  37712400.662 8 196378335.19523       -75.159          30.000  
C 5  40137948.157 1 209008795.407 1       -69.320          37.000  
C 6  40430536.620 4 210532414.094 4     -1446.895          27.000  
G17  24987243.996 4 131308876.240 2      1748.681          33.000  
> 2020  3 14  8 44 59.0030000  0 20                     
G 1  21229768.671 1 111563180.296 1      1074.805          42.000  
G 7  21352116.894 1 112206122.156 1       811.700          44.000  
G11  21477822.190 1 112866726.058 1     -1472.136          43.000  
G30  23111303.534 1 121450702.931 1      2499.985          43.000  
C 3  37166309.256 1 193534699.776 1       -58.857          41.000  
C12  22718888.548 1 118303194.518 1       -28.697          42.000  
C24  23160044.013 1 120600391.082 1      1333.123          47.000  
G 8  23376192.534 4 122842734.453 2     -2384.621          32.000  
C 7  36989489.654 1 192613951.015 1       442.046          41.000  
C26  22851801.831 4 118995336.165 2     -1441.396          33.000  
C10  37972452.846 1 197732506.155 1       470.252          41.000  
C 8  37407764.952 1 194792022.486 1       869.241          39.000  
C11  25912568.627 1 134933509.387 1      2119.504          39.000  
C 2  38025535.082 1 198008909.856 1       -73.713          40.000  
C13  38407645.920 1 199998696.007 1      1139.816          41.000  
C25  27105578.449 4 141145851.255 2      2938.693          29.000  
C 1  37712414.902 8 196378409.43023       -73.881          30.000  
C 5  40137961.488 2 209008864.190 1       -68.146          37.000  
C 6  40430815.126 4 210533860.487 4     -1445.217          26.000  
G17  24986910.941 4 131307127.040 2      1749.313          33.000  
> 2020  3 14  8 45  0.0030000  0 20                     
G 1  21229564.155 1 111562105.955 1      1073.688          42.000  
G 7  21351962.495 1 112205311.037 1       810.645          44.000  
G11  21478102.545 1 112868198.825 1     -1473.225          43.000  
G30  23110828.329 1 121448203.543 1      2498.607          43.000  
C 3  37166320.773 1 193534759.070 1       -59.541          41.000  
C12  22718894.272 1 118303223.517 1       -29.545          42.000  
C24  23159788.088 1 120599058.385 1      1332.217          47.000  
G 8  23376647.496 4 122845119.664 2     -2385.225          32.000  
C 7  36989404.986 1 192613509.137 1       441.295          41.000  
C26  22852078.592 4 118996778.235 2     -1442.358          33.000  
C10  37972362.594 1 197732036.172 1       469.787          41.000  
C 8  37407598.058 1 194791153.500 1       868.571          39.000  
C11  25912161.688 1 134931390.197 1      2118.608          38.000  
C 2  38025549.322 1 198008984.008 1       -74.233          40.000  
C13  38407427.130 1 199997556.667 1      1139.028          41.000  
C25  27105007.513 4 141142912.572 3      2938.024          29.000  
C 1  37712428.966 8 196378483.32723       -73.660          30.000  
C 5  40137974.506 1 209008932.758 1       -69.125          37.000  
C 6  40431092.305 4 210535306.676 4     -1446.167          27.000  
G17  24986577.921 4 131305377.866 2      1748.810          33.000  
> 2020  3 14  8 45  1.0030000  0 20                     
G 1  21229359.603 1 111561033.045 1      1072.271          42.000  
G 7  21351808.444 1 112204501.305 1       809.195          44.000  
G11  21478383.215 1 112869672.805 1     -1474.354          43.000  
G30  23110353.474 1 121445705.283 1      2497.812          44.000  
C 3  37166332.185 1 193534819.104 1       -60.241          41.000  
C12  22718899.856 1 118303253.624 1       -30.384          42.000  
C24  23159532.198 1 120597726.796 1      1331.211          47.000  
G 8  23377101.446 4 122847505.613 2     -2385.641          32.000  
C 7  36989320.213 1 192613067.935 1       441.161          41.000  
C26  22852355.876 2 118998221.530 1     -1443.718          33.000  
C10  37972272.481 1 197731566.892 1       469.134          41.000  
C 8  37407431.234 1 194790285.440 1       867.617          39.000  
C11  25911754.923 1 134929272.019 1      2117.666          38.000  
C 2  38025563.456 1 198009058.940 1       -75.271          40.000  
C13  38407208.513 1 199996418.183 1      1138.076          41.000  
C25  27104444.744 4 141139974.593 3      2937.927          28.000  
C 1  37712443.520 8 196378558.06724       -75.240          30.000  
C 5  40137987.734 1 209009002.040 1       -70.231          37.000  
C 6  40431369.659 4 210536753.383 4     -1446.680          27.000  
G17  24986245.110 4 131303629.694 2      1747.854          33.000  
> 2020  3 14  8 45  2.0030000  0 20                     
G 1  21229155.645 1 111559961.192 1      1071.092          42.000  
G 7  21351654.498 1 112203692.578 1       808.074          44.000  
G11  21478663.954 1 112871147.663 1     -1475.538          43.000  
G30  23109879.212 1 121443207.812 1      2496.776          44.000  
C 3  37166343.632 1 193534879.519 1       -60.899          41.000  
C12  22718905.650 1 118303284.509 1       -31.569          42.000  
C24  23159276.727 1 120596395.965 1      1330.258          47.000  
G 8  23377555.919 4 122849891.940 2     -2386.565          32.000  
C 7  36989235.649 1 192612627.120 1       440.426          41.000  
C26  22852633.264 2 118999665.613 1     -1444.955          33.000  
C10  37972182.507 1 197731097.946 1       468.405          41.000  
C 8  37407264.724 1 194789417.912 1       867.157          39.000  
C11  25911348.193 1 134927154.508 1      2116.811          39.000  
C 2  38025577.766 1 198009134.251 1       -76.249          40.000  
C13  38406989.932 1 199995280.175 1      1137.352          41.000  
C25  27103883.091 4 141137037.044 3      2937.060          28.000  
C 1  37712457.899 8 196378633.14923       -76.462          30.000  
C 5  40138000.786 2 209009071.653 1       -70.009          37.000  
C 6  40431645.652 4 210538200.398 4     -1447.180          26.000  
G17  24985912.404 2 131301882.176 1      1747.206          33.000  
> 2020  3 14  8 45  3.0030000  0 20                     
G 1  21228951.757 1 111558890.073 1      1070.830          42.000  
G 7  21351500.448 1 112202884.556 1       807.725          44.000  
G11  21478944.867 1 112872623.045 1     -1475.458          44.000  
G30  23109404.915 1 121440710.812 1      2496.857          44.000  
C 3  37166355.778 1 193534940.003 1       -60.676          41.000  
C12  22718911.373 1 118303315.825 1       -31.638          42.000  
C24  23159021.151 1 120595065.569 1      1330.160          47.000  
G 8  23378010.114 4 122852278.348 2     -2386.626          32.000  
C 7  36989151.120 1 192612186.351 1       440.651          41.000  
C26  22852910.653 4 119001110.196 2     -1445.068          33.000  
C10  37972092.499 1 197730629.004 1       468.826          41.000  
C 8  37407098.493 1 194788550.630 1       867.363          39.000  
C11  25910941.394 1 134925037.324 1      2117.578          39.000  
C 2  38025592.179 1 198009209.570 1       -75.525          40.000  
C13  38406771.281 1 199994142.328 1      1137.906          41.000  
C25  27103315.261 4 141134099.574 2      2937.843          29.000  
C 1  37712472.383 8 196378708.22224       -74.786          30.000  
C 5  40138014.258 2 209009141.362 1       -69.302          37.000  
C 6  40431924.646 4 210539647.407 4     -1447.145          26.000  
G17  24985579.733 4 131300135.041 2      1746.496          33.000  
> 2020  3 14  8 45  4.0030000  0 20                     
G 1  21228748.183 1 111557819.617 1      1070.030          42.000  
G 7  21351346.956 1 112202077.149 1       807.216          44.000  
G11  21479225.851 1 112874098.897 1     -1476.050          44.000  
G30  23108930.513 1 121438214.184 1      2496.323          44.000  
C 3  37166367.574 1 193535000.430 1       -60.353          41.000  
C12  22718917.376 1 118303347.507 1       -31.786          42.000  
C24  23158765.820 1 120593735.522 1      1329.909          47.000  
G 8  23378464.413 4 122854664.674 2     -2386.211          32.000  
C 7  36989066.487 1 192611745.504 1       441.203          41.000  
C26  22853188.042 4 119002555.194 2     -1445.165          33.000  
C10  37972002.351 1 197730159.938 1       469.346          41.000  
C 8  37406932.088 1 194787683.514 1       867.219          39.000  
C11  25910534.699 1 134922920.443 1      2116.568          39.000  
C 2  38025606.489 1 198009284.891 1       -75.418          40.000  
C13  38406552.699 1 199993004.588 1      1137.737          41.000  
C25  27102752.352 4 141131162.076 2      2937.386          29.000  
C 1  37712486.901 8 196378783.35724       -74.926          30.000  
C 5  40138027.939 1 209009211.078 1       -69.671          37.000  
C 6  40432201.371 4 210541094.216 4     -1446.359          27.000  
G17  24985246.923 4 131298388.074 2      1747.095          34.000  
> 2020  3 14  8 45  5.0030000  0 20                     
G 1  21228544.504 1 111556749.944 1      1069.390          42.000  
G 7  21351193.429 1 112201270.487 1       806.349          44.000  
G11  21479506.590 1 112875575.329 1     -1476.554          44.000  
G30  23108456.007 1 121435718.070 1      2495.945          45.000  
C 3  37166378.987 1 193535060.986 1       -60.579          41.000  
C12  22718923.309 1 118303379.659 1       -32.288          42.000  
C24  23158510.279 1 120592405.944 1      1329.488          47.000  
G 8  23378918.502 2 122857051.127 1     -2386.448          32.000  
C 7  36988981.678 1 192611304.779 1       440.619          41.000  
C26  22853465.570 4 119004000.735 2     -1445.866          33.000  
C10  37971912.238 1 197729690.947 1       469.088          41.000  
C 8  37406765.508 1 194786816.656 1       867.130          39.000  
C11  25910128.144 1 134920803.915 1      2116.165          39.000  
C 2  38025621.286 1 198009360.293 1       -75.083          40.000  
C13  38406334.188 1 199991867.111 1      1137.334          41.000  
C25  27102186.406 2 141128224.735 2      2937.062          29.000  
C 1  37712501.455 8 196378858.53924       -74.680          30.000  
C 5  40138041.236 2 209009280.863 1       -69.877          37.000  
C 6  40432479.144 4 210542541.072 3     -1446.786          27.000  
G17  24984914.531 2 131296641.553 1      1745.911          33.000  
> 2020  3 14  8 45  6.0030000  0 20                     
G 1  21228340.895 1 111555680.836 1      1068.756          42.000  
G 7  21351040.146 1 112200464.353 1       805.851          44.000  
G11  21479787.992 1 112877052.156 1     -1477.226          44.000  
G30  23107981.745 1 121433222.250 1      2495.800          45.000  
C 3  37166390.957 1 193535121.441 1       -60.472          41.000  
C12  22718929.417 1 118303412.105 1       -32.838          42.000  
C24  23158254.738 1 120591076.651 1      1329.104          47.000  
G 8  23379372.906 2 122859437.417 1     -2385.616          32.000  
C 7  36988897.185 1 192610863.906 1       440.853          41.000  
C26  22853743.133 4 119005446.592 2     -1445.830          33.000  
C10  37971822.091 1 197729221.778 1       469.299          41.000  
C 8  37406598.893 1 194785949.893 1       866.552          39.000  
C11  25909721.589 1 134918687.546 1      2116.425          39.000  
C 2  38025635.700 1 198009435.619 1       -75.389          40.000  
C13  38406115.816 1 199990729.617 1      1137.424          41.000  
C25  27101623.148 4 141125287.255 3      2937.636          28.000  
C 1  37712515.973 8 196378933.68224       -75.407          30.000  
C 5  40138054.952 1 209009350.572 1       -70.085          37.000  
C 6  40432757.475 4 210543987.734 3     -1446.363          26.000  
G17  24984582.453 4 131294895.180 2      1745.660          34.000  
> 2020  3 14  8 45  7.0030000  0 20                     
G 1  21228137.599 1 111554612.359 1      1068.024          42.000  
G 7  21350886.829 1 112199658.808 1       805.142          44.000  
G11  21480069.080 1 112878529.389 1     -1477.603          44.000  
G30  23107507.308 1 121430726.798 1      2495.159          45.000  
C 3  37166402.544 1 193535181.840 1       -60.604          41.000  
C12  22718935.769 1 118303444.850 1       -33.032          42.000  
C24  23157999.580 1 120589747.661 1      1328.987          47.000  
G 8  23379827.310 4 122861823.709 2     -2386.160          33.000  
C 7  36988812.760 1 192610422.968 1       441.032          41.000  
C26  22854020.871 2 119006892.875 1     -1446.878          34.000  
C10  37971731.978 1 197728752.502 1       469.385          41.000  
C 8  37406432.488 1 194785083.237 1       866.461          39.000  
C11  25909315.208 1 134916571.426 1      2116.035          38.000  
C 2  38025650.463 1 198009510.844 1       -75.146          40.000  
C13  38405897.374 1 199989592.206 1      1137.229          41.000  
C25  27101059.122 4 141122349.732 3      2937.720          28.000  
C 1  37712530.666 9               6       -74.759          30.000  
C 5  40138068.249 1 209009420.188 1       -69.844          37.000  
C 6  40433034.480 4 210545434.152 4     -1445.856          27.000  
G17  24984250.341 4 131293148.967 2      1746.299          34.000  
> 2020  3 14  8 45  8.0030000  0 20                     
G 1  21227934.758 1 111553544.605 1      1067.432          42.000  
G 7  21350733.965 1 112198853.949 1       804.558          44.000  
G11  21480350.483 1 112880007.176 1     -1477.996          44.000  
G30  23107032.663 1 121428231.787 1      2494.994          45.000  
C 3  37166413.643 1 193535242.302 1       -60.345          41.000  
C12  22718941.946 1 118303478.054 1       -33.503          42.000  
C24  23157744.528 1 120588419.121 1      1328.488          47.000  
G 8  23380281.574 4 122864210.061 2     -2386.852          33.000  
C 7  36988728.092 1 192609982.051 1       441.289          41.000  
C26  22854298.643 2 119008339.635 2     -1447.057          34.000  
C10  37971641.760 1 197728283.251 1       469.227          41.000  
C 8  37406266.013 1 194784216.820 1       866.028          39.000  
C11  25908908.793 1 134914455.656 1      2115.459          39.000  
C 2  38025664.947 1 198009586.173 1       -75.460          41.000  
C13  38405678.932 1 199988454.953 1      1137.109          41.000  
C25  27100492.793 4 141119412.379 3      2937.038          28.000  
C 1  37712545.080 9               9       -74.316          30.000  
C 5  40138081.581 1 209009489.874 1       -69.712          37.000  
C 6  40433312.845 4 210546880.648 4     -1445.945          27.000  
G17  24983918.124 2 131291403.130 1      1745.847          34.000  
> 2020  3 14  8 45  9.0030000  0 21                     
G 1  21227731.812 1 111552477.539 1      1066.953          42.000  
G 7  21350580.996 1 112198049.741 1       804.058          44.000  
G11  21480631.710 1 112881485.448 1     -1478.259          44.000  
G30  23106558.086 1 121425737.211 1      2494.653          45.000  
C 3  37166425.369 1 193535302.787 1       -60.623          41.000  
C12  22718948.368 1 118303511.640 1       -33.927          42.000  
C24  23157489.860 1 120587090.965 1      1328.115          47.000  
G 8  23380736.431 2 122866596.387 2     -2386.723          33.000  
C 7  36988643.319 1 192609541.163 1       440.764          41.000  
C26  22854576.939 2 119009786.855 2     -1447.436          34.000  
C10  37971551.682 1 197727813.912 1       469.721          41.000  
C 8  37406099.712 1 194783350.561 1       866.443          39.000  
C11  25908502.447 1 134912340.183 1      2115.053          38.000  
C 4  39240747.585 9               9       -65.625          27.000  
C 2  38025679.291 1 198009661.489 1       -75.207          40.000  
C13  38405460.490 1 199987317.831 1      1137.267          41.000  
C25  27099929.395 2 141116474.982 3      2937.322          28.000  
C 1  37712558.866 9 196379158.52235       -74.633          30.000  
C 5  40138095.052 1 209009559.578 1       -69.437          37.000  
C 6  40433590.932 4 210548326.977 3     -1446.210          27.000  
G17  24983586.290 2 131289657.579 1      1746.448          34.000  
> 2020  3 14  8 45 10.0030000  0 21                     
G 1  21227529.006 1 111551410.519 1      1066.755          42.000  
G 7  21350428.097 1 112197245.517 1       804.113          45.000  
G11  21480912.868 1 112882963.547 1     -1478.250          44.000  
G30  23106083.301 1 121423242.374 1      2494.729          45.000  
C 3  37166437.026 1 193535362.607 1       -59.747          41.000  
C12  22718954.929 1 118303544.956 1       -33.415          42.000  
C24  23157234.563 1 120585762.538 1      1328.210          47.000  
G 8  23381190.835 2 122868982.021 1     -2385.587          33.000  
C 7  36988558.546 1 192609099.589 1       441.564          41.000  
C26  22854854.503 2 119011233.844 1     -1447.076          34.000  
C10  37971461.499 1 197727343.904 1       470.219          41.000  
C 8  37405933.412 1 194782483.845 1       866.558          39.000  
C11  25908095.927 1 134910224.305 1      2115.984          38.000  
C 4  39240758.509 9               9       -67.432          27.000  
C 2  38025693.705 1 198009736.175 1       -74.780          41.000  
C13  38405241.944 1 199986180.178 1      1137.375          41.000  
C25  27099364.462 4 141113536.933 3      2938.241          28.000  
C 1  37712573.419 8 196379233.03324       -74.503          30.000  
C 5  40138108.140 2 209009628.653 1       -69.005          37.000  
C 6  40433869.089 4 210549772.572 3     -1445.196          27.000  
G17  24983254.283 2 131287911.674 1      1745.791          34.000  
> 2020  3 14  8 45 11.0030000  0 21                     
G 1  21227326.164 1 111550344.468 1      1065.032          42.000  
G 7  21350275.443 1 112196442.238 1       802.322          45.000  
G11  21481194.305 1 112884442.439 1     -1479.666          44.000  
G30  23105608.795 1 121420748.237 1      2493.342          45.000  
C 3  37166448.334 1 193535422.715 1       -60.534          41.000  
C12  22718961.455 1 118303578.949 1       -34.926          42.000  
C24  23156979.650 1 120584434.762 1      1326.898          47.000  
G 8  23381645.308 2 122871368.009 1     -2386.975          33.000  
C 7  36988473.493 1 192608658.278 1       440.760          41.000  
C26  22855132.485 4 119012681.589 2     -1448.901          34.000  
C10  37971371.282 1 197726874.130 1       469.055          41.000  
C 8  37405767.076 1 194781617.586 1       865.442          39.000  
C11  25907689.546 1 134908109.061 1      2114.588          38.000  
C 4  39240775.331 9               9       -80.273          27.000  
C 2  38025708.014 1 198009811.144 1       -75.554          40.000  
C13  38405023.572 1 199985042.930 1      1136.571          40.000  
C25  27098800.436 2 141110599.192 2      2937.535          28.000  
C 1  37712587.833 9               7       -78.945          30.000  
C 5  40138121.577 2 209009698.004 1       -70.117          37.000  
C 6  40434145.744 4 210551218.399 3     -1446.284          27.000  
G17  24982922.449 2 131286166.321 1      1744.511          34.000  
> 2020  3 14  8 45 12.0030000  0 21                     
G 1  21227123.602 1 111549279.740 1      1064.150          42.000  
G 7  21350123.032 1 112195640.242 1       801.378          45.000  
G11  21481475.952 1 112885922.479 1     -1480.752          44.000  
G30  23105134.393 1 121418255.165 1      2492.451          45.000  
C 3  37166459.816 1 193535483.491 1       -61.139          41.000  
C12  22718968.087 1 118303613.975 1       -35.831          42.000  
C24  23156724.947 1 120583108.022 1      1326.194          47.000  
G 8  23382099.921 2 122873754.618 2     -2387.095          34.000  
C 7  36988388.964 1 192608217.603 1       440.358          41.000  
C26  22855410.536 2 119014130.427 1     -1449.720          35.000  
C10  37971281.099 1 197726404.922 1       469.269          41.000  
C 8  37405600.846 1 194780752.148 1       865.378          38.000  
C11  25907283.235 1 134905994.728 1      2113.625          38.000  
C 4  39240785.207 9               9       -61.426          27.000  
C 2  38025722.498 1 198009886.766 1       -75.756          40.000  
C13  38404805.165 1 199983906.449 1      1136.202          40.000  
C25  27098235.258 4 141107662.142 3      2936.789          27.000  
C 1  37712602.526 8 196379385.26234       -76.624          30.000  
C 5  40138135.293 1 209009768.002 1       -70.762          37.000  
C 6  40434423.273 4 210552664.783 3     -1447.238          27.000  
G17  24982590.965 2 131284421.868 1      1743.904          34.000  
> 2020  3 14  8 45 13.0030000  0 21                     
G 1  21226921.145 1 111548215.885 1      1063.849          42.000  
G 7  21349970.518 1 112194839.067 1       801.054          45.000  
G11  21481757.703 1 112887403.152 1     -1480.788          44.000  
G30  23104660.061 1 121415762.680 1      2492.487          45.000  
C 3  37166471.857 1 193535544.435 1       -60.596          41.000  
C12  22718975.067 1 118303649.530 1       -35.518          42.000  
C24  23156470.104 1 120581781.838 1      1326.225          47.000  
G 8  23382554.395 2 122876141.439 1     -2386.654          34.000  
C 7  36988304.366 1 192607777.079 1       440.780          41.000  
C26  22855688.972 2 119015579.885 1     -1450.054          34.000  
C10  37971190.846 1 197725935.877 1       469.443          41.000  
C 8  37405434.754 1 194779887.080 1       865.576          38.000  
C11  25906877.099 1 134903880.855 1      2113.581          38.000  
C 4  39240800.494 9               9       -59.961          27.000  
C 2  38025737.400 1 198009962.558 1       -75.588          40.000  
C13  38404587.037 1 199982770.288 1      1136.427          41.000  
C25  27097669.871 4 141104725.319 4      2936.962          27.000  
C 1  37712617.010 8 196379460.84224       -75.759          30.000  
C 5  40138148.520 2 209009838.171 1       -69.875          37.000  
C 6  40434701.324 4 210554111.151 3     -1446.040          27.000  
G17  24982259.446 2 131282677.895 1      1744.092          35.000  
> 2020  3 14  8 45 14.0030000  0 20                     
G 1  21226719.001 1 111547152.659 1      1062.442          40.000  
G 7  21349818.387 1 112194038.474 1       799.973          43.000  
G11  21482039.384 1 112888884.270 1     -1481.828          42.000  
G30  23104185.799 1 121413270.539 1      2491.600          42.000  
C 3  37166483.339 1 193535605.327 1       -60.887          39.000  
C12  22718981.698 1 118303685.438 1       -36.321          40.000  
C24  23156215.505 1 120580455.974 1      1325.288          45.000  
G 8  23383012.742 4 122878528.162 2     -2386.980          32.000  
C 7  36988219.837 1 192607336.498 1       440.317          39.000  
C26  22855967.687 4 119017029.682 2     -1450.396          31.000  
C10  37971100.908 1 197725466.694 1       469.262          38.000  
C 8  37405268.489 2 194779022.171 1       864.484          36.000  
C11  25906471.172 2 134901767.196 1      2113.026          36.000  
C 2  38025751.744 1 198010038.295 1       -75.964          38.000  
C13  38404369.014 1 199981634.180 1      1135.708          38.000  
C25  27097106.264 4 141101788.445 5      2936.853          26.000  
C 1  37712632.227 9               7       -79.238          28.000  
C 5  40138161.922 2 209009908.266 1       -70.092          35.000  
C 6  40434978.224 4 210555557.414 4     -1446.115          25.000  
G17  24981927.787 4 131280934.097 2      1744.062          33.000  
> 2020  3 14  8 45 15.0030000  0 20                     
G 1  21226516.823 1 111546090.642 1      1061.686          42.000  
G 7  21349666.430 1 112193239.048 1       799.086          45.000  
G11  21482321.240 1 112890366.398 1     -1482.649          44.000  
G30  23103711.328 1 121410779.333 1      2490.969          44.000  
C 3  37166494.891 1 193535666.781 1       -61.840          39.000  
C12  22718988.782 1 118303722.262 1       -37.325          40.000  
C24  23155961.221 1 120579131.003 1      1324.810          45.000  
G 8  23383466.971 4 122880915.398 2     -2387.002          35.000  
C 7  36988135.413 1 192606896.423 1       440.157          39.000  
C26  22856246.437 4 119018480.498 2     -1451.406          32.000  
C10  37971010.970 1 197724997.996 1       468.671          39.000  
C 8  37405102.293 2 194778157.933 1       863.940          36.000  
C11  25906065.594 2 134899654.348 1      2112.871          35.000  
C 2  38025766.333 1 198010114.605 1       -77.088          38.000  
C13  38404150.747 2 199980498.736 1      1135.354          38.000  
C25  27096542.203 4 141098852.141 5      2935.930          25.000  
C 1  37712645.628 9               9       -47.461          28.000  
C 5  40138175.428 2 209009978.931 1       -70.389          35.000  
C 6  40435257.393 4 210557004.138 5     -1446.935          25.000  
G17  24981596.198 4 131279191.220 2      1741.978          36.000  
> 2020  3 14  8 45 16.0030000  0 20                     
G 1  21226314.889 1 111545029.456 1      1060.916          43.000  
G 7  21349514.474 1 112192440.419 1       798.338          45.000  
G11  21482603.410 1 112891849.159 1     -1483.083          44.000  
G30  23103236.787 1 121408288.696 1      2490.448          44.000  
C 3  37166506.862 1 193535728.362 1       -61.782          39.000  
C12  22718995.902 1 118303759.595 1       -37.356          40.000  
C24  23155706.796 1 120577806.568 1      1324.264          45.000  
G 8  23383921.829 4 122883302.799 2     -2386.958          35.000  
C 7  36988050.919 1 192606456.484 1       440.229          39.000  
C26  22856525.117 4 119019931.850 2     -1451.213          32.000  
C10  37970921.066 1 197724529.385 1       468.664          39.000  
C 8  37404936.516 2 194777294.026 1       863.467          36.000  
C11  25905659.946 2 134897541.946 1      2112.396          35.000  
C 2  38025780.781 1 198010190.964 1       -76.293          38.000  
C13  38403932.933 1 199979363.540 1      1135.251          38.000  
C25  27095975.036 4 141095915.926 5      2936.833          24.000  
C 1  37712660.705 9               9       -79.150          28.000  
C 5  40138188.655 2 209010049.746 1       -70.998          35.000  
C 6  40435534.677 8 210558450.827 5     -1445.970          25.000  
G17  24981264.609 4 131277448.655 2      1742.438          35.000  
> 2020  3 14  8 45 17.0030000  0 21                     
G 1  21226113.165 1 111543968.878 1      1060.386          42.000  
G 7  21349362.796 1 112191642.390 1       797.858          44.000  
G11  21482885.650 1 112893332.354 1     -1483.164          43.000  
G30  23102762.420 1 121405798.435 1      2490.493          43.000  
C 3  37166518.763 1 193535789.897 1       -61.292          39.000  
C12  22719003.266 1 118303797.270 1       -37.588          40.000  
C 4  39240851.309 9               9       -48.486          27.000  
C24  23155452.302 1 120576482.466 1      1324.451          45.000  
G 8  23384374.348 4 122885690.147 2     -2386.777          33.000  
C 7  36987966.564 1 192606016.497 1       440.174          39.000  
C26  22856804.006 4 119021383.664 2     -1452.415          32.000  
C10  37970830.918 1 197724060.677 1       468.993          39.000  
C 8  37404770.529 2 194776430.203 1       863.914          36.000  
C11  25905254.124 2 134895429.795 1      2111.989          35.000  
C 2  38025795.474 2 198010267.366 1       -76.158          38.000  
C13  38403714.735 1 199978228.426 1      1135.286          38.000  
C25  27095412.022 8 141092979.754 5      2936.100          25.000  
C 1  37712674.456 9               9       -77.393          28.000  
C 5  40138202.301 2 209010120.514 1       -70.990          35.000  
C 6  40435811.751 9               9     -1446.158          25.000  
G17  24980933.089 4 131275706.358 2      1742.340          35.000  
> 2020  3 14  8 45 18.0030000  0 21                     
G 1  21225911.266 1 111542908.782 1      1059.791          42.000  
G 7  21349210.875 1 112190844.755 1       797.361          44.000  
G11  21483168.204 1 112894815.814 1     -1483.656          43.000  
G30  23102287.913 1 121403308.359 1      2489.725          43.000  
C 3  37166530.524 1 193535851.211 1       -61.345          39.000  
C12  22719010.770 1 118303835.099 1       -38.010          40.000  
C 4  39240864.536 9               9       -69.385          27.000  
C24  23155197.983 1 120575158.526 1      1323.911          45.000  
G 8  23384830.043 4 122888077.297 2     -2387.060          33.000  
C 7  36987882.036 1 192605576.256 1       440.214          39.000  
C26  22857082.930 4 119022835.638 2     -1451.983          32.000  
C10  37970740.805 1 197723591.718 1       468.778          39.000  
C 8  37404604.543 2 194775566.370 1       863.798          36.000  
C11  25904848.511 2 134893317.679 1      2111.676          35.000  
C 2  38025810.063 1 198010343.505 1       -75.804          38.000  
C13  38403496.852 1 199977093.207 1      1135.029          38.000  
C25  27094844.436 9               9      2937.435          24.000  
C 1  37712688.102 9               9       -77.246          28.000  
C 5  40138215.878 2 209010191.029 2       -70.973          35.000  
C 6  40436091.444 9               9     -1446.215          25.000  
G17  24980601.780 4 131273964.097 2      1742.369          35.000  
> 2020  3 14  8 45 19.0030000  0 21                     
G 1  21225709.541 1 111541849.175 1      1059.417          42.000  
G 7  21349059.058 1 112190047.590 1       797.256          44.000  
G11  21483450.584 1 112896299.570 1     -1483.857          43.000  
G30  23101813.547 1 121400818.477 1      2489.998          42.000  
C 3  37166542.565 1 193535912.364 1       -60.978          39.000  
C12  22719017.889 1 118303873.131 1       -37.915          40.000  
C 4  39240877.589 9               9       -34.619          27.000  
C24  23154943.733 1 120573834.783 1      1323.662          45.000  
G 8  23385284.761 8 122890464.217 3     -2386.531          33.000  
C 7  36987797.437 1 192605135.815 1       440.667          39.000  
C26  22857362.169 4 119024287.944 2     -1453.218          33.000  
C10  37970650.937 1 197723122.491 1       469.456          39.000  
C 8  37404438.766 2 194774702.525 1       864.180          36.000  
C11  25904442.758 2 134891205.697 1      2111.602          35.000  
C 2  38025824.581 1 198010419.483 1       -75.963          38.000  
C13  38403278.864 1 199975957.919 1      1135.466          38.000  
C25  27094278.421 9               9      2936.528          23.000  
C 1  37712702.760 9               9       -74.170          28.000  
C 5  40138229.314 2 209010261.371 1       -70.027          35.000  
C 6  40436367.122 9               9     -1447.183          25.000  
G17  24980270.714 4 131272221.946 2      1742.181          35.000  
> 2020  3 14  8 45 20.0030000  0 21                     
G 1  21225508.061 1 111540789.860 1      1059.431          41.000  
G 7  21348907.485 1 112189250.671 1       797.144          44.000  
G11  21483732.893 1 112897783.429 1     -1483.723          43.000  
G30  23101339.215 1 121398328.646 1      2489.992          42.000  
C 3  37166554.047 1 193535973.123 1       -60.794          39.000  
C12  22719025.009 1 118303911.167 1       -37.684          40.000  
C 4  39240876.053 9               9        52.539          27.000  
C24  23154689.623 1 120572511.009 1      1324.032          45.000  
G 8  23385736.965 8 122892850.818 3     -2386.831          32.000  
C 7  36987712.768 1 192604694.987 1       440.902          39.000  
C26  22857641.267 4 119025740.247 2     -1452.820          33.000  
C10  37970560.684 1 197722652.815 1       470.462          39.000  
C 8  37404272.814 2 194773838.517 1       864.168          36.000  
C11  25904036.866 2 134889093.558 1      2112.570          35.000  
C 2  38025839.065 1 198010495.033 1       -75.045          38.000  
C13  38403060.771 1 199974822.360 1      1135.906          38.000  
C25  27093713.837 9               9      2939.354          23.000  
C 1  37712716.790 9               7       -75.090          28.000  
C 5  40138243.030 2 209010331.320 1       -69.338          35.000  
C 6  40436646.326 9               9     -1444.127          25.000  
G17  24979939.579 2 131270479.666 1      1742.162          34.000  
> 2020  3 14  8 45 21.0030000  0 20                     
G 1  21225306.267 1 111539730.535 1      1058.654          41.000  
G 7  21348755.808 1 112188453.704 1       796.445          44.000  
G11  21484014.924 1 112899267.091 1     -1484.478          43.000  
G30  23100864.569 1 121395838.521 1      2489.398          41.000  
C 3  37166565.250 1 193536033.190 1       -60.698          39.000  
C12  22719032.338 1 118303948.891 1       -38.378          40.000  
C24  23154435.024 1 120571186.942 1      1323.744          45.000  
G 8  23386194.196 8 122895236.625 2     -2386.191          32.000  
C 7  36987627.891 1 192604253.403 1       441.554          39.000  
C26  22857919.982 4 119027192.291 2     -1452.458          33.000  
C10  37970470.571 1 197722182.440 1       469.975          39.000  
C 8  37404106.479 2 194772973.973 1       863.721          36.000  
C11  25903630.765 2 134886981.083 1      2111.647          35.000  
C 2  38025853.444 1 198010569.930 1       -75.196          38.000  
C13  38402842.504 1 199973686.255 1      1135.729          38.000  
C25  27093147.647 9               9      2939.825          22.000  
C 1  37712731.344 9               9       -77.783          29.000  
C 5  40138256.572 2 209010400.612 1       -69.554          35.000  
C 6  40436922.493 9               9     -1444.157          25.000  
G17  24979608.304 4 131268737.003 2      1741.510          35.000  
> 2020  3 14  8 45 22.0030000  0 20                     
G 1  21225105.136 1 111538672.539 1      1057.425          41.000  
G 7  21348604.375 1 112187658.038 1       794.843          44.000  
G11  21484297.547 1 112900751.872 1     -1485.515          42.000  
G30  23100390.237 1 121393349.438 1      2488.439          41.000  
C 3  37166577.012 1 193536093.903 1       -61.135          39.000  
C12  22719039.981 1 118303987.635 1       -39.386          40.000  
C24  23154181.054 1 120569863.901 1      1322.319          45.000  
G 8  23386645.110 4 122897623.046 2     -2385.897          32.000  
C 7  36987543.152 1 192603812.470 1       440.750          39.000  
C26  22858198.976 4 119028645.437 2     -1453.585          32.000  
C10  37970380.528 1 197721712.626 1       469.365          39.000  
C 8  37403940.737 2 194772110.211 1       863.374          36.000  
C11  25903225.152 2 134884869.503 1      2110.992          35.000  
C 2  38025867.788 2 198010645.471 1       -76.203          38.000  
C13  38402624.585 1 199972550.895 1      1134.888          38.000  
C25  27092584.633 9               9      2936.107          23.000  
C 1  37712745.967 9               6       -75.022          28.000  
C 5  40138269.939 2 209010470.557 1       -70.392          35.000  
C 6  40437200.754 9               9     -1445.876          25.000  
G17  24979276.854 4 131266995.199 2      1741.202          34.000  
> 2020  3 14  8 45 23.0030000  0 20                     
G 1  21224903.865 1 111537615.523 1      1056.449          41.000  
G 7  21348453.291 1 112186863.292 1       794.334          44.000  
G11  21484580.311 1 112902237.434 1     -1485.977          43.000  
G30  23099916.115 1 121390861.076 1      2488.019          41.000  
C 3  37166588.703 1 193536154.914 1       -61.219          39.000  
C12  22719047.450 1 118304027.071 1       -40.156          40.000  
C24  23153926.804 1 120568541.517 1      1322.182          45.000  
G 8  23387097.454 4 122900009.862 2     -2387.078          32.000  
C 7  36987458.693 1 192603371.810 1       440.859          39.000  
C26  22858478.005 4 119030099.315 2     -1454.319          32.000  
C10  37970290.241 1 197721243.052 1       469.272          39.000  
C 8  37403774.960 2 194771246.927 1       862.918          36.000  
C11  25902819.679 2 134882758.515 1      2110.369          34.000  
C 2  38025882.691 1 198010721.311 1       -75.683          38.000  
C13  38402406.562 1 199971415.941 1      1134.768          38.000  
C25  27092022.457 9               9      2938.828          23.000  
C 1  37712760.765 9               6       -74.010          28.000  
C 5  40138283.654 2 209010540.754 1       -70.332          35.000  
C 6  40437478.457 9               9     -1445.522          25.000  
G17  24978945.614 2 131265253.974 1      1741.127          35.000  
> 2020  3 14  8 45 24.0030000  0 19                     
G 1  21224702.838 1 111536559.030 1      1056.175          41.000  
G 7  21348302.102 1 112186069.022 1       794.170          44.000  
G11  21484862.969 1 112903723.319 1     -1485.988          43.000  
G30  23099441.992 1 121388372.961 1      2487.993          40.000  
C 3  37166600.325 1 193536215.792 1       -60.964          39.000  
C12  22719055.024 1 118304066.692 1       -39.561          40.000  
C24  23153672.799 1 120567219.367 1      1321.992          45.000  
G 8  23387551.544 4 122902396.452 2     -2386.362          32.000  
C 7  36987373.955 1 192602931.008 1       440.627          39.000  
C26  22858757.209 4 119031553.487 2     -1453.808          32.000  
C10  37970199.988 1 197720773.277 1       469.952          39.000  
C 8  37403609.113 2 194770383.649 1       863.090          36.000  
C11  25902414.101 4 134880647.620 2      2111.514          34.000  
C 2  38025896.930 2 198010797.007 1       -75.729          38.000  
C13  38402188.574 1 199970280.988 1      1135.303          38.000  
C 1  37712775.598 9               9       -75.439          28.000  
C 5  40138297.300 2 209010610.826 1       -69.644          35.000  
C 6  40437754.380 9               9     -1444.025          25.000  
G17  24978614.723 2 131263512.902 1      1741.172          35.000  
> 2020  3 14  8 45 25.0030000  0 20                     
G 1  21224501.812 1 111535503.161 1      1055.124          41.000  
G 7  21348150.844 1 112185275.344 1       793.279          44.000  
G11  21485145.733 1 112905209.612 1     -1486.548          43.000  
G30  23098968.079 1 121385885.187 1      2487.250          40.000  
C 3  37166612.156 1 193536276.589 1       -60.901          39.000  
C12  22719062.562 1 118304106.651 1       -40.210          40.000  
C24  23153418.968 1 120565897.519 1      1321.387          45.000  
G 8  23388008.181 4 122904782.923 2     -2386.576          32.000  
C 7  36987289.601 1 192602490.099 1       440.630          39.000  
C26  22859036.482 4 119033008.033 2     -1454.181          32.000  
C10  37970109.736 1 197720303.353 1       469.863          39.000  
C 8  37403443.336 2 194769520.503 1       863.097          36.000  
C11  25902008.523 2 134878537.003 1      2110.061          34.000  
C 2  38025911.623 1 198010872.608 1       -75.774          38.000  
C13  38401970.481 2 199969146.069 1      1134.659          37.000  
C25  27090891.090 9               9      2938.474          22.000  
C 1  37712790.360 9 196380364.05535       -75.789          28.000  
C 5  40138310.981 2 209010680.844 1       -70.260          35.000  
C 6  40438032.047 9               9     -1444.364          24.000  
G17  24978284.042 4 131261772.046 2      1740.010          35.000  
> 2020  3 14  8 45 26.0030000  0 20                     
G 1  21224300.820 1 111534448.072 1      1054.729          41.000  
G 7  21348000.074 1 112184482.421 1       792.664          43.000  
G11  21485428.566 1 112906696.526 1     -1487.325          42.000  
G30  23098494.027 1 121383397.932 1      2487.186          39.000  
C 3  37166623.883 1 193536337.490 1       -60.775          39.000  
C12  22719070.415 1 118304147.122 1       -40.710          40.000  
C24  23153165.312 1 120564576.152 1      1321.299          45.000  
G 8  23388462.271 4 122907169.568 2     -2386.531          32.000  
C 7  36987204.897 1 192602049.285 1       440.433          39.000  
C26  22859316.000 4 119034463.134 2     -1455.029          32.000  
C10  37970019.344 1 197719833.492 1       469.944          39.000  
C 8  37403277.489 2 194768657.655 1       863.048          36.000  
C11  25901602.945 2 134876426.687 1      2110.793          34.000  
C 2  38025926.351 1 198010948.343 1       -75.800          38.000  
C13  38401752.423 2 199968011.366 1      1134.347          38.000  
C25  27090328.530 9               9      2940.195          22.000  
C 1  37712804.879 9               9       -68.994          28.000  
C 5  40138324.453 2 209010750.944 1       -70.143          35.000  
C 6  40438308.982 9               9     -1444.684          25.000  
G17  24977953.220 2 131260031.509 1      1740.842          34.000  
> 2020  3 14  8 45 27.0030000  0 20                     
G 1  21224100.247 1 111533393.593 1      1054.118          41.000  
G 7  21347849.409 1 112183690.057 1       791.935          43.000  
G11  21485711.818 1 112908183.812 1     -1487.519          42.000  
G30  23098020.009 1 121380911.012 1      2486.824          39.000  
C 3  37166635.365 1 193536398.346 1       -60.824          39.000  
C12  22719078.337 1 118304187.854 1       -40.947          40.000  
C24  23152911.655 1 120563255.091 1      1320.844          45.000  
G 8  23388916.046 4 122909556.118 2     -2386.862          31.000  
C 7  36987120.054 1 192601608.354 1       441.085          39.000  
C26  22859595.587 4 119035918.595 2     -1455.956          33.000  
C10  37969928.986 1 197719363.509 1       470.144          39.000  
C 8  37403111.537 2 194767794.916 1       862.731          36.000  
C11  25901197.262 4 134874316.654 2      2110.102          34.000  
C 2  38025940.590 1 198011024.002 1       -75.660          38.000  
C13  38401534.331 1 199966876.714 1      1134.471          37.000  
C25  27089765.236 9               9      2954.444          23.000  
C 1  37712819.363 9               9       -85.840          29.000  
C 5  40138337.750 2 209010820.997 1       -70.585          35.000  
C 6  40438585.045 9               9     -1444.590          24.000  
G17  24977622.120 4 131258291.278 2      1739.227          35.000  
> 2020  3 14  8 45 28.0030000  0 19                     
G 1  21223899.709 1 111532339.784 1      1053.450          41.000  
G 7  21347698.639 1 112182898.333 1       791.350          44.000  
G11  21485995.139 1 112909671.591 1     -1488.272          43.000  
G30  23097546.340 1 121378424.486 1      2486.580          40.000  
C 3  37166646.952 1 193536459.188 1       -60.677          39.000  
C12  22719086.329 1 118304228.983 1       -41.540          40.000  
C24  23152657.964 1 120561934.404 1      1320.577          45.000  
G 8  23389370.310 4 122911942.659 2     -2387.258          32.000  
C 7  36987035.525 1 192601167.416 1       440.579          39.000  
C26  22859875.209 4 119037374.497 2     -1456.001          34.000  
C10  37969838.804 1 197718893.456 1       470.271          39.000  
C 8  37402945.970 2 194766932.386 1       861.887          35.000  
C11  25900791.475 4 134872206.946 2      2109.564          33.000  
C 2  38025955.353 1 198011099.668 1       -75.618          38.000  
C13  38401316.308 1 199965742.180 1      1134.536          38.000  
C 1  37712834.300 9               9       -76.953          29.000  
C 5  40138351.222 2 209010891.013 1       -70.009          35.000  
C 6  40438861.910 9               9     -1445.331          25.000  
G17  24977291.229 4 131256551.226 2      1739.834          35.000  
> 2020  3 14  8 45 29.0030000  0 20                     
G 1  21223699.346 1 111531286.512 1      1053.066          40.000  
G 7  21347548.113 1 112182107.109 1       790.874          43.000  
G11  21486278.077 1 112911159.704 1     -1488.559          42.000  
G30  23097073.125 1 121375938.237 1      2486.115          40.000  
C 3  37166658.783 1 193536519.917 1       -60.962          38.000  
C12  22719094.356 1 118304270.347 1       -41.500          40.000  
C24  23152404.098 1 120560613.965 1      1320.090          44.000  
G 8  23389824.504 4 122914328.998 2     -2385.445          32.000  
C 7  36986950.368 1 192600726.305 1       441.026          39.000  
C26  22860154.657 4 119038830.721 2     -1456.501          33.000  
C10  37969748.481 1 197718423.212 1       470.207          39.000  
C 8  37402780.192 2 194766069.812 1       862.775          35.000  
C11  25900385.722 4 134870097.308 3      2109.705          32.000  
C 2  38025969.767 1 198011175.181 1       -75.584          38.000  
C13  38401098.075 1 199964607.656 1      1134.213          38.000  
C25  27088636.347 9               9      2930.285          22.000  
C 1  37712848.191 9               9       -74.609          29.000  
C 5  40138364.693 2 209010960.902 1       -69.833          35.000  
C 6  40439138.601 9               9     -1443.270          25.000  
G17  24976960.652 2 131254811.376 1      1739.343          34.000  
> 2020  3 14  8 45 30.0030000  0 19                     
G 1  21223499.087 1 111530233.794 1      1052.308          40.000  
G 7  21347397.692 1 112181316.397 1       790.379          43.000  
G11  21486561.155 1 112912648.174 1     -1488.747          42.000  
G30  23096600.364 1 121373452.276 1      2485.833          40.000  
C 3  37166670.161 2 193536580.492 1       -61.102          38.000  
C12  22719102.069 1 118304311.981 1       -42.033          40.000  
C24  23152150.372 1 120559293.769 1      1320.003          44.000  
G 8  23390278.734 4 122916715.226 3     -2384.851          32.000  
C 7  36986865.421 1 192600285.079 1       441.095          39.000  
C26  22860434.245 4 119040287.218 2     -1456.594          33.000  
C10  37969657.950 1 197717952.804 1       470.258          39.000  
C 8  37402614.485 4 194765207.330 2       862.063          35.000  
C11  25899980.110 4 134867987.809 3      2109.265          32.000  
C 2  38025984.356 1 198011250.578 1       -75.639          38.000  
C13  38400880.192 2 199963473.090 1      1134.328          38.000  
C 1  37712862.186 9               9       -88.330          29.000  
C 5  40138378.165 2 209011030.668 2       -70.106          35.000  
C 6  40439415.780 9               9     -1443.661          25.000  
G17  24976629.831 2 131253071.588 1      1739.780          35.000  
> 2020  3 14  8 45 31.0030000  0 20                     
G 1  21223298.480 1 111529181.079 1      1052.785          41.000  
G 7  21347247.411 1 112180525.648 1       790.612          44.000  
G11  21486844.197 1 112914136.446 1     -1488.246          42.000  
G30  23096127.149 1 121370966.033 1      2486.277          40.000  
C 3  37166681.224 2 193536640.384 1       -59.482          38.000  
C12  22719110.166 1 118304353.308 1       -41.167          40.000  
C24  23151896.611 1 120557973.277 1      1320.459          44.000  
G 8  23390732.928 4 122919100.879 2     -2385.675          32.000  
C 7  36986780.403 2 192599843.161 1       441.839          38.000  
C26  22860714.076 4 119041743.498 2     -1455.773          32.000  
C10  37969567.557 1 197717481.660 1       471.323          39.000  
C 8  37402448.569 2 194764344.362 2       862.655          35.000  
C11  25899574.322 8 134865877.964 3      2110.811          32.000  
C 2  38025998.909 2 198011325.281 1       -74.603          38.000  
C13  38400662.518 1 199962337.948 1      1135.638          38.000  
C25  27087507.981 9               9      2937.189          22.000  
C 1  37712875.692 9               7       -76.542          29.000  
C 5  40138391.846 4 209011099.762 2       -69.177          35.000  
C 6  40439695.018 9               9     -1443.535          24.000  
G17  24976298.800 4 131251331.422 2      1740.804          34.000  
> 2020  3 14  8 45 32.0030000  0 20                     
G 1  21223098.116 1 111528129.218 1      1051.463          41.000  
G 7  21347097.130 1 112179735.701 1       789.171          44.000  
G11  21487127.763 1 112915625.382 1     -1489.626          42.000  
G30  23095653.899 1 121368480.386 1      2485.135          40.000  
C 3  37166692.951 1 193536700.474 1       -60.288          38.000  
C12  22719118.019 1 118304395.195 1       -42.697          40.000  
C24  23151642.710 1 120556653.336 1      1319.405          44.000  
G 8  23391186.843 4 122921486.546 2     -2385.955          32.000  
C 7  36986695.491 1 192599401.372 1       440.945          38.000  
C26  22860993.873 4 119043200.392 2     -1457.696          32.000  
C10  37969477.235 1 197717010.636 1       470.624          39.000  
C 8  37402282.687 2 194763481.705 1       861.969          35.000  
C11  25899168.814 4 134863768.635 3      2107.917          32.000  
C 2  38026013.183 1 198011400.160 1       -75.499          38.000  
C13  38400444.530 1 199961203.169 1      1134.064          38.000  
C25  27086946.887 9               9      2932.091          22.000  
C 1  37712890.595 9               6       -73.748          29.000  
C 5  40138405.003 2 209011168.996 1       -69.758          35.000  
C 6  40439971.988 9               9     -1442.634          24.000  
G17  24975967.665 4 131249591.756 2      1738.888          34.000  
> 2020  3 14  8 45 33.0030000  0 19                     
G 1  21222898.241 1 111527078.459 1      1050.111          41.000  
G 7  21346947.232 1 112178946.806 1       788.328          43.000  
G11  21487411.294 1 112917115.206 1     -1490.298          42.000  
G30  23095181.242 1 121365995.543 1      2484.493          40.000  
C 3  37166704.677 1 193536760.965 1       -60.840          38.000  
C12  22719126.081 1 118304437.846 1       -42.992          40.000  
C24  23151389.298 1 120555334.188 1      1318.564          44.000  
G 8  23391641.107 4 122923872.688 2     -2385.964          32.000  
C 7  36986610.787 2 192598959.985 1       440.884          38.000  
C26  22861269.482 8 119044658.132 3     -1458.681          32.000  
C10  37969387.122 2 197716539.953 1       470.877          39.000  
C 8  37402116.770 2 194762619.642 1       861.624          35.000  
C11  25898760.339 8 134861659.912 3      2107.254          31.000  
C 2  38026027.772 2 198011475.420 1       -75.690          38.000  
C13  38400226.751 2 199960068.865 1      1134.074          38.000  
C 1  37712905.672 9               9       -88.574          29.000  
C 5  40138418.161 2 209011238.700 1       -70.481          35.000  
C 6  40440249.237 9               9     -1447.046          24.000  
G17  24975637.018 4 131247852.729 2      1738.523          34.000  
> 2020  3 14  8 45 34.0030000  0 20                     
G 1  21222698.751 1 111526028.552 1      1049.663          40.000  
G 7  21346797.440 1 112178158.759 1       787.558          43.000  
G11  21487694.930 1 112918605.724 1     -1491.155          42.000  
G30  23094708.760 1 121363511.337 1      2483.554          40.000  
C 3  37166716.334 2 193536821.668 1       -61.062          38.000  
C12  22719134.352 1 118304481.096 1       -43.595          40.000  
C24  23151136.445 1 120554015.609 1      1318.169          44.000  
G 8  23392095.266 4 122926259.046 2     -2386.792          32.000  
C 7  36986525.770 2 192598518.771 1       441.258          38.000  
C26  22861551.093 8 119046116.526 3     -1459.445          31.000  
C10  37969296.870 1 197716069.447 1       470.193          38.000  
C 8  37401951.098 4 194761757.999 2       860.040          34.000  
C11  25898348.514 8 134859551.660 3      2107.656          31.000  
C 2  38026042.186 1 198011550.906 1       -75.528          37.000  
C13  38400008.658 2 199958934.923 1      1133.429          37.000  
C25  27085823.267 9               9      2937.582          22.000  
C 1  37712920.190 9               6       -76.845          28.000  
C 5  40138431.458 2 209011313.58631       -70.721          34.000  
C 6  40440524.287 9               9     -1443.167          24.000  
G17  24975306.092 4 131246114.165 2      1738.330          34.000  
> 2020  3 14  8 45 35.0030000  0 20                     
G 1  21222498.841 1 111524979.495 1      1048.704          40.000  
G 7  21346647.333 1 112177371.475 1       786.967          43.000  
G11  21487978.880 1 112920096.816 1     -1491.008          42.000  
G30  23094236.697 1 121361027.612 1      2484.006          40.000  
C 3  37166728.270 2 193536882.467 1       -60.629          38.000  
C12  22719142.903 1 118304524.837 1       -43.788          40.000  
C24  23150883.172 1 120552697.520 1      1318.195          43.000  
G 8  23392549.496 4 122928645.466 2     -2386.309          32.000  
C 7  36986441.171 2 192598077.690 1       441.260          38.000  
C26  22861834.031 8 119047575.421 3     -1458.793          31.000  
C10  37969206.268 2 197715598.964 1       470.423          38.000  
C 8  37401785.530 4 194760896.530 2       861.746          34.000  
C11  25897946.007 8 134857443.838 3      2108.110          31.000  
C 2  38026056.704 2 198011626.542 1       -75.786          37.000  
C13  38399791.263 2 199957801.167 1      1133.740          37.000  
C25  27085261.231 9               9      2933.420          23.000  
C 1  37712934.046 9               9       -65.137          28.000  
C 5  40138444.860 4 209011383.55632       -70.040          35.000  
C 6  40440802.793 9               9     -1440.327          24.000  
G17  24974975.306 4 131244376.003 2      1738.426          34.000  
> 2020  3 14  8 45 36.0030000  0 20                     
G 1  21222299.385 1 111523930.998 1      1047.972          41.000  
G 7  21346497.575 1 112176584.732 1       786.455          44.000  
G11  21488262.656 1 112921588.343 1     -1491.989          42.000  
G30  23093764.634 1 121358544.228 1      2483.314          41.000  
C 3  37166739.962 2 193536943.205 1       -60.945          37.000  
C12  22719151.453 1 118304568.870 1       -44.289          40.000  
C24  23150630.074 1 120551379.727 1      1317.354          43.000  
G 8  23393003.585 4 122931031.853 3     -2386.488          32.000  
C 7  36986356.712 1 192597636.484 1       441.057          38.000  
C26  22862114.386 8 119049034.776 3     -1460.300          32.000  
C10  37969115.736 1 197715128.334 1       470.630          38.000  
C 8  37401620.381 4 194760035.249 2       860.814          34.000  
C11  25897538.615 8 134855336.160 3      2107.936          30.000  
C 2  38026071.258 2 198011702.060 1       -76.079          37.000  
C13  38399573.450 2 199956667.450 1      1133.511          37.000  
C25  27084698.775 9               9      2938.492          24.000  
C 1  37712949.367 9               7       -74.817          28.000  
C 5  40138458.296 2 209011453.42721       -69.698          35.000  
C 6  40441080.217 9               9     -1444.035          23.000  
G17  24974644.380 4 131242638.065 2      1737.757          34.000  
> 2020  3 14  8 45 37.0030000  0 20                     
G 1  21222099.859 1 111522883.115 1      1047.217          40.000  
G 7  21346347.922 1 112175798.601 1       785.729          43.000  
G11  21488546.536 1 112923080.257 1     -1492.406          42.000  
G30  23093292.675 1 121356061.220 1      2482.671          41.000  
C 3  37166751.688 2 193537003.887 1       -61.000          38.000  
C12  22719160.074 1 118304613.230 1       -44.618          40.000  
C24  23150376.941 1 120550062.257 1      1317.035          43.000  
G 8  23393457.954 4 122933418.127 3     -2386.217          32.000  
C 7  36986272.427 1 192597195.195 1       440.988          38.000  
C26  22862391.391 8 119050494.455 3     -1461.175          31.000  
C10  37969025.519 1 197714657.605 1       470.463          38.000  
C 8  37401454.848 2 194759174.042 1       860.951          34.000  
C11  25897136.003 8 134853228.769 3      2107.550          31.000  
C 2  38026085.637 2 198011777.509 1       -75.547          37.000  
C13  38399355.636 2 199955533.835 1      1133.142          37.000  
C25  27084132.167 9               9      2934.526          23.000  
C 1  37712963.571 9               9       -83.301          29.000  
C 5  40138471.454 2 209011523.29021       -69.805          35.000  
C 6  40441357.431 9               9     -1443.092          23.000  
G17  24974313.524 4 131240900.320 2      1737.056          34.000  
> 2020  3 14  8 45 38.0030000  0 20                     
G 1  21221900.787 1 111521835.991 1      1046.869          40.000  
G 7  21346198.269 1 112175013.173 1       784.995          43.000  
G11  21488830.486 1 112924572.761 1     -1493.096          42.000  
G30  23092821.066 1 121353578.668 1      2482.194          41.000  
C 3  37166763.380 1 193537064.626 1       -60.706          38.000  
C12  22719168.659 1 118304658.038 1       -44.987          40.000  
C24  23150124.018 1 120548745.231 1      1316.699          44.000  
G 8  23393912.043 4 122935804.509 2     -2386.673          32.000  
C 7  36986187.515 2 192596753.948 1       441.310          38.000  
C26  22862671.363 8 119051954.648 3     -1460.955          31.000  
C10  37968934.847 1 197714186.880 1       471.098          38.000  
C 8  37401289.734 2 194758313.109 1       860.791          35.000  
C11  25896728.157 8 134851121.733 3      2107.086          30.000  
C 2  38026100.120 1 198011853.065 1       -75.837          38.000  
C13  38399137.822 1 199954400.377 1      1133.226          37.000  
C25  27083566.116 9               9      2931.781          23.000  
C 1  37712978.509 9               9       -73.242          28.000  
C 5  40138484.855 2 209011593.19421       -69.852          35.000  
C 6  40441634.505 9               9     -1443.574          23.000  
G17  24973982.703 4 131239162.904 2      1737.409          34.000  
> 2020  3 14  8 45 39.0030000  0 20                     
G 1  21221701.540 1 111520789.508 1      1045.993          40.000  
G 7  21346048.930 1 112174228.332 1       784.318          43.000  
G11  21489114.994 1 112926065.658 1     -1493.504          43.000  
G30  23092348.967 1 121351096.474 1      2481.705          41.000  
C 3  37166775.107 1 193537125.324 1       -60.739          38.000  
C12  22719177.594 1 118304703.170 1       -45.195          40.000  
C24  23149871.164 1 120547428.532 1      1316.283          43.000  
G 8  23394366.238 4 122938190.775 2     -2385.922          31.000  
C 7  36986102.811 2 192596312.649 1       441.169          38.000  
C26  22862953.672 8 119053415.168 3     -1460.947          31.000  
C10  37968844.176 1 197713716.074 1       470.667          38.000  
C 8  37401124.516 2 194757452.319 1       860.137          34.000  
C11  25896322.195 8 134849014.958 3      2106.161          31.000  
C 2  38026114.848 1 198011928.543 1       -75.251          38.000  
C13  38398920.044 1 199953266.996 1      1133.237          37.000  
C25  27083002.998 9               9      2932.875          24.000  
C 1  37712992.329 9               9       -79.980          28.000  
C 5  40138498.467 2 209011663.06721       -70.165          35.000  
C 6  40441914.128 9               9     -1446.500          23.000  
G17  24973651.567 4 131237425.747 2      1737.122          33.000  
> 2020  3 14  8 45 40.0030000  0 20                     
G 1  21221502.678 1 111519743.904 1      1044.873          40.000  
G 7  21345899.940 1 112173444.331 1       783.482          43.000  
G11  21489399.293 1 112927559.244 1     -1493.774          43.000  
G30  23091877.009 1 121348614.891 1      2481.166          41.000  
C 3  37166786.659 1 193537186.207 1       -60.762          38.000  
C12  22719186.459 1 118304748.890 1       -46.008          40.000  
C24  23149618.346 1 120546112.413 1      1315.811          43.000  
G 8  23394820.467 4 122940577.282 2     -2386.818          32.000  
C 7  36986018.317 1 192595871.529 1       440.846          38.000  
C26  22863235.563 8 119054876.378 3     -1461.232          31.000  
C10  37968753.958 2 197713245.413 1       470.519          38.000  
C 8  37400959.123 2 194756591.849 1       860.701          34.000  
C11  25895920.351 8 134846908.598 3      2106.239          30.000  
C 2  38026129.192 1 198012004.203 1       -75.701          38.000  
C13  38398702.509 1 199952133.952 1      1132.922          38.000  
C25  27082441.764 9               9      2937.262          24.000  
C 1  37713006.499 9               9       -77.051          28.000  
C 5  40138512.078 4 209011733.10422       -69.608          35.000  
C 6  40442190.853 9               9     -1433.453          22.000  
G17  24973320.781 4 131235689.012 2      1737.064          33.000  
> 2020  3 14  8 45 41.0030000  0 20                     
G 1  21221303.850 1 111518698.855 1      1044.951          40.000  
G 7  21345751.020 1 112172660.844 1       783.531          43.000  
G11  21489683.697 1 112929053.205 1     -1493.776          43.000  
G30  23091405.434 1 121346133.599 1      2481.349          41.000  
C 3  37166798.350 1 193537246.989 1       -59.974          38.000  
C12  22719195.114 1 118304794.875 1       -45.748          40.000  
C24  23149365.736 1 120544796.564 1      1315.989          44.000  
G 8  23395274.836 4 122942963.648 3     -2386.096          32.000  
C 7  36985933.474 1 192595430.255 1       442.019          38.000  
C26  22863515.360 8 119056337.917 2     -1460.484          31.000  
C10  37968663.427 2 197712774.593 1       471.285          39.000  
C 8  37400793.695 2 194755731.489 1       860.691          35.000  
C11  25895514.669 8 134844802.492 4      2105.927          30.000  
C 2  38026143.920 1 198012079.764 1       -75.039          38.000  
C13  38398485.045 1 199951000.887 1      1133.457          38.000  
C25  27081880.530 9               9      2934.148          25.000  
C 1  37713021.960 9               9       -69.141          28.000  
C 5  40138525.340 4 209011803.09222       -69.635          34.000  
C 6  40442468.102 9               9     -1449.109          22.000  
G17  24972990.030 4 131233952.528 2      1736.903          33.000  
> 2020  3 14  8 45 42.0030000  0 20                     
G 1  21221105.162 1 111517653.643 1      1044.749          40.000  
G 7  21345601.995 1 112171877.159 1       783.312          43.000  
G11  21489967.961 1 112930546.804 1     -1493.978          43.000  
G30  23090933.685 1 121343651.860 1      2481.280          42.000  
C 3  37166810.147 1 193537306.951 1       -59.546          38.000  
C12  22719203.664 1 118304840.391 1       -45.748          40.000  
C24  23149112.708 1 120543480.240 1      1316.070          44.000  
G 8  23395729.030 4 122945349.145 2     -2385.137          32.000  
C 7  36985848.422 1 192594988.142 1       442.642          38.000  
C26  22863795.855 8 119057799.063 2     -1461.387          31.000  
C10  37968572.720 1 197712302.862 1       471.721          38.000  
C 8  37400628.162 2 194754870.429 1       861.354          34.000  
C11  25895109.335 8 134842695.739 3      2107.021          30.000  
C 2  38026158.160 1 198012154.493 1       -74.809          38.000  
C13  38398267.301 1 199949867.125 1      1133.652          38.000  
C25  27081316.190 9               9      2934.568          25.000  
C 1  37713036.129 9               9       -74.805          28.000  
C 5  40138538.637 4 209011872.197 2       -69.429          34.000  
C 6  40442746.119 9               9     -1436.620          23.000  
G17  24972658.790 4 131232215.406 2      1737.031          33.000  
> 2020  3 14  8 45 43.0030000  0 20                     
G 1  21220906.578 1 111516609.732 1      1042.897          40.000  
G 7  21345452.970 1 112171094.733 1       781.780          43.000  
G11  21490252.399 1 112932041.480 1     -1495.254          43.000  
G30  23090462.390 1 121341171.158 1      2480.076          42.000  
C 3  37166821.559 1 193537367.543 1       -61.296          38.000  
C12  22719212.529 1 118304886.909 1       -47.231          40.000  
C24  23148860.308 1 120542164.911 1      1314.805          43.000  
G 8  23396183.085 4 122947735.304 2     -2387.451          32.000  
C 7  36985763.614 2 192594546.636 1       441.342          38.000  
C26  22864078.443 8 119059261.258 2     -1462.971          31.000  
C10  37968482.328 2 197711831.703 1       470.603          38.000  
C 8  37400462.629 4 194754010.217 2       859.447          34.000  
C11  25894709.725 8 134840589.916 3      2105.831          30.000  
C 2  38026172.678 1 198012229.821 1       -75.952          37.000  
C13  38398049.697 1 199948734.075 1      1132.453          38.000  
C25  27080753.944 9               9      2938.840          25.000  
C 1  37713050.822 9               9       -84.717          28.000  
C 5  40138551.969 2 209011941.908 1       -70.455          34.000  
C 6  40443023.124 9               9     -1446.242          23.000  
G17  24972328.282 4 131230479.189 2      1735.595          32.000  
> 2020  3 14  8 45 44.0030000  0 20                     
G 1  21220708.274 1 111515566.962 1      1042.258          40.000  
G 7  21345304.085 1 112170313.414 1       780.877          43.000  
G11  21490537.257 1 112933537.126 1     -1496.035          43.000  
G30  23089990.780 1 121338691.319 1      2479.385          42.000  
C 3  37166833.146 2 193537428.568 1       -61.431          38.000  
C12  22719221.882 1 118304934.236 1       -47.697          40.000  
C24  23148607.838 1 120540850.424 1      1314.022          44.000  
G 8  23396637.384 4 122950121.910 2     -2387.697          32.000  
C 7  36985678.771 2 192594105.556 1       441.114          38.000  
C26  22864357.996 8 119060724.362 3     -1463.070          31.000  
C10  37968392.006 1 197711360.922 1       470.790          38.000  
C 8  37400297.794 2 194753150.590 1       859.375          34.000  
C11  25894303.100 8 134838484.861 2      2104.528          30.000  
C 2  38026187.267 2 198012305.597 1       -75.663          38.000  
C13  38397832.372 2 199947601.610 1      1132.458          37.000  
C25  27080189.674 9               9      2936.672          25.000  
C 1  37713065.201 9               9       -58.936          28.000  
C 5  40138565.475 2 209012012.081 1       -70.222          34.000  
C 6  40443301.734 9               9     -1440.798          23.000  
G17  24971997.636 4 131228743.691 2      1735.560          32.000  
> 2020  3 14  8 45 45.0030000  0 20                     
G 1  21220509.725 1 111514524.927 1      1041.537          40.000  
G 7  21345155.130 1 112169532.770 1       780.437          43.000  
G11  21490821.800 1 112935033.279 1     -1496.216          43.000  
G30  23089519.066 1 121336211.924 1      2479.584          42.000  
C 3  37166844.977 1 193537489.636 1       -60.841          38.000  
C12  22719231.306 1 118304981.991 1       -47.430          40.000  
C24  23148355.438 1 120539536.358 1      1314.017          43.000  
G 8  23397091.264 4 122952508.460 2     -2385.922          32.000  
C 7  36985594.103 1 192593664.532 1       441.243          38.000  
C26  22864638.142 8 119062187.902 3     -1463.785          31.000  
C10  37968301.579 1 197710890.134 1       470.947          38.000  
C 8  37400132.750 4 194752291.162 2       860.458          34.000  
C11  25893900.803 8 134836380.066 3      2104.867          31.000  
C 2  38026201.646 2 198012381.427 1       -75.528          38.000  
C13  38397615.082 1 199946469.322 1      1132.534          37.000  
C25  27079626.590 9               9      2936.409          26.000  
C 1  37713079.441 9               7       -75.848          28.000  
C 5  40138579.121 4 209012082.328 2       -70.501          34.000  
C 6  40443577.971 9               9     -1454.710          23.000  
G17  24971667.059 4 131227008.485 2      1735.742          32.000  
> 2020  3 14  8 45 46.0030000  0 20                     
G 1  21220311.386 1 111513483.377 1      1041.333          40.000  
G 7  21345006.733 1 112168752.615 1       779.985          43.000  
G11  21491106.343 1 112936529.758 1     -1496.485          43.000  
G30  23089047.945 1 121333732.798 1      2479.250          42.000  
C 3  37166856.669 1 193537550.532 1       -60.529          38.000  
C12  22719240.450 1 118305030.012 1       -48.100          40.000  
C24  23148103.178 1 120538222.505 1      1313.945          43.000  
G 8  23397545.249 4 122954894.922 2     -2386.672          32.000  
C 7  36985509.469 1 192593223.306 1       441.150          38.000  
C26  22864920.242 8 119063651.753 3     -1464.150          31.000  
C10  37968211.012 1 197710419.166 1       471.027          39.000  
C 8  37399967.462 2 194751431.839 2       859.086          34.000  
C11  25893495.748 4 134834275.443 2      2105.129          31.000  
C 2  38026216.234 2 198012457.117 1       -75.815          38.000  
C13  38397397.757 2 199945336.979 1      1132.309          37.000  
C25  27079063.227 9               9      2936.871          26.000  
C 1  37713093.680 9               9       -64.111          28.000  
C 5  40138592.698 2 209012152.380 1       -70.388          35.000  
C 6  40443854.033 9               9     -1449.652          22.000  
G17  24971336.656 4 131225273.489 2      1735.117          32.000  
> 2020  3 14  8 45 47.0030000  0 20                     
G 1  21220113.571 1 111512442.442 1      1040.799          40.000  
G 7  21344858.302 1 112167972.998 1       779.433          43.000  
G11  21491390.921 1 112938026.625 1     -1497.106          43.000  
G30  23088576.614 1 121331253.984 1      2478.729          42.000  
C 3  37166868.116 1 193537611.358 1       -60.666          38.000  
C12  22719249.768 1 118305078.284 1       -48.611          40.000  
C24  23147851.232 1 120536908.934 1      1313.491          44.000  
G 8  23397999.338 4 122957281.287 2     -2386.503          32.000  
C 7  36985424.626 1 192592781.974 1       441.342          38.000  
C26  22865200.597 8 119065115.931 3     -1463.795          31.000  
C10  37968120.655 1 197709948.005 1       470.864          38.000  
C 8  37399802.313 2 194750572.519 1       859.290          34.000  
C11  25893094.114 4 134832171.036 2      2103.552          31.000  
C 2  38026230.683 2 198012532.676 1       -75.406          38.000  
C13  38397180.222 2 199944204.687 1      1131.899          38.000  
C25  27078499.585 8               6      2936.582          26.000  
C 1  37713108.862 9               9       -87.939          28.000  
C 5  40138606.274 2 209012222.337 2       -69.911          35.000  
C 6  40444130.549 9               9     -1438.325          22.000  
G17  24971006.289 4 131223538.594 3      1734.825          32.000  
> 2020  3 14  8 45 48.0030000  0 20                     
G 1  21219915.371 1 111511402.127 1      1039.602          40.000  
G 7  21344710.149 1 112167193.960 1       778.384          43.000  
G11  21491675.953 1 112939523.898 1     -1497.708          43.000  
G30  23088105.284 1 121328775.511 1      2477.863          42.000  
C 3  37166879.843 1 193537672.117 1       -60.733          38.000  
C12  22719259.331 1 118305126.863 1       -48.913          40.000  
C24  23147599.006 1 120535595.695 1      1312.807          44.000  
G 8  23398453.114 4 122959667.578 2     -2387.607          31.000  
C 7  36985339.783 1 192592340.540 1       441.176          38.000  
C26  22865482.942 8 119066580.530 3     -1465.092          31.000  
C10  37968030.123 1 197709476.749 1       470.726          38.000  
C 8  37399637.373 2 194749713.317 1       859.497          34.000  
C11  25892686.337 8 134830066.786 2      2104.198          31.000  
C 2  38026245.236 1 198012608.175 1       -75.579          38.000  
C13  38396962.758 1 199943072.447 1      1131.963          38.000  
C25  27077934.896 8 141001884.55635      2936.032          26.000  
C 1  37713122.368 9               9       -79.688          28.000  
C 5  40138619.990 2 209012292.219 1       -70.051          35.000  
C 6  40444408.217 9               9     -1447.238          23.000  
G17  24970676.026 4 131221803.949 3      1734.173          32.000  
> 2020  3 14  8 45 49.0030000  0 20                     
G 1  21219717.416 1 111510362.504 1      1039.175          40.000  
G 7  21344561.857 1 112166415.563 1       778.166          43.000  
G11  21491961.090 1 112941021.667 1     -1498.184          43.000  
G30  23087634.163 1 121326297.457 1      2477.997          42.000  
C 3  37166891.395 1 193537732.881 1       -60.876          38.000  
C12  22719268.893 1 118305175.845 1       -49.202          40.000  
C24  23147346.676 1 120534282.815 1      1312.928          44.000  
G 8  23398907.099 4 122962053.814 3     -2386.320          31.000  
C 7  36985255.219 1 192591899.116 1       441.604          38.000  
C26  22865763.681 8 119068045.537 3     -1465.269          31.000  
C10  37967939.696 1 197709005.416 1       471.287          38.000  
C 8  37399472.190 4 194748854.337 2       858.704          34.000  
C11  25892283.342 4 134827962.897 2      2103.333          31.000  
C 2  38026259.860 1 198012683.706 1       -75.466          38.000  
C13  38396745.467 2 199941940.335 1      1132.100          38.000  
C25  27077371.917 4 140998948.06524      2936.442          27.000  
C 1  37713136.538 9               9       -67.041          28.000  
C 5  40138633.147 2 209012362.162 1       -70.110          35.000  
C 6  40444686.932 9               9     -1453.470          23.000  
G17  24970345.554 4 131220069.576 2      1733.257          32.000  
> 2020  3 14  8 45 50.0030000  0 20                     
G 1  21219519.670 1 111509323.530 1      1038.220          39.000  
G 7  21344413.880 1 112165637.811 1       777.114          43.000  
G11  21492246.296 1 112942519.884 1     -1498.754          43.000  
G30  23087162.798 1 121323819.789 1      2477.309          42.000  
C 3  37166902.877 1 193537793.649 1       -60.899          38.000  
C12  22719278.561 1 118305225.153 1       -49.210          41.000  
C24  23147094.521 1 120532970.307 1      1312.243          44.000  
G 8  23399361.188 4 122964440.099 3     -2386.958          31.000  
C 7  36985170.411 1 192591457.649 1       441.308          38.000  
C26  22866045.432 8 119069510.974 3     -1465.311          31.000  
C10  37967848.816 2 197708534.048 1       471.262          38.000  
C 8  37399307.076 4 194747995.483 2       858.306          34.000  
C11  25891879.649 8 134825859.230 2      2103.416          31.000  
C 2  38026274.169 2 198012759.227 1       -75.829          38.000  
C13  38396527.898 2 199940808.303 1      1131.822          38.000  
C25  27076808.624 4 140996011.60124      2936.304          27.000  
C 1  37713150.882 9               9       -68.945          28.000  
C 5  40138646.095 2 209012432.058 2       -70.365          35.000  
C 6  40444964.705 9               9     -1453.521          23.000  
G17  24970015.186 4 131218335.404 2      1734.066          32.000  
> 2020  3 14  8 45 51.0030000  0 20                     
G 1  21219321.715 1 111508285.137 1      1038.558          39.000  
G 7  21344265.937 1 112164860.592 1       777.329          43.000  
G11  21492531.502 1 112944018.511 1     -1498.631          43.000  
G30  23086691.188 1 121321342.456 1      2477.286          42.000  
C 3  37166914.638 1 193537854.316 1       -60.328          38.000  
C12  22719287.984 1 118305274.818 1       -49.634          41.000  
C24  23146842.260 1 120531658.111 1      1312.149          44.000  
G 8  23399815.243 4 122966826.255 2     -2385.217          31.000  
C 7  36985085.987 1 192591016.077 1       441.877          38.000  
C26  22866324.845 8 119070976.755 3     -1464.802          31.000  
C10  37967758.214 1 197708062.506 1       471.819          38.000  
C 8  37399142.276 4 194747136.681 2       859.335          34.000  
C11  25891479.236 8 134823755.760 2      2102.977          31.000  
C 2  38026288.653 1 198012834.634 1       -74.976          38.000  
C13  38396310.503 2 199939676.319 1      1131.969          38.000  
C25  27076243.586 4 140993075.06324      2936.958          27.000  
C 1  37713164.423 9               9       -66.650          28.000  
C 5  40138659.532 2 209012501.883 1       -69.751          35.000  
C 6  40445242.163 9               9     -1440.459          23.000  
G17  24969685.482 4 131216601.462 2      1734.061          32.000  
> 2020  3 14  8 45 52.0030000  0 21                     
G 1  21219123.934 1 111507246.899 1      1038.102          40.000  
G 7  21344118.168 1 112164083.434 1       777.145          43.000  
G11  21492816.639 1 112945517.001 1     -1498.371          43.000  
G30  23086219.927 1 121318864.934 1      2477.508          43.000  
C 3  37166926.505 1 193537914.456 1       -60.058          38.000  
C12  22719297.512 1 118305324.238 1       -49.306          41.000  
C 4  39241340.194 9               9      -152.051          27.000  
C24  23146590.314 1 120530345.677 1      1312.451          44.000  
G 8  23400268.739 4 122969211.766 3     -2385.628          31.000  
C 7  36985000.935 1 192590573.879 1       442.351          38.000  
C26  22866607.224 4 119072442.474 2     -1466.173          31.000  
C10  37967667.298 1 197707590.318 1       472.728          38.000  
C 8  37398977.266 2 194746277.591 1       859.012          34.000  
C11  25891074.600 8 134821652.084 3      2103.708          31.000  
C 2  38026303.136 1 198012909.530 1       -74.746          38.000  
C13  38396093.108 1 199938543.900 1      1132.678          38.000  
C25  27075680.887 4 140990138.04523      2937.167          27.000  
C 1  37713176.813 9               9       -38.379          28.000  
C 5  40138672.794 2 209012571.126 1       -69.172          35.000  
C 6  40445518.086 9               9     -1439.972          23.000  
G17  24969355.149 4 131214867.267 2      1734.101          32.000  
> 2020  3 14  8 45 53.0030000  0 20                     
G 1  21218926.397 1 111506209.556 1      1036.884          39.000  
G 7  21343970.225 1 112163306.900 1       776.189          42.000  
G11  21493101.461 1 112947015.668 1     -1498.675          42.000  
G30  23085747.690 1 121316387.370 1      2477.604          41.000  
C 3  37166938.126 1 193537974.994 1       -61.054          38.000  
C12  22719307.005 1 118305374.004 1       -49.634          41.000  
C24  23146338.682 1 120529033.322 1      1312.644          44.000  
G 8  23400722.759 4 122971596.672 2     -2384.448          33.000  
C 7  36984916.092 1 192590131.399 1       442.796          39.000  
C26  22866890.965 4 119073908.912 2     -1466.618          36.000  
C10  37967576.697 1 197707117.660 1       472.851          38.000  
C 8  37398812.397 2 194745419.038 1       858.075          35.000  
C11  25890673.525 4 134819549.129 2      2103.075          32.000  
C 2  38026317.620 2 198012984.800 1       -75.778          38.000  
C13  38395876.028 1 199937412.258 1      1131.074          39.000  
C25  27075115.709 8               7      2936.493          29.000  
C 1  37713190.215 9               9       -71.484          28.000  
C 5  40138686.161 4 209012640.700 2       -69.729          34.000  
C 6  40445797.080 9               9     -1442.720          24.000  
G17  24969025.480 4 131213133.656 2      1732.927          32.000  
> 2020  3 14  8 45 54.0030000  0 20                     
G 1  21218729.768 1 111505173.622 1      1035.268          40.000  
G 7  21343822.701 1 112162531.018 1       775.512          41.000  
G11  21493386.737 1 112948514.837 1     -1499.352          38.000  
G30  23085276.080 1 121313909.791 1      2477.071          44.000  
C 3  37166950.028 1 193538036.249 1       -61.341          38.000  
C12  22719316.218 1 118305424.208 1       -50.516          38.000  
C24  23146086.840 1 120527721.259 1      1311.508          44.000  
G 8  23401176.883 4 122973981.406 2     -2384.620          29.000  
C 7  36984831.249 1 192589688.884 1       441.793          38.000  
C26  22867172.925 2 119075376.558 1     -1468.739          38.000  
C10  37967485.991 2 197706644.693 1       473.210          35.000  
C 8  37398647.806 2 194744561.347 1       857.166          35.000  
C11  25890270.878 4 134817446.950 2      2103.121          36.000  
C 2  38026332.348 1 198013060.516 1       -76.221          37.000  
C13  38395658.877 1 199936281.661 1      1129.686          37.000  
C25  27074552.835 8               6      2936.829          27.000  
C 1  37713205.257 9               9       -94.922          27.000  
C 5  40138699.179 9 209012708.42935       -70.459          33.000  
C 6  40446075.132 9               9     -1442.635          25.000  
G17  24968695.426 8 131211400.318 4      1734.922          27.000  
> 2020  3 14  8 45 55.0030000  0 19                     
G 1  21218532.546 1 111504138.933 1      1034.351          40.000  
G 7  21343675.317 1 112161756.002 1       773.861          42.000  
G11  21493672.398 1 112950014.975 1     -1500.686          40.000  
G30  23084804.366 1 121311432.605 1      2476.359          44.000  
C 3  37166962.347 1 193538098.009 1       -61.568          38.000  
C12  22719325.990 2 118305474.986 1       -52.162          36.000  
C24  23145835.034 1 120526409.755 1      1310.944          42.000  
G 8  23401639.768 9               9     -2385.115          28.000  
C 7  36984746.371 1 192589246.790 1       441.296          37.000  
C26  22867455.095 1 119076845.371 1     -1469.065          40.000  
C10  37967395.075 1 197706171.773 1       472.252          38.000  
C 8  37398483.076 2 194743704.504 1       857.024          38.000  
C11  25889867.569 4 134815345.286 2      2101.032          33.000  
C 2  38026346.832 1 198013136.493 1       -76.368          38.000  
C13  38395441.971 2 199935151.733 1      1129.836          38.000  
C 1  37713220.683 9               9       -88.232          28.000  
C 5  40138712.616 8 209012778.20523       -70.126          36.000  
C 6  40446352.137 9               6     -1444.042          26.000  
G17  24968362.720 8 131209667.487 3      1731.378          32.000  
> 2020  3 14  8 45 56.0030000  0 19                     
G 1  21218335.498 1 111503104.318 1      1034.048          40.000  
G 7  21343528.281 1 112160982.324 1       773.185          42.000  
G11  21493957.848 1 112951516.342 1     -1501.907          40.000  
G30  23084333.384 1 121308957.692 1      2474.553          44.000  
C 3  37166973.830 1 193538159.018 1       -60.695          39.000  
C12  22719336.007 1 118305526.836 1       -52.154          38.000  
C24  23145583.262 1 120525099.782 1      1309.910          42.000  
G 8  23402102.862 8 122978879.92133     -2387.103          32.000  
C 7  36984661.598 2 192588805.454 1       441.364          37.000  
C26  22867737.196 1 119078313.680 1     -1468.722          40.000  
C10  37967304.578 2 197705700.302 1       471.855          38.000  
C 8  37398318.660 1 194742846.986 1       857.333          38.000  
C11  25889463.352 4 134813243.629 2      2100.802          34.000  
C 2  38026361.385 1 198013212.278 1       -75.802          38.000  
C13  38395225.100 1 199934020.676 1      1130.766          39.000  
C 1  37713235.795 9               6       -77.283          28.000  
C 5  40138726.646 2 209012848.42021       -70.513          36.000  
C 6  40446626.908 8 210616179.60034     -1442.363          29.000  
G17  24968033.540 4 131207935.239 2      1732.499          33.000  
> 2020  3 14  8 45 57.0030000  0 19                     
G 1  21218138.450 1 111502070.333 1      1034.457          40.000  
G 7  21343381.071 1 112160209.300 1       773.129          42.000  
G11  21494243.543 1 112953018.196 1     -1502.022          40.000  
G30  23083863.136 1 121306483.176 1      2474.269          44.000  
C 3  37166985.696 1 193538220.065 1       -60.824          39.000  
C12  22719345.988 1 118305579.087 1       -52.078          38.000  
C24  23145331.525 1 120523790.197 1      1309.547          42.000  
G 8  23402560.546 8 122981266.33222     -2386.212          33.000  
C 7  36984576.406 2 192588364.149 1       441.145          37.000  
C26  22868019.086 1 119079782.509 1     -1469.203          40.000  
C10  37967214.361 1 197705228.835 1       471.514          38.000  
C 8  37398153.895 2 194741989.660 1       856.893          38.000  
C11  25889059.240 4 134811142.170 2      2101.083          33.000  
C 2  38026375.555 2 198013288.027 1       -75.798          37.000  
C13  38395008.298 1 199932889.738 1      1131.002          39.000  
C 1  37713251.360 9               7       -77.146          28.000  
C 5  40138740.431 2 209012918.53821       -70.075          36.000  
C 6  40446906.007 8 210617621.48834     -1442.147          28.000  
G17  24967701.218 8 131206203.234 2      1732.139          32.000  
> 2020  3 14  8 45 58.0030000  0 19                     
G 1  21217941.821 1 111501037.016 1      1033.267          40.000  
G 7  21343234.105 1 112159436.631 1       772.792          42.000  
G11  21494529.378 1 112954520.168 1     -1501.897          42.000  
G30  23083392.015 1 121304008.543 1      2475.015          42.000  
C 3  37166997.422 1 193538281.028 1       -61.031          39.000  
C12  22719356.075 1 118305631.424 1       -52.181          39.000  
C24  23145079.893 1 120522480.593 1      1309.768          44.000  
G 8  23403004.200 4 122983652.47322     -2386.144          33.000  
C 7  36984491.737 2 192587922.436 1       442.283          37.000  
C26  22868301.326 1 119081251.655 1     -1469.671          40.000  
C10  37967123.864 1 197704756.801 1       472.801          38.000  
C 8  37397989.096 1 194741132.370 1       857.134          38.000  
C11  25888655.337 4 134809040.978 2      2100.966          37.000  
C 2  38026389.759 1 198013363.692 1       -75.746          38.000  
C13  38394791.357 1 199931758.951 1      1130.482          39.000  
C 1  37713265.565 9               9       -58.008          27.000  
C 5  40138753.763 2 209012988.50221       -69.930          37.000  
C 6  40447177.916 8 210619063.38324     -1441.342          28.000  
G17  24967371.234 8 131204471.468 2      1731.115          32.000  
> 2020  3 14  8 45 59.0030000  0 19                     
G 1  21217745.227 2 111500004.176 1      1032.698          41.000  
G 7  21343087.000 1 112158663.669 1       772.962          41.000  
G11  21494814.933 1 112956021.772 1     -1501.579          40.000  
G30  23082920.720 1 121301532.856 1      2476.904          42.000  
C 3  37167009.114 1 193538341.887 1       -60.781          37.000  
C12  22719366.021 2 118305683.218 1       -51.467          37.000  
C24  23144828.505 1 120521170.234 1      1310.754          42.000  
G 8  23403444.260 4 122986037.17122     -2382.819          33.000  
C 7  36984406.825 2 192587479.866 1       442.624          37.000  
C26  22868583.706 1 119082721.292 1     -1470.717          39.000  
C10  37967033.088 1 197704283.493 1       473.849          38.000  
C 8  37397824.191 1 194740275.311 1       857.333          37.000  
C11  25888252.062 2 134806939.578 1      2101.677          38.000  
C 2  38026404.522 1 198013438.912 1       -75.197          38.000  
C13  38394574.346 1 199930628.478 1      1129.772          39.000  
C 1  37713279.490 9               6       -76.612          33.000  
C 5  40138767.200 2 209013057.65221       -68.390          36.000  
C 6  40447454.851 4 210620505.70123     -1442.544          28.000  
G17  24967039.435 8 131202739.064 3      1733.960          29.000  
> 2020  3 14  8 46  0.0030000  0 21                     
G 1  21217549.331 2 111498973.543 1      1028.939          40.000  
G 7  21342939.964 1 112157890.075 1       774.089          41.000  
G11  21495100.558 1 112957522.832 1     -1499.663          40.000  
G30  23082448.656 2 121299053.947 1      2480.911          41.000  
C 3  37167020.771 2 193538404.261 1       -64.261          39.000  
C12  22719375.759 2 118305734.048 1       -50.415          39.000  
C24  23144576.419 1 120519858.297 1      1312.442          41.000  
G 8  23403904.178 9               9     -2377.960          33.000  
C 7  36984321.319 2 192587036.184 1       444.992          38.000  
C26  22868866.609 2 119084193.363 1     -1473.752          38.000  
C10  37966941.160 2 197703807.459 1       477.775          38.000  
C 8  37397660.194 2 194739420.229 1       853.181          37.000  
C11  25887848.613 2 134804838.818 1      2099.721          40.000  
G 4  25991991.655 9               9     -2403.000          18.000  
C 2  38026418.936 2 198013514.292 1       -75.823          38.000  
C13  38394357.719 1 199929500.543 1      1124.803          39.000  
C25  27071169.412 9               9      2937.793          30.000  
C 1  37713295.160 8 196382989.48533       -80.408          36.000  
C 5  40138780.078 4 209013125.87622       -68.631          32.000  
C 6  40447739.010 8 210621951.47523     -1448.296          30.000  
G17  24966714.687 8 131201006.027 3      1732.012          29.000  
> 2020  3 14  8 46  1.0030000  0 21                     
G 1  21217353.505 1 111497945.007 1      1028.401          40.000  
G 7  21342793.034 2 112157116.917 1       772.878          40.000  
G11  21495385.974 2 112959022.320 1     -1499.166          39.000  
G30  23081976.488 2 121296572.998 1      2480.818          41.000  
C 3  37167033.474 2 193538469.247 1       -65.643          39.000  
C12  22719385.251 2 118305785.112 1       -50.807          39.000  
C 4  39241472.641 9               9       -86.055          29.000  
C24  23144324.368 1 120518544.983 1      1313.306          43.000  
G 8  23404349.787 9               6     -2377.006          31.000  
C 7  36984235.882 2 192586590.427 1       447.014          36.000  
C26  22869149.861 4 119085667.794 2     -1474.905          39.000  
C10  37966849.302 2 197703328.669 1       479.896          37.000  
C 8  37397496.650 2 194738567.676 1       852.098          37.000  
C11  25887446.107 2 134802741.638 2      2095.821          37.000  
G 4  25992443.127 9               9     -2403.000          17.000  
C 2  38026434.222 2 198013592.399 1       -79.006          37.000  
C13  38394141.930 2 199928376.814 1      1122.531          39.000  
C 1  37713311.249 4 196383069.73322       -80.322          36.000  
C 5  40138794.108 9               9       -82.520          27.000  
C 6  40448014.828 8 210623402.61723     -1452.670          31.000  
G17  24966391.474 9               9      1739.245          26.000  
> 2020  3 14  8 46  2.0030000  0 19                     
G 1  21217158.097 2 111496917.118 1      1027.615          39.000  
G 7  21342645.824 1 112156343.753 1       773.005          40.000  
G11  21495670.936 2 112960519.858 1     -1496.651          38.000  
G30  23081503.587 4 121294090.633 2      2483.866          41.000  
C 3  37167046.143 2 193538535.161 1       -66.513          39.000  
C12  22719394.605 2 118305835.992 1       -50.156          37.000  
C 4  39241476.585 9               9       -57.861          28.000  
C24  23144071.899 1 120517230.299 1      1315.777          43.000  
G 8  23404806.354 8 122993063.44534     -2374.874          31.000  
C 7  36984149.818 4 192586142.231 2       449.008          36.000  
C26  22869433.217 2 119087142.618 1     -1475.999          40.000  
C10  37966756.641 2 197702847.409 1       482.524          38.000  
C 8  37397333.212 2 194737715.955 1       850.934          36.000  
C11  25887043.949 4 134800646.891 2      2094.997          32.000  
G 4  25992895.507 9               9     -2403.000          17.000  
C 2  38026449.229 2 198013671.879 1       -79.614          37.000  
C13  38393926.385 1 199927255.245 1      1120.857          39.000  
C 1  37713327.199 8 196383150.03423       -80.857          32.000  
G17  24966067.772 9               9      1735.015          25.000  
> 2020  3 14  8 46  3.0030000  0 20                     
G 1  21216962.794 2 111495890.928 1      1024.691          39.000  
G 7  21342498.265 1 112155571.098 1       771.741          39.000  
G11  21495955.863 2 112962016.447 1     -1497.274          39.000  
G30  23081031.070 2 121291606.935 1      2483.042          42.000  
C 3  37167058.917 2 193538602.907 1       -69.069          38.000  
C12  22719404.272 2 118305887.210 1       -52.337          39.000  
C 4  39241496.827 9               9       -74.805          28.000  
C24  23143819.394 1 120515914.924 1      1314.766          42.000  
G 8  23405254.441 9 122995441.85935     -2371.395          32.000  
C 7  36984063.474 2 192585692.591 1       449.528          36.000  
C26  22869716.713 4 119088619.070 2     -1477.197          40.000  
C10  37966663.562 2 197702364.243 1       483.846          38.000  
C 8  37397169.947 4 194736866.050 2       847.531          34.000  
C11  25886644.897 9               9      2100.441          27.000  
G 4  25993353.715 9               9     -2403.000          17.000  
C 2  38026464.690 2 198013753.271 2       -83.138          37.000  
C13  38393711.503 2 199926136.658 1      1116.267          37.000  
C 1  37713343.288 4 196383231.52423       -83.045          33.000  
C 6  40448581.716 9               9     -1445.824          22.000  
G17  24965749.690 9               9      1729.622          24.000  
> 2020  3 14  8 46  4.0030000  0 18                     
G 1  21216767.980 2 111494867.123 2      1022.211          38.000  
G 7  21342351.299 1 112154799.800 1       770.179          41.000  
G11  21496240.337 2 112963512.820 1     -1497.336          41.000  
G30  23080558.379 2 121289122.706 1      2484.632          39.000  
C 3  37167072.912 2 193538673.153 1       -72.013          38.000  
C12  22719414.149 2 118305939.450 1       -53.124          39.000  
C 4  39241488.381 9               9       103.613          26.000  
C24  23143566.610 2 120514599.436 1      1315.437          41.000  
G 8  23405708.251 8 122997826.45523     -2369.899          39.000  
C 7  36983977.061 2 192585242.148 1       450.253          39.000  
C26  22870000.873 2 119090097.853 2     -1479.626          40.000  
C10  37966570.517 2 197701879.972 1       484.435          38.000  
C 8  37397007.102 2 194736018.595 1       845.898          36.000  
C11  25886244.136 9               9      2131.561          25.000  
C 2  38026481.059 2 198013837.212 1       -85.162          35.000  
C13  38393497.423 2 199925021.680 1      1113.095          39.000  
C 1  37713359.482 8 196383314.52524       -84.325          32.000  
G23  25572377.403 9               6     -2330.260          30.000  
> 2020  3 14  8 46  5.0030000  0 18                     
G 1  21216573.235 2 111493844.363 1      1022.204          39.000  
G 7  21342204.542 1 112154029.055 1       770.320          41.000  
G11  21496524.810 2 112965008.223 1     -1495.281          41.000  
G30  23080085.687 2 121286637.986 1      2484.341          39.000  
C 3  37167086.733 2 193538744.587 1       -71.690          38.000  
C12  22719424.340 1 118305992.079 1       -52.662          39.000  
C24  23143314.071 2 120513283.577 1      1316.304          44.000  
G 8  23406155.500 4 123000194.58822     -2366.208          39.000  
C 7  36983890.403 2 192584790.279 1       452.115          38.000  
C26  22870284.927 4 119091577.625 2     -1480.000          38.000  
C10  37966477.159 2 197701394.208 2       485.773          38.000  
C 8  37396844.466 2 194735172.286 1       845.536          37.000  
C11  25885845.189 9               9      2096.647          25.000  
C 2  38026497.287 2 198013922.698 1       -86.207          37.000  
C13  38393283.554 2 199923908.790 1      1112.637          38.000  
C 1  37713375.780 8               6       -87.130          30.000  
G23  25572819.870 9 134386080.19523     -2330.683          32.000  
G17  24965090.456 9               9      1735.274          29.000  
> 2020  3 14  8 46  6.0030000  0 19                     
G 1  21216378.596 2 111492822.339 1      1022.777          39.000  
G 7  21342057.926 1 112153258.804 1       770.455          42.000  
G11  21496809.353 2 112966503.397 1     -1495.575          41.000  
G30  23079612.821 2 121284153.157 2      2482.852          35.000  
C 3  37167100.448 2 193538816.345 1       -70.802          38.000  
C12  22719434.531 1 118306044.927 1       -52.843          40.000  
C24  23143061.671 1 120511967.564 1      1316.076          44.000  
G 8  23406608.996 4 123002561.60021     -2366.859          39.000  
C 5  40138866.666 9               9       -94.320          28.000  
C 7  36983803.571 2 192584337.703 1       452.266          38.000  
C26  22870569.157 2 119093057.799 2     -1479.688          38.000  
C10  37966383.905 2 197700907.597 1       487.086          38.000  
C 8  37396681.865 2 194734326.341 1       846.718          37.000  
C11  25885445.195 9               9      2088.188          24.000  
C 2  38026513.900 2 198014008.648 1       -85.522          37.000  
C13  38393069.858 1 199922796.694 1      1112.632          39.000  
C 1  37713392.428 9 196383499.18535       -84.190          35.000  
G23  25573264.991 8 134388410.80323     -2329.006          31.000  
G17  24964760.088 9               9      1728.698          28.000  
> 2020  3 14  8 46  7.0030000  0 19                     
G 1  21216184.061 2 111491800.191 1      1021.684          39.000  
G 7  21341911.239 1 112152489.089 1       770.017          43.000  
G11  21497094.315 2 112967999.083 1     -1496.314          41.000  
G30  23079141.282 9               9      2480.630          33.000  
C 3  37167113.990 2 193538887.166 1       -70.543          38.000  
C12  22719444.826 1 118306098.093 1       -53.163          40.000  
C24  23142809.061 1 120510652.133 1      1315.052          44.000  
G 8  23407058.165 4 123004929.04921     -2367.938          39.000  
C 5  40138882.162 9               9       -19.482          27.000  
C 7  36983716.634 2 192583885.182 1       452.215          38.000  
C26  22870853.141 4 119094537.468 2     -1479.110          38.000  
C10  37966290.267 2 197700421.447 1       486.659          38.000  
C 8  37396519.299 2 194733479.657 1       846.491          37.000  
C11  25885045.271 9               9      2069.031          23.000  
C 2  38026530.059 2 198014093.930 1       -85.318          37.000  
C13  38392856.093 2 199921683.400 1      1114.265          39.000  
C 1  37713408.447 8 196383582.03523       -82.924          35.000  
G23  25573708.645 8 134390739.46524     -2327.543          29.000  
G17  24964434.223 9               9      1726.841          25.000  
> 2020  3 14  8 46  8.0030000  0 19                     
G 1  21215989.910 2 111490778.660 1      1021.720          38.000  
G 7  21341765.111 2 112151720.529 1       767.653          40.000  
G11  21497379.208 2 112969496.425 1     -1498.576          41.000  
G30  23078667.683 9 121279216.30334      2481.294          38.000  
C 3  37167127.357 2 193538957.548 1       -70.202          38.000  
C12  22719455.297 1 118306152.076 1       -54.560          39.000  
C 4  39241546.874 9               9       -48.469          29.000  
C24  23142556.626 1 120509338.058 1      1313.099          43.000  
G 8  23407509.463 4 123007298.22721     -2369.991          39.000  
C 7  36983629.871 2 192583433.845 1       450.907          38.000  
C26  22871137.615 4 119096017.563 2     -1479.602          38.000  
C10  37966197.362 2 197699936.550 1       484.812          38.000  
C 8  37396356.663 4 194732632.761 2       846.680          36.000  
C11  25884645.696 9               9      2087.923          21.000  
C 2  38026546.148 4 198014178.696 2       -86.020          34.000  
C13  38392642.119 2 199920569.364 1      1113.912          39.000  
C 1  37713424.501 8 196383664.71824       -82.460          34.000  
G23  25574152.718 8 134393066.61624     -2326.984          28.000  
G17  24964106.612 9               9      1726.841          21.000  
> 2020  3 14  8 46  9.0030000  0 16                     
G 1  21215795.619 2 111489758.321 1      1019.776          39.000  
G 7  21341619.262 1 112150953.078 1       766.715          43.000  
G11  21497664.623 1 112970995.169 1     -1498.722          41.000  
G30  23078194.154 8 121276735.11122      2480.406          38.000  
C 3  37167141.177 2 193539028.232 1       -69.897          38.000  
C12  22719465.837 1 118306206.812 1       -54.565          40.000  
C24  23142304.401 1 120508025.063 1      1312.790          44.000  
G 8  23407960.132 2 123009668.58121     -2370.481          40.000  
C 7  36983543.632 2 192582983.379 1       449.972          38.000  
C26  22871422.088 4 119097498.515 2     -1481.099          38.000  
C10  37966104.527 2 197699452.444 1       483.709          38.000  
C 8  37396194.027 2 194731786.420 1       846.327          36.000  
C 2  38026563.005 9               9       -84.717          28.000  
C13  38392428.458 2 199919455.438 1      1113.061          39.000  
C 1  37713440.800 4 196383748.04023       -82.921          34.000  
G23  25574598.082 8 134395393.13224     -2326.198          28.000  
> 2020  3 14  8 46 10.0030000  0 19                     
G 1  21215601.572 2 111488738.763 1      1018.824          39.000  
G 7  21341473.623 1 112150186.559 1       766.098          43.000  
G11  21497950.039 1 112972494.891 1     -1499.646          42.000  
G30  23077723.137 4 121274254.73721      2481.023          43.000  
C 3  37167155.033 2 193539098.862 1       -70.369          38.000  
C12  22719476.586 1 118306262.260 1       -55.361          40.000  
C 4  39241588.546 9               9       -80.070          30.000  
C24  23142052.280 1 120506712.909 1      1311.761          44.000  
G 8  23408412.093 2 123012039.67621     -2371.134          41.000  
C 7  36983457.323 2 192582533.405 1       450.437          38.000  
C26  22871706.666 2 119098980.091 1     -1482.369          39.000  
C10  37966011.343 2 197698968.795 1       483.393          38.000  
C 8  37396031.635 2 194730940.227 1       846.356          36.000  
C11  25883843.195 9               9      2088.762          19.000  
C 2  38026578.745 9 198014342.65833       -83.550          38.000  
C13  38392214.309 2 199918341.351 1      1114.607          39.000  
C 1  37713457.029 4 196383835.31032       -83.592          34.000  
C 9  39542751.244 9               9     -1775.732          32.000  
G23  25575040.341 8 134397719.23824     -2325.510          28.000  
> 2020  3 14  8 46 11.0030000  0 18                     
G 1  21215407.701 2 111487719.571 1      1019.196          40.000  
G 7  21341327.774 1 112149420.724 1       764.890          43.000  
G11  21498235.280 1 112973995.155 1     -1500.411          42.000  
G30  23077252.819 4 121271775.19421      2478.729          42.000  
C 3  37167168.365 1 193539169.205 1       -70.823          39.000  
C12  22719487.440 1 118306318.056 1       -56.492          38.000  
C 4  39241605.612 9               9       -22.559          29.000  
C24  23141800.299 1 120505401.255 1      1311.163          41.000  
G 8  23408862.238 2 123014410.92621     -2371.314          40.000  
C 7  36983371.224 2 192582083.456 1       450.094          38.000  
C26  22871991.000 2 119100461.709 1     -1482.643          36.000  
C10  37965918.507 2 197698485.258 1       484.342          37.000  
C 8  37395869.453 2 194730093.897 1       845.983          36.000  
C11  25883440.968 9               9      2099.191          21.000  
C 2  38026595.183 4 198014427.27922       -85.253          37.000  
C13  38392000.614 2 199917227.075 1      1113.583          39.000  
C 1  37713473.013 4 196383919.33722       -84.724          33.000  
G23  25575483.088 8 134400044.52024     -2326.260          28.000  
> 2020  3 14  8 46 12.0030000  0 19                     
G 1  21215213.794 2 111486701.395 1      1017.075          40.000  
G 7  21341182.274 1 112148655.219 1       764.963          43.000  
G11  21498520.661 1 112975494.829 1     -1499.729          42.000  
G30  23076778.871 2 121269294.85921      2480.212          43.000  
C 3  37167182.081 2 193539240.239 1       -71.707          37.000  
C12  22719498.329 1 118306373.987 1       -56.790          39.000  
C 4  39241620.479 9               9      -124.365          28.000  
C24  23141548.108 1 120504089.129 1      1312.129          43.000  
G 8  23409313.431 2 123016780.48121     -2369.087          41.000  
C 7  36983284.357 2 192581632.504 1       451.211          37.000  
C26  22872275.509 2 119101944.159 1     -1483.360          37.000  
C10  37965825.463 2 197698000.540 1       485.643          37.000  
C 8  37395707.165 2 194729248.395 1       844.658          36.000  
C11  25883042.823 9               9      2109.579          21.000  
C 2  38026611.586 4 198014512.58222       -86.467          36.000  
C13  38391786.918 2 199916114.144 1      1111.864          37.000  
C 1  37713489.067 4 196384002.65522       -84.375          33.000  
C 9  39543423.217 9               9     -1775.662          25.000  
G23  25575925.835 8 134402371.40825     -2328.718          27.000  
> 2020  3 14  8 46 13.0030000  0 19                     
G 1  21215020.341 2 111485684.423 1      1016.484          40.000  
G 7  21341036.739 1 112147890.192 1       764.905          42.000  
G11  21498805.693 1 112976994.240 1     -1499.846          41.000  
G30  23076308.169 2 121266813.90921      2480.489          41.000  
C 3  37167195.657 1 193539312.242 1       -72.465          37.000  
C12  22719509.043 1 118306430.083 1       -55.890          39.000  
C 4  39241627.006 9               6       -77.203          30.000  
C24  23141296.337 1 120502776.707 1      1312.047          43.000  
G 8  23409764.380 2 123019148.02311     -2367.021          40.000  
C 7  36983197.490 2 192581180.694 1       452.365          37.000  
C26  22872560.541 4 119103427.770 2     -1483.665          37.000  
C10  37965732.069 2 197697514.706 1       486.086          37.000  
C 8  37395544.983 2 194728403.927 1       843.883          36.000  
C11  25882642.411 9               9      2105.356          29.000  
C 2  38026628.129 2 198014598.76621       -85.859          36.000  
C13  38391573.362 2 199915002.850 1      1110.442          38.000  
C 1  37713505.366 4 196384087.80632       -84.097          33.000  
C 9  39543769.359 9               6     -1775.268          31.000  
G23  25576368.756 9               9     -2326.788          25.000  
> 2020  3 14  8 46 14.0030000  0 19                     
G 1  21214826.992 2 111484668.287 1      1015.832          39.000  
G 7  21340891.379 1 112147125.790 1       763.981          43.000  
G11  21499091.179 1 112978494.008 1     -1500.520          41.000  
G30  23075836.664 2 121264333.14921      2480.145          44.000  
C 3  37167209.338 2 193539384.434 1       -72.349          39.000  
C12  22719519.932 1 118306486.602 1       -56.907          40.000  
C 4  39241640.443 9 204341496.07634       -78.171          35.000  
C24  23141044.321 1 120501464.563 1      1311.690          44.000  
G 8  23410214.875 2 123021516.008 1     -2368.551          40.000  
C 7  36983110.483 2 192580728.853 1       451.676          39.000  
C26  22872845.572 4 119104912.010 2     -1484.776          38.000  
C10  37965638.815 2 197697028.647 1       485.148          38.000  
C 8  37395382.940 2 194727559.800 1       844.084          36.000  
C11  25882240.288 9               9      2117.726          23.000  
C 2  38026644.707 2 198014685.09121       -86.087          37.000  
C13  38391360.051 2 199913891.884 1      1111.240          39.000  
C 1  37713521.455 4 196384171.17923       -85.223          34.000  
C 9  39544107.824 8 205916528.00733     -1775.616          35.000  
G 4  25998433.438 9               9     -2421.963          22.000  
> 2020  3 14  8 46 15.0030000  0 20                     
G 1  21214634.063 2 111483652.767 1      1015.563          40.000  
G 7  21340746.263 1 112146362.400 1       762.953          42.000  
G11  21499376.804 1 112979994.926 1     -1501.494          41.000  
G30  23075364.426 1 121261853.66521      2478.900          43.000  
C 3  37167223.403 2 193539456.388 1       -71.346          39.000  
C12  22719530.821 2 118306543.801 1       -57.575          40.000  
C 4  39241654.123 9               9       -73.096          32.000  
C24  23140792.549 1 120500153.359 1      1311.223          45.000  
G 8  23410665.928 2 123023884.761 1     -2368.431          40.000  
C 5  40138996.984 9               9       -79.469          29.000  
C 7  36983023.651 2 192580277.548 1       451.085          38.000  
C26  22873130.953 4 119106396.581 2     -1483.943          39.000  
C10  37965545.666 2 197696543.256 1       485.107          38.000  
C 8  37395220.688 2 194726715.736 1       844.171          36.000  
C11  25881839.840 9               9      2067.917          29.000  
C 2  38026661.319 2 198014771.32321       -85.521          38.000  
C13  38391146.844 2 199912780.660 1      1111.574          39.000  
C 1  37713537.369 4 196384254.37632       -83.828          33.000  
C 9  39544447.649 8 205918302.95324     -1774.028          27.000  
G 4  25998895.694 9               9     -2421.963          23.000  
> 2020  3 14  8 46 16.0030000  0 21                     
G 1  21214440.679 2 111482637.028 1      1015.573          39.000  
G 7  21340600.728 1 112145599.225 1       763.038          42.000  
G11  21499662.778 2 112981496.153 1     -1500.476          40.000  
G30  23074892.747 1 121259374.74121      2478.648          42.000  
C 3  37167236.665 2 193539527.163 1       -70.101          39.000  
C12  22719541.745 2 118306600.894 1       -56.490          40.000  
C 4  39241668.363 9               9       -63.428          27.000  
C24  23140540.812 1 120498842.515 1      1311.298          44.000  
G 8  23411116.841 2 123026253.960 1     -2367.668          38.000  
C 5  40139015.307 9               9       -70.801          31.000  
C 7  36982937.132 2 192579826.215 1       452.530          38.000  
C26  22873415.671 4 119107880.593 2     -1483.909          37.000  
C10  37965452.447 4 197696058.019 2       485.732          38.000  
C 8  37395058.297 2 194725870.605 2       845.366          37.000  
C11  25881438.974 9               6      2084.408          28.000  
C25  27062063.365 9               9      2954.053          35.000  
C 2  38026677.897 2 198014855.89111       -85.654          38.000  
C13  38390933.009 2 199911667.896 1      1113.491          39.000  
C 1  37713553.319 4 196384337.46122       -81.615          34.000  
C 9  39544792.431 8 205920076.08625     -1772.717          28.000  
G 4  25999358.649 9               9     -2421.963          24.000  
> 2020  3 14  8 46 17.0030000  0 19                     
G 1  21214247.261 1 111481621.858 1      1014.148          38.000  
G 7  21340455.577 1 112144836.701 1       761.517          41.000  
G11  21499948.682 1 112982997.485 1     -1501.915          40.000  
G30  23074421.033 1 121256896.13021      2478.238          42.000  
C 3  37167250.520 2 193539598.155 1       -71.631          39.000  
C12  22719552.983 2 118306658.448 1       -58.062          40.000  
C 4  39241684.417 9               9      -140.283          27.000  
C24  23140289.040 1 120497531.855 1      1310.087          44.000  
G 8  23411567.231 2 123028622.355 1     -2367.437          38.000  
C 5  40139027.836 9 209014419.38233       -79.905          34.000  
C 7  36982850.579 2 192579374.402 1       451.631          39.000  
C26  22873700.703 4 119109364.910 2     -1485.281          38.000  
C10  37965359.053 2 197695572.321 1       485.892          38.000  
C 8  37394896.114 2 194725025.824 1       843.527          36.000  
C11  25881037.444 9 134769329.65234      2081.960          41.000  
C 2  38026694.370 2 198014941.351 1       -86.014          38.000  
C13  38390719.454 2 199910555.769 1      1110.949          39.000  
C 1  37713569.373 4 196384420.48722       -83.420          35.000  
C 9  39545131.384 8 205921849.76723     -1775.759          36.000  
> 2020  3 14  8 46 18.0030000  0 19                     
G 1  21214054.576 2 111480608.065 1      1012.748          40.000  
G 7  21340310.670 1 112144075.269 1       761.209          41.000  
G11  21500234.098 1 112984498.822 1     -1501.821          40.000  
G30  23073949.353 1 121254417.82421      2477.831          41.000  
C 3  37167264.550 2 193539670.351 1       -73.086          39.000  
C12  22719564.221 1 118306716.845 1       -59.270          39.000  
C 4  39241718.096 9               9      -205.176          30.000  
C24  23140037.478 1 120496221.498 1      1309.745          45.000  
G 8  23412017.901 2 123030989.779 1     -2366.802          38.000  
C 5  40139041.901 9               9       -48.089          27.000  
C 7  36982763.887 2 192578922.171 1       452.262          39.000  
C26  22873985.839 4 119110850.376 2     -1486.425          38.000  
C10  37965266.044 2 197695086.277 1       486.292          38.000  
C 8  37394734.037 2 194724182.181 1       842.057          37.000  
C11  25880637.136 8 134767248.75822      2080.128          38.000  
C 2  38026711.087 2 198015028.302 1       -87.610          37.000  
C13  38390506.072 1 199909445.329 1      1109.486          39.000  
C 1  37713585.497 4 196384505.12932       -84.879          36.000  
C 9  39545473.827 8 205923625.49223     -1777.662          34.000  
> 2020  3 14  8 46 19.0030000  0 17                     
G 1  21213862.135 2 111479594.984 1      1013.025          38.000  
G 7  21340166.148 1 112143314.000 1       761.979          41.000  
G11  21500519.688 1 112985999.814 1     -1500.776          40.000  
G30  23073477.185 1 121251938.17411      2480.116          42.000  
C 3  37167278.196 2 193539742.781 1       -71.562          39.000  
C12  22719575.424 1 118306775.078 1       -57.253          41.000  
C24  23139785.671 1 120494910.660 1      1311.604          44.000  
G 8  23412468.326 2 123033355.869 1     -2365.643          39.000  
C 7  36982676.950 2 192578469.085 1       453.545          39.000  
C26  22874271.465 2 119112336.496 1     -1485.961          39.000  
C10  37965172.231 2 197694599.040 1       487.975          38.000  
C 8  37394571.924 2 194723338.942 1       843.708          37.000  
C11  25880244.646 9               9      2082.233          25.000  
C 2  38026727.630 2 198015115.389 1       -86.467          38.000  
C13  38390293.075 2 199908335.734 1      1109.723          39.000  
C 1  37713601.900 4 196384589.09422       -83.661          35.000  
C 9  39545816.270 4 205925401.79222     -1776.081          35.000  
> 2020  3 14  8 46 20.0030000  0 18                     
G 1  21213669.380 1 111478583.098 1      1011.301          38.000  
G 7  21340021.450 1 112142553.085 1       760.227          41.000  
G11  21500805.418 1 112987501.096 1     -1501.209          39.000  
G30  23073005.122 1 121249458.597 1      2479.043          41.000  
C 3  37167292.471 1 193539815.717 1       -73.431          39.000  
C12  22719586.557 1 118306833.398 1       -58.770          41.000  
C 4  39241739.106 9               9       -76.750          34.000  
C24  23139533.935 1 120493599.733 1      1310.911          44.000  
G 8  23412918.332 1 123035721.582 1     -2365.280          39.000  
C 7  36982589.873 2 192578015.801 1       453.540          39.000  
C26  22874557.334 2 119113823.720 1     -1487.805          40.000  
C10  37965078.419 2 197694111.125 1       487.738          38.000  
C 8  37394410.056 2 194722496.470 1       842.577          37.000  
C11  25879842.139 9               9      2079.407          23.000  
C 2  38026744.592 2 198015202.516 1       -87.299          38.000  
C13  38390080.287 1 199907226.851 1      1108.743          39.000  
C 1  37713617.989 4 196384673.74122       -84.619          34.000  
C 9  39546154.699 4 205927178.49722     -1776.470          34.000  
> 2020  3 14  8 46 21.0030000  0 19                     
G 1  21213476.869 2 111477572.280 1      1009.190          39.000  
G 7  21339876.788 1 112141793.407 1       758.510          42.000  
G11  21501091.113 1 112989002.907 1     -1503.119          41.000  
G30  23072533.512 1 121246979.930 1      2477.559          41.000  
C 3  37167306.431 1 193539889.362 1       -74.726          39.000  
C12  22719597.690 1 118306892.706 1       -60.356          41.000  
C 4  39241746.296 9               6       -77.866          33.000  
C24  23139282.617 1 120492289.561 1      1309.438          44.000  
G 8  23413368.303 2 123038086.928 1     -2365.695          39.000  
C 7  36982502.866 2 192577562.528 1       452.486          39.000  
C26  22874842.924 4 119115311.756 2     -1488.859          39.000  
C10  37964984.746 2 197693623.360 1       487.587          38.000  
C 8  37394248.572 2 194721654.777 1       840.492          37.000  
C11  25879440.470 9               9      2085.083          21.000  
C 2  38026761.588 2 198015290.704 1       -89.127          38.000  
C13  38389867.324 1 199906119.083 1      1106.744          39.000  
C 1  37713634.637 4 196384758.82622       -86.243          35.000  
C 9  39546498.224 4 205928956.50422     -1778.915          32.000  
C 6  40453634.776 9               9     -1466.462          25.000  
> 2020  3 14  8 46 22.0030000  0 18                     
G 1  21213284.533 2 111476562.250 1      1009.282          39.000  
G 7  21339732.126 1 112141034.430 1       759.013          42.000  
G11  21501376.808 1 112990504.737 1     -1501.847          40.000  
G30  23072061.833 1 121244501.464 1      2478.509          41.000  
C 3  37167320.496 1 193539963.328 1       -74.054          39.000  
C12  22719609.173 1 118306952.444 1       -59.924          40.000  
C 4  39241760.256 9               9       -77.246          29.000  
C24  23139031.054 1 120490979.602 1      1309.765          46.000  
G 8  23413818.310 2 123040451.542 1     -2363.510          37.000  
C 7  36982415.580 2 192577108.786 1       454.762          39.000  
C26  22875128.794 2 119116800.281 2     -1487.848          39.000  
C10  37964890.934 2 197693135.180 1       488.707          38.000  
C 8  37394087.087 2 194720813.478 1       840.814          37.000  
C 2  38026778.969 2 198015379.321 1       -88.725          38.000  
C13  38389654.816 1 199905011.866 1      1107.424          39.000  
C 1  37713650.761 4 196384843.74822       -85.027          34.000  
C 9  39546838.853 4 205930735.092 2     -1778.237          35.000  
C 6  40453913.840 9               7     -1464.446          29.000  
> 2020  3 14  8 46 23.0030000  0 18                     
G 1  21213092.301 2 111475553.098 1      1007.844          39.000  
G 7  21339587.708 1 112140275.957 1       758.116          42.000  
G11  21501662.748 1 112992006.687 1     -1501.883          41.000  
G30  23071590.293 1 121242022.720 1      2479.100          40.000  
C 3  37167334.910 1 193540037.657 1       -74.906          39.000  
C12  22719621.004 1 118307012.398 1       -60.427          41.000  
C 4  39241772.576 9               9       -80.016          30.000  
C24  23138779.631 1 120489669.623 1      1309.812          45.000  
G 8  23414268.211 2 123042815.540 1     -2363.690          40.000  
C 7  36982328.399 2 192576654.766 1       453.632          38.000  
C26  22875414.838 2 119118289.649 2     -1490.229          39.000  
C10  37964797.226 2 197692646.389 1       489.541          38.000  
C 8  37393925.603 2 194719972.742 1       839.628          37.000  
C 2  38026796.035 2 198015468.205 1       -88.661          39.000  
C13  38389442.272 2 199903905.390 1      1106.586          39.000  
C 1  37713667.408 9               7       -86.501          34.000  
C 9  39547179.551 4 205932514.282 2     -1780.022          35.000  
C 6  40454196.882 9 210655581.38834     -1468.298          31.000  
> 2020  3 14  8 46 24.0030000  0 19                     
G 1  21212900.593 2 111474544.859 1      1007.782          39.000  
G 7  21339443.534 1 112139517.934 1       757.791          42.000  
G11  21501948.408 1 112993508.786 1     -1501.808          40.000  
G30  23071118.753 2 121239543.806 1      2479.114          42.000  
C 3  37167348.905 1 193540112.322 1       -73.930          39.000  
C12  22719632.556 1 118307072.508 1       -60.432          41.000  
C 4  39241789.572 9               7       -73.231          30.000  
C24  23138527.929 1 120488359.636 1      1309.790          44.000  
G 8  23414717.903 2 123045178.908 1     -2363.082          37.000  
C 5  40139133.201 9               9       -90.594          28.000  
C 7  36982241.113 2 192576200.306 1       455.168          38.000  
C26  22875700.637 4 119119779.764 2     -1489.497          39.000  
C10  37964703.135 2 197692157.024 1       489.490          38.000  
C 8  37393764.433 2 194719132.476 1       840.411          37.000  
C 2  38026813.171 1 198015557.297 1       -88.895          39.000  
C13  38389229.938 1 199902799.601 1      1106.310          39.000  
C 1  37713683.986 8 196385017.33334       -84.292          34.000  
C 9  39547520.947 4 205934293.857 2     -1779.314          36.000  
C 6  40454478.284 8 210657049.76123     -1467.836          31.000  
> 2020  3 14  8 46 25.0030000  0 20                     
G 1  21212709.094 2 111473537.347 1      1007.656          39.000  
G 7  21339299.221 1 112138760.356 1       757.682          42.000  
G11  21502234.312 1 112995011.243 1     -1501.982          41.000  
G30  23070647.039 1 121237064.907 1      2479.060          43.000  
C 3  37167363.423 2 193540187.028 1       -73.818          39.000  
C12  22719644.003 1 118307132.725 1       -59.695          40.000  
C 4  39241804.893 9               9       -74.463          29.000  
C24  23138276.577 1 120487049.749 1      1310.126          44.000  
G 8  23415165.920 4 123047542.248 3     -2362.474          30.000  
C 5  40139150.546 9               9      -142.139          28.000  
C 7  36982153.687 2 192575745.772 1       454.604          39.000  
C26  22875987.100 2 119121270.386 1     -1489.599          40.000  
C10  37964608.938 1 197691667.267 1       490.153          38.000  
C 8  37393603.123 2 194718292.484 1       840.634          37.000  
C 2  38026830.168 2 198015646.252 1       -88.514          39.000  
C13  38389017.604 1 199901694.065 1      1106.241          39.000  
G17  24958536.852 9               9      1732.050          28.000  
C 1  37713700.320 9               7       -86.492          34.000  
C 9  39547863.390 4 205936073.479 2     -1779.584          35.000  
C 6  40454761.606 8 210658518.17523     -1466.072          31.000  
> 2020  3 14  8 46 26.0030000  0 20                     
G 1  21212517.630 2 111472530.467 1      1005.733          39.000  
G 7  21339155.222 1 112138003.304 1       756.405          42.000  
G11  21502520.426 1 112996514.187 1     -1504.319          41.000  
G30  23070175.255 1 121234586.269 1      2477.705          43.000  
C 3  37167377.977 2 193540261.553 1       -73.651          38.000  
C12  22719655.520 1 118307193.210 1       -60.590          40.000  
C 4  39241819.656 9               7       -82.062          30.000  
C24  23138024.910 1 120485740.194 1      1309.459          44.000  
G 8  23415614.391 8 123049905.485 4     -2363.613          29.000  
C 5  40139174.383 9               9      -172.803          27.000  
C 7  36982066.401 2 192575291.189 1       454.301          38.000  
C26  22876273.458 2 119122761.437 1     -1491.018          40.000  
C10  37964514.952 2 197691177.438 1       489.969          39.000  
C 8  37393441.604 2 194717452.526 1       840.035          37.000  
C11  25877445.806 9               9      2100.532          26.000  
C 2  38026847.094 1 198015735.016 1       -89.219          39.000  
C13  38388805.234 2 199900588.428 1      1105.248          39.000  
C 1  37713716.897 8 196385188.74033       -87.519          34.000  
C 9  39548205.030 4 205937852.821 2     -1779.302          35.000  
C 6  40455042.031 8 210659986.45423     -1468.538          30.000  
> 2020  3 14  8 46 27.0030000  0 20                     
G 1  21212326.097 2 111471524.568 1      1005.708          39.000  
G 7  21339011.327 1 112137247.385 1       755.394          42.000  
G11  21502806.679 1 112998018.150 1     -1504.578          41.000  
G30  23069703.750 1 121232108.788 1      2476.939          41.000  
C 3  37167392.007 2 193540336.415 1       -74.524          38.000  
C12  22719667.352 1 118307254.566 1       -61.939          40.000  
C 4  39241833.965 9               9       -78.564          30.000  
C24  23137773.766 1 120484431.649 1      1308.128          44.000  
G 8  23416066.735 9               9     -2364.404          28.000  
C 7  36981979.290 2 192574837.137 1       453.898          38.000  
C26  22876559.991 2 119124253.253 1     -1491.944          41.000  
C10  37964421.209 2 197690688.191 1       488.284          38.000  
C 8  37393280.224 2 194716613.024 2       839.791          36.000  
C11  25877046.266 9               9      2076.691          25.000  
C 2  38026864.231 2 198015824.019 1       -88.630          39.000  
C13  38388593.214 2 199899483.006 1      1105.883          39.000  
G17  24957887.110 9               9      1713.996          26.000  
C 1  37713733.510 4 196385275.84433       -85.851          34.000  
C 9  39548546.740 4 205939632.278 2     -1779.070          35.000  
C 6  40455323.014 8 210661454.59623     -1467.835          30.000  
> 2020  3 14  8 46 28.0030000  0 19                     
G 1  21212134.598 2 111470519.354 1      1004.685          39.000  
G 7  21338867.782 1 112136492.346 1       754.957          42.000  
G11  21503093.107 2 112999523.109 1     -1505.170          41.000  
G30  23069232.071 1 121229632.281 1      2476.099          43.000  
C 3  37167406.455 2 193540411.013 1       -73.659          38.000  
C12  22719679.392 1 118307316.485 1       -61.904          40.000  
C 4  39241851.032 9               9      -125.195          28.000  
C24  23137522.588 1 120483123.894 1      1307.694          45.000  
G 8  23416514.996 8 123054616.53935     -2364.736          35.000  
C 7  36981892.458 2 192574383.657 1       453.730          37.000  
C26  22876846.803 2 119125745.338 1     -1490.957          41.000  
C10  37964327.152 2 197690199.517 1       488.553          38.000  
C 8  37393118.949 2 194715773.580 1       839.142          36.000  
C11  25876648.854 9 134746469.33134      2075.702          38.000  
C 2  38026881.087 2 198015912.803 1       -88.159          39.000  
C13  38388380.740 2 199898377.291 1      1105.791          39.000  
C 1  37713750.122 4 196385361.90833       -86.185          34.000  
C 9  39548888.206 4 205941411.163 2     -1778.498          36.000  
C 6  40455606.092 8 210662925.88835     -1467.002          31.000  
> 2020  3 14  8 46 29.0030000  0 19                     
G 1  21211943.169 2 111469514.138 1      1005.144          39.000  
G 7  21338724.097 1 112135737.700 1       754.769          42.000  
G11  21503379.744 2 113001028.739 1     -1505.372          42.000  
G30  23068761.927 2 121227156.353 1      2476.211          43.000  
C 3  37167420.520 2 193540484.789 1       -72.791          38.000  
C12  22719690.840 2 118307378.550 1       -62.562          39.000  
C 4  39241870.436 9               9       -70.898          32.000  
C24  23137271.409 1 120481816.602 1      1307.156          45.000  
G 8  23416965.805 4 123056981.85422     -2365.219          41.000  
C 7  36981805.311 2 192573930.319 1       453.585          39.000  
C26  22877133.510 2 119127237.307 1     -1491.559          40.000  
C10  37964233.480 2 197689711.066 1       488.735          39.000  
C 8  37392957.709 2 194714933.379 1       840.836          37.000  
C11  25876254.828 9               9      2079.816          23.000  
C 2  38026898.049 2 198016000.780 1       -87.973          38.000  
C13  38388168.057 2 199897270.513 1      1107.411          39.000  
C 1  37713766.840 8 196385449.35324       -86.340          31.000  
C 9  39549229.637 4 205943188.797 2     -1776.904          36.000  
C 6  40455885.609 8 210664391.78124     -1464.854          30.000  
> 2020  3 14  8 46 30.0030000  0 18                     
G 1  21211751.950 2 111468508.851 1      1005.123          39.000  
G 7  21338580.272 1 112134983.328 1       753.824          42.000  
G11  21503666.521 2 113002534.773 1     -1506.586          40.000  
G30  23068291.539 4 121224681.008 2      2476.526          35.000  
C 3  37167434.446 2 193540557.621 1       -73.112          38.000  
C12  22719702.915 2 118307440.580 1       -62.449          40.000  
C24  23137020.649 1 120480509.608 1      1307.136          45.000  
G 8  23417416.963 4 123059347.38222     -2364.818          40.000  
C 7  36981718.200 1 192573476.898 1       453.064          39.000  
C26  22877419.938 2 119128728.877 1     -1492.122          39.000  
C10  37964139.597 4 197689222.813 2       488.464          36.000  
C 8  37392796.120 2 194714092.513 1       840.880          36.000  
C11  25875862.548 9               9      2080.579          24.000  
C 2  38026914.452 2 198016087.821 1       -86.976          39.000  
C13  38387955.514 2 199896162.634 1      1107.402          38.000  
C 1  37713782.824 9               9       -90.234          30.000  
C 9  39549570.684 4 205944965.120 2     -1776.498          33.000  
C 6  40456167.535 8               6     -1465.420          30.000  
> 2020  3 14  8 46 31.0030000  0 18                     
G 1  21211560.800 2 111467504.280 1      1004.041          39.000  
G 7  21338436.761 2 112134230.450 1       753.454          40.000  
G11  21503953.403 2 113004042.389 1     -1508.786          41.000  
G30  23067821.465 9               9      2470.037          28.000  
C 3  37167448.685 2 193540630.101 1       -71.254          38.000  
C12  22719715.095 4 118307503.747 2       -61.597          37.000  
C24  23136769.995 2 120479204.303 1      1303.901          41.000  
G 8  23417865.678 4 123061714.86722     -2369.160          37.000  
C 7  36981631.682 2 192573024.549 1       451.797          38.000  
C26  22877706.296 2 119130220.732 1     -1492.124          39.000  
C10  37964046.099 4 197688735.780 2       486.479          34.000  
C 8  37392634.636 2 194713251.532 1       841.364          37.000  
C11  25875462.589 9               9      2095.588          23.000  
C 2  38026931.135 2 198016174.715 1       -86.398          39.000  
C13  38387742.411 2 199895054.087 1      1109.800          38.000  
C 1  37713798.913 9               7       -74.182          29.000  
C 9  39549911.592 4 205946740.515 2     -1774.007          34.000  
C 6  40456447.681 8 210667311.88634     -1461.837          31.000  
> 2020  3 14  8 46 32.0030000  0 18                     
G 1  21211369.790 2 111466499.031 1      1005.709          40.000  
G 7  21338293.774 8 112133478.637 3       751.674          41.000  
G11  21504240.389 2 113005551.872 1     -1510.188          41.000  
G30  23067355.370 9               9      2469.667          28.000  
C 3  37167462.331 2 193540700.841 1       -69.093          40.000  
C12  22719726.857 8 118307567.752 4       -61.661          36.000  
C24  23136519.654 4 120477900.739 2      1302.382          44.000  
G 8  23418322.106 8 123064084.56824     -2369.705          35.000  
C 7  36981545.163 2 192572573.588 1       451.563          38.000  
C26  22877992.270 4 119131711.171 2     -1489.298          39.000  
C10  37963953.055 4 197688251.005 2       483.960          36.000  
C 8  37392472.977 4 194712408.841 2       844.894          37.000  
C11  25875066.050 9               9      2100.398          23.000  
C 2  38026947.468 4 198016260.412 2       -84.802          32.000  
C13  38387529.100 2 199893942.754 1      1113.265          40.000  
C 1  37713813.641 9               8       -75.706          29.000  
C 9  39550251.661 4 205948513.025 2     -1770.332          34.000  
C 6  40456730.793 8 210668770.88025     -1457.143          30.000  
> 2020  3 14  8 46 33.0030000  0 18                     
G 1  21211178.361 2 111465492.362 1      1006.793          39.000  
G 7  21338151.171 4 112132727.949 2       749.185          41.000  
G11  21504527.969 2 113007062.257 1     -1511.520          40.000  
G30  23066884.947 9               9      2469.624          27.000  
C 3  37167475.558 4 193540769.252 2       -68.572          38.000  
C12  22719739.316 8 118307632.859 3       -66.895          38.000  
C24  23136269.453 2 120476598.926 1      1300.824          43.000  
G 8  23418767.924 9               6     -2371.947          35.000  
C 7  36981458.575 2 192572123.245 1       449.533          40.000  
C26  22878277.686 4 119133199.468 2     -1486.634          41.000  
C10  37963860.394 8 197687768.216 4       483.129          34.000  
C 8  37392310.585 4 194711563.809 2       846.971          36.000  
C11  25874663.718 9               9      2093.901          24.000  
C 2  38026963.697 9               9       -85.498          28.000  
C13  38387315.195 4 199892828.373 2      1114.069          37.000  
C 1  37713829.032 9 196385772.62535       -78.071          35.000  
C 9  39550591.662 4 205950282.761 2     -1768.501          34.000  
C 6  40457009.159 8               6     -1452.417          30.000  
> 2020  3 14  8 46 34.0030000  0 18                     
G 1  21210986.653 2 111464484.571 1      1009.499          40.000  
G 7  21338009.056 2 112131980.377 1       745.654          41.000  
G11  21504815.304 2 113008574.379 1     -1513.733          42.000  
G30  23066420.666 9               9      2461.230          27.000  
C 3  37167488.437 4 193540836.282 2       -67.123          37.000  
C12  22719752.055 4 118307700.783 2       -68.622          38.000  
C 4  39241935.246 9               9       -67.742          35.000  
C24  23136020.263 2 120475300.617 1      1296.693          43.000  
G 8  23419226.760 9               9     -2371.956          27.000  
C 7  36981372.232 2 192571674.005 1       448.260          40.000  
C26  22878563.450 4 119134685.460 2     -1484.070          42.000  
C10  37963768.606 8 197687289.261 3       476.850          34.000  
C 8  37392148.054 4 194710717.035 2       847.858          36.000  
C11  25874265.120 9               9      2078.479          23.000  
C 2  38026979.786 9               9       -67.822          28.000  
C13  38387100.732 4 199891711.700 2      1117.985          36.000  
C 1  37713843.586 8 196385848.51723       -73.606          36.000  
C 9  39550931.557 9 205952047.32234     -1766.169          35.000  
> 2020  3 14  8 46 35.0030000  0 18                     
G 1  21210794.631 2 111463475.939 1      1009.044          41.000  
G 7  21337867.186 2 112131234.987 1       745.111          41.000  
G11  21505103.198 2 113010088.706 1     -1514.440          39.000  
G30  23065947.312 9               7      2449.608          26.000  
C 3  37167500.652 4 193540901.428 2       -63.680          36.000  
C12  22719765.666 4 118307770.746 2       -69.897          40.000  
C 4  39241947.287 9               6       -63.462          35.000  
C24  23135771.284 2 120474005.430 1      1294.392          44.000  
G 8  23419676.452 9               6     -2381.376          35.000  
C 7  36981285.749 4 192571226.628 2       447.282          36.000  
C26  22878848.657 2 119136169.584 1     -1482.926          41.000  
C10  37963676.887 4 197686813.580 2       474.762          37.000  
C 8  37391984.825 4 194709868.200 2       849.506          38.000  
C11  25873864.637 9               9      2097.919          22.000  
C 2  38026995.317 9 198016512.03534       -84.686          33.000  
C13  38386885.710 8 199890592.198 3      1119.094          34.000  
C 1  37713858.000 4 196385921.74022       -72.223          33.000  
C 9  39551272.115 9               9     -1775.781          23.000  
> 2020  3 14  8 46 36.0030000  0 17                     
G 1  21210602.260 4 111462465.400 2      1012.227          37.000  
G 7  21337725.770 2 112130491.270 1       742.209          42.000  
G11  21505393.709 9               7     -1512.391          25.000  
G30  23065477.936 9               8      2447.917          31.000  
C 3  37167512.727 4 193540960.17532       -61.553          38.000  
C12  22719780.255 4 118307842.227 1       -71.717          38.000  
C 4  39241962.992 8 204343146.65833       -58.284          38.000  
C24  23135523.002 1 120472711.905 1      1292.998          43.000  
G 8  23420125.656 8 123073590.62934     -2374.439          40.000  
C 7  36981201.010 9               9       449.646          27.000  
C26  22879133.270 2 119137650.863 1     -1479.406          42.000  
C10  37963586.042 4 197686339.676 2       473.539          40.000  
C 8  37391821.560 2 194709017.066 2       852.648          38.000  
C11  25873463.143 9               9      2100.054          23.000  
C 2  38027012.034 9               6       -85.030          34.000  
C13  38386670.270 4 199889470.445 3      1122.529          34.000  
C 1  37713871.297 4 196385992.92032       -67.640          36.000  
> 2020  3 14  8 46 37.0030000  0 18                     
G 1  21210409.853 2 111461453.830 1      1010.971          39.000  
G 7  21337584.911 2 112129749.441 1       739.973          39.000  
G11  21505680.172 9               7     -1516.071          35.000  
G30  23065010.409 8 121207446.93033      2447.030          42.000  
C 3  37167524.907 4 193541022.28422       -62.691          38.000  
C12  22719794.215 4 118307915.444 1       -73.877          39.000  
C 4  39241969.519 8 204343203.78622       -56.127          34.000  
C24  23135275.174 4 120471420.563 2      1291.617          42.000  
G 8  23420578.698 9               6     -2377.057          31.000  
C 7  36981114.841 9               6       447.300          32.000  
C26  22879417.394 2 119139130.141 1     -1479.441          41.000  
C10  37963495.370 9               9       471.677          29.000  
C 8  37391657.982 4 194708164.348 2       852.413          35.000  
C11  25873063.777 9               9      2093.391          23.000  
C 2  38027028.542 8 198016684.54934       -87.347          30.000  
C13  38386454.795 8 199888346.961 4      1124.918          31.000  
C 1  37713884.280 4 196386059.12322       -64.130          38.000  
C 9  39551951.452 9               9     -1764.550          25.000  
> 2020  3 14  8 46 38.0030000  0 19                     
G 1  21210217.203 4 111460442.181 2      1011.167          41.000  
G 7  21337443.704 8               9       739.183          28.000  
G11  21505967.716 9               6     -1515.447          39.000  
G30  23064544.140 8 121205000.92124      2448.086          32.000  
C 3  37167536.669 4 193541083.64622       -60.587          38.000  
C12  22719806.535 4 118307989.910 2       -74.270          31.000  
C 4  39241981.839 4 204343259.27822       -53.877          35.000  
C24  23135027.765 8               6      1289.984          40.000  
G 8  23421035.545 8               6     -2377.567          39.000  
C 7  36981028.881 9               7       447.833          29.000  
C26  22879701.065 2 119140608.685 1     -1478.423          43.000  
C10  37963406.933 9               9       476.987          33.000  
C 8  37391493.880 4 194707310.852 2       853.925          34.000  
C11  25872663.364 9               9      2079.259          25.000  
C25  27049596.301 9               9      2916.626          22.000  
C 2  38027045.224 9               7       -84.321          35.000  
C13  38386241.379 9               6      1123.458          31.000  
C 1  37713896.914 4 196386124.03922       -64.977          36.000  
C 9  39552291.208 9               6     -1763.320          35.000  
> 2020  3 14  8 46 39.0030000  0 18                     
G 1  21210024.762 2 111459430.805 2      1011.518          41.000  
G 7  21337303.160 9               6       746.484          30.000  
G11  21506255.889 8 113016138.72532     -1516.077          42.000  
G30  23064080.662 9               9      2458.091          31.000  
C 3  37167548.814 4 193541145.17922       -61.407          40.000  
C12  22719822.484 8               6       -42.677          31.000  
C 4  39241992.379 4 204343313.81322       -53.074          37.000  
C24  23134780.914 9 120468843.28135      1290.920          38.000  
G 8  23421488.797 8 123080748.54033     -2377.142          40.000  
C 7  36980942.852 8 192569442.46933       447.281          40.000  
C26  22879984.980 2 119142087.134 1     -1477.854          42.000  
C10  37963316.959 9               6       471.748          33.000  
C 8  37391330.302 4 194706457.442 2       853.308          37.000  
C11  25872264.033 9               9      2074.503          31.000  
C 2  38027061.872 8 198016858.86824       -89.358          31.000  
C13  38386028.242 9               7      1122.610          31.000  
C 1  37713909.234 4 196386188.22422       -63.567          35.000  
C 9  39552633.651 9               7     -1761.243          27.000  
> 2020  3 14  8 46 40.0030000  0 17                     
G 1  21209832.635 2 111458419.625 1      1010.386          41.000  
G 7  21337159.964 8 112127532.17633       737.282          42.000  
G11  21506545.249 4 113017654.69721     -1516.798          42.000  
C 3  37167561.029 2 193541206.54521       -61.456          40.000  
C12  22719835.676 9 118308114.76335       -76.103          38.000  
C 4  39242002.255 4 204343366.76422       -52.321          36.000  
C24  23134530.469 8 120467554.70623      1288.333          43.000  
G 8  23421937.861 8 123083124.50822     -2376.437          36.000  
C 7  36980854.274 4 192568994.32522       447.727          38.000  
C26  22880269.035 2 119143565.256 1     -1477.313          42.000  
C10  37963224.473 8 197684451.53733       469.711          39.000  
C 8  37391166.479 8 194705603.805 3       853.334          35.000  
C11  25871865.750 9               7      2072.935          30.000  
C 2  38027078.763 9               9       -89.111          31.000  
C13  38385813.290 9               9      1121.465          26.000  
C 1  37713921.484 4 196386251.34222       -62.631          36.000  
C 9  39552975.152 9               7     -1765.862          27.000  
> 2020  3 14  8 46 41.0030000  0 18                     
G 1  21209640.264 2 111457408.788 1      1010.645          42.000  
G 7  21337022.177 4 112126795.09521       736.466          42.000  
G11  21506832.619 8 113019170.43123     -1514.365          38.000  
G30  23063150.426 9               6      2443.165          41.000  
C 3  37167572.407 2 193541268.05221       -61.363          39.000  
C12  22719854.418 8 118308191.85822       -77.302          39.000  
C 4  39242012.830 4 204343426.78332       -51.617          36.000  
C24  23134285.537 4 120466266.57421      1287.739          42.000  
G 8  23422389.298 8 123085499.38823     -2372.956          35.000  
C 7  36980768.524 8 192568545.58624       448.981          36.000  
C26  22880552.915 4 119145043.427 2     -1478.578          42.000  
C10  37963130.521 8 197683981.36623       468.874          35.000  
C 8  37391002.273 4 194704750.155 2       852.916          34.000  
C11  25871470.258 9               9      2090.876          24.000  
C 2  38027095.900 9 198017035.24635       -89.353          31.000  
C13  38385594.674 9 199883833.01335      1124.610          34.000  
G17  24953353.823 9               9      1697.177          29.000  
C 1  37713933.559 4 196386313.85722       -61.823          36.000  
> 2020  3 14  8 46 42.0030000  0 18                     
G 1  21209448.067 2 111456398.102 1      1011.157          40.000  
G 7  21336881.737 4 112126058.70122       734.981          38.000  
G11  21507121.001 8 113020685.89023     -1514.740          39.000  
G30  23062687.297 9 121195231.16634      2439.029          36.000  
C 3  37167584.273 4 193541329.49622       -61.405          39.000  
C12  22719866.110 8 118308269.40722       -77.782          38.000  
C 4  39242022.742 4 204343477.52023       -49.615          36.000  
C24  23134037.570 8 120464978.52723      1289.329          36.000  
G 8  23422838.711 8 123087873.60923     -2373.393          39.000  
C 7  36980681.692 9               7       451.156          30.000  
C26  22880836.411 2 119146521.273 1     -1477.629          42.000  
C10  37963045.573 9               7       468.878          35.000  
C 8  37390838.276 8 194703896.417 3       853.434          34.000  
C11  25871069.461 9               9      2075.474          24.000  
C 2  38027113.175 8 198017126.08535       -88.800          32.000  
C13  38385374.906 9 199882709.91725      1122.255          29.000  
C 1  37713945.041 4 196386376.58032       -61.725          36.000  
C 9  39553654.628 9               9     -1764.198          23.000  
> 2020  3 14  8 46 43.0030000  0 21                     
G 1  21209255.801 2 111455387.752 1      1010.535          40.000  
G 7  21336741.124 4 112125323.30922       735.283          41.000  
G11  21507410.326 4 113022201.43221     -1515.391          42.000  
G30  23062222.877 9               9      2441.398          35.000  
C 3  37167596.349 2 193541390.47111       -61.263          40.000  
C12  22719881.710 4 118308347.87922       -77.743          37.000  
C 4  39242031.990 4 204343527.14132       -49.624          35.000  
C24  23133789.358 4 120463691.23822      1287.173          44.000  
G 8  23423291.858 4 123090246.95022     -2373.226          42.000  
C 7  36980597.652 8 192567631.88933       450.301          39.000  
C26  22881120.117 2 119147999.048 1     -1477.545          42.000  
C10  37962952.075 9               6       470.480          38.000  
C 8  37390674.278 4 194703042.711 2       853.638          35.000  
C11  25870670.968 9               9      2069.246          24.000  
C25  27046801.404 9               9      2912.354          23.000  
C 2  38027130.416 9 198017215.73135       -90.046          32.000  
C13  38385159.256 9 199881565.46535      1123.127          37.000  
G17  24952699.056 9               7      1695.849          28.000  
C 1  37713956.628 4 196386437.51622       -60.566          35.000  
C 9  39553994.663 9               9     -1755.702          21.000  
C 6  40459779.067 9               9     -1434.051          29.000  
> 2020  3 14  8 46 44.0030000  0 18                     
G 1  21209063.499 2 111454377.825 1      1008.909          41.000  
G 7  21336602.499 2 112124589.22221       733.214          41.000  
G11  21507698.045 2 113023717.32821     -1516.328          42.000  
G30  23061757.724 8 121190354.13834      2438.120          41.000  
C 3  37167607.901 2 193541452.056 1       -62.438          40.000  
C12  22719898.044 4 118308427.39521       -80.472          39.000  
C 4  39242041.065 4 204343575.77322       -49.003          36.000  
C24  23133542.681 2 120462404.80421      1285.410          44.000  
G 8  23423742.144 4 123092619.99522     -2372.799          40.000  
C 7  36980511.552 4 192567181.81121       449.403          39.000  
C26  22881403.997 2 119149476.771 1     -1478.305          43.000  
C10  37962863.812 8 197682551.76632       469.868          39.000  
C 8  37390510.281 4 194702188.926 2       853.931          35.000  
C11  25870304.374 9               9      2109.702          30.000  
C 2  38027147.587 8 198017306.09024       -91.961          32.000  
C13  38384943.641 4 199880442.88222      1121.616          38.000  
C 1  37713968.076 2 196386497.78021       -60.381          36.000  
C 9  39554330.824 9               9     -1758.668          20.000  
> 2020  3 14  8 46 45.0030000  0 18                     
G 1  21208871.652 2 111453368.495 1      1008.639          40.000  
G 7  21336464.049 2 112123856.47621       732.148          41.000  
G11  21507988.486 2 113025233.95321     -1517.987          42.000  
G30  23061292.640 4 121187916.72422      2437.225          41.000  
C 3  37167619.697 2 193541513.762 1       -61.791          40.000  
C12  22719912.772 2 118308515.96731       -81.031          39.000  
C 4  39242050.348 2 204343623.71521       -47.866          36.000  
C24  23133296.738 2 120461115.43131      1284.474          44.000  
G 8  23424193.371 4 123094993.25522     -2374.447          40.000  
C 7  36980422.731 4 192566733.87631       449.738          39.000  
C26  22881687.772 1 119150954.709 1     -1478.663          43.000  
C10  37962771.430 4 197682082.41521       468.848          38.000  
C 8  37390346.284 4 194701335.418 2       853.263          35.000  
C11  25869906.474 9               6      2110.115          31.000  
C 2  38027165.456 8 198017398.06733       -90.087          32.000  
C13  38384731.062 4 199879335.39232      1122.396          36.000  
C 1  37713979.558 2 196386557.73322       -60.247          38.000  
C 9  39554665.345 9               9     -1770.779          21.000  
> 2020  3 14  8 46 46.0030000  0 17                     
G 1  21208679.734 2 111452360.149 1      1007.493          41.000  
G 7  21336323.505 1 112123124.27921       732.695          41.000  
G11  21508276.904 2 113026751.46021     -1517.631          42.000  
G30  23060832.513 4 121185479.53821      2438.139          41.000  
C 3  37167632.157 1 193541575.482 1       -61.453          40.000  
C12  22719927.534 2 118308596.82021       -80.608          40.000  
C 4  39242059.527 2 204343672.32022       -49.575          36.000  
C24  23133049.643 1 120459830.49621      1285.250          45.000  
G 8  23424643.378 4 123097367.02722     -2373.791          39.000  
C 7  36980337.015 4 192566284.43321       448.931          41.000  
C26  22881971.897 1 119152433.392 1     -1479.273          43.000  
C10  37962682.783 4 197681613.20521       469.892          39.000  
C 8  37390182.461 4 194700482.153 2       853.191          37.000  
C25  27045124.089 9               9      2941.358          31.000  
C 2  38027183.290 8 198017490.65334       -89.271          33.000  
C13  38384513.563 4 199878212.92721      1122.170          39.000  
C 1  37713991.354 2 196386618.02021       -60.852          38.000  
> 2020  3 14  8 46 47.0030000  0 17                     
G 1  21208488.166 2 111451352.776 1      1007.154          41.000  
G 7  21336183.903 1 112122392.06621       732.500          41.000  
G11  21508565.984 1 113028269.76121     -1517.990          43.000  
G30  23060367.290 4 121183041.58021      2438.537          41.000  
C 3  37167644.058 2 193541637.043 1       -60.907          40.000  
C12  22719942.995 2 118308677.25821       -79.637          40.000  
C 4  39242069.020 2 204343722.24321       -49.799          37.000  
C24  23132802.862 1 120458545.45521      1285.625          44.000  
G 8  23425096.350 4 123099741.37721     -2373.118          40.000  
C 7  36980250.741 4 192565835.17421       449.677          40.000  
C26  22882255.777 1 119153913.109 1     -1479.123          44.000  
C10  37962591.763 4 197681143.44421       470.911          40.000  
C 8  37390018.883 4 194699629.201 2       853.423          37.000  
C25  27044546.627 9               6      2917.216          36.000  
C 2  38027200.252 4 198017579.37523       -89.600          33.000  
C13  38384298.541 4 199877090.35621      1122.996          38.000  
C 1  37714002.906 4 196386679.16222       -60.802          37.000  
> 2020  3 14  8 46 48.0030000  0 17                     
G 1  21208296.248 2 111450345.387 1      1007.393          40.000  
G 7  21336045.034 1 112121659.85121       732.352          41.000  
G11  21508854.715 1 113029787.70121     -1517.974          42.000  
G30  23059902.940 4 121180603.39021      2437.513          41.000  
C 3  37167655.400 2 193541698.007 1       -60.119          40.000  
C12  22719958.840 2 118308757.55021       -79.918          40.000  
C 4  39242078.164 2 204343771.18622       -49.049          39.000  
C24  23132555.907 1 120457260.08421      1285.795          45.000  
G 8  23425549.044 4 123102114.70822     -2372.008          40.000  
C 7  36980162.862 2 192565385.14721       450.275          40.000  
C26  22882540.041 2 119155392.455 1     -1478.698          40.000  
C10  37962501.371 2 197680672.96421       470.691          40.000  
C 8  37389854.711 4 194698775.694 2       854.956          35.000  
C25  27043992.094 9 140825101.92334      2917.811          36.000  
C 2  38027217.144 8 198017667.47633       -89.256          33.000  
C13  38384083.904 4 199875967.27822      1124.478          38.000  
C 1  37714014.703 2 196386739.50821       -59.737          39.000  
> 2020  3 14  8 46 49.0030000  0 17                     
G 1  21208104.575 2 111449338.521 1      1007.164          40.000  
G 7  21335905.817 1 112120927.65911       731.723          41.000  
G11  21509143.481 1 113031305.42211     -1518.014          42.000  
G30  23059437.961 2 121178165.60521      2438.002          42.000  
C 3  37167667.336 2 193541758.823 1       -60.832          40.000  
C12  22719974.406 2 118308838.02521       -80.237          40.000  
C 4  39242087.447 2 204343820.04821       -48.348          37.000  
C24  23132309.056 1 120455974.99021      1285.746          46.000  
G 8  23426000.167 4 123104487.48612     -2371.577          38.000  
C 7  36980078.473 2 192564934.88521       450.060          40.000  
C26  22882824.095 2 119156872.159 1     -1479.327          43.000  
C10  37962410.560 4 197680202.19921       471.436          39.000  
C 8  37389690.854 4 194697922.425 2       853.051          35.000  
C25  27043426.532 9               9      2919.986          32.000  
C 2  38027234.489 8 198017757.53534       -89.053          33.000  
C13  38383865.950 4 199874844.23922      1123.920          40.000  
C 1  37714026.429 2 196386799.25611       -60.903          37.000  
> 2020  3 14  8 46 50.0030000  0 18                     
G 1  21207913.251 2 111448332.735 1      1005.123          39.000  
G 7  21335766.669 1 112120196.650 1       730.436          41.000  
G11  21509432.771 1 113032824.544 1     -1520.270          44.000  
G30  23058974.728 2 121175728.17121      2436.808          41.000  
C 3  37167678.888 2 193541819.937 1       -62.098          40.000  
C12  22719989.971 2 118308918.92221       -81.379          40.000  
C 4  39242097.185 4 204343869.736 2       -50.080          36.000  
C24  23132062.275 1 120454690.37821      1283.937          45.000  
G 8  23426451.674 4 123106861.262 2     -2373.198          40.000  
C 7  36979992.129 2 192564484.96821       449.351          40.000  
C26  22883108.429 1 119158352.830 1     -1481.728          42.000  
C10  37962321.773 2 197679731.57521       470.352          39.000  
C 8  37389527.171 4 194697069.607 3       852.015          33.000  
C 9  39556373.861 9               9     -1752.637          29.000  
C25  27042878.212 9               9      2927.125          28.000  
C 2  38027251.660 8 198017846.61423       -88.859          33.000  
C13  38383652.499 9               7      1124.406          28.000  
C 1  37714038.295 2 196386860.013 1       -60.045          38.000  
> 2020  3 14  8 46 51.0030000  0 20                     
G 1  21207722.241 2 111447328.355 1      1003.479          41.000  
G 7  21335627.695 1 112119466.639 1       729.035          41.000  
G11  21509722.200 1 113034344.893 1     -1520.958          43.000  
G30  23058511.215 2 121173291.17921      2437.142          41.000  
C 3  37167690.266 2 193541881.470 1       -62.387          40.000  
C12  22720005.711 2 118309000.52721       -82.500          40.000  
C 4  39242106.887 2 204343920.318 1       -50.775          38.000  
C24  23131815.808 1 120453406.60121      1283.528          45.000  
G 8  23426904.018 4 123109235.870 2     -2374.904          39.000  
C 7  36979905.471 2 192564035.88821       448.275          40.000  
C26  22883392.973 2 119159834.662 1     -1482.987          42.000  
C10  37962230.229 2 197679260.84511       471.011          40.000  
C 8  37389363.837 8 194696217.554 3       849.324          35.000  
C 9  39556708.451 9               6     -1766.646          29.000  
C25  27042303.646 9               9      2919.000          29.000  
C 2  38027268.936 8 198017936.69833       -89.643          33.000  
C13  38383438.280 9               9      1122.588          22.000  
G17  24950108.152 9               9      1696.777          31.000  
C 1  37714049.952 4 196386923.20932       -61.707          35.000  
G28  25367029.767 8               9      1754.231          29.000  
> 2020  3 14  8 46 52.0030000  0 21                     
G 1  21207531.370 2 111446324.944 1      1003.331          39.000  
G 7  21335489.036 1 112118737.336 1       729.329          41.000  
G11  21510011.700 1 113035866.051 1     -1521.138          43.000  
G30  23058047.772 2 121170854.66721      2436.630          41.000  
C 3  37167702.341 2 193541943.124 1       -61.121          40.000  
C12  22720021.661 2 118309082.58721       -81.979          40.000  
C 4  39242116.659 2 204343971.378 1       -51.136          38.000  
C24  23131569.481 1 120452123.33121      1283.554          45.000  
G 8  23427355.525 4 123111610.882 3     -2376.429          35.000  
C 7  36979819.337 2 192563587.05621       448.742          40.000  
C26  22883677.970 2 119161317.202 1     -1482.177          43.000  
C10  37962140.151 2 197678790.818 1       470.270          40.000  
C 8  37389196.489 4 194695365.799 2       852.501          35.000  
C 9  39557048.207 9               7     -1765.240          28.000  
C25  27041745.064 9               7      2914.833          34.000  
C 2  38027285.932 9               7       -86.080          31.000  
C13  38383223.084 9               7      1123.490          30.000  
G17  24949786.684 9               9      1702.667          25.000  
C 1  37714061.399 4 196386983.15432       -61.686          36.000  
C 5  40139605.508 9               9       -90.828          30.000  
G28  25366697.270 9 133302893.83335      1744.843          32.000  
> 2020  3 14  8 46 53.0030000  0 20                     
G 1  21207340.395 1 111445321.735 1      1002.686          40.000  
G 7  21335350.097 1 112118008.247 1       728.959          41.000  
G11  21510300.989 1 113037387.397 1     -1521.101          41.000  
G30  23057584.190 2 121168418.26821      2436.264          39.000  
C 3  37167714.207 2 193542004.254 1       -60.919          39.000  
C12  22720037.610 2 118309164.50921       -81.774          39.000  
C 4  39242126.326 2 204344022.015 1       -50.394          37.000  
C24  23131323.118 1 120450840.07521      1283.643          44.000  
G 8  23427807.067 4 123113985.601 2     -2374.476          39.000  
C 7  36979732.993 2 192563137.88621       449.509          39.000  
C26  22883962.548 2 119162799.729 1     -1482.334          41.000  
C10  37962049.934 2 197678320.313 1       471.394          39.000  
C 8  37389035.389 4 194694513.691 2       852.848          34.000  
C25  27041196.360 9               9      2918.897          34.000  
C 2  38027302.999 8 198018114.23634       -87.860          32.000  
C13  38383018.777 9               9      1117.743          23.000  
G17  24949462.459 9               9      1697.845          26.000  
C 1  37714073.266 2 196387044.70721       -61.643          37.000  
C 5  40139617.898 9               9       -69.482          29.000  
G28  25366375.244 9               9      1746.387          32.000  
> 2020  3 14  8 46 54.0030000  0 20                     
G 1  21207149.525 2 111444319.424 1      1001.423          41.000  
G 7  21335211.577 1 112117279.899 1       728.184          40.000  
G11  21510590.488 1 113038909.313 1     -1522.281          42.000  
G30  23057120.607 2 121165982.17422      2435.534          41.000  
C 3  37167725.725 2 193542065.661 1       -61.422          39.000  
C12  22720053.455 2 118309246.96421       -82.657          39.000  
C 4  39242136.238 2 204344072.999 1       -51.147          37.000  
C24  23131076.861 1 120449557.32021      1282.455          43.000  
G 8  23428259.167 2 123116360.433 1     -2374.541          41.000  
C 7  36979646.859 2 192562688.83421       448.743          39.000  
C26  22884247.196 1 119164282.970 1     -1483.674          42.000  
C10  37961959.437 2 197677849.882 1       470.439          37.000  
C 8  37388870.694 4 194693662.123 2       851.281          36.000  
C25  27040626.959 9               9      2918.408          33.000  
C 2  38027319.821 8 198018202.01233       -90.441          32.000  
C13  38382797.892 9               7      1123.614          30.000  
G17  24949141.759 9               9      1704.590          31.000  
C 1  37714085.306 4 196387106.52522       -62.092          36.000  
C 5  40139634.964 9               9       -84.131          28.000  
G28  25366041.282 9               9      1779.571          29.000  
> 2020  3 14  8 46 55.0030000  0 20                     
G 1  21206958.829 2 111443317.646 1      1000.967          41.000  
G 7  21335073.162 1 112116551.610 1       727.897          41.000  
G11  21510880.197 1 113040431.529 1     -1522.491          42.000  
G30  23056656.955 2 121163545.86121      2437.300          41.000  
C 3  37167737.800 1 193542126.708 1       -61.130          41.000  
C12  22720069.370 1 118309329.17421       -82.382          39.000  
C 4  39242145.906 2 204344120.30831       -52.177          36.000  
C24  23130830.638 1 120448274.38321      1283.140          44.000  
G 8  23428711.268 2 123118735.308 1     -2376.559          39.000  
C 7  36979560.480 2 192562239.59921       449.247          40.000  
C26  22884532.123 1 119165766.593 1     -1483.895          42.000  
C10  37961868.801 2 197677378.921 1       471.049          39.000  
C 8  37388708.686 4 194692810.422 2       851.423          36.000  
C25  27040067.226 9               7      2918.676          34.000  
C 2  38027337.027 8 198018290.91133       -88.224          32.000  
C13  38382575.646 9 199868146.94834      1121.406          39.000  
G17  24948821.199 9               9      1709.156          25.000  
C 1  37714097.068 2 196387168.40021       -62.271          37.000  
C 5  40139649.937 9               6       -86.463          30.000  
G28  25365708.995 9 133297700.22735      1747.609          34.000  
> 2020  3 14  8 46 56.0030000  0 19                     
G 1  21206768.237 1 111442317.010 1      1000.048          41.000  
G 7  21334934.817 1 112115823.522 1       728.397          42.000  
G11  21511170.010 1 113041954.554 1     -1523.586          42.000  
G30  23056193.443 2 121161108.99821      2436.870          42.000  
C 3  37167749.876 1 193542187.904 1       -61.037          40.000  
C12  22720085.040 1 118309411.22421       -81.811          39.000  
C 4  39242155.852 2 204344172.93021       -53.049          36.000  
C24  23130584.625 1 120446991.51821      1283.028          45.000  
G 8  23429163.193 2 123121110.490 1     -2375.243          40.000  
C 7  36979474.276 2 192561790.63121       448.853          40.000  
C26  22884817.608 1 119167251.396 1     -1485.400          42.000  
C10  37961778.024 2 197676907.512 1       471.818          39.000  
C 8  37388545.491 4 194691959.423 2       849.641          35.000  
C25  27039505.154 9               9      2929.053          33.000  
C 2  38027353.779 9               7       -88.633          31.000  
C13  38382356.716 8 199867024.85122      1122.438          36.000  
C 1  37714109.073 2 196387231.21022       -63.591          36.000  
C 5  40139669.481 9               9       -98.682          29.000  
G28  25365372.170 9 133295930.05535      1748.328          34.000  
> 2020  3 14  8 46 57.0030000  0 20                     
G 1  21206578.135 1 111441317.414 1       999.332          41.000  
G 7  21334796.297 1 112115095.593 1       728.281          41.000  
G11  21511459.998 1 113043478.082 1     -1523.828          42.000  
G30  23055729.720 1 121158671.57521      2437.711          41.000  
C 3  37167761.428 2 193542249.123 1       -61.027          39.000  
C12  22720100.641 1 118309493.191 1       -81.646          39.000  
C 4  39242166.218 4 204344226.32022       -53.531          37.000  
C24  23130337.879 1 120445708.05711      1283.324          44.000  
G 8  23429616.829 9               9     -2380.890          22.000  
C 7  36979387.933 2 192561341.700 1       449.126          40.000  
C26  22885102.919 2 119168737.101 1     -1485.854          42.000  
C10  37961687.528 1 197676435.563 1       472.438          37.000  
C 8  37388381.704 4 194691108.647 2       850.612          34.000  
C25  27038949.051 9               7      2925.621          35.000  
C 2  38027370.741 9 198018465.24725       -87.109          31.000  
C13  38382142.916 4 199865902.99222      1122.010          36.000  
G17  24948177.600 9               9      1697.595          25.000  
C 1  37714121.219 4 196387294.65722       -63.154          36.000  
C 5  40139686.163 9               9       -77.197          27.000  
G28  25365039.255 8 133294180.82924      1749.663          35.000  
> 2020  3 14  8 46 58.0030000  0 20                     
G 1  21206387.823 1 111440318.775 1       997.520          40.000  
G 7  21334657.742 1 112114367.868 1       727.687          42.000  
G11  21511749.916 1 113045002.331 1     -1524.511          42.000  
G30  23055265.719 1 121156233.76921      2438.079          41.000  
C 3  37167773.154 2 193542310.274 1       -61.257          39.000  
C12  22720116.625 1 118309575.005 1       -82.174          39.000  
C 4  39242176.967 2 204344280.76722       -55.679          37.000  
C24  23130091.622 1 120444425.182 1      1282.688          44.000  
G 8  23430069.383 9               6     -2374.958          33.000  
C 7  36979301.659 1 192560892.989 1       448.817          40.000  
C26  22885388.510 1 119170223.690 1     -1486.922          42.000  
C10  37961597.066 2 197675963.314 1       472.238          38.000  
C 8  37388218.125 4 194690258.261 2       850.605          34.000  
C25  27038380.243 9               6      2921.053          33.000  
C 2  38027387.528 8 198018554.46033       -86.228          32.000  
C13  38381926.428 4 199864781.10022      1122.146          40.000  
G17  24947856.516 9               9      1698.261          26.000  
C 1  37714133.504 4 196387358.71322       -64.636          36.000  
C 5  40139701.415 9               9       -86.230          29.000  
G28  25364706.305 8 133292430.52823      1751.449          34.000  
> 2020  3 14  8 46 59.0030000  0 20                     
G 1  21206198.348 2 111439321.271 1       998.207          39.000  
G 7  21334519.222 1 112113640.447 1       728.272          41.000  
G11  21512040.078 1 113046527.486 1     -1525.403          42.000  
G30  23054801.508 1 121153795.60421      2438.533          41.000  
C 3  37167785.404 2 193542371.584 1       -59.820          39.000  
C12  22720132.156 2 118309656.792 1       -80.615          39.000  
C 4  39242187.856 4 204344336.37122       -55.844          36.000  
C24  23129845.225 1 120443142.444 1      1283.448          45.000  
G 8  23430518.168 9 123128203.82534     -2378.188          41.000  
C 7  36979215.420 2 192560444.598 1       449.156          40.000  
C26  22885674.135 1 119171711.423 1     -1487.383          42.000  
C10  37961506.359 2 197675490.779 1       472.853          39.000  
C 8  37388054.861 4 194689408.476 2       850.912          34.000  
C25  27037817.683 9 140793025.86735      2923.602          35.000  
C 2  38027403.966 8 198018640.11523       -83.375          32.000  
C13  38381712.524 8               9      1124.113          29.000  
G17  24947536.967 9               6      1697.618          27.000  
C 1  37714146.242 4 196387423.16012       -65.031          36.000  
C 5  40139718.272 9               9       -97.119          29.000  
G28  25364369.795 8 133290679.00523      1751.724          35.000  
> 2020  3 14  8 47  0.0030000  0 18                     
G 1  21206008.943 1 111438324.689 1       995.721          41.000  
G 7  21334380.633 1 112112912.736 1       727.546          41.000  
G11  21512330.205 1 113048053.375 1     -1526.709          41.000  
G30  23054337.263 1 121151356.46421      2439.501          42.000  
C 3  37167796.538 2 193542432.458 1       -60.411          39.000  
C12  22720147.686 2 118309737.981 1       -81.513          39.000  
C 4  39242198.710 4 204344393.35322       -57.869          36.000  
C24  23129598.828 1 120441859.384 1      1283.129          44.000  
G 8  23430971.315 8 123130580.63022     -2376.511          41.000  
C 7  36979129.251 2 192559996.491 1       447.594          39.000  
C26  22885960.004 1 119173200.028 1     -1489.426          42.000  
C10  37961415.549 2 197675017.573 1       473.080          38.000  
C 8  37387892.085 4 194688558.797 2       848.978          34.000  
C 2  38027420.229 4 198018724.39623       -83.982          32.000  
C13  38381500.259 9               6      1122.886          32.000  
C 1  37714158.876 4 196387488.792 2       -66.137          36.000  
C 5  40139733.977 9               9       -85.254          29.000  
G28  25364038.346 4 133288925.43722      1753.990          36.000  
> 2020  3 14  8 47  1.0030000  0 20                     
G 1  21205819.434 1 111437329.503 1       994.137          41.000  
G 7  21334242.322 2 112112185.696 1       726.583          41.000  
G11  21512620.647 1 113049581.455 1     -1529.698          42.000  
G30  23053873.366 1 121148917.85821      2437.583          42.000  
C 3  37167808.369 2 193542493.155 1       -60.917          41.000  
C12  22720163.217 1 118309819.500 1       -82.027          39.000  
C 4  39242210.192 2 204344452.07421       -60.663          37.000  
C24  23129352.500 1 120440577.430 1      1280.997          44.000  
G 8  23431424.986 4 123132960.09322     -2381.823          39.000  
C 7  36979043.535 2 192559550.042 1       445.212          39.000  
C26  22886245.978 1 119174689.946 1     -1491.481          42.000  
C10  37961324.703 2 197674545.365 1       470.790          39.000  
C 8  37387729.031 4 194687709.522 2       848.768          35.000  
C 9  39560091.735 9               9     -1762.157          27.000  
C 2  38027436.039 8 198018806.59433       -83.879          32.000  
C13  38381280.352 8 199861389.31433      1123.105          38.000  
G17  24946900.663 9               9      1708.469          25.000  
C 1  37714171.406 4 196387555.627 2       -67.862          36.000  
C 5  40139747.658 9               9       -68.555          28.000  
G28  25363704.663 4 133287171.45122      1753.326          31.000  
> 2020  3 14  8 47  2.0030000  0 18                     
G 1  21205629.855 2 111436335.174 1       992.876          41.000  
G 7  21334104.082 2 112111459.051 1       725.478          41.000  
G11  21512912.030 2 113051112.006 1     -1532.680          41.000  
G30  23053409.295 1 121146479.99421      2437.204          42.000  
C 3  37167820.060 2 193542552.750 1       -59.506          37.000  
C12  22720178.922 2 118309901.069 1       -82.604          39.000  
C 4  39242221.639 4 204344512.288 2       -61.243          34.000  
C24  23129106.417 1 120439296.591 1      1279.955          43.000  
G 8  23431876.772 4 123135342.68021     -2385.322          39.000  
C 7  36978958.169 2 192559105.543 1       443.363          40.000  
C26  22886532.476 1 119176180.554 1     -1491.655          45.000  
C10  37961234.450 2 197674074.455 1       469.629          39.000  
C 8  37387565.906 2 194686859.809 1       849.998          38.000  
C 2  38027451.465 8 198018887.53523       -81.537          32.000  
C13  38381060.583 8 199860264.64222      1126.893          32.000  
C 1  37714184.493 2 196387622.833 2       -68.313          39.000  
C 5  40139762.316 9               9       -79.980          28.000  
G28  25363375.621 9               9      1747.751          30.000  
> 2020  3 14  8 47  3.0030000  0 19                     
G 1  21205440.660 2 111435341.704 1       992.957          41.000  
G 7  21333966.190 1 112110732.546 1       727.019          41.000  
G11  21513203.798 1 113052645.231 1     -1534.018          43.000  
G30  23052945.433 2 121144042.67621      2437.603          41.000  
C 3  37167831.019 4 193542611.142 2       -55.717          38.000  
C12  22720194.453 2 118309982.413 1       -80.921          39.000  
C 4  39242233.890 9               9       -79.248          29.000  
C24  23128860.614 1 120438016.853 1      1279.751          44.000  
G 8  23432332.118 4 123137728.85921     -2386.997          42.000  
C 7  36978873.291 1 192558663.188 1       441.377          41.000  
C26  22886819.044 1 119177671.885 1     -1491.696          44.000  
C10  37961144.756 1 197673604.858 1       469.295          40.000  
C 8  37387402.991 2 194686009.628 1       850.367          38.000  
C25  27035592.187 9               7      2937.614          26.000  
C 2  38027466.542 8 198018965.84233       -76.875          33.000  
C13  38380846.993 9               9      1127.726          26.000  
C 1  37714197.895 2 196387690.728 1       -67.677          40.000  
C 5  40139780.918 9               9       -48.584          27.000  
G28  25363059.842 9               9      1772.643          28.000  
> 2020  3 14  8 47  4.0030000  0 18                     
G 1  21205251.674 1 111434348.862 1       991.056          41.000  
G 7  21333827.565 2 112110005.299 1       726.611          39.000  
G11  21513495.496 2 113054180.185 1     -1536.307          40.000  
G30  23052481.711 2 121141604.41621      2438.420          39.000  
C 3  37167841.734 2 193542668.111 1       -57.394          39.000  
C12  22720209.879 2 118310062.719 1       -80.279          38.000  
C 4  39242246.349 9 204344642.80234       -65.188          33.000  
C24  23128614.426 2 120436737.006 1      1279.840          42.000  
G 8  23432784.777 2 123140117.55721     -2390.101          39.000  
C 7  36978788.308 2 192558221.959 1       441.240          39.000  
C26  22887105.402 1 119179163.873 1     -1492.680          44.000  
C10  37961054.608 2 197673135.309 1       468.516          38.000  
C 8  37387239.552 2 194685158.822 1       850.383          38.000  
C25  27035032.070 9               9      2930.525          26.000  
C 2  38027480.886 4 198019040.12932       -75.277          36.000  
C13  38380632.076 9 199857990.83834      1127.667          32.000  
C 1  37714211.018 2 196387759.244 1       -69.600          40.000  
C 5  40139780.115 9               9        12.549          27.000  
> 2020  3 14  8 47  5.0030000  0 18                     
G 1  21205063.002 1 111433357.065 1       990.689          41.000  
G 7  21333689.011 2 112109277.963 1       726.867          39.000  
G11  21513787.752 1 113055716.653 1     -1536.853          43.000  
G30  23052017.745 4 121139165.58722      2440.451          39.000  
C 3  37167852.623 2 193542724.434 1       -55.346          39.000  
C12  22720224.956 4 118310142.512 2       -80.100          37.000  
C 4  39242258.983 8 204344709.15633       -65.191          32.000  
C24  23128368.727 2 120435457.396 1      1280.270          42.000  
G 8  23433241.274 4 123142508.12321     -2391.016          38.000  
C 7  36978703.919 1 192557781.769 1       440.235          39.000  
C26  22887391.690 2 119180657.052 1     -1494.047          44.000  
C10  37960964.670 2 197672665.793 1       469.722          39.000  
C 8  37387076.218 4 194684308.104 2       850.408          39.000  
C25  27034470.522 9               9      2933.379          31.000  
C 2  38027495.021 4 198019113.60322       -71.330          36.000  
C13  38380416.426 8 199856860.95123      1131.532          36.000  
G17  24945601.389 9               9      1706.462          24.000  
C 1  37714224.350 2 196387828.761 1       -71.007          38.000  
> 2020  3 14  8 47  6.0030000  0 20                     
G 1  21204874.365 2 111432366.392 1       989.238          41.000  
G 7  21333550.770 2 112108550.591 1       727.645          37.000  
G11  21514080.637 1 113057254.600 1     -1538.151          42.000  
G30  23051553.569 4 121136726.30323      2439.049          35.000  
C 3  37167863.407 2 193542780.397 1       -55.381          38.000  
C12  22720240.487 4 118310222.024 2       -79.394          35.000  
C 4  39242272.001 9               7       -68.548          32.000  
C24  23128122.958 2 120434177.986 1      1279.462          41.000  
G 8  23433695.434 8 123144900.11435     -2393.322          31.000  
C 7  36978619.216 1 192557342.527 1       439.170          39.000  
C26  22887678.432 4 119182151.076 2     -1491.957          39.000  
C10  37960874.557 2 197672196.314 1       469.808          38.000  
C 8  37386912.884 2 194683457.625 1       850.527          37.000  
C 9  39561766.153 9               9     -1752.765          30.000  
C25  27033907.927 9               7      2924.120          24.000  
C 2  38027508.632 4 198019184.55032       -70.428          36.000  
C13  38380196.379 8 199855730.32222      1127.977          33.000  
G17  24945278.037 9               9      1706.462          23.000  
C 1  37714237.751 4 196387899.395 2       -70.484          36.000  
G28  25362043.437 9               9      1760.725          26.000  
> 2020  3 14  8 47  7.0030000  0 21                     
G 1  21204685.868 2 111431376.626 1       989.297          40.000  
G 7  21333412.111 2 112107823.329 1       727.157          40.000  
G11  21514373.486 1 113058793.714 1     -1540.219          41.000  
G30  23051090.475 8 121134286.43315      2438.153          31.000  
C 3  37167873.423 2 193542835.946 1       -55.451          41.000  
C12  22720256.017 4 118310301.265 2       -80.698          39.000  
C 4  39242284.949 9               6       -65.241          31.000  
C24  23127877.468 2 120432898.893 1      1278.309          42.000  
G 8  23434153.711 9               6     -2394.276          35.000  
C 7  36978535.385 2 192556903.927 1       438.227          39.000  
C26  22887965.732 4 119183646.177 2     -1495.927          41.000  
C10  37960784.549 2 197671726.830 1       468.828          37.000  
C 8  37386747.072 8 194682607.253 3       850.560          31.000  
C 9  39562100.778 9               6     -1745.207          30.000  
C25  27033346.379 9               9      2930.904          25.000  
C 2  38027522.348 8 198019255.58023       -72.095          30.000  
C13  38379980.310 8 199854598.98322      1130.256          36.000  
G17  24944953.533 9               9      1706.462          24.000  
C 1  37714251.188 8 196387970.83535       -70.873          33.000  
C 6  40466400.099 9               6     -1420.930          26.000  
G28  25361710.382 9               9      1738.461          26.000  
> 2020  3 14  8 47  8.0030000  0 21                     
G 1  21204497.406 4 111430386.740 2       989.910          36.000  
G 7  21333274.010 4 112107095.943 3       727.939          38.000  
G11  21514666.510 2 113060333.171 1     -1539.782          42.000  
G30  23050627.416 9               7      2437.794          34.000  
C 3  37167883.824 2 193542890.381 1       -52.842          38.000  
C12  22720271.513 4 118310380.104 2       -79.169          36.000  
C24  23127631.734 2 120431619.628 1      1279.836          41.000  
G 8  23434606.824 8 123149689.90834     -2393.330          40.000  
C 7  36978451.135 2 192556465.209 1       438.240          39.000  
C26  22888252.823 4 119185140.821 2     -1494.122          37.000  
C10  37960694.052 4 197671257.085 2       470.184          37.000  
C 8  37386586.844 8 194681756.015 4       852.620          38.000  
C 9  39562436.904 9               9     -1743.578          30.000  
C25  27032788.984 9               9      2933.800          27.000  
C 2  38027536.238 9               7       -92.936          28.000  
C13  38379761.799 4 199853466.46922      1133.212          40.000  
G17  24944630.599 9               9      1706.462          23.000  
C 1  37714264.520 4 196388041.04623       -68.437          36.000  
C 6  40466670.193 9               6     -1420.517          26.000  
G 4  26023079.183 9               9     -2372.023          22.000  
G28  25361376.943 9               9      1770.515          26.000  
> 2020  3 14  8 47  9.0030000  0 19                     
G 1  21204309.327 4 111429397.461 2       986.245          36.000  
G 7  21333135.664 4 112106369.783 2       723.419          37.000  
G11  21514959.813 4 113061874.055 2     -1541.527          41.000  
G30  23050165.684 9               9      2451.514          31.000  
C 3  37167894.294 4 193542944.446 2       -54.703          38.000  
C12  22720287.951 8 118310459.684 5       -79.996          30.000  
C24  23127386.663 2 120430341.721 1      1275.953          42.000  
G 8  23435062.100 4 123152084.79522     -2395.737          42.000  
C 7  36978367.200 4 192556027.370 2       437.440          38.000  
C26  22888540.228 4 119186635.721 2     -1494.635          42.000  
C10  37960604.428 4 197670788.439 2       467.099          38.000  
C 8  37386424.243 8               9       844.106          30.000  
C 9  39562768.738 8 206013686.67834     -1741.194          33.000  
C25  27032224.016 9               7      2934.076          32.000  
C 2  38027563.461 9               9      -150.293          28.000  
C13  38379543.357 8 199852322.38434      1133.230          38.000  
G17  24944302.919 9               9      1706.462          22.000  
C 1  37714277.992 9               7       -70.649          28.000  
G28  25361041.026 9               7      1760.208          32.000  
> 2020  3 14  8 47 10.0030000  0 19                     
G 1  21204121.074 9               9       984.839          32.000  
G 7  21332997.808 9               9       722.381          33.000  
G11  21515253.640 8 113063417.268 3     -1543.202          36.000  
G30  23049697.355 9               9      2430.749          32.000  
C 3  37167904.240 4 193542996.901 2       -51.576          39.000  
C12  22720306.763 9               9       -81.850          25.000  
C24  23127141.837 4 120429065.869 2      1275.030          41.000  
G 8  23435519.365 4 123154482.93622     -2398.729          42.000  
C 7  36978283.439 8 192555591.462 3       434.818          35.000  
C26  22888826.796 8 119188129.649 4     -1492.251          40.000  
C10  37960515.013 4 197670322.203 2       465.647          38.000  
C 8  37386260.176 9               6       852.333          35.000  
C 9  39563104.584 9               6     -1738.834          29.000  
C25  27031658.001 9               9      2939.083          25.000  
C13  38379324.950 8 199851186.67822      1136.205          37.000  
G17  24943977.542 9               9      1706.462          21.000  
C 1  37714291.428 9               7       -66.339          31.000  
C 6  40467211.708 9               9     -1416.860          30.000  
G28  25360702.039 9               9      1758.115          28.000  
> 2020  3 14  8 47 11.0030000  0 19                     
G 1  21203933.100 9 111427420.33835       990.545          37.000  
G 7  21332857.996 9               7       725.588          35.000  
G11  21515547.642 8 113064961.560 5     -1542.861          37.000  
G30  23049239.496 9               9      2430.454          28.000  
C 3  37167913.978 2 193543047.827 1       -51.142          40.000  
C12  22720319.990 9               9       -81.172          31.000  
C24  23126898.127 8               6      1275.979          39.000  
G 8  23435979.877 9               9     -2411.241          26.000  
C 7  36978198.875 8 192555155.869 5       436.535          35.000  
C26  22889112.316 9               8     -1493.592          38.000  
C10  37960427.238 8               7       465.634          32.000  
C 8  37386094.364 8 194679181.61533       854.215          35.000  
C 9  39563443.817 9               9     -1742.417          26.000  
C25  27031090.938 9               7      2918.554          30.000  
C 4  39242345.466 9               9        -1.898          27.000  
C13  38379106.473 9 199850046.65334      1138.846          39.000  
C 1  37714304.760 9               9       -84.717          30.000  
C 6  40467484.141 9               7     -1413.613          27.000  
G28  25360366.471 9               9      1765.024          27.000  
> 2020  3 14  8 47 12.0030000  0 22                     
G 1  21203743.312 8 111426431.71723       987.916          42.000  
G 7  21332719.930 9               9       723.630          27.000  
G11  21515840.212 8 113066507.520 5     -1552.902          31.000  
G30  23048773.017 9               9      2431.517          27.000  
C 3  37167923.750 4 193543098.871 2       -51.750          39.000  
C12  22720333.950 9               9       -81.344          25.000  
C 2  38027593.789 9               9       -72.070          29.000  
C24  23126652.114 8 120426520.93333      1273.015          40.000  
G 8  23436433.757 9               9     -2399.447          28.000  
C 7  36978116.824 9               9       434.789          27.000  
C26  22889400.350 9 119191082.05134     -1495.756          43.000  
C10  37960336.916 8 197669409.36834       465.975          32.000  
C 8  37385929.250 8 194678327.93222       854.074          38.000  
C25  27030537.034 9               7      2938.134          29.000  
C 4  39242347.490 9               6       -65.959          35.000  
C13  38378889.951 8 199848908.92923      1137.543          36.000  
G17  24943305.010 9               9      1704.443          30.000  
C 1  37714318.965 9               7       -68.546          34.000  
C 5  40139894.973 9               9       -65.031          34.000  
C 6  40467753.433 9               7     -1413.046          27.000  
G 4  26024865.143 9               9     -2366.000          20.000  
G28  25360036.243 9               8      1752.686          27.000  
> 2020  3 14  8 47 13.0030000  0 21                     
G 1  21203554.710 4 111425443.96921       988.551          42.000  
G 7  21332584.168 9 112103486.39135       722.261          41.000  
G11  21516136.202 8 113068058.25035     -1547.324          41.000  
G30  23048308.457 9               7      2430.754          28.000  
C 3  37167933.626 2 193543149.895 2       -50.324          40.000  
C12  22720347.980 9 118310782.04435       -82.700          37.000  
C 2  38027601.223 9               9       -82.471          27.000  
C24  23126407.113 8 120425247.67324      1275.072          38.000  
G 8  23436892.523 9               6     -2395.604          30.000  
C 7  36978032.260 9 192554286.07235       433.510          36.000  
C26  22889687.231 4 119192576.76622     -1494.344          44.000  
C10  37960245.965 8 197668945.21024       465.319          35.000  
C 8  37385765.288 4 194677474.66321       853.967          39.000  
C 4  39242362.393 9               9       -64.697          28.000  
C13  38378669.520 4 199847771.03922      1138.766          39.000  
G17  24942967.244 9               6      1717.427          30.000  
C 1  37714331.564 8 196388392.50933       -67.443          39.000  
C 5  40139913.993 9               9       -64.703          33.000  
C 6  40468021.014 9               6     -1411.467          28.000  
G 4  26025320.559 9               9     -2366.000          19.000  
G28  25359704.026 9               9      1772.211          25.000  
> 2020  3 14  8 47 14.0030000  0 20                     
G 1  21203366.911 4 111424456.14321       987.614          43.000  
G 7  21332442.786 9               6       722.858          34.000  
G11  21516430.762 4 113069605.65922     -1547.998          41.000  
G30  23047849.656 9               9      2431.818          33.000  
C 3  37167942.875 2 193543199.727 1       -48.229          40.000  
C12  22720364.627 8 118310864.31224       -80.939          30.000  
C 2  38027621.989 9               9      -138.037          28.000  
C24  23126164.101 4 120423974.75122      1273.550          42.000  
G 8  23437345.740 9               6     -2391.146          29.000  
C 7  36977948.639 8 192553852.19222       434.034          40.000  
C26  22889974.148 4 119194071.05521     -1494.056          43.000  
C10  37960156.969 8 197668481.28124       462.705          36.000  
C 8  37385603.734 4 194676620.38621       855.083          38.000  
C 4  39242381.065 9               9      -134.229          28.000  
C13  38378451.462 4 199846631.62622      1141.147          41.000  
G17  24942648.952 9               9      1717.837          28.000  
C 1  37714344.337 4 196388459.81322       -66.512          39.000  
C 5  40139931.793 9               9       -66.797          29.000  
C 6  40468296.449 9               7     -1408.862          29.000  
G 4  26025770.007 9               9     -2366.000          19.000  
> 2020  3 14  8 47 15.0030000  0 18                     
G 1  21203180.961 2 111423468.90421       986.824          43.000  
G 7  21332309.152 9 112102040.41135       722.817          36.000  
G11  21516724.205 4 113071154.17621     -1549.154          41.000  
G30  23047384.922 9               9      2429.487          27.000  
C 3  37167952.403 2 193543249.284 1       -49.967          40.000  
C12  22720380.891 9               7       -84.937          29.000  
C24  23125918.926 8 120422702.79924      1271.442          38.000  
G 8  23437805.553 9               6     -2403.558          38.000  
C 7  36977865.785 4 192553418.93431       432.816          40.000  
C26  22890260.227 4 119195565.75721     -1494.672          42.000  
C10  37960068.287 4 197668017.90622       464.263          35.000  
C 8  37385438.864 4 194675766.17222       854.280          38.000  
C25  27028855.810 9               9      2923.218          23.000  
C13  38378232.252 4 199845491.87322      1138.388          39.000  
C 1  37714357.146 2 196388527.23921       -67.820          40.000  
C 5  40139945.857 9               9       -89.795          27.000  
C 6  40468562.809 8 210730424.02934     -1408.877          33.000  
G 4  26026220.676 9               9     -2366.000          18.000  
> 2020  3 14  8 47 16.0030000  0 16                     
G 1  21202993.476 2 111422482.91821       985.022          42.000  
G 7  21332172.657 8 112101323.76224       718.788          32.000  
G11  21517019.637 2 113072703.42021     -1549.562          42.000  
G30  23046921.793 9               7      2432.226          27.000  
C 3  37167962.070 2 193543299.268 1       -49.727          38.000  
C12  22720398.446 9               6       -87.866          28.000  
C24  23125674.902 8 120421431.10422      1271.506          43.000  
G 8  23438259.678 8 123168901.81132     -2402.656          39.000  
C 7  36977783.001 4 192552985.90221       432.508          40.000  
C26  22890548.225 2 119197061.41721     -1495.956          42.000  
C10  37959978.837 8 197667554.62623       464.106          32.000  
C 8  37385274.867 4 194674912.57621       853.134          39.000  
C13  38378014.439 4 199844352.66021      1138.098          40.000  
C 1  37714370.164 4 196388595.09122       -68.999          40.000  
C 6  40468836.079 8 210731834.25523     -1411.849          34.000  
G 4  26026667.437 9               9     -2366.000          20.000  
> 2020  3 14  8 47 17.0030000  0 16                     
G 1  21202805.188 2 111421497.98521       984.083          43.000  
G 7  21332037.627 9 112100613.82435       718.762          38.000  
G11  21517315.279 2 113074252.56521     -1549.023          42.000  
G30  23046467.738 9               9      2423.889          26.000  
C 3  37167972.087 2 193543350.108 1       -51.482          40.000  
C12  22720416.385 9               7       -87.129          33.000  
C 2  38027643.976 9               9       -68.367          31.000  
C24  23125427.702 8 120420159.66922      1270.909          38.000  
G 8  23438719.386 4 123171304.13621     -2401.793          41.000  
C 7  36977697.949 2 192552552.34521       433.125          39.000  
C26  22890836.607 2 119198557.95021     -1496.875          43.000  
C10  37959892.284 8 197667090.72022       463.534          36.000  
C 8  37385111.044 2 194674059.88221       852.308          38.000  
C13  38377796.590 2 199843214.75321      1137.375          36.000  
C 1  37714383.356 2 196388663.39321       -67.839          39.000  
C 6  40469109.803 8 210733245.71723     -1410.883          30.000  
> 2020  3 14  8 47 18.0030000  0 18                     
G 1  21202618.541 1 111420514.13121       983.162          42.000  
G 7  21331895.128 8 112099894.22323       719.588          38.000  
G11  21517607.326 2 113075801.20221     -1548.048          41.000  
G30  23046006.564 9               7      2430.681          32.000  
C 3  37167981.719 2 193543401.785 1       -52.438          38.000  
C12  22720428.181 8 118311222.51833       -84.162          37.000  
C 2  38027660.938 9               9       -60.414          30.000  
C24  23125186.924 4 120418887.88122      1270.674          43.000  
G 8  23439177.036 4 123173704.65721     -2399.838          41.000  
C 7  36977616.003 4 192552117.71621       435.042          38.000  
C26  22891123.070 2 119200055.39521     -1497.960          44.000  
C10  37959801.334 8 197666625.51724       465.752          34.000  
C 8  37384947.187 2 194673208.06521       851.657          38.000  
C 4  39242426.610 9               9       -68.828          38.000  
C 9  39565770.454 9               9     -1736.221          28.000  
C13  38377578.253 2 199842078.60421      1134.188          39.000  
C 1  37714396.479 2 196388732.23621       -69.577          39.000  
C 6  40469377.839 8 210734659.40824     -1416.024          34.000  
> 2020  3 14  8 47 19.0030000  0 18                     
G 1  21202431.300 2 111419531.110 1       982.251          42.000  
G 7  21331760.343 4 112099175.37322       718.248          36.000  
G11  21517903.944 2 113077349.37821     -1548.381          42.000  
G30  23045544.342 9               9      2436.406          26.000  
C 3  37167991.596 2 193543454.218 1       -52.564          40.000  
C12  22720444.584 8 118311307.16523       -84.924          34.000  
C 2  38027675.631 9               9       -64.844          29.000  
C24  23124942.481 4 120417616.01522      1270.836          42.000  
G 8  23439632.103 4 123176103.58721     -2398.833          40.000  
C 7  36977532.451 4 192551682.15722       436.317          38.000  
C26  22891410.859 4 119201553.53122     -1499.481          41.000  
C10  37959712.093 8 197666159.53522       466.051          38.000  
C 8  37384783.853 2 194672357.03622       849.701          37.000  
C 4  39242438.336 9               7       -67.702          33.000  
C 9  39566109.233 9 206031081.78234     -1737.372          33.000  
C13  38377359.916 2 199840943.56521      1135.409          38.000  
C 1  37714409.671 4 196388796.40432       -67.584          33.000  
C 6  40469651.807 9               9     -1414.647          27.000  
> 2020  3 14  8 47 20.0030000  0 18                     
G 1  21202244.478 4 111418548.253 2       984.928          37.000  
G 7  21331622.312 8 112098457.06523       718.286          39.000  
G11  21518198.923 2 113078898.60721     -1549.960          41.000  
C 3  37168001.473 4 193543505.727 2       -51.451          36.000  
C12  22720462.698 8 118311391.95624       -83.539          38.000  
C 2  38027689.382 9 198020125.94935       -66.696          33.000  
C24  23124697.271 4 120416345.01222      1269.636          40.000  
G 8  23440088.600 4 123178503.66822     -2401.693          40.000  
C 7  36977449.318 4 192551247.17022       434.516          39.000  
C26  22891698.090 8 119203050.91424     -1499.118          40.000  
C10  37959622.992 8 197665694.33422       463.970          37.000  
C 8  37384620.239 8               9       845.527          29.000  
C 4  39242448.248 9               9       -58.594          29.000  
C11  25855908.712 9               7      2091.320          32.000  
C 9  39566437.576 8 206032819.03723     -1735.960          36.000  
C13  38377141.718 4 199839807.38022      1137.887          38.000  
C 1  37714423.596 9               9       -64.111          34.000  
C 6  40469929.126 9               7     -1411.010          27.000  
> 2020  3 14  8 47 21.0030000  0 19                     
G 1  21202057.377 8 111417563.03534       983.431          42.000  
G 7  21331486.793 4 112097739.67122       717.167          39.000  
G11  21518493.657 8 113080449.57523     -1550.885          38.000  
C 3  37168011.175 4 193543555.733 2       -49.232          39.000  
C12  22720476.309 8 118311477.59123       -85.614          37.000  
C 2  38027700.061 9 198020181.75234       -64.940          36.000  
C24  23124454.399 4 120415074.89612      1268.949          42.000  
G 8  23440546.215 4 123180905.93122     -2403.905          37.000  
C 7  36977366.290 8 192550813.28624       436.347          32.000  
C26  22891985.809 8 119204545.25334     -1494.604          42.000  
C10  37959533.019 8 197665230.64123       462.929          37.000  
C 8  37384455.823 8 194670639.65733       853.813          38.000  
C 4  39242461.266 9               8       -70.998          32.000  
C11  25855499.819 9               6      2089.997          35.000  
C 9  39566768.502 8 206034553.87922     -1734.590          37.000  
C13  38376923.207 4 199838668.56912      1138.241          38.000  
C 1  37714436.754 9 196388937.28535       -66.137          38.000  
C 5  40140029.165 9               9      -180.828          27.000  
C 6  40470195.556 9               7     -1409.198          27.000  
> 2020  3 14  8 47 22.0030000  0 19                     
G 1  21201870.555 2 111416580.31722       982.834          43.000  
G 7  21331352.636 4 112097022.88521       716.870          41.000  
G11  21518789.508 8 113082001.34533     -1551.952          41.000  
C 3  37168020.424 2 193543605.185 1       -48.594          39.000  
C12  22720492.921 4 118311563.58222       -85.875          37.000  
C 2  38027713.498 8 198020246.54223       -64.146          36.000  
C24  23124209.712 4 120413806.038 1      1268.680          42.000  
G 8  23441007.005 9               9     -2403.471          23.000  
C 7  36977282.529 9 192550381.43135       433.956          38.000  
C26  22892273.458 4 119206042.45622     -1496.601          43.000  
C10  37959444.442 4 197664767.54122       463.520          37.000  
C 8  37384296.468 4 194669786.35222       853.597          38.000  
C 4  39242475.819 9 204345837.40034       -65.057          36.000  
C11  25855096.684 8 134634250.16833      2090.199          39.000  
C 9  39567105.989 8 206036287.60522     -1733.654          37.000  
C13  38376704.276 4 199837529.408 2      1138.889          38.000  
G17  24940030.826 9               9      1719.133          25.000  
C 1  37714449.353 8 196389003.78922       -66.684          40.000  
C 6  40470463.661 9               9     -1409.630          26.000  
> 2020  3 14  8 47 23.0030000  0 20                     
G 1  21201683.837 2 111415598.76821       980.971          42.000  
G 7  21331214.954 2 112096306.71821       715.409          40.000  
G11  21519083.509 4 113083553.40521     -1551.966          40.000  
C 3  37168030.126 2 193543655.205 1       -50.363          40.000  
C12  22720510.372 4 118311649.87122       -86.021          37.000  
C 2  38027725.852 4 198020311.71022       -65.352          35.000  
C24  23123966.281 2 120412537.223 1      1269.098          41.000  
G 8  23441462.037 9               9     -2397.003          29.000  
C 7  36977201.385 8 192549947.69922       433.798          39.000  
C26  22892561.387 1 119207540.61221     -1498.910          43.000  
C10  37959356.842 4 197664303.86721       464.355          37.000  
C 8  37384129.819 4 194668933.78121       852.212          38.000  
C 4  39242487.022 8 204345903.25122       -66.550          38.000  
C11  25854697.074 8 134632159.82722      2091.295          40.000  
C 9  39567435.938 4 206038022.06922     -1734.937          36.000  
C13  38376485.834 2 199836391.187 1      1136.774          39.000  
G17  24939696.620 9               7      1717.914          35.000  
C 1  37714461.987 4 196389070.93822       -66.691          39.000  
C 5  40140028.746 9               9       -58.188          32.000  
C 6  40470733.721 9               9     -1409.932          26.000  
> 2020  3 14  8 47 24.0030000  0 21                     
G 1  21201497.155 2 111414617.95721       980.873          42.000  
G 7  21331079.051 4 112095590.69022       715.784          38.000  
G11  21519380.233 4 113085105.85021     -1552.488          42.000  
G30  23043222.905 9 121092953.38935      2427.377          34.000  
C 3  37168039.933 2 193543705.209 1       -50.026          39.000  
C12  22720526.845 4 118311736.08022       -86.743          37.000  
C 2  38027735.729 4 198020376.49322       -64.494          35.000  
C24  23123722.781 2 120411268.365 1      1268.316          42.000  
G 8  23441917.453 9 123188106.69934     -2401.455          40.000  
C 7  36977116.508 4 192549513.88421       433.811          39.000  
C26  22892849.176 1 119209039.40721     -1499.130          43.000  
C10  37959266.415 4 197663839.63322       464.930          37.000  
C 8  37383966.484 4 194668081.48321       852.922          38.000  
C 4  39242499.412 9               9       -70.508          28.000  
C11  25854294.951 9               9      2091.089          32.000  
C 9  39567770.877 2 206039756.40521     -1734.077          37.000  
C13  38376267.148 2 199835253.089 1      1138.005          39.000  
G17  24939363.634 9               9      1712.695          31.000  
C 1  37714474.621 2 196389138.46621       -66.906          39.000  
C 5  40140044.416 9               9       -63.916          32.000  
C 6  40471007.654 9               9     -1415.032          26.000  
> 2020  3 14  8 47 25.0030000  0 18                     
G 1  21201310.437 2 111413637.27221       980.396          41.000  
G 7  21330942.695 4 112094874.549 2       715.851          38.000  
G11  21519675.456 2 113086658.24621     -1552.403          42.000  
G30  23042758.520 8 121090525.93024      2427.182          32.000  
C 3  37168049.461 2 193543754.433 1       -48.539          39.000  
C12  22720544.400 4 118311821.85422       -86.250          34.000  
C 2  38027748.817 4 198020440.27822       -63.649          36.000  
C24  23123479.106 1 120409999.193 1      1269.040          42.000  
G 8  23442374.334 8 123190508.70522     -2402.440          39.000  
C 7  36977034.387 4 192549079.53421       434.801          39.000  
C26  22893137.035 2 119210537.95221     -1498.298          43.000  
C10  37959177.419 4 197663374.77222       464.733          37.000  
C 8  37383801.371 4 194667228.70821       852.693          38.000  
C11  25853898.552 9               9      2081.520          27.000  
C 9  39568101.943 9               9     -1730.311          24.000  
C13  38376048.427 2 199834114.279 1      1138.929          39.000  
C 1  37714487.394 9               6       -68.387          35.000  
C 5  40140056.282 9               9       -50.098          29.000  
> 2020  3 14  8 47 26.0030000  0 18                     
G 1  21201124.174 4 111412657.75022       978.729          44.000  
G 7  21330806.654 4 112094159.500 2       714.337          38.000  
G11  21519970.085 4 113088212.11021     -1554.696          42.000  
G30  23042299.893 9               6      2425.698          34.000  
C 3  37168058.605 2 193543803.818 1       -50.018          39.000  
C12  22720560.663 4 118311908.44122       -87.518          35.000  
C 2  38027761.451 4 198020503.98122       -63.766          35.000  
C24  23123235.606 2 120408731.129 1      1267.342          41.000  
G 8  23442831.844 8 123192911.89522     -2403.611          40.000  
C 7  36976951.080 4 192548646.12322       433.023          39.000  
C26  22893424.998 4 119212037.45822     -1499.183          42.000  
C10  37959088.737 4 197662910.69722       462.980          37.000  
C 8  37383637.897 4 194666376.36621       851.628          38.000  
C11  25853492.764 9               9      2093.066          28.000  
C13  38375829.602 4 199832975.465 2      1138.064          36.000  
G17  24938723.107 9               9      1728.181          24.000  
C 1  37714500.726 9               6       -68.371          37.000  
C 5  40140071.464 9               9       -62.842          28.000  
> 2020  3 14  8 47 27.0030000  0 18                     
G 1  21200937.910 2 111411678.96621       977.317          42.000  
G 7  21330670.891 4 112093445.768 2       713.414          38.000  
G11  21520266.774 4 113089766.94821     -1554.356          43.000  
G30  23041842.698 9               9      2416.357          34.000  
C 3  37168067.923 2 193543853.326 1       -50.101          37.000  
C12  22720577.241 4 118311995.66312       -88.698          36.000  
C 2  38027773.841 9               9       -25.586          27.000  
C24  23122992.419 2 120407464.221 1      1266.408          42.000  
G 8  23443289.913 9               6     -2402.873          37.000  
C 7  36976866.935 4 192548218.25632       433.314          39.000  
C26  22893713.415 4 119213537.28122     -1500.034          40.000  
C10  37958999.706 4 197662446.93812       462.263          39.000  
C 8  37383473.202 2 194665524.12421       852.366          38.000  
C11  25853097.901 9               9      2085.139          25.000  
C13  38375610.985 4 199831836.842 3      1136.724          36.000  
G17  24938390.401 9               9      1715.733          24.000  
C 1  37714513.395 9 196389336.39335       -69.454          32.000  
C 5  40140087.239 9               9      -160.791          27.000  
> 2020  3 14  8 47 28.0030000  0 19                     
G 1  21200751.926 4 111410700.35123       978.704          41.000  
G 7  21330535.547 8 112092733.329 4       716.162          33.000  
G11  21520561.822 4 113091322.16022     -1554.746          41.000  
G30  23041382.849 9               9      2425.159          30.000  
C 3  37168077.695 4 193543902.03432       -48.528          39.000  
C12  22720593.260 9               9       -92.697          20.000  
C 2  38027769.234 9               9        73.340          32.000  
C24  23122749.024 9               9      1265.967          38.000  
G 8  23443748.260 9               9     -2396.186          35.000  
C25  27021570.728 9               9      2951.095          22.000  
C 7  36976783.732 4 192547785.15523       434.509          39.000  
C26  22894001.728 9               7     -1498.793          39.000  
C10  37958911.024 4 197661984.169 2       463.377          38.000  
C 8  37383309.903 4 194664671.67822       852.097          38.000  
C11  25852702.653 9               9      2096.814          25.000  
C 9  39569101.526 9 206046664.02934     -1733.246          33.000  
C13  38375392.020 4 199830697.895 2      1139.028          39.000  
G17  24938064.047 9               6      1715.376          31.000  
C 1  37714525.854 8 196389401.65435       -66.073          35.000  
> 2020  3 14  8 47 29.0030000  0 15                     
G 1  21200565.348 2 111409721.71921       978.989          43.000  
G 7  21330399.889 8 112092007.84234       712.406          40.000  
G11  21520858.894 8 113092877.86423     -1556.090          42.000  
C 3  37168087.188 4 193543950.45722       -47.801          39.000  
C12  22720609.489 9 118312143.87434       -88.998          38.000  
C24  23122507.268 9 120404930.90935      1264.986          43.000  
G 8  23444201.756 9               7     -2404.976          30.000  
C 7  36976700.634 9               9       432.475          39.000  
C26  22894286.760 8 119216542.05432     -1499.279          43.000  
C10  37958823.563 9               6       463.524          33.000  
C 8  37383146.324 4 194663818.62822       853.359          38.000  
C 9  39569435.698 9               6     -1731.609          34.000  
C13  38375173.404 2 199829558.043 1      1140.341          39.000  
G17  24937739.613 9               9      1713.239          25.000  
C 1  37714538.244 4 196389466.06523       -65.347          40.000  
> 2020  3 14  8 47 30.0030000  0 16                     
G 1  21200379.399 1 111408743.84121       976.991          43.000  
G 7  21330265.697 4 112091296.32822       711.609          38.000  
G11  21521154.920 2 113094434.40822     -1557.736          42.000  
G30  23040455.650 9               7      2422.662          31.000  
C 3  37168096.193 2 193543998.72121       -48.083          39.000  
C12  22720628.161 8 118312233.10522       -89.196          37.000  
C 2  38027815.930 9               9       -61.906          36.000  
C24  23122261.639 8 120403665.91422      1264.446          42.000  
G 8  23444663.245 9               8     -2406.495          30.000  
C 7  36976618.862 8 192546926.42533       432.564          39.000  
C26  22894576.992 4 119218041.59121     -1499.499          42.000  
C10  37958734.532 8 197661061.20233       462.087          38.000  
C 8  37382982.676 2 194662965.58021       853.224          38.000  
C 9  39569769.032 8 206050135.44034     -1732.059          31.000  
C13  38374954.403 4 199828417.897 2      1140.612          39.000  
C 1  37714550.564 4 196389531.57722       -65.282          38.000  
> 2020  3 14  8 47 31.0030000  0 17                     
G 1  21200193.170 2 111407766.577 1       976.729          43.000  
G 7  21330130.178 4 112090585.45821       710.585          40.000  
G11  21521451.364 2 113095991.30911     -1558.090          41.000  
G30  23039997.197 9               7      2421.292          30.000  
C 3  37168105.511 2 193544046.72221       -48.707          39.000  
C12  22720646.553 8 118312322.69522       -89.892          37.000  
C 2  38027821.166 9               7       -59.864          35.000  
C24  23122020.373 4 120402401.49521      1264.034          40.000  
G 8  23445118.416 9 123204928.38335     -2404.200          40.000  
C 7  36976534.822 4 192546494.12522       431.888          39.000  
C26  22894863.315 4 119219541.51121     -1500.359          43.000  
C10  37958643.896 4 197660599.22622       461.759          38.000  
C 8  37382818.958 2 194662112.50021       853.140          38.000  
C 9  39570103.029 9               9     -1729.792          26.000  
C13  38374735.368 4 199827277.478 3      1139.320          36.000  
C 1  37714563.023 2 196389596.97521       -65.053          39.000  
C 6  40472902.887 9               9     -1403.097          23.000  
> 2020  3 14  8 47 32.0030000  0 16                     
G 1  21200007.499 2 111406790.000 1       975.516          42.000  
G 7  21329993.857 4 112089875.22122       711.896          38.000  
G11  21521747.843 2 113097549.599 1     -1559.043          41.000  
G30  23039537.559 9               9      2421.817          33.000  
C 3  37168114.899 4 193544094.38022       -47.781          37.000  
C12  22720662.293 8 118312412.78822       -91.079          35.000  
C24  23121777.291 4 120401137.64721      1263.000          40.000  
G 8  23445578.578 8 123207334.12923     -2406.689          38.000  
C 7  36976451.340 4 192546062.14321       431.592          39.000  
C26  22895153.407 2 119221041.80021     -1500.182          44.000  
C10  37958554.550 4 197660137.50121       461.136          38.000  
C 8  37382655.554 2 194661259.43821       853.176          38.000  
C 9  39570433.222 9               6     -1729.922          32.000  
C13  38374516.403 4 199826136.674 3      1141.914          39.000  
C 1  37714575.727 2 196389662.42821       -65.697          40.000  
C 4  39242600.902 9               9       -63.594          37.000  
> 2020  3 14  8 47 33.0030000  0 18                     
G 1  21199821.759 1 111405813.845 1       976.539          42.000  
G 7  21329857.606 9 112089157.55435       707.937          36.000  
G11  21522044.741 2 113099108.514 1     -1558.695          41.000  
G30  23039082.213 9               9      2421.687          33.000  
C 3  37168124.322 2 193544141.74721       -46.485          39.000  
C12  22720681.419 9               9       -83.295          27.000  
C 2  38027850.726 9               9       -65.961          35.000  
C24  23121536.024 4 120399873.36632      1262.744          39.000  
G 8  23446034.378 4 123209740.28721     -2405.966          40.000  
C 7  36976370.301 4 192545630.27021       432.365          39.000  
C26  22895442.139 2 119222542.26021     -1499.714          43.000  
C10  37958467.858 4 197659676.07622       461.240          35.000  
C 8  37382491.627 2 194660406.260 1       853.484          39.000  
C11  25850697.344 9               9      2089.398          22.000  
C 9  39570764.148 8 206055327.78234     -1728.183          32.000  
C13  38374297.298 4 199824995.478 2      1141.970          39.000  
C 1  37714588.082 2 196389727.57021       -63.708          40.000  
C 4  39242617.375 9               6       -63.517          37.000  
> 2020  3 14  8 47 34.0030000  0 19                     
G 1  21199636.333 2 111404838.122 1       975.878          42.000  
G 7  21329725.298 8 112088448.38322       709.307          39.000  
G11  21522341.395 2 113100668.228 1     -1559.675          41.000  
G30  23038615.035 9               7      2420.929          33.000  
C 3  37168133.257 2 193544188.59721       -46.038          40.000  
C12  22720694.960 9 118312589.02034       -90.405          37.000  
C 2  38027860.289 9 198021016.32335       -61.215          35.000  
C24  23121291.861 4 120398610.46421      1262.429          42.000  
G 8  23446495.308 8               9     -2407.955          33.000  
C 7  36976284.237 2 192545198.74821       431.014          39.000  
C26  22895728.566 2 119224042.80921     -1500.059          43.000  
C10  37958378.478 4 197659214.68422       460.574          37.000  
C 8  37382327.630 2 194659552.793 1       853.236          38.000  
C11  25850286.496 9               8      2087.082          24.000  
C 9  39571094.481 9               9     -1731.706          25.000  
C13  38374077.984 2 199823853.673 1      1142.527          39.000  
C 1  37714600.541 2 196389792.41721       -64.008          40.000  
C 4  39242629.556 8 204346638.75332       -64.011          39.000  
C 6  40473704.830 9               6     -1401.805          26.000  
> 2020  3 14  8 47 35.0030000  0 19                     
G 1  21199450.419 1 111403862.823 1       975.257          42.000  
G 7  21329588.105 4 112087739.88422       709.165          38.000  
G11  21522638.468 1 113102229.220 1     -1561.489          41.000  
G30  23038151.313 9 121066302.02135      2418.352          35.000  
C 3  37168141.912 2 193544234.25211       -44.904          40.000  
C12  22720712.131 8 118312680.02122       -90.208          37.000  
C 2  38027872.155 8 198021077.33023       -59.216          37.000  
C24  23121050.280 2 120397348.53521      1262.246          41.000  
G 8  23446952.539 8 123214567.15634     -2408.681          40.000  
C 7  36976202.186 2 192544767.90821       430.928          39.000  
C26  22896017.018 1 119225543.43421     -1500.724          43.000  
C10  37958289.551 4 197658754.22622       461.177          37.000  
C 8  37382163.772 2 194658698.875 1       854.714          38.000  
C11  25849889.713 9               9      2082.515          24.000  
C13  38373856.924 4 199822711.196 3      1141.652          32.000  
G17  24935782.291 9               9      1717.335          23.000  
C 1  37714612.861 2 196389856.97321       -64.578          39.000  
C 4  39242636.641 4 204346702.88722       -64.708          35.000  
C 6  40473969.968 9               9     -1423.071          26.000  
> 2020  3 14  8 47 36.0030000  0 17                     
G 1  21199264.713 1 111402887.770 1       974.519          42.000  
G 7  21329453.250 4 112087031.19621       707.950          39.000  
G11  21522935.680 1 113103791.370 1     -1563.230          41.000  
G30  23037693.106 8 121063883.46223      2417.210          35.000  
C 3  37168150.323 2 193544279.132 1       -45.678          35.000  
C12  22720732.373 4 118312770.55921       -91.127          36.000  
C24  23120807.827 2 120396086.81521      1260.752          42.000  
G 8  23447407.710 4 123216976.80522     -2411.125          39.000  
C 7  36976120.624 2 192544337.78221       429.095          39.000  
C26  22896305.750 1 119227044.14621     -1501.980          42.000  
C10  37958201.323 4 197658293.91822       459.299          37.000  
C 8  37381999.461 2 194657844.287 1       854.407          38.000  
C13  38373640.193 9               9      1142.641          26.000  
G17  24935457.717 9               9      1717.335          22.000  
C 1  37714624.658 2 196389921.310 1       -65.134          38.000  
C 4  39242646.413 8               9       -74.660          30.000  
C 6  40474242.436 9 210759969.52934     -1397.047          33.000  
> 2020  3 14  8 47 37.0030000  0 16                     
G 1  21199079.462 2 111401914.139 1       972.400          42.000  
G 7  21329321.989 8 112086324.31623       707.424          26.000  
G11  21523233.276 1 113105355.089 1     -1564.366          42.000  
G30  23037233.921 8 121061465.41124      2418.844          35.000  
C12  22720751.534 9               9       -84.073          23.000  
C24  23120565.827 2 120394825.91721      1260.289          41.000  
G 8  23447868.954 8 123219387.90422     -2410.811          39.000  
C 7  36976038.119 2 192543908.60721       428.776          39.000  
C26  22896593.748 2 119228546.01921     -1502.491          43.000  
C10  37958112.467 4 197657834.16222       460.515          36.000  
C 8  37381835.429 4 194656990.268 2       853.984          36.000  
C13  38373415.294 9               9      1142.459          26.000  
G17  24935135.517 9               9      1707.081          22.000  
C 1  37714637.745 2 196389986.592 1       -65.107          40.000  
C 4  39242657.057 9               9       -26.807          27.000  
C 6  40474509.494 8 210761367.08923     -1397.498          33.000  
> 2020  3 14  8 47 38.0030000  0 15                     
G 1  21198894.315 2 111400941.455 1       972.918          42.000  
G 7  21329194.498 9               9       714.868          26.000  
G11  21523530.942 2 113106918.975 1     -1563.335          40.000  
G30  23036777.702 9               9      2427.161          26.000  
C12  22720769.752 9               9       -95.517          24.000  
C24  23120327.038 9               9      1260.598          30.000  
G 8  23448327.825 4 123221798.35722     -2408.651          39.000  
C 7  36975955.440 2 192543479.18021       429.680          40.000  
C26  22896882.549 2 119230048.71921     -1502.602          44.000  
C 8  37381673.282 8 194656136.801 3       855.162          35.000  
C 9  39572425.897 9               9     -1725.084          30.000  
C13  38373199.226 9 199819286.63335      1142.937          40.000  
G17  24934812.199 9               9      1711.109          23.000  
C 1  37714650.170 2 196390052.207 2       -65.592          38.000  
C 6  40474780.496 8 210762765.49024     -1399.301          32.000  
> 2020  3 14  8 47 39.0030000  0 18                     
G 1  21198709.203 2 111399968.865 1       971.628          43.000  
G 7  21329051.092 9               9       707.408          27.000  
G11  21523828.468 2 113108481.937 1     -1563.755          39.000  
G30  23036326.439 9               9      2420.633          27.000  
C 3  37168175.207 9               9       -47.750          39.000  
C12  22720784.794 9               9       -95.070          23.000  
C24  23120083.992 9               8      1264.427          31.000  
G 8  23448784.812 4 123224206.74122     -2407.540          38.000  
C 7  36975872.656 4 192543047.82312       430.228          38.000  
C26  22897171.141 1 119231550.59911     -1503.523          43.000  
C 2  38027918.154 9               9       -64.086          34.000  
C 8  37381506.423 4 194655283.479 2       853.002          38.000  
C11  25848279.198 9               9      2090.712          25.000  
C 9  39572751.414 9 206065669.19334     -1726.440          37.000  
C13  38372979.108 8 199818143.59522      1142.210          39.000  
G17  24934479.284 9               9      1719.186          24.000  
C 1  37714662.629 4 196390117.020 3       -63.836          33.000  
C 6  40475046.228 8 210764164.39424     -1398.751          31.000  
> 2020  3 14  8 47 40.0030000  0 18                     
G 1  21198524.510 2 111398997.806 1       969.543          42.000  
G 7  21328916.760 9 112084213.88335       706.836          39.000  
G11  21524125.750 1 113110044.482 1     -1560.583          42.000  
G30  23035865.125 9               9      2416.394          26.000  
C 3  37168186.096 9               6       -49.753          39.000  
C12  22720803.431 9 118313153.88935       -91.699          37.000  
C24  23119843.702 9               9      1265.988          26.000  
G 8  23449243.997 4 123226613.38721     -2403.052          40.000  
C 7  36975789.593 2 192542616.073 1       434.026          38.000  
C26  22897459.872 2 119233054.370 1     -1505.740          43.000  
C 2  38027929.985 9               6       -64.513          34.000  
C 8  37381343.996 4 194654431.559 2       850.404          38.000  
C11  25847870.828 9 134596614.82835      2088.862          35.000  
C 9  39573084.748 9 206067397.86723     -1732.440          33.000  
C13  38372759.969 4 199817003.03722      1137.044          39.000  
G17  24934150.696 9               6      1712.505          31.000  
C 1  37714675.403 4 196390180.60732       -67.300          38.000  
C 6  40475320.196 8 210765566.44025     -1407.030          30.000  
> 2020  3 14  8 47 41.0030000  0 19                     
G 1  21198340.236 1 111398029.887 1       966.529          43.000  
G 7  21328781.381 8 112083508.18922       706.171          40.000  
G11  21524422.159 1 113111603.225 1     -1556.583          41.000  
G30  23035397.809 9 121051832.10035      2424.334          32.000  
C 3  37168195.310 8 193544519.08032       -53.430          39.000  
C12  22720819.380 8 118313245.91322       -90.617          37.000  
C24  23119595.037 9 120389766.80933      1265.454          42.000  
G 8  23449700.739 2 123229012.31621     -2394.877          41.000  
C 7  36975705.867 2 192542180.179 1       438.946          39.000  
C26  22897749.511 1 119234561.943 1     -1509.282          43.000  
C 2  38027940.281 9 198021444.90433       -67.272          34.000  
C 8  37381182.547 4 194653584.055 1       845.225          38.000  
C11  25847469.508 8 134594531.29223      2080.829          38.000  
C 9  39573420.281 9               9     -1748.354          27.000  
C13  38372541.492 4 199815870.01121      1129.504          38.000  
G17  24933813.802 9               6      1710.311          37.000  
C 1  37714688.456 2 196390249.74722       -70.905          38.000  
C 4  39242705.569 9               9       -60.641          36.000  
C 6  40475588.964 8 210766978.31425     -1416.274          29.000  
> 2020  3 14  8 47 42.0030000  0 21                     
G 1  21198156.450 1 111397064.008 1       964.446          42.000  
G 7  21328648.411 4 112082801.54621       706.846          39.000  
G11  21524718.185 1 113113158.753 1     -1556.231          40.000  
G30  23034932.167 9               6      2430.273          31.000  
C 3  37168204.454 4 193544573.78821       -55.665          39.000  
C12  22720838.785 8 118313336.72022       -91.617          35.000  
C10  37957664.310 9               9       474.636          28.000  
C24  23119353.107 4 120388499.48221      1268.010          42.000  
G 8  23450156.364 1 123231405.16421     -2392.536          40.000  
C25  27013743.817 9               9      2932.475          26.000  
C 7  36975621.478 2 192541740.606 1       438.856          39.000  
C26  22898039.359 1 119236072.241 1     -1512.257          43.000  
C 2  38027952.915 8 198021513.54622       -68.932          35.000  
C 8  37381019.771 4 194652739.340 1       843.490          38.000  
C11  25847072.515 4 134592451.11722      2079.058          37.000  
C 9  39573758.710 9               8     -1743.125          27.000  
C13  38372326.052 4 199814742.00821      1126.948          38.000  
G17  24933487.658 9               9      1706.717          35.000  
C 1  37714701.962 2 196390321.36821       -73.715          40.000  
C 4  39242726.125 9 204347140.81635       -70.635          36.000  
C 6  40475861.537 8 210768396.97125     -1421.046          29.000  
> 2020  3 14  8 47 43.0030000  0 21                     
G 1  21197973.048 1 111396100.901 1       961.344          42.000  
G 7  21328513.835 2 112082094.87521       707.475          42.000  
G11  21525014.454 1 113114714.864 1     -1556.423          41.000  
G30  23034469.457 8               6      2430.584          31.000  
C 3  37168215.482 2 193544630.09021       -57.071          39.000  
C12  22720852.396 4 118313426.75421       -89.481          40.000  
C10  37957567.182 9 197654981.01234       475.454          34.000  
C24  23119109.083 4 120387231.40022      1268.931          39.000  
G 8  23450611.605 1 123233797.835 1     -2392.984          38.000  
C25  27013187.190 9               9      2944.448          25.000  
C 7  36975537.228 2 192541301.179 1       439.367          39.000  
C26  22898330.324 1 119237585.643 1     -1514.596          43.000  
C 2  38027967.259 4 198021582.11721       -68.351          37.000  
C 8  37380856.472 2 194651896.909 1       842.087          40.000  
C11  25846672.242 8 134590370.76924      2080.020          36.000  
C 9  39574085.623 9               9     -1745.281          27.000  
C13  38372110.088 4 199813616.31921      1125.950          38.000  
G17  24933159.942 9               7      1712.766          31.000  
C 1  37714716.027 2 196390396.18321       -75.948          39.000  
C 4  39242740.085 8 204347214.14422       -75.099          38.000  
C 6  40476133.586 8               6     -1422.096          27.000  
> 2020  3 14  8 47 44.0030000  0 18                     
G 1  21197790.414 1 111395140.386 1       958.608          43.000  
G 7  21328379.573 2 112081387.28421       708.183          39.000  
G11  21525310.689 2 113116271.729 1     -1556.592          40.000  
G30  23034001.233 8 121044520.39134      2435.778          32.000  
C 3  37168230.001 2 193544687.65021       -58.020          39.000  
C12  22720872.219 4 118313515.59522       -86.261          38.000  
C10  37957483.177 9 197654504.32023       479.264          34.000  
C24  23118866.420 4 120385962.01321      1270.175          40.000  
G 8  23451066.951 2 123236190.736 1     -2392.916          35.000  
C 7  36975452.769 2 192540861.929 1       439.604          37.000  
C26  22898621.533 1 119239102.374 1     -1518.868          43.000  
C 2  38027981.987 2 198021649.62921       -66.359          38.000  
C 8  37380694.987 2 194651056.589 1       839.393          38.000  
C11  25846272.841 8 134588289.04325      2082.555          33.000  
C13  38371893.565 2 199812492.45321      1122.998          40.000  
G17  24932836.066 9               8      1706.908          27.000  
C 1  37714731.278 2 196390474.41421       -79.882          38.000  
C 4  39242754.255 4 204347291.81421       -79.432          38.000  
> 2020  3 14  8 47 45.0030000  0 18                     
G 1  21197608.060 1 111394181.871 1       957.133          43.000  
G 7  21328242.693 2 112080677.93821       710.503          42.000  
G11  21525607.029 2 113117828.222 1     -1556.147          40.000  
G30  23033542.118 8 121042080.41734      2439.568          36.000  
C 3  37168238.866 2 193544745.91221       -58.407          39.000  
C12  22720887.994 4 118313602.14621       -85.666          38.000  
C10  37957391.459 8 197654024.77323       479.998          32.000  
C24  23118620.756 4 120384690.22421      1271.864          36.000  
G 8  23451522.506 9               9     -2393.692          29.000  
C 7  36975368.450 2 192540421.864 1       440.104          36.000  
C26  22898913.371 1 119240621.647 1     -1520.475          44.000  
C 2  38027992.876 2 198021715.60321       -64.691          38.000  
C 8  37380534.236 2 194650217.789 1       838.070          38.000  
C11  25845873.685 9               6      2083.833          38.000  
C13  38371678.299 2 199811369.42811      1122.354          38.000  
G17  24932508.840 9               9      1715.515          27.000  
C 1  37714747.367 2 196390555.54421       -82.716          39.000  
C 4  39242771.531 4 204347373.24622       -82.989          36.000  
> 2020  3 14  8 47 46.0030000  0 17                     
G 1  21197426.124 1 111393226.192 1       954.660          42.000  
G 7  21328107.977 4 112079967.96722       711.479          40.000  
G11  21525903.438 4 113119385.887 2     -1559.027          37.000  
G30  23033074.103 8 121039639.24123      2441.687          38.000  
C 3  37168249.545 2 193544805.48521       -59.905          40.000  
C12  22720905.235 4 118313687.74322       -86.154          38.000  
C24  23118374.638 8 120383417.50723      1273.075          36.000  
G 8  23451980.959 9               9     -2395.062          22.000  
C 7  36975284.130 9               9       441.650          35.000  
C26  22899205.871 1 119242144.508 1     -1523.852          44.000  
C 2  38028004.602 4 198021780.44322       -63.330          35.000  
C 8  37380373.520 2 194649381.206 1       835.808          38.000  
C11  25845473.377 9               9      2087.689          29.000  
C13  38371462.929 2 199810248.576 1      1121.281          38.000  
G17  24932183.254 9               9      1720.134          26.000  
C 1  37714763.701 2 196390640.326 1       -85.971          39.000  
C 4  39242787.515 4 204347459.47021       -88.372          36.000  
> 2020  3 14  8 47 47.0030000  0 17                     
G 1  21197244.921 2 111392272.932 1       951.929          42.000  
G 7  21327973.227 2 112079257.28821       711.060          40.000  
G11  21526198.940 8 113120938.84235     -1557.502          32.000  
G30  23032609.578 4 121037195.52922      2445.570          40.000  
C 3  37168261.027 2 193544864.79911       -60.014          39.000  
C12  22720921.743 4 118313771.99421       -83.667          39.000  
C24  23118132.708 4 120382144.18822      1274.700          36.000  
G 8  23452442.971 9               9     -2382.872          22.000  
C 7  36975199.531 9               9       436.403          27.000  
C26  22899499.035 1 119243670.186 1     -1527.209          43.000  
C 2  38028016.503 2 198021842.59511       -61.497          36.000  
C 8  37380213.257 2 194648545.891 1       834.371          38.000  
C11  25845073.767 9 134582049.79635      2091.979          30.000  
C13  38371247.837 2 199809127.803 1      1120.426          40.000  
G17  24931857.528 9               6      1726.152          31.000  
C 1  37714780.453 2 196390728.202 1       -89.675          38.000  
C 4  39242804.442 4 204347550.03722       -93.253          34.000  
> 2020  3 14  8 47 48.0030000  0 17                     
G 1  21197063.927 1 111391321.152 1       950.724          43.000  
G 7  21327837.604 2 112078545.19021       712.279          41.000  
G11  21526498.561 8 113122512.72625     -1562.135          32.000  
G30  23032147.880 9               9      2449.268          29.000  
C 3  37168272.754 2 193544924.076 1       -59.303          39.000  
C12  22720937.483 2 118313854.40121       -81.941          38.000  
C10  37957115.396 8 197652628.31733       483.356          35.000  
C24  23117887.568 4 120380869.81222      1274.411          39.000  
G 8  23452896.571 9               9     -2397.229          22.000  
C 7  36975113.990 9               6       436.728          32.000  
C26  22899792.513 1 119245197.771 1     -1529.264          43.000  
C 2  38028027.951 2 198021902.134 1       -58.155          36.000  
C 8  37380053.203 2 194647711.029 1       833.929          37.000  
C11  25844666.340 8 134579957.56325      2094.068          29.000  
C13  38371032.327 2 199808006.188 1      1120.966          39.000  
C 1  37714797.624 2 196390818.150 1       -91.303          37.000  
C 4  39242823.288 4 204347644.00222       -95.862          35.000  
> 2020  3 14  8 47 49.0030000  0 18                     
G 1  21196883.492 1 111390371.499 1       948.470          42.000  
G 7  21327702.225 2 112077832.741 1       713.124          41.000  
G11  21526795.633 8 113124075.53923     -1563.347          35.000  
G30  23031680.528 9               6      2449.440          36.000  
C 3  37168284.306 2 193544983.455 1       -58.943          40.000  
C12  22720953.433 2 118313936.13821       -81.578          38.000  
C10  37957024.899 9 197652157.69535       483.157          32.000  
C24  23117643.160 4 120379595.42522      1274.079          38.000  
G 8  23453363.190 9               9     -2393.733          25.000  
C 7  36975032.079 8 192538653.39133       435.633          32.000  
C26  22900086.514 1 119246727.736 1     -1531.469          43.000  
C 2  38028038.979 2 198021959.758 1       -56.299          35.000  
C 8  37379893.150 2 194646877.189 1       833.602          37.000  
C11  25844272.314 9               9      2091.865          28.000  
C13  38370816.538 2 199806884.475 1      1122.834          37.000  
G17  24931198.503 9               9      1734.290          25.000  
C 1  37714815.423 2 196390910.635 1       -94.031          37.000  
C 4  39242842.239 4 204347741.13512       -98.641          36.000  
> 2020  3 14  8 47 50.0030000  0 16                     
G 1  21196703.022 1 111389423.681 1       947.354          42.000  
G 7  21327566.532 2 112077120.221 1       712.597          40.000  
G11  21527092.531 8 113125640.31424     -1565.969          35.000  
G30  23031212.165 9               6      2450.524          33.000  
C 3  37168295.788 2 193545042.992 1       -58.692          40.000  
C12  22720968.684 2 118314017.31421       -80.570          38.000  
C10  37956927.806 8 197651673.39123       484.307          35.000  
C24  23117398.613 4 120378321.01322      1274.726          39.000  
G 8  23453827.261 9               7     -2403.124          23.000  
C 7  36974945.945 8               9       428.970          27.000  
C26  22900380.794 1 119248259.711 1     -1532.239          43.000  
C 2  38028049.798 4 198022015.894 2       -55.614          35.000  
C 8  37379733.097 2 194646044.234 1       833.301          38.000  
C13  38370601.167 4 199805762.764 2      1122.320          37.000  
C 1  37714833.641 2 196391005.143 1       -94.818          37.000  
C 4  39242861.469 2 204347841.806 1      -100.547          35.000  
> 2020  3 14  8 47 51.0030000  0 13                     
G 1  21196522.935 2 111388477.088 1       945.691          42.000  
G 7  21327431.083 4 112076407.373 2       712.248          40.000  
G11  21527389.220 8 113127206.00224     -1564.966          34.000  
C 3  37168307.410 2 193545102.300 1       -59.687          39.000  
C24  23117154.065 9               9      1264.632          35.000  
G 8  23454284.178 9               9     -2401.423          22.000  
C 7  36974865.534 9               7       432.002          32.000  
C26  22900675.145 1 119249793.032 1     -1534.099          44.000  
C 2  38028060.164 4 198022070.391 2       -55.028          36.000  
C 8  37379573.392 2 194645211.657 1       832.428          38.000  
C13  38370385.657 4 199804640.588 2      1121.420          39.000  
C 1  37714851.685 2 196391100.912 1       -96.648          38.000  
C 4  39242881.432 2 204347949.93432      -103.821          36.000  
> 2020  3 14  8 47 52.0030000  0 16                     
G 1  21196343.163 1 111387532.165 1       944.372          42.000  
G 7  21327295.705 2 112075694.975 1       712.727          41.000  
G11  21527687.130 8 113128758.59535     -1567.059          34.000  
C12  22721002.503 9 118314190.49835       -80.473          39.000  
C 3  37168319.102 2 193545162.059 1       -60.005          40.000  
C10  37956737.808 9               7       484.399          33.000  
G30  23030280.009 9               9      2455.875          29.000  
C24  23116908.401 8 120375776.82834      1274.132          39.000  
G 8  23454741.653 9               7     -2402.136          24.000  
C 7  36974781.564 8               6       430.414          30.000  
C26  22900969.949 1 119251328.075 1     -1535.581          44.000  
C 2  38028070.459 2 198022124.463 2       -54.254          36.000  
C 8  37379413.758 2 194644380.099 1       831.545          38.000  
C13  38370170.601 2 199803518.873 1      1121.331          37.000  
C 1  37714870.461 2 196391198.165 1       -97.839          38.000  
C 4  39242901.500 2 204348054.51221      -104.878          36.000  
> 2020  3 14  8 47 53.0030000  0 17                     
G 1  21196163.461 1 111386588.688 1       942.582          43.000  
G 7  21327160.326 2 112074983.182 1       711.642          42.000  
G11  21527985.668 8 113130327.12924     -1570.086          34.000  
C12  22721015.625 9 118314271.34622       -80.643          38.000  
C 3  37168330.165 1 193545222.075 1       -59.554          40.000  
C10  37956648.568 9 197650177.45135       483.659          29.000  
G30  23029816.636 9               9      2451.367          34.000  
C24  23116663.365 8 120374503.19124      1273.633          37.000  
G 8  23455204.084 9               9     -2408.810          28.000  
C 5  40140348.888 9               9       -44.266          32.000  
C 7  36974700.141 8 192536926.59635       432.931          32.000  
C26  22901264.962 1 119252864.468 1     -1537.216          44.000  
C 2  38028080.790 2 198022178.063 1       -52.896          36.000  
C 8  37379254.228 2 194643549.271 1       830.179          38.000  
C13  38369952.612 9               7      1121.991          28.000  
C 1  37714889.342 2 196391296.557 1       -99.027          38.000  
C 4  39242921.917 2 204348160.74431      -107.659          36.000  
> 2020  3 14  8 47 54.0030000  0 18                     
G 1  21195983.968 1 111385645.987 1       942.628          41.000  
G 7  21327024.633 2 112074270.904 1       713.126          40.000  
G11  21528282.496 9               6     -1567.812          29.000  
C12  22721031.051 8 118314351.48321       -79.331          39.000  
C 3  37168341.682 1 193545281.678 1       -58.990          40.000  
C10  37956557.094 9 197649691.68324       487.493          34.000  
G30  23029343.351 9 121020015.30734      2452.936          38.000  
C24  23116420.807 8 120373228.97523      1274.704          39.000  
G 8  23455652.903 9               9     -2386.718          26.000  
C 5  40140351.680 9               9       -36.768          28.000  
C 7  36974617.811 9               8       434.626          29.000  
C26  22901560.429 1 119254401.661 1     -1536.677          44.000  
C 2  38028091.155 2 198022230.113 1       -50.979          37.000  
C 8  37379094.768 2 194642718.402 1       831.901          39.000  
C 9  39577775.262 9               9     -1733.990          25.000  
C13  38369745.234 9               9      1121.897          29.000  
C 1  37714908.573 2 196391395.612 1       -98.673          38.000  
C 4  39242942.264 2 204348268.04421      -106.934          37.000  
> 2020  3 14  8 47 55.0030000  0 17                     
G 1  21195804.684 1 111384704.150 1       941.133          42.000  
G 7  21326889.045 2 112073558.395 1       712.559          40.000  
G11  21528585.956 8 113133482.62134     -1570.624          37.000  
C12  22721047.559 4 118314431.00121       -80.001          39.000  
C 3  37168353.200 1 193545340.813 1       -58.575          40.000  
C10  37956462.583 8 197649205.47622       485.785          37.000  
G30  23028876.592 8 121017562.12022      2454.275          40.000  
C24  23116175.492 4 120371954.59922      1273.609          40.000  
G 8  23456108.179 9               9     -2394.760          26.000  
C 5  40140368.083 9               9      -110.303          27.000  
C 7  36974530.420 8 192536074.41535       431.323          31.000  
C26  22901855.443 1 119255939.744 1     -1538.817          44.000  
C 2  38028100.962 4 198022280.925 2       -50.416          37.000  
C 8  37378935.168 2 194641887.718 1       830.342          38.000  
C13  38369532.272 9               9      1126.725          28.000  
C 1  37714927.698 2 196391495.328 1      -100.310          38.000  
C 4  39242963.134 2 204348376.69421      -109.446          37.000  
> 2020  3 14  8 47 56.0030000  0 16                     
G 1  21195625.645 1 111383763.957 1       939.569          42.000  
G 7  21326753.666 4 112072846.759 2       711.412          37.000  
G11  21528881.562 9               9     -1573.437          32.000  
C12  22721058.378 8 118314511.09823       -79.859          35.000  
C 3  37168364.368 2 193545400.553 1       -60.059          39.000  
C10  37956368.841 9               9       479.218          32.000  
G30  23028414.755 9               6      2461.085          30.000  
C24  23115932.899 9               9      1273.518          26.000  
G 8  23456567.015 9               9     -2409.674          27.000  
C 7  36974451.196 9               6       433.411          31.000  
C26  22902150.840 1 119257479.374 1     -1540.635          44.000  
C 2  38028110.490 4 198022331.576 2       -51.809          37.000  
C 8  37378775.603 2 194641057.968 1       829.220          38.000  
C13  38369315.749 9               9      1129.598          27.000  
C 1  37714946.893 2 196391596.308 1      -101.362          38.000  
C 4  39242984.284 2 204348486.83621      -110.757          37.000  
> 2020  3 14  8 47 57.0030000  0 17                     
G 1  21195446.815 2 111382824.376 1       940.274          42.000  
G 7  21326618.392 8 112072135.78933       710.029          39.000  
G11  21529179.787 9               9     -1565.518          32.000  
C12  22721077.050 8 118314591.55723       -81.370          39.000  
C 3  37168375.920 2 193545460.350 1       -59.982          40.000  
C10  37956276.843 9               6       486.612          35.000  
G30  23027946.286 9 121012674.30135      2452.171          37.000  
C24  23115686.746 9               6      1272.444          38.000  
G 8  23457022.606 9               7     -2405.170          27.000  
C 7  36974370.367 9               9       428.543          27.000  
C26  22902447.005 1 119259019.379 1     -1539.625          45.000  
C 2  38028120.437 4 198022382.316 2       -50.896          37.000  
C 8  37378616.213 4 194640228.350 2       829.418          38.000  
C13  38369091.130 9 199797894.17734      1121.324          39.000  
C 1  37714966.577 2 196391697.216 1       -99.657          38.000  
C 4  39243005.608 2 204348596.93521      -109.804          37.000  
C 6  40479980.102 9               7     -1430.298          32.000  
> 2020  3 14  8 47 58.0030000  0 16                     
G 1  21195267.916 1 111381884.605 1       939.182          42.000  
G 7  21326482.978 2 112071423.58721       708.074          41.000  
G11  21529480.873 9               6     -1571.001          35.000  
C12  22721091.289 4 118314672.57022       -82.809          37.000  
C 3  37168387.751 2 193545519.932 1       -60.128          40.000  
C10  37956185.404 8 197647775.61032       486.507          38.000  
G30  23027479.668 8 121010222.79322      2449.791          41.000  
C24  23115440.698 8 120368141.46132      1272.395          40.000  
G 8  23457481.860 9               9     -2387.425          25.000  
C 7  36974284.721 9               6       432.217          33.000  
C26  22902742.681 1 119260558.707 1     -1539.630          44.000  
C 2  38028130.663 2 198022434.072 1       -53.113          36.000  
C 8  37378456.892 2 194639398.368 1       829.559          38.000  
C13  38368881.204 9               9      1120.829          27.000  
C 1  37714985.598 2 196391796.840 1      -100.080          38.000  
C 4  39243026.374 2 204348705.10921      -107.839          36.000  
> 2020  3 14  8 47 59.0030000  0 16                     
G 1  21195089.121 1 111380944.721 1       940.359          42.000  
G 7  21326347.879 1 112070715.03521       707.714          40.000  
G11  21529780.004 8 113139755.11032     -1569.035          36.000  
C12  22721107.867 2 118314755.09921       -82.987          38.000  
C 3  37168398.675 2 193545579.761 1       -59.612          40.000  
C10  37956089.463 8 197647289.59122       485.991          38.000  
G30  23027014.410 8 121007773.49823      2449.450          33.000  
C24  23115197.268 4 120366869.35122      1270.949          40.000  
G 8  23457940.243 9               9     -2396.732          23.000  
C 7  36974204.136 8 192534337.58934       434.118          33.000  
C26  22903038.183 1 119262097.268 1     -1537.684          44.000  
C 2  38028140.888 2 198022487.630 1       -54.723          37.000  
C 8  37378297.607 2 194638568.218 1       830.516          39.000  
C13  38368667.160 9               9      1115.834          18.000  
C 1  37715004.444 2 196391894.776 1       -96.774          38.000  
C 4  39243046.651 4 204348810.66522      -103.604          37.000  
> 2020  3 14  8 48  0.0030000  0 16                     
G 1  21194909.698 1 111380003.513 1       941.701          42.000  
G 7  21326213.442 1 112070008.06621       705.593          40.000  
G11  21530072.854 8 113141323.99723     -1568.524          33.000  
C12  22721123.921 2 118314839.07321       -84.831          39.000  
C 3  37168410.227 2 193545638.879 1       -59.405          39.000  
C10  37955999.001 4 197646803.71722       486.242          39.000  
G30  23026548.070 9               9      2447.551          29.000  
C24  23114954.046 4 120365597.93722      1270.560          41.000  
G 8  23458395.938 9               9     -2412.288          24.000  
C 7  36974118.874 8 192533902.28323       435.491          33.000  
C26  22903333.057 1 119263633.567 1     -1535.355          44.000  
C 2  38028151.393 2 198022542.727 1       -55.729          34.000  
C 8  37378138.007 2 194637736.738 1       832.058          38.000  
C13  38368454.825 9               7      1121.477          24.000  
C 1  37715022.557 2 196391989.357 1       -92.881          38.000  
C 4  39243065.672 2 204348909.58631       -98.407          37.000  
> 2020  3 14  8 48  1.0030000  0 14                     
G 1  21194730.798 1 111379061.595 1       942.146          42.000  
G 7  21326079.773 1 112069304.15521       702.072          40.000  
G11  21530376.697 8 113142892.00823     -1567.527          36.000  
C12  22721140.674 2 118314926.09921       -88.883          37.000  
C 3  37168421.884 2 193545698.497 1       -60.099          38.000  
G30  23026082.568 9               9      2440.476          33.000  
C24  23114706.393 4 120364328.68822      1267.944          38.000  
G 8  23458856.589 9               9     -2395.353          31.000  
C 7  36974031.588 8 192533465.58023       437.461          31.000  
C26  22903627.687 1 119265168.010 1     -1533.527          43.000  
C 8  37377978.407 2 194636904.809 1       831.530          36.000  
C13  38368234.604 9               9      1117.987          25.000  
C 1  37715039.868 2 196392080.820 1       -90.460          37.000  
C 4  39243084.169 2 204349005.62222       -93.983          35.000  
> 2020  3 14  8 48  2.0030000  0 15                     
G 1  21194551.654 1 111378119.091 1       942.060          42.000  
G 7  21325946.698 1 112068603.89521       697.937          42.000  
G11  21530676.038 8 113144457.22924     -1564.202          36.000  
C12  22721157.845 2 118315016.66421       -92.340          39.000  
C 3  37168433.471 2 193545760.064 1       -63.204          40.000  
C10  37955809.876 9               6       485.092          35.000  
G30  23025622.371 8 121000461.56434      2434.666          40.000  
C24  23114466.487 4 120363060.88921      1266.671          41.000  
G 8  23459309.631 9               7     -2396.384          35.000  
C 7  36973950.201 8 192533025.71925       444.110          32.000  
C26  22903921.862 1 119266700.686 1     -1532.241          45.000  
C 8  37377818.738 2 194636073.271 1       831.388          36.000  
C13  38368017.628 9 199792304.95235      1115.095          30.000  
C 1  37715056.830 2 196392168.910 1       -86.286          38.000  
C 4  39243101.096 2 204349095.45721       -86.638          37.000  
> 2020  3 14  8 48  3.0030000  0 17                     
G 1  21194372.336 1 111377176.846 1       941.469          41.000  
G 7  21325813.658 1 112067905.99021       697.171          41.000  
G11  21530974.541 9               9     -1570.675          30.000  
C12  22721175.644 2 118315109.51121       -93.752          40.000  
C 3  37168445.755 2 193545824.232 1       -66.049          38.000  
C10  37955716.307 8 197645344.03833       487.117          38.000  
G30  23025155.159 8 120998025.56322      2436.454          40.000  
C24  23114223.022 2 120361792.88221      1268.811          41.000  
G 8  23459765.152 9               9     -2374.445          25.000  
C 5  40140417.362 9               9       -61.547          36.000  
C 7  36973866.788 9               7       446.721          27.000  
C26  22904216.352 1 119268233.021 1     -1532.430          42.000  
C 8  37377659.243 2 194635243.294 1       828.540          37.000  
C13  38367803.653 8 199791189.87933      1108.517          34.000  
G17  24926564.842 9               9      1709.912          37.000  
C 1  37715073.442 4 196392255.421 2       -86.111          38.000  
C 4  39243117.673 4 204349180.36632       -83.771          33.000  
> 2020  3 14  8 48  4.0030000  0 19                     
G 1  21194193.261 2 111376234.989 1       942.437          41.000  
G 7  21325680.931 1 112067210.07221       694.772          42.000  
G11  21531268.892 9 113147581.56834     -1555.221          36.000  
C12  22721193.792 2 118315204.055 1       -96.129          41.000  
C 3  37168458.738 2 193545890.792 1       -66.528          38.000  
C10  37955622.914 4 197644855.93821       488.336          37.000  
G30  23024694.403 8 120995590.46823      2434.070          41.000  
C24  23113978.300 2 120360524.64921      1268.179          43.000  
G 8  23460208.527 9               7     -2385.429          32.000  
C 5  40140429.577 9 209021718.72433       -68.517          36.000  
C 7  36973778.455 9               6       450.027          32.000  
C26  22904510.528 2 119269765.244 1     -1530.755          41.000  
C 2  38028212.574 9               9       -70.166          28.000  
C 8  37377500.202 2 194634414.687 1       828.153          38.000  
C13  38367593.727 4 199790082.44421      1105.924          41.000  
G17  24926247.109 9 130988312.26932      1697.919          42.000  
C 1  37715090.020 4 196392340.688 2       -83.900          36.000  
C 4  39243133.658 9               9       -71.338          28.000  
C 6  40481887.132 9 210799777.83834     -1441.804          34.000  
> 2020  3 14  8 48  5.0030000  0 17                     
G 1  21194013.664 2 111375291.845 1       942.753          38.000  
G 7  21325549.287 1 112066516.82921       692.058          41.000  
G11  21531564.603 8 113149137.42222     -1555.733          40.000  
C12  22721212.429 2 118315301.232 1       -98.612          39.000  
C 3  37168471.617 2 193545957.906 1       -66.799          39.000  
C10  37955528.438 4 197644367.95521       487.115          39.000  
G30  23024228.692 8 120993159.36323      2429.034          43.000  
C24  23113734.346 2 120359257.46921      1266.232          43.000  
G 8  23460647.365 9 123286533.43035     -2373.078          34.000  
C 7  36973692.705 8 192531685.26032       449.976          38.000  
C26  22904804.390 4 119271295.057 2     -1529.394          38.000  
C 2  38028217.460 9 198022875.52635       -81.366          34.000  
C 8  37377341.056 2 194633585.356 1       829.469          37.000  
C13  38367379.752 2 199788976.72521      1105.453          39.000  
C 1  37715105.446 9               7       -82.767          29.000  
C 4  39243148.176 9               9       -70.801          29.000  
C 6  40482164.416 8 210801220.13822     -1441.742          32.000  
> 2020  3 14  8 48  6.0030000  0 19                     
G 1  21193833.927 2 111374347.431 1       943.986          38.000  
G 7  21325417.991 1 112065825.72321       690.764          42.000  
G11  21531858.639 4 113150692.95921     -1555.221          43.000  
C12  22721231.205 2 118315400.447 1       -99.860          40.000  
C 3  37168484.181 2 193546024.280 1       -68.049          38.000  
C10  37955434.033 4 197643881.46021       487.115          38.000  
G30  23023768.286 8 120990732.22723      2425.898          42.000  
C24  23113491.509 1 120357992.02021      1265.549          44.000  
G 8  23461099.954 9 123288906.07325     -2370.677          34.000  
C 5  40140439.419 9               9         0.156          29.000  
C 7  36973604.163 4 192531234.38621       451.455          39.000  
C26  22905097.937 4 119272822.921 2     -1527.578          36.000  
C 2  38028234.422 8 198022957.56722       -82.797          37.000  
C 8  37377181.526 4 194632754.729 2       829.878          36.000  
C13  38367167.977 2 199787870.41021      1105.875          39.000  
G17  24925599.636 9               9      1692.572          31.000  
C 1  37715120.314 9               9       -72.412          29.000  
C 4  39243161.578 9               9       -71.143          28.000  
C 6  40482443.026 8 210802661.17023     -1441.329          28.000  
> 2020  3 14  8 48  7.0030000  0 19                     
G 1  21193654.573 4 111373403.863 2       941.974          37.000  
G 7  21325286.277 1 112065134.680 1       691.081          43.000  
G11  21532156.165 2 113152247.23821     -1553.835          42.000  
C12  22721250.261 2 118315499.412 1       -98.143          40.000  
C 3  37168497.338 2 193546091.336 1       -68.168          37.000  
C10  37955339.802 4 197643393.06521       490.191          37.000  
G30  23023306.797 8 120988303.77423      2429.165          42.000  
C24  23113248.427 1 120356725.66021      1267.169          44.000  
G 8  23461549.192 8 123291276.18225     -2371.779          31.000  
C 5  40140472.959 9               9       -86.641          33.000  
C 7  36973518.517 4 192530781.82721       453.168          39.000  
C26  22905390.822 9               9     -1516.062          28.000  
C 2  38028250.336 4 198023040.32521       -82.257          36.000  
C 8  37377022.066 4 194631924.752 2       829.731          37.000  
C13  38366955.572 2 199786765.65221      1104.125          37.000  
G17  24925301.586 9               9      1692.572          26.000  
C 1  37715136.472 9               9       -83.154          29.000  
C 4  39243174.701 9               9       -68.994          29.000  
C 6  40482722.299 8 210804104.27824     -1444.453          28.000  
> 2020  3 14  8 48  8.0030000  0 19                     
G 1  21193475.325 2 111372461.844 1       940.757          39.000  
G 7  21325154.493 1 112064442.812 1       691.868          42.000  
G11  21532451.214 2 113153800.77621     -1553.733          43.000  
C12  22721269.002 2 118315597.115 1       -96.639          40.000  
C 3  37168510.286 2 193546159.433 1       -69.038          39.000  
C10  37955246.617 2 197642901.92421       492.007          38.000  
G30  23022840.876 4 120985872.23922      2433.269          42.000  
C24  23113005.101 1 120355457.58121      1268.436          44.000  
G 8  23461997.279 9               9     -2370.020          31.000  
C 5  40140489.222 9 209022029.27434       -74.538          36.000  
C 7  36973431.161 2 192530328.05821       453.947          39.000  
C26  22905685.521 9 119275883.90835     -1533.021          36.000  
C 2  38028265.343 4 198023123.00221       -82.886          37.000  
C 8  37376862.745 2 194631096.343 1       827.693          37.000  
C11  25836653.060 9 134538200.28934      2054.251          39.000  
C13  38366744.076 2 199785662.82521      1101.498          39.000  
G17  24924970.032 9               6      1691.214          33.000  
C 1  37715153.958 9               9       -73.242          33.000  
C 6  40482996.652 8 210805550.09023     -1447.620          29.000  
