     3.04           OBSERVATION DATA    M: Mixed            RINEX VERSION / TYPE
Higeo_Hi1105        Huawei CBG          20220123 112240 UTC PGM / RUN BY / DATE 
************************************************************COMMENT             
* If you have any problem,                                 *COMMENT             
*     please contact with LBS Technology Group, thanks.    *COMMENT             
*                                                          *COMMENT             
* Version Higeo2RinexV1.1 2020.07.21                       *COMMENT             
* Fuction:  Convert Higeo Log to Rinex file                *COMMENT             
*                                                          *COMMENT             
* Note that the verision support B1C B2A signal            *COMMENT             
*     BDS: C1D L1D D1D S1D indicate BDS B1C                *COMMENT             
*     BDS: C5D L5D D5D S5D indicate BDS B2A                *COMMENT             
*     Reference: RINEX V3.04                               *COMMENT             
*                                                          *COMMENT             
* Copyright(C) Huawei Technologies Co., Ltd. 2019 - 2020   *COMMENT             
*     All rights reserved.                                 *COMMENT             
************************************************************COMMENT             
                                                            MARKER NAME         
                                                            MARKER NUMBER       
                                                            MARKER TYPE         
                                                            OBSERVER / AGENCY   
                                                            REC # / TYPE / VERS 
                                                            ANT # / TYPE        
        0.0000        0.0000        0.0000                  APPROX POSITION XYZ 
        0.0000        0.0000        0.0000                  ANTENNA: DELTA H/E/N
G    8 C1C L1C D1C S1C C5I L5I D5I S5I                      SYS / # / OBS TYPES 
R    4 C1C L1C D1C S1C                                      SYS / # / OBS TYPES 
E    8 C1C L1C D1C S1C C5I L5I D5I S5I                      SYS / # / OBS TYPES 
J    8 C1C L1C D1C S1C C5I L5I D5I S5I                      SYS / # / OBS TYPES 
C   12 C2I L2I D2I S2I C1D L1D D1D S1D C5D L5D D5D S5D      SYS / # / OBS TYPES 
  2021    12     8     2    48   19.0000000     GPS         TIME OF FIRST OBS   
  2021    12     8     3     3   20.0000000     GPS         TIME OF LAST OBS    
G                                                           SYS / PHASE SHIFT   
R                                                           SYS / PHASE SHIFT   
E                                                           SYS / PHASE SHIFT   
J                                                           SYS / PHASE SHIFT   
C                                                           SYS / PHASE SHIFT   
  0                                                         GLONASS SLOT / FRQ #
 C1C    0.000 C1P    0.000 C2C    0.000 C2P    0.000        GLONASS COD/PHS/BIS 
                                                            END OF HEADER       
> 2021 12  8  2 48 19.0000000  0  2                     
G10                     -2927.538       -2029.391          31.000                                                                  
G32                    -14904.046       -1870.645          23.000                                                                  
> 2021 12  8  2 48 20.0000000  0  2                     
G10                    -13577.001       -2024.615          19.000                                                                  
G32                    -24720.069       -1867.641          26.000                                                                  
> 2021 12  8  2 48 21.0000000  0  2                     
G10                    -24208.765       -2021.102          17.000                                                                  
G32                    -34523.397       -1865.297          25.000                                                                  
> 2021 12  8  2 48 25.0000000  0  5                     
G10                    -98655.286       -2026.847          20.000                                                                  
G12                    -22311.256       -2587.559          17.000                                                                  
G24                     81758.294        1993.936          17.000                                                                  
G32                   -103178.435       -1866.913          23.000                                                                  
R 8                                                        36.000  
> 2021 12  8  2 48 26.0000000  0  5                     
G10                   -109302.397       -2025.805          26.000                                                                  
G12                    -35909.660       -2586.399          17.000                                                                  
G24                     92255.226        1997.616          18.000                                                                  
G32                   -112993.646       -1867.926          17.000                                                                  
R 8                                                        34.000  
> 2021 12  8  2 48 27.0000000  0  5                     
G10                   -119953.890       -2026.880          29.000                                                                  
G12                    -49520.486       -2590.270          16.000                                                                  
G24                    102764.710        1998.396          20.000                                                                  
G32                   -122820.510       -1868.212          16.000                                                                  
R 8                                                        35.000  
> 2021 12  8  2 48 28.0000000  0  6                     
G10                   -130606.409       -2026.370          26.000                                                                  
G12                    -63123.035       -2588.787          17.000                                                                  
G18                     89696.664        3181.856          17.000                                                                  
G24                    113267.524        2000.404          22.000                                                                  
G32                   -132640.027       -1868.377          19.000                                                                  
R 8                                                        32.000  
> 2021 12  8  2 48 29.0000000  0  7                     
G10                   -141252.875       -2025.114          20.000                                                                  
G12                    -76722.010       -2589.663          17.000                                                                  
G18                    106420.228        3184.648          18.000                                                                  
G23                       522.839          21.275          17.000                                                                  
G24                    123773.355        1998.123          21.000                                                                  
G32                   -142459.352       -1868.669          19.000                                                                  
R 8                                                        31.000  
> 2021 12  8  2 48 30.0000000  0  7                     
G10                   -151903.793       -2027.333          17.000                                                                  
G12                    -90332.166       -2588.445          16.000                                                                  
G18                    123156.207        3183.490          19.000                                                                  
G23                       651.598          24.912          17.000                                                                  
G24                    134269.188        1996.469          20.000                                                                  
G32                   -152272.718       -1866.394          17.000                                                                  
R 8                                                        29.000  
> 2021 12  8  2 48 31.0000000  0  8                     
G10                   -162558.214       -2025.519          19.000                                                                  
G12                   -103931.324       -2587.676          16.000                                                                  
G18                    139877.780        3180.421          19.000                                                                  
G23                       775.156          23.633          15.000                                                                  
G24                    144755.092        1993.399          19.000                                                                  
G32                   -162085.332       -1867.147          18.000                                                                  
R 8                                                        30.000  
R24                                                        20.000  
> 2021 12  8  2 48 32.0000000  0  8                     
G10                   -173209.503       -2028.007          29.000                                                                  
G12                   -117529.845       -2587.967          16.000                                                                  
G18                    156596.139        3180.730          17.000                                                                  
G23                       873.792          15.328          15.000                                                                  
G24                    155241.380        1997.485          18.000                                                                  
G32                   -171909.507       -1870.753          24.000                                                                  
R 8                                                        27.000  
R24                                                        22.000  
> 2021 12  8  2 48 33.0000000  0  8                     
G10                   -183868.582       -2029.333          35.000                                                                  
G12                   -131132.305       -2588.818          15.000                                                                  
G18                    173302.576        3177.658          13.000                                                                  
G23                       955.925          15.991          14.000                                                                  
G24                    165742.251        1998.868          17.000                                                                  
G32                   -181739.942       -1870.823          25.000                                                                  
R 8                                                        29.000  
R24                                                        20.000  
> 2021 12  8  2 48 34.0000000  0  8                     
G10                   -194522.393       -2027.840          38.000                                                                  
G12                   -144739.119       -2589.483          15.000                                                                  
G18                    190005.795        3178.425          12.000                                                                  
G23                      1039.603          17.171          14.000                                                                  
G24                    176251.670        2000.027          16.000                                                                  
G32                   -191577.090       -1873.176          22.000                                                                  
R 8                                                        33.000  
R24                                                        19.000  
> 2021 12  8  2 48 35.0000000  0  8                     
G10                   -205184.822       -2029.096          34.000                                                                  
G12                   -158350.745       -2591.513          13.000                                                                  
G18                    206719.046        3179.792          14.000                                                                  
G23                      1129.570          17.058          13.000                                                                  
G24                    186764.760        1999.539          20.000                                                                  
G32                   -201417.442       -1872.127          23.000                                                                  
R 8                                                        29.000  
R24                                                        17.000  
> 2021 12  8  2 48 36.0000000  0  8                     
G10                   -215841.476       -2028.895          31.000                                                                  
G12                   -171966.084          -0.010          14.000                                                                  
G18                    223419.962          -0.011          13.000                                                                  
G23                      1222.744          -0.007          10.000                                                                  
G24                    197271.258        1999.976          22.000                                                                  
G32                   -211250.117          -0.006          23.000                                                                  
R 8                                                        28.000  
R24                                                        19.000  
> 2021 12  8  2 48 37.0000000  0  8                     
G10                   -226502.615       -2027.466          28.000                      -30440.866       -1508.252          19.000  
G12                   -185575.035          -0.010          13.000                                                                  
G18                    240120.534          -0.011          15.000                                                                  
G23                      1306.790          -0.007          11.000                                                                  
G24                    207780.871        2000.695          19.000                                                                  
G32                   -221091.708       -1871.731          25.000                                                                  
R 8                                                        24.000  
R24                                                        20.000  
> 2021 12  8  2 48 38.0000000  0  7                     
G10                   -237166.310       -2030.471          27.000                      -36377.079       -1514.609          20.000  
G12                   -199186.858          -0.010          15.000                                                                  
G18                    256810.256          -0.011          14.000                                                                  
G24                    218301.356        2000.512          19.000                                                                  
G32                   -230931.048       -1872.436          23.000                                                                  
R 8                                                        23.000  
R24                                                        19.000  
> 2021 12  8  2 48 39.0000000  0  7                     
G10                   -247838.097       -2032.131          24.000                      -42322.112       -1511.570          20.000  
G12                   -212786.541          -0.010          14.000                                                                  
G18                    273494.516          -0.011          13.000                                                                  
G24                    228817.505        2002.076          18.000                                                                  
G32                   -240771.157       -1872.535          23.000                                                                  
R 8                                                        25.000  
R24                                                        20.000  
> 2021 12  8  2 48 40.0000000  0  7                     
G10                   -258509.618       -2027.882          24.000                      -48270.012       -1517.305          19.000  
G12                   -226385.908          -0.010          15.000                                                                  
G18                    290178.603          -0.011          12.000                                                                  
G24                    239326.082        1996.429          19.000                                                                  
G32                   -250608.944       -1871.446          20.000                                                                  
R 8                                                        23.000  
R24                                                        22.000  
> 2021 12  8  2 48 41.0000000  0  6                     
G10                   -269174.493       -2032.553          25.000                      -54214.582       -1513.817          19.000  
G12                   -239992.771          -0.010          13.000                                                                  
G24                    249822.704        1999.035          19.000                                                                  
G32                   -260439.677       -1870.321          21.000                                                                  
R 8                                                        36.000  
R24                                                        20.000  
> 2021 12  8  2 48 42.0000000  0  6                     
G10                   -279852.890       -2033.682          19.000                                                                  
G12                   -253607.018          -0.010          13.000                                                                  
G24                    260324.780        1996.846          19.000                                                                  
G32                   -270260.759       -1868.773          17.000                                                                  
R 8                                                        27.000  
R24                                                        15.000  
> 2021 12  8  2 48 43.0000000  0  5                     
G10                   -290517.099       -2028.865          26.000                                                                  
G24                    270824.211        1999.470          19.000                                                                  
G32                   -280090.184       -1873.565          25.000                                                                  
R 8                                                        25.000  
R24                                                        17.000  
> 2021 12  8  2 48 44.0000000  0  6                     
G10                   -301174.777       -2029.139          29.000                      -72080.020       -1517.271          16.000  
G18                    357000.669        3181.525          17.000                                                                  
G24                    281331.517        1999.750          17.000                                                                  
G32                   -289938.415       -1873.631          20.000                                                                  
R 8                                                        29.000  
R24                                                        18.000  
> 2021 12  8  2 48 46.0000000  0  8                     
G10                   -322058.471       -2030.219          29.000                      -83750.360       -1522.340          12.000  
G18                    389705.902        3180.738          14.000                                                                  
G24                    301882.085        1996.866          13.000                                                                  
G32                   -309228.600       -1874.616          24.000                                                                  
R 8                                                        24.000  
R24                                                        16.000  
E33                     17932.911         759.470          18.000                                                                  
C36                    -21999.113       -2024.449          31.000                                                                                                                                  
> 2021 12  8  2 48 47.0000000  0  7                     
G10                   -332719.136       -2028.801          27.000                                                                  
G18                    406417.502        3179.806          14.000                                                                  
G24                    312377.889          -0.002          14.000                                                                  
G32                   -319080.815       -1877.021          27.000                                                                  
R 8                                                        20.000  
E33                     21911.360         756.842          18.000                                                                  
C36                    -32543.574       -2026.394          34.000                                                                                                                                  
> 2021 12  8  2 48 48.0000000  0  7                     
G10                   -343384.101       -2029.456          26.000                                                                  
G18                    423128.084        3180.173          14.000                                                                  
G24                    322874.476          -0.002          15.000                                                                  
G32                   -328939.259       -1875.559          24.000                                                                  
R 8                                                        26.000  
E33                     25886.421         754.475          18.000                                                                  
C36                    -43093.106       -2026.575          35.000                                                                                                                                  
> 2021 12  8  2 48 49.0000000  0 12                     
G10                   -354061.315       -2033.393          25.000                     -101653.968       -1519.981          14.000  
G18                    439834.559          -0.011          13.000                                                                  
G23                       415.925          23.053          23.000                                                                  
G24                    333379.540          -0.002          11.000                                                                  
G25                    -45470.923       -3116.345          15.000                                                                  
G32                   -338794.521       -1876.282          25.000                                                                  
R 8                                                        22.000  
E33                     29856.010         757.850          14.000                                                                  
J 2                    -11766.061         -81.793          20.000                                                                  
C 9                       102.660          18.095          25.000                                                                                                                                  
C22                    -11939.058       -1451.982          17.000                                                                                                                                  
C36                    -53643.897       -2026.200          33.000                                                                                                                                  
> 2021 12  8  2 48 50.0000000  0 10                     
G10                   -364744.039       -2032.291          27.000                     -107621.816       -1520.300          14.000  
G18                    456530.555          -0.011          14.000                                                                  
G23                       539.490          23.183          23.000                                                                  
G24                    343888.031          -0.002          13.000                                                                  
G25                    -61847.025       -3115.188          14.000                                                                  
G32                   -348655.106       -1876.531          24.000                                                                  
R 8                                                        22.000  
E33                     33852.877         762.862          15.000                                                                  
J 2                    -12190.161         -81.377          21.000                                                                  
C36                    -64199.893       -2025.846          34.000                                                                                                                                  
> 2021 12  8  2 48 51.0000000  0 11                     
G10                   -375419.081       -2031.424          27.000                     -113577.870       -1517.180          17.000  
G18                    473224.935          -0.011          15.000                                                                  
G23                       665.367          23.106          22.000                                                                  
G24                    354394.017          -0.002          17.000                                                                  
G25                    -78213.732       -3115.694          14.000                                                                  
G32                   -358513.847       -1875.611          25.000                                                                  
R 8                                                        17.000  
E33                     37859.858         762.224          19.000                                                                  
J 2                    -12621.217         -81.871          21.000                                                                  
C 9                        85.046          14.377          22.000                                                                                                                                  
C36                    -74753.578       -2025.072          33.000                                                                                                                                  
> 2021 12  8  2 48 52.0000000  0 12                     
G10                   -386092.656       -2033.348          27.000                     -119534.329       -1519.519          17.000  
G18                    489920.127          -0.011          13.000                                                                  
G23                       787.064          24.045          22.000                                                                  
G24                    364905.258        1998.977          17.000                                                                  
G32                   -368370.733       -1874.114          25.000                                                                  
R 8                                                        19.000  
R24                                                        18.000  
E33                     41868.853         764.078          20.000                                                                  
J 2                    -13059.928         -85.066          20.000                                                                  
C 9                       163.512          15.446          22.000                                                                                                                                  
C13                      3868.990         772.542          30.000                                                                                                                                  
C36                    -85304.429       -2026.481          31.000                                                                                                                                  
> 2021 12  8  2 48 53.0000000  0 11                     
G10                   -396768.718       -2033.120          27.000                     -125490.514       -1517.919          17.000  
G18                    506611.114          -0.011          14.000                                                                  
G23                       915.332          24.809          22.000                                                                  
G24                    375411.084        1999.040          18.000                                                                  
G32                   -378221.786       -1874.252          25.000                                                                  
R 8                                                        19.000  
R24                                                        14.000  
E33                     45875.686         759.542          19.000                                                                  
J 2                    -13506.104         -86.631          20.000                                                                  
C 9                       245.166          15.496          24.000                                                                                                                                  
C36                    -95852.947       -2025.094          33.000                                                                                                                                  
> 2021 12  8  2 48 54.0000000  0 13                     
G10                   -407449.068       -2031.529          26.000                     -131446.992       -1519.016          17.000  
G18                    523312.746          -0.011          14.000                                                                  
G23                      1041.243          24.077          23.000                                                                  
G24                    385926.703        2002.169          20.000                                                                  
G25                   -127320.535       -3114.209          15.000                                                                  
G32                   -388076.811       -1877.201          25.000                                                                  
R 8                                                        22.000  
E33                     49864.282         760.742          20.000                                                                  
J 2                    -13952.919         -84.099          22.000                                                                  
C 8                     14243.470         969.479          18.000                                                                                                                                  
C 9                       331.108          15.513          23.000                                                                                                                                  
C13                      3546.001         770.767          29.000                                                                                                                                  
C36                   -106404.212       -2025.458          34.000                                                                                                                                  
> 2021 12  8  2 48 55.0000000  0 14                     
G10                   -418124.891       -2030.160          27.000                     -137408.570       -1518.376          17.000  
G18                    540019.007          -0.011          14.000                                                                  
G23                      1166.491          23.884          22.000                                                                  
G24                    396438.035        2000.465          20.000                                                                  
G25                   -143688.695       -3117.254          16.000                                                                  
G32                   -397932.161       -1874.304          25.000                                                                  
R 8                                                        22.000  
E33                     53859.381         761.598          19.000                                                                  
J 2                    -14391.326         -83.588          22.000                                                                  
C 8                     19305.219         972.512          18.000                                                                                                                                  
C 9                       407.917          15.345          23.000                                                                                                                                  
C13                      1696.247         771.237          28.000                                                                                                                                  
C22                    -11270.499       -1446.029          20.000                                                                                                                                  
C36                   -116957.475       -2027.803          32.000                                                                                                                                  
> 2021 12  8  2 48 56.0000000  0 14                     
G10                   -428798.335       -2033.467          28.000                     -143364.796       -1518.459          17.000  
G18                    556730.070          -0.011          14.000                                                                  
G24                    406945.301        1999.489          16.000                                                                  
G25                   -160070.716       -3115.671          13.000                                                                  
G32                   -407788.172       -1874.989          30.000                                                                  
R 8                                                        27.000  
E33                     57858.867         759.413          19.000                                                                  
J 2                    -14830.811         -83.079          20.000                                                                  
C 6                      1734.117         102.031          18.000                                                                                                                                  
C 8                     24368.834         972.072          22.000                                                                                                                                  
C 9                       488.905          15.773          25.000                                                                                                                                  
C13                      5703.173         767.556          23.000                                                                                                                                  
C22                    -18816.029       -1449.031          26.000                                                                                                                                  
C36                   -127510.538       -2026.263          33.000                                                                                                                                  
> 2021 12  8  2 48 57.0000000  0 15                     
G10                   -439480.736       -2033.514          24.000                     -149319.100       -1519.171          15.000  
G18                    573445.710        3180.427          16.000                                                                  
G24                    417459.703        2001.695          17.000                                                                  
G25                   -176457.662       -3121.042          12.000                                                                  
G32                   -417653.308       -1875.830          33.000                                                                  
R 1                                                        19.000  
R 8                                                        23.000  
E33                     61856.198         760.489          31.000                                                                  
J 2                    -15281.341         -86.577          18.000                                                                  
C 6                      2258.831         100.260          20.000                                                                                                                                  
C 8                     29445.476         975.690          19.000                                                                                                                                  
C 9                       576.801          16.701          25.000                                                                                                                                  
C13                      9711.131         771.224          26.000                                                                                                                                  
C22                    -26362.212       -1450.377          24.000                                                                                                                                  
C36                   -138059.801       -2027.394          28.000                                                                                                                                  
> 2021 12  8  2 48 58.0000000  0 16                     
G10                   -450171.743          -0.012          20.000                     -155278.175       -1518.582          17.000  
G18                    590163.093        3180.410          14.000                                                                  
G23                       610.322          23.520          20.000                                                                  
G24                    427985.801        2003.506          17.000                                                                  
G25                   -192868.265       -3125.756          13.000                                                                  
G32                   -427534.594       -1881.668          23.000                                                                  
R 1                                                        17.000  
R 8                                                        27.000  
E33                     65853.276         760.189          27.000                                                                  
J 2                    -15738.046         -86.422          20.000                                                                  
C 6                      2783.624         102.063          25.000                                                                                                                                  
C 8                     34519.349         973.568          26.000                                                                                                                                  
C 9                       665.138          14.107          24.000                                                                                                                                  
C13                     13717.508         767.437          29.000                                                                                                                                  
C22                    -33914.674       -1449.126          22.000                                                                                                                                  
C36                   -148615.599       -2022.962          30.000                                                                                                                                  
> 2021 12  8  2 48 59.0000000  0 16                     
G10                   -460863.816       -2033.798          24.000                     -161235.400       -1517.448          18.000  
G18                    606869.017        3177.147          16.000                                                                  
G23                       719.198          21.362          17.000                                                                  
G24                    438526.022        2007.118          17.000                                                                  
G25                   -209311.483       -3130.216          14.000                                                                  
R 1                                                        18.000  
R 8                                                        33.000  
E26                     15598.889        2800.290          20.000                                                                  
E33                     69851.288         761.032          29.000                                                                  
J 2                    -16190.489         -85.098          17.000                                                                  
C 6                      3315.369         102.412          23.000                                                                                                                                  
C 8                     39583.180         973.266          28.000                                                                                                                                  
C 9                       740.115          14.700          24.000                                                                                                                                  
C13                     17729.870         771.678          26.000                                                                                                                                  
C22                    -41465.664       -1450.385          20.000                                                                                                                                  
C36                   -159168.917       -2025.382          35.000                                                                                                                                  
> 2021 12  8  2 49  0.0000000  0 16                     
G10                   -471547.058       -2032.307          26.000                     -167205.540       -1521.422          20.000  
G18                    623569.120        3179.190          15.000                                                                  
G23                       832.797          18.392          17.000                                                                  
G24                    449065.594        2004.622          19.000                                                                  
R 1                                                        17.000  
R 8                                                        31.000  
E26                     30319.027        2799.160          18.000                                                                  
E33                     73850.354         761.968          29.000                                                                  
J 2                    -16644.316         -85.945          16.000                                                                  
C 6                      3846.571         103.212          22.000                                                                                                                                  
C 8                     44657.337         972.434          26.000                                                                                                                                  
C 9                       811.724          14.789          26.000                                                                                                                                  
C13                     21737.952         768.837          26.000                                                                                                                                  
C20                      8123.087        2184.676          28.000                                                                                                                                  
C22                    -49020.690       -1451.012          23.000                                                                                                                                  
C36                   -169717.085       -2025.040          34.000                                                                                                                                  
> 2021 12  8  2 49  1.0000000  0 16                     
G10                   -482221.261       -2032.095          25.000                     -173171.379       -1519.757          18.000  
G18                    640269.094        3176.599          14.000                                                                  
G23                       953.728          23.520          20.000                         522.990          11.085          13.000  
G24                    459598.084        2003.873          20.000                                                                  
G32                    -11054.525       -1877.963          26.000                                                                  
R 1                                                        17.000  
R 8                                                        21.000  
E33                     77852.211         759.168          22.000                                                                  
J 2                    -17095.208         -86.946          17.000                                                                  
C 6                      4386.472         103.790          19.000                                                                                                                                  
C 8                     49730.993         974.380          21.000                                                                                                                                  
C 9                       891.817          12.041          24.000                                                                                                                                  
C13                     25739.073         768.433          30.000                                                                                                                                  
C20                     19500.918        2186.697          18.000                                                                                                                                  
C22                    -56570.947           0.006          20.000                                                                                                                                  
C36                   -180262.080       -2030.587          27.000                                                                                                                                  
> 2021 12  8  2 49  2.0000000  0 17                     
G10                   -492898.801       -2031.447          20.000                     -179138.211       -1520.690          16.000  
G18                    656963.886          -0.011          16.000                                                                  
G23                      1087.454          27.822          20.000                         569.920          10.852          12.000  
G24                    470130.560        2004.224          18.000                                                                  
G25                   -258632.321       -3126.684          13.000                                                                  
G32                    -20917.278       -1875.980          33.000                                                                  
R 1                                                        17.000  
R 8                                                        20.000  
E33                     81851.695         761.583          22.000                                                                  
J 2                    -17556.824         -86.601          18.000                                                                  
C 6                      4923.494         100.645          18.000                                                                                                                                  
C 8                     54803.305         975.392          17.000                                                                                                                                  
C 9                       958.202          12.638          22.000                                                                                                                                  
C13                     29751.268         769.859          32.000                                                                                                                                  
C19                     15405.685         727.646          18.000                                                                                                                                  
C22                    -64123.514           0.006          17.000                                                                                                                                  
C36                   -190819.151       -2025.765          31.000                                                                                                                                  
> 2021 12  8  2 49  3.0000000  0 18                     
G10                   -503583.902       -2034.207          20.000                     -185100.419       -1518.187          15.000  
G18                    673655.681          -0.011          16.000                                                                  
G23                      1231.246          24.539          19.000                         619.736          11.573          12.000  
G24                    480662.839        2004.295          17.000                                                                  
G25                   -275049.819       -3125.059          13.000                                                                  
G32                    -30784.253       -1880.083          29.000                                                                  
R 1                                                        16.000  
R 8                                                        20.000  
E33                     85852.748         760.602          20.000                                                                  
J 2                    -18002.385         -85.033          21.000                                                                  
C 6                      5445.274          99.710          17.000                                                                                                                                  
C 8                     59875.218         974.742          17.000                                                                                                                                  
C 9                      1021.325          12.046          25.000                                                                                                                                  
C13                     33747.983         768.646          30.000                                                                                                                                  
C19                     19203.960         728.613          20.000                                                                                                                                  
C20                                                                                                                                                      7889.012        1643.553          20.000  
C22                    -71688.488           0.006          17.000                                                                                                                                  
C36                   -201366.556       -2024.626          33.000                                                                                                                                  
> 2021 12  8  2 49  4.0000000  0 19                     
G10                   -514279.702       -2035.586          20.000                     -191061.255       -1519.214          15.000  
G18                    690349.943          -0.011          15.000                                                                  
G23                      1361.874          24.941          20.000                                                                  
G24                    491194.552        2002.228          18.000                                                                  
G25                   -291480.237       -3127.960          12.000                                                                  
G32                    -40648.448       -1873.105          23.000                                                                  
R 1                                                        18.000  
R 8                                                        17.000  
E26                     53575.562        2793.577          20.000                                                                  
E33                     89854.949         762.716          19.000                                                                  
J 2                    -18449.209         -85.978          22.000                                                                  
C 6                      5960.242          99.836          14.000                                                                                                                                  
C 8                     64949.568         974.214          16.000                                                                                                                                  
C 9                      1093.682          15.069          25.000                                                                                                                                  
C13                     37755.550         771.193          25.000                                                                                                                                  
C19                     23000.492         729.644          19.000                                                                                                                                  
C20                                                                                                                                                     14342.566        1643.645          19.000  
C22                    -79253.059           0.006          17.000                                                                                                                                  
C36                   -211916.578       -2024.951          36.000                                                                                                                                  
> 2021 12  8  2 49  5.0000000  0 20                     
G10                   -524962.765       -2030.547          19.000                     -197021.559       -1519.167          17.000  
G18                    707038.449          -0.011          13.000                                                                  
G23                      1491.205          24.004          18.000                                                                  
G24                    501716.294        2002.845          22.000                                                                  
G25                   -307921.005       -3130.754          15.000                                                                  
G32                    -50511.693       -1878.467          31.000                                                                  
R 1                                                        20.000  
R 7                                                        19.000  
R 8                                                        17.000  
E26                     68274.049        2798.393          21.000                                                                  
E33                     93857.717         761.611          26.000                                                                  
J 2                    -18900.532         -87.023          19.000                                                                  
C 6                      6490.646           0.091          15.000                                                                                                                                  
C 8                     70020.182         973.377          16.000                                                                                                                                  
C 9                      1165.330          14.504          26.000                                                                                                                                  
C13                     41764.235         767.469          19.000                                                                                                                                  
C19                     26790.034         726.377          18.000                                                                                                                                  
C20                                                                                                                                                     20793.211        1643.344          17.000  
C22                    -86808.829       -1450.103          19.000                                                                                                                                  
C36                   -222460.184       -2026.578          29.000                                                                                                                                  
> 2021 12  8  2 49  6.0000000  0 20                     
G10                   -535640.037       -2033.965          21.000                     -202980.776       -1518.974          17.000  
G18                    723725.449          -0.011          13.000                                                                  
G23                      1617.587          24.818          21.000                                                                  
G24                    512237.319        2001.974          18.000                                                                  
G25                   -324355.539       -3125.134          15.000                                                                  
G32                    -60378.595       -1877.926          21.000                                                                  
R 1                                                        19.000  
R 7                                                        19.000  
R 8                                                        20.000  
E26                     82974.824        2795.647          20.000                       11142.251        2091.826          19.000  
E33                     97857.605         760.347          20.000                                                                  
J 2                    -19361.957         -86.813          23.000                                                                  
C 6                      7039.661           0.091          14.000                                                                                                                                  
C 8                     75091.678         974.009          18.000                                                                                                                                  
C 9                      1235.465          11.361          23.000                                                                                                                                  
C13                     45766.939         768.540          24.000                                                                                                                                  
C19                     30566.385         726.751          18.000                                                                                                                                  
C20                                                                                                                                                     27243.425        1643.279          19.000  
C22                    -94362.598           0.006          19.000                                                                                                                                  
C36                   -233009.818       -2024.627          33.000                                                                                                                                  
> 2021 12  8  2 49  7.0000000  0 20                     
G10                   -546331.450       -2033.400          27.000                     -208939.051       -1517.795          21.000  
G18                    740417.762          -0.011          13.000                                                                  
G23                      1750.185          24.495          20.000                                                                  
G24                    522761.384        2003.462          14.000                                                                  
G25                   -340773.696       -3122.661          13.000                                                                  
G32                    -70244.610       -1875.862          27.000                                                                  
R 1                                                        17.000  
R 7                                                        16.000  
R 8                                                        25.000  
E26                     97668.107        2795.799          19.000                                                                  
E33                    101854.898         758.171          18.000                                                                  
J 2                    -19809.048         -83.774          17.000                                                                  
C 6                      7598.290           0.091          17.000                                                                                                                                  
C 8                     80160.759         973.540          24.000                                                                                                                                  
C 9                      1297.499          12.439          18.000                                                                                                                                  
C13                     49771.021         769.768          29.000                                                                                                                                  
C19                     34357.948         728.643          17.000                                                                                                                                  
C20                                                                                                                                                     33687.729        1641.091          17.000  
C22                   -101909.361       -1450.082          23.000                                                                                                                                  
C36                   -243554.327       -2023.644          29.000                                                                                                                                  
> 2021 12  8  2 49  8.0000000  0 20                     
G10                   -557015.238       -2033.798          27.000                     -214894.180       -1514.214          19.000  
G18                    757114.829          -0.011          14.000                                                                  
G23                      1881.298          25.589          20.000                         908.463          19.018          16.000  
G24                    533289.998        2004.449          17.000                                                                  
G25                   -357180.753       -3117.606          13.000                                                                  
G32                    -80107.754       -1878.012          22.000                                                                  
R 1                                                        16.000  
R 7                                                        17.000  
R 8                                                        25.000  
E26                    112372.015        2798.330          21.000                       27563.554        2093.401          15.000  
E33                    105856.560         762.535          22.000                                                                  
J 2                    -20261.862         -87.746          15.000                                                                  
C 6                      8136.795         101.656          19.000                                                                                                                                  
C 8                     85231.865         973.606          18.000                                                                                                                                  
C 9                      1371.970          13.929          18.000                                                                                                                                  
C13                     53781.821         771.551          22.000                                                                                                                                  
C19                     38145.598         728.511          18.000                                                                                                                                  
C20                                                                                                                                                     40124.937        1641.542          18.000  
C22                   -109463.290       -1452.080          27.000                                                                                                                                  
C36                   -254092.879       -2024.669          20.000                                                                                                                                  
> 2021 12  8  2 49  9.0000000  0 20                     
G10                   -567694.682       -2033.246          21.000                     -220842.021       -1517.773          16.000  
G18                    773816.731          -0.011          14.000                                                                  
G23                      2000.510          22.591          18.000                         985.559          19.107          14.000  
G24                    543817.634        2004.117          19.000                                                                  
G25                   -373571.655       -3119.642          13.000                                                                  
G32                    -89978.769       -1880.444          17.000                                                                  
R 1                                                        12.000  
R 7                                                        14.000  
R 8                                                        26.000  
E26                    127072.703        2795.876          17.000                       35778.352        2092.320          17.000  
E33                    109861.579         763.594          20.000                                                                  
J 2                    -20724.403         -86.633          17.000                                                                  
C 6                      8661.633         100.543          22.000                                                                                                                                  
C 8                     90302.305         972.808          17.000                                                                                                                                  
C 9                      1447.289          12.411          21.000                                                                                                                                  
C13                     57791.433         767.111          19.000                                                                                                                                  
C19                     41934.990         726.711          18.000                                                                                                                                  
C20                                                                                                                                                     46566.543        1639.882          18.000  
C22                   -117032.593       -1452.729          24.000                                                                                                                                  
C36                   -264637.354       -2025.598          35.000                                                                                                                                  
> 2021 12  8  2 49 10.0000000  0 19                     
G10                   -578381.267       -2031.076          18.000                     -226792.108       -1516.517          18.000  
G18                    790523.174          -0.011          16.000                                                                  
G23                      2132.753          27.563          19.000                        1065.725          21.151          16.000  
G24                    554343.289        2002.140          20.000                                                                  
G25                   -389967.225           0.009          15.000                                                                  
G32                    -99866.867       -1883.762          18.000                                                                  
R 1                                                        11.000  
R 7                                                        15.000  
R 8                                                        21.000  
E26                    141766.875        2797.665          18.000                       43992.304        2091.223          17.000  
E33                    113867.312         763.592          17.000                                                                  
J 2                    -21190.096         -90.455          20.000                                                                  
C 6                      9176.513          98.501          18.000                                                                                                                                  
C 8                     95366.318         973.332          17.000                                                                                                                                  
C 9                      1508.740          11.798          22.000                                                                                                                                  
C19                     45719.853         726.809          20.000                                                                                                                                  
C20                                                                                                                                                     53005.191        1642.475          19.000  
C22                   -124588.963       -1450.859          24.000                                                                                                                                  
C36                   -275184.443       -2025.443          32.000                                                                                                                                  
> 2021 12  8  2 49 11.0000000  0 20                     
G10                   -589055.636       -2027.953          17.000                     -232748.401       -1518.200          17.000  
G18                    807227.959          -0.011          13.000                                                                  
G23                      2271.358          25.567          22.000                        1151.202          21.514          14.000  
G24                    564857.142        1999.455          19.000                                                                  
G25                   -406364.348           0.009          15.000                                                                  
G32                   -109748.265          -0.006          25.000                                                                  
R 1                                                        11.000  
R 7                                                        15.000  
R 8                                                        21.000  
E26                    156480.629        2800.468          19.000                       52196.993        2089.933          16.000  
E33                    117874.137         760.711          18.000                                                                  
J 2                    -21652.610         -88.113          18.000                                                                  
C 6                      9682.533          95.288          17.000                                                                                                                                  
C 8                    100427.391         971.044          15.000                                                                                                                                  
C 9                      1568.072          11.885          20.000                                                                                                                                  
C13                      5441.005         768.462          21.000                                                                                                                                  
C19                     49509.179         728.209          17.000                                                                                                                                  
C20                     19970.070        2183.346          19.000                                                                                       59454.258        1643.882          17.000  
C22                   -132146.964       -1452.339          26.000                                                                                                                                  
C36                   -285728.897       -2027.334          30.000                                                                                                                                  
> 2021 12  8  2 49 12.0000000  0 20                     
G10                   -599707.070       -2027.934          15.000                     -238708.090       -1518.680          18.000  
G18                    823935.594          -0.011          13.000                                                                  
G23                      2401.422          24.409          22.000                        1238.092          22.884          13.000  
G24                    575371.059        2003.810          19.000                                                                  
G25                   -422765.600           0.009          15.000                                                                  
G32                   -119632.659          -0.006          21.000                                                                  
R 1                                                        13.000  
R 7                                                        15.000  
R 8                                                        17.000  
E26                    171194.783        2800.978          18.000                       60403.090        2091.858          16.000  
E33                    121875.038         764.241          16.000                                                                  
J 2                    -22121.360         -90.452          19.000                                                                  
C 6                     10176.167          93.922          16.000                                                                                                                                  
C 8                    105481.183         970.149          13.000                                                                                                                                  
C 9                      1635.859          12.290          19.000                                                                                                                                  
C13                      9449.101         770.001          22.000                                                                                                                                  
C19                     53305.984         729.765          17.000                                                                                                                                  
C20                     31326.867        2179.672          19.000                                                                                       65908.225        1646.733          17.000  
C22                   -139705.968       -1450.532          25.000                                                                                                                                  
C36                   -296271.451       -2025.490          31.000                                                                                                                                  
> 2021 12  8  2 49 13.0000000  0 19                     
G10                   -610368.314       -2030.122          14.000                     -244646.817       -1513.525          18.000  
G18                    840648.040          -0.011          12.000                                                                  
G23                      2536.424          25.096          17.000                        1327.627          23.102          13.000  
G24                    585900.124        2004.426          20.000                                                                  
G25                   -439172.962           0.009          13.000                                                                  
G32                   -129501.495          -0.006          19.000                                                                  
R 1                                                        12.000  
R 7                                                        14.000  
R 8                                                        18.000  
E26                    185901.365        2799.878          17.000                       68612.156        2093.479          17.000  
J 2                    -22587.240         -88.700          18.000                                                                  
C 6                     10672.403          95.598          15.000                                                                                                                                  
C 8                    110536.348         970.457          16.000                                                                                                                                  
C 9                      1689.882           9.528          20.000                                                                                                                                  
C13                     13446.989         767.881          24.000                                                                                                                                  
C19                     57103.027         729.116          17.000                                                                                                                                  
C20                     42668.726        2179.250          17.000                                                                                       72368.205        1645.425          17.000  
C22                   -147266.990       -1451.458          25.000                                                                                                                                  
C36                   -306808.917       -2023.602          31.000                                                                                                                                  
> 2021 12  8  2 49 14.0000000  0 20                     
G10                   -621038.917          -0.012          11.000                     -250586.231       -1513.264          19.000  
G18                    857361.420          -0.011          13.000                                                                  
G23                      2659.393          22.408          17.000                        1420.769          25.115          14.000  
G24                    596423.694        2002.527          20.000                                                                  
G25                   -455583.833           0.009          14.000                                                                  
G32                   -139366.316       -1878.193          20.000                                                                  
R 1                                                        14.000  
R 7                                                        14.000  
R 8                                                        18.000  
E26                    200616.225        2800.917          17.000                       76827.692        2093.564          16.000  
E33                    129905.187         764.716          22.000                                                                  
J 2                    -23044.638         -89.229          18.000                                                                  
C 6                     11173.188          97.228          16.000                                                                                                                                  
C 8                    115588.933         969.092          17.000                                                                                                                                  
C 9                      1741.587           8.446          22.000                                                                                                                                  
C13                     17458.897         768.822          22.000                                                                                                                                  
C19                     60895.635         727.274          17.000                                                                                                                                  
C20                     54020.945        2179.963          16.000                                                                                       78825.406        1644.260          18.000  
C22                   -154823.714       -1452.103          23.000                                                                                                                                  
C36                   -317356.478       -2025.399          30.000                                                                                                                                  
> 2021 12  8  2 49 15.0000000  0 19                     
G10                   -631709.866          -0.012          19.000                     -256523.552       -1513.115          17.000  
G18                    874064.566          -0.011          14.000                                                                  
G23                      2787.239          27.219          17.000                        1516.832          22.131          15.000  
G24                    606950.341        2003.094          17.000                                                                  
G25                   -471989.619           0.009          13.000                                                                  
R 1                                                        17.000  
R 7                                                        12.000  
R 8                                                        18.000  
E26                    215319.930        2795.533          15.000                       85036.938        2090.718          17.000  
E33                    133914.718         762.972          23.000                                                                  
J 2                    -23514.469         -89.071          16.000                                                                  
C 6                     11680.480          96.967          15.000                                                                                                                                  
C 8                    120632.561         969.716          24.000                                                                                                                                  
C 9                      1787.565           8.164          18.000                                                                                                                                  
C13                     21458.636         768.143          24.000                                                                                                                                  
C19                     64687.887         729.844          16.000                                                                                                                                  
C20                     65374.466        2181.657          15.000                                                                                       85281.254        1645.010          16.000  
C22                   -162387.123       -1452.381          17.000                                                                                                                                  
C36                   -327896.638       -2024.197          26.000                                                                                                                                  
> 2021 12  8  2 49 16.0000000  0 19                     
G10                   -642386.137       -2033.080          24.000                     -262468.254       -1516.284          14.000  
G18                    890771.587          -0.011          14.000                                                                  
G23                      2922.177          24.446          17.000                        1597.205          19.213          15.000  
G24                    617471.641        2002.141          17.000                                                                  
G25                   -488392.329           0.009          12.000                                                                  
R 1                                                        17.000  
R 7                                                        13.000  
R 8                                                        25.000  
E26                    230011.591        2796.379          15.000                       93240.921        2089.791          14.000  
E33                    137928.774         763.473          27.000                                                                  
J 2                    -23984.638         -89.264          17.000                                                                  
C 6                     12183.175          95.180          17.000                                                                                                                                  
C 8                    125689.035         970.874          21.000                                                                                                                                  
C 9                      1836.201          11.121          21.000                                                                                                                                  
C13                     25454.701         768.641          30.000                                                                                                                                  
C19                     68485.324         728.885          16.000                                                                                                                                  
C20                     76738.026        2182.380          16.000                                                                                       91726.203        1642.459          15.000  
C22                   -169951.473       -1452.859          17.000                                                                                                                                  
C36                   -338434.755       -2022.578          29.000                                                                                       -4950.371       -1524.225          26.000  
> 2021 12  8  2 49 17.0000000  0 20                     
G10                   -653076.785       -2033.730          30.000                     -268408.906       -1512.099          12.000  
G18                    907482.917        3178.503          17.000                                                                  
G23                      3053.321          25.456          15.000                        1672.342          19.609          10.000  
G24                    627996.580          -0.002          14.000                                                                  
G25                   -504787.243           0.009           9.000                                                                  
G32                   -168991.991       -1880.936          27.000                                                                  
R 1                                                        16.000  
R 7                                                        15.000  
R 8                                                        26.000  
E26                    244710.947        2797.194          15.000                      101443.680        2090.327          13.000  
E33                    141940.721         765.499          19.000                                                                  
J 2                    -24470.786         -92.946          14.000                                                                  
C 6                     12674.830          96.146          20.000                                                                                                                                  
C 8                    130751.279         973.280          17.000                                                                                                                                  
C 9                      1893.316          11.461          20.000                                                                                                                                  
C13                     29447.617         766.634          30.000                                                                                                                                  
C19                     72279.259         728.168          17.000                                                                                                                                  
C20                     88111.120        2183.883          16.000                                                                                       98172.231        1643.654          15.000  
C22                   -177517.798       -1453.431          22.000                                                                                                                                  
C36                   -348970.106       -2023.188          32.000                                                                                      -10936.440       -1526.513          22.000  
> 2021 12  8  2 49 18.0000000  0 20                     
G10                   -663752.831       -2032.121          23.000                                                                  
G18                    924183.442        3177.940          15.000                                                                  
G23                      3188.546          25.372          17.000                        1760.134          21.951          14.000  
G24                    638515.677          -0.002          13.000                                                                  
G25                   -521173.748           0.009          10.000                                                                  
G32                   -178864.922       -1877.671          22.000                                                                  
R 1                                                        17.000  
R 7                                                        13.000  
R 8                                                        28.000  
E26                    259409.643        2797.315          16.000                      109652.163        2092.757          15.000  
E33                    145958.389         764.623          23.000                                                                  
J 2                    -24953.026         -89.617          17.000                                                                  
C 6                     13170.646          95.437          18.000                                                                                                                                  
C 8                    135820.450         975.015          19.000                                                                                                                                  
C 9                      1948.645          11.175          18.000                                                                                                                                  
C13                     33447.649         767.459          28.000                                                                                                                                  
C19                     76069.100         728.633          17.000                                                                                                                                  
C20                     99480.681        2184.016          14.000                                                                                      104622.504        1642.387          17.000  
C22                   -185090.434       -1453.956          23.000                                                                                                                                  
C36                   -359508.960       -2022.092          27.000                                                                                      -16922.807       -1524.810          25.000  
> 2021 12  8  2 49 19.0000000  0 21                     
G10                   -674432.714       -2031.978          22.000                     -280294.637       -1513.986          16.000  
G18                    940885.426        3179.485          17.000                                                                  
G23                      3322.719          26.593          19.000                        1849.259          22.296          16.000  
G24                    649041.248          -0.002          14.000                                                                  
G25                   -537557.294           0.009          13.000                                                                  
G32                   -188738.796          -0.006          24.000                                                                  
R 1                                                        16.000  
R 7                                                        16.000  
R 8                                                        24.000  
R24                                                        17.000  
E26                    274110.079        2797.540          17.000                      117860.176        2092.539          14.000  
E33                    149976.165         765.152          20.000                                                                  
J 2                    -25422.913         -90.874          18.000                                                                  
C 6                     13669.322          96.438          22.000                                                                                                                                  
C 8                    140886.957         970.870          26.000                                                                                                                                  
C 9                      2008.713           9.903          26.000                                                                                                                                  
C13                     37449.572         769.540          25.000                                                                                                                                  
C19                     79873.058         731.095          17.000                                                                                                                                  
C20                    110848.489        2181.832          18.000                                                                                      111063.317        1642.095          14.000  
C22                   -192662.140       -1451.450          24.000                                                                                                                                  
C36                   -370045.162       -2025.619          33.000                                                                                      -22907.759       -1525.058          26.000  
> 2021 12  8  2 49 20.0000000  0 22                     
G10                   -685114.239       -2032.966          24.000                     -286235.093       -1516.171          16.000  
G18                    957591.739          -0.011          16.000                                                                  
G23                      3460.555          25.303          17.000                        1937.708          21.335          16.000  
G24                    659574.182        2005.999          19.000                                                                  
G25                   -553947.016           0.009          13.000                                                                  
G32                   -198616.600       -1880.045          23.000                                                                  
R 1                                                        15.000  
R 7                                                        15.000  
R 8                                                        18.000  
R10                                                        32.000  
R24                                                        16.000  
E26                    288808.502        2797.164          16.000                      126065.167        2090.345          16.000  
E33                    153985.041         761.672          18.000                                                                  
J 2                    -25888.110         -87.188          17.000                                                                  
C 6                     14169.690          97.348          17.000                                                                                                                                  
C 8                    145942.933         972.162          29.000                                                                                                                                  
C 9                      2056.224           6.933          19.000                                                                                                                                  
C13                     41452.672         768.291          23.000                                                                                                                                  
C19                     83673.509         728.185          17.000                                                                                                                                  
C20                    122213.889        2182.324          18.000                                                                                      117502.035        1639.755          16.000  
C22                   -200224.532       -1452.286          17.000                                                                                                                                  
C36                   -380586.806       -2023.582          36.000                                                                                      -28892.974       -1524.247          27.000  
> 2021 12  8  2 49 21.0000000  0 23                     
G10                   -695799.290       -2033.046          30.000                     -292177.357       -1513.860          15.000  
G18                    974304.712          -0.011          15.000                                                                  
G23                      3601.130          26.837          20.000                        2022.381          20.130          16.000  
G24                    670119.592        2007.591          21.000                                                                  
G25                   -570349.559           0.009          14.000                                                                  
G32                   -208491.234       -1879.677          25.000                                                                  
R 1                                                        15.000  
R 7                                                        17.000  
R 8                                                        16.000  
R10                                                        31.000  
R24                                                        17.000  
E 7                     25867.830        1415.959          18.000                                                                  
E26                    303511.167        2799.228          19.000                      134270.673        2090.576          16.000  
E33                    158001.983         762.286          16.000                                                                  
J 2                    -26348.722         -89.703          18.000                                                                  
C 6                     14670.893          96.274          17.000                                                                                                                                  
C 8                    151004.550         971.567          29.000                                                                                                                                  
C 9                      2089.666          -0.047          15.000                                                                                                                                  
C13                     45449.055         767.029          22.000                                                                                                                                  
C19                     87465.394         728.171          21.000                                                                                                                                  
C20                    133578.284        2181.620          15.000                                                                                      123940.136        1640.435          17.000  
C22                   -207797.305       -1455.277          20.000                                                                                                                                  
C36                   -391123.617       -2022.208          35.000                                                                                      -34876.592       -1524.533          26.000  
> 2021 12  8  2 49 22.0000000  0 23                     
G10                   -706484.267       -2035.805          28.000                     -298111.469       -1512.938          14.000  
G18                    991016.700          -0.011          13.000                                                                  
G23                      3741.514          27.142          19.000                        2097.208          17.996          16.000  
G24                    680661.473          -0.002          19.000                                                                  
G25                   -586756.608           0.009          14.000                                                                  
G32                   -218370.259          -0.006          20.000                                                                  
R 1                                                        13.000  
R 7                                                        14.000  
R 8                                                        14.000  
R10                                                        29.000  
R24                                                        17.000  
E 7                     33300.885        1413.596          19.000                                                                  
E26                    318222.784        2798.300          16.000                      142473.452        2091.104          14.000  
E33                    162025.394         765.140          15.000                                                                  
J 2                    -26817.087         -91.070          19.000                                                                  
C 6                     15166.479          94.311          16.000                                                                                                                                  
C 8                    156069.193         971.365          28.000                                                                                                                                  
C 9                      2117.013          -0.047          14.000                                                                                                                                  
C13                     49439.470         766.898          25.000                                                                                                                                  
C19                     91255.478         727.613          20.000                                                                                                                                  
C20                    144934.407        2180.458          16.000                                                                                      130376.445        1640.305          17.000  
C22                   -215369.102           0.006          19.000                                                                                                                                  
C36                   -401652.776       -2023.223          34.000                                                                                      -40860.032       -1524.694          25.000  
> 2021 12  8  2 49 23.0000000  0 23                     
G10                   -717176.984       -2033.826          26.000                     -304051.897       -1513.881          17.000  
G18                   1007727.009          -0.011          14.000                                                                  
G23                      3880.128          25.589          17.000                        2173.129          19.852          15.000  
G24                    691212.756        2008.781          20.000                                                                  
G25                   -603170.775           0.009          13.000                                                                  
G32                   -228252.868          -0.006          19.000                                                                  
R 1                                                        12.000  
R 7                                                        13.000  
R 8                                                        15.000  
R10                                                        30.000  
R24                                                        20.000  
E 7                     40726.148        1413.406          18.000                                                                  
E26                    332931.565        2798.343          13.000                      150687.105        2094.211          16.000  
E33                    166040.714         764.442          13.000                                                                  
J 2                    -27293.735         -91.380          19.000                                                                  
C 6                     15665.857          96.481          16.000                                                                                                                                  
C 8                    161125.749         971.757          28.000                                                                                                                                  
C 9                      2148.217          -0.047          17.000                                                                                                                                  
C13                     53440.996         767.951          24.000                                                                                                                                  
C19                     95038.480         725.177          19.000                                                                                                                                  
C20                    156289.124        2180.152          19.000                                                                                      136816.317        1641.157          18.000  
C22                   -222955.099           0.006          17.000                                                                                                                                  
C36                   -412190.493       -2022.470          35.000                                                                                      -46842.514       -1524.080          27.000  
> 2021 12  8  2 49 24.0000000  0 23                     
G10                   -727858.014       -2032.187          28.000                     -309992.654       -1515.212          16.000  
G18                   1024432.644          -0.011          13.000                                                                  
G23                      4014.813          26.023          14.000                        2254.495          20.009          15.000  
G24                    701768.410        2007.950          22.000                                                                  
G25                   -619590.236           0.009          13.000                                                                  
G32                   -238129.411          -0.006          23.000                                                                  
R 1                                                        12.000  
R 7                                                        13.000  
R 8                                                        17.000  
R10                                                        32.000  
R24                                                        19.000  
E 7                     48152.403        1412.900          18.000                                                                  
E26                    347643.311        2798.825          13.000                      158902.288        2094.433          17.000  
E33                    170060.241         765.549          15.000                                                                  
J 2                    -27771.606         -90.676          20.000                                                                  
C 6                     16165.960          95.183          15.000                                                                                                                                  
C 8                    166187.572         971.835          27.000                                                                                                                                  
C 9                      2179.676           6.688          20.000                                                                                                                                  
C13                     57438.811         769.336          20.000                                                                                                                                  
C19                     98827.485         728.474          20.000                                                                                                                                  
C20                    167642.771        2179.732          19.000                                                                                      143262.201        1643.618          19.000  
C22                   -230536.668           0.006          18.000                                                                                                                                  
C36                   -422727.258       -2023.106          36.000                                                                                      -52824.864       -1524.074          27.000  
> 2021 12  8  2 49 25.0000000  0 23                     
G10                   -738548.307       -2032.425          25.000                     -315938.473       -1515.424          17.000  
G18                   1041143.852          -0.011          15.000                                                                  
G23                      4153.627          26.530          20.000                        2333.752          20.604          16.000  
G24                    712323.692        2008.547          22.000                                                                  
G25                   -635998.067           0.009          12.000                                                                  
G32                   -248013.496       -1880.553          23.000                                                                  
R 1                                                        14.000  
R 7                                                        13.000  
R 8                                                        22.000  
R10                                                        30.000  
R24                                                        17.000  
E 7                     55584.742        1416.059          15.000                                                                  
E26                    362356.167        2799.532          13.000                      167112.648        2090.625          12.000  
E33                    174083.761         765.815          21.000                                                                  
J 2                    -28252.021         -92.341          20.000                                                                  
C 6                     16664.230           0.091          17.000                                                                                                                                  
C 8                    171236.995         969.008          22.000                                                                                                                                  
C 9                      2215.377           8.899          18.000                                                                                                                                  
C13                     61442.133         770.187          22.000                                                                                                                                  
C19                    102613.229         727.490          21.000                                                                                                                                  
C20                    178987.339        2178.048          22.000                                                                                      149719.387        1646.061          16.000  
C22                   -238121.320       -1456.103          20.000                                                                                                                                  
C36                   -433254.031       -2023.865          30.000                                                                                      -58806.901       -1525.930          22.000  
> 2021 12  8  2 49 26.0000000  0 22                     
G10                   -749226.231       -2030.801          26.000                     -321894.617       -1518.281          17.000  
G18                   1057854.620          -0.011          13.000                                                                  
G23                      4291.746          25.923          17.000                        2412.191          20.708          15.000  
G24                    722886.225        2009.963          18.000                                                                  
G25                   -652403.774           0.009          11.000                                                                  
R 1                                                        12.000  
R 7                                                        15.000  
R 8                                                        23.000  
R10                                                        28.000  
R24                                                        16.000  
E 7                     63019.755        1413.185          15.000                                                                  
E26                    377068.814        2799.494          12.000                      175310.969        2088.854          13.000  
E33                    178106.511         765.310          20.000                                                                  
J 2                    -28729.593         -90.424          17.000                                                                  
C 6                     17163.117           0.091          18.000                                                                                                                                  
C 8                    176287.556         971.622          23.000                                                                                                                                  
C 9                      2263.648           8.096          17.000                                                                                                                                  
C13                     65440.189         766.210          29.000                                                                                                                                  
C19                    106395.595         724.759          16.000                                                                                                                                  
C20                    190330.504        2179.865          19.000                                                                                      156172.433        1641.713          23.000  
C22                   -245707.620       -1456.303          21.000                                                                                                                                  
C36                   -443791.597       -2024.075          25.000                                                                                      -64788.077       -1523.298          25.000  
> 2021 12  8  2 49 27.0000000  0 22                     
G10                   -759899.943       -2030.754          26.000                     -327851.725       -1517.203          15.000  
G18                   1074561.274          -0.011          15.000                                                                  
G23                      4437.663          28.007          16.000                        2487.717          18.673          11.000  
G24                    733453.746        2012.173          19.000                                                                  
G25                   -668814.878           0.009          11.000                                                                  
R 1                                                        14.000  
R 7                                                        12.000  
R 8                                                        20.000  
R10                                                        27.000  
R24                                                        16.000  
E 7                     70439.710        1411.701          11.000                                                                  
E26                    391777.027        2797.965          12.000                      183510.371        2089.517          14.000  
E33                    182138.641         770.017          17.000                                                                  
J 2                    -29207.283         -91.547          17.000                                                                  
C 6                     17665.717          95.297          17.000                                                                                                                                  
C 8                    181346.679         972.293          25.000                                                                                                                                  
C 9                      2311.222          10.358          13.000                                                                                                                                  
C13                     69420.894         768.008          29.000                                                                                                                                  
C19                    110169.973         725.935          15.000                                                                                                                                  
C20                    201677.733        2180.687          17.000                                                                                      162612.605        1641.952          21.000  
C22                   -253290.148       -1454.512          19.000                                                                                                                                  
C36                   -454329.527       -2022.594          26.000                                                                                      -70768.638       -1523.976          24.000  
> 2021 12  8  2 49 28.0000000  0 22                     
G10                   -770571.334       -2031.928          27.000                     -333803.639       -1516.645          19.000  
G18                   1091260.114          -0.011          15.000                                                                  
G23                      4583.024          28.526          20.000                        2562.991          19.754          12.000  
G24                    744023.171        2009.627          20.000                                                                  
R 1                                                        15.000  
R 7                                                        15.000  
R 8                                                        24.000  
R 9                                                        16.000  
R10                                                        25.000  
R24                                                        16.000  
E 7                     77857.499        1411.572          14.000                                                                  
E26                    406481.075        2797.823          10.000                      191708.870        2090.437          16.000  
E33                    186177.854         767.658          18.000                                                                  
J 2                    -29694.140         -92.635          15.000                                                                  
C 6                     18160.421          96.421          16.000                                                                                                                                  
C 8                    186406.034         971.689          27.000                                                                                                                                  
C 9                      2364.749          10.413          16.000                                                                                                                                  
C13                     73428.525         769.722          25.000                                                                                                                                  
C19                    113945.678         723.685          17.000                                                                                                                                  
C20                    213022.630        2178.034          15.000                                                                                      169056.552        1643.582          19.000  
C22                   -260862.595       -1453.734          16.000                                                                                                                                  
C36                   -464851.374       -2019.721          26.000                                                                                      -76747.669       -1523.394          24.000  
> 2021 12  8  2 49 29.0000000  0 23                     
G10                   -781260.448       -2034.513          23.000                     -339755.139       -1517.279          17.000  
G18                   1107964.960          -0.011          14.000                                                                  
G23                      4731.692          27.994          20.000                        2625.858          15.389          14.000  
G24                    754582.794        2008.865          19.000                                                                  
G32                   -287519.793       -1881.193          24.000                                                                  
R 1                                                        17.000  
R 7                                                        17.000  
R 8                                                        27.000  
R 9                                                        16.000  
R10                                                        26.000  
R24                                                        17.000  
E 7                     85273.391        1411.051          14.000                                                                  
E26                    421182.402        2796.935          13.000                      199913.691        2092.001          15.000  
E33                    190200.808         765.945          20.000                                                                  
J 2                    -30181.826         -94.552          19.000                                                                  
C 6                     18660.882          95.582          18.000                                                                                                                                  
C 8                    191462.705         970.416          22.000                                                                                                                                  
C 9                      2420.816           9.328          22.000                                                                                                                                  
C13                     77432.802         767.101          26.000                                                                                                                                  
C19                    117719.632         724.735          18.000                                                                                                                                  
C20                    224364.812        2178.549          16.000                                                                                      175505.069        1642.011          15.000  
C22                   -268435.666       -1455.634          20.000                                                                                                                                  
C36                   -475376.814       -2023.655          31.000                                                                                      -82728.835       -1527.822          19.000  
> 2021 12  8  2 49 30.0000000  0 23                     
G10                   -791950.066       -2034.413          24.000                     -345709.162       -1517.395          17.000  
G18                   1124682.048          -0.011          15.000                                                                  
G23                      4878.345          28.089          16.000                                                                  
G24                    765149.648        2013.863          17.000                                                                  
G32                   -297400.967       -1880.502          25.000                                                                  
R 1                                                        13.000  
R 7                                                        17.000  
R 8                                                        27.000  
R 9                                                        17.000  
R10                                                        28.000  
R24                                                        16.000  
E 7                     92688.925        1411.386          11.000                                                                  
E26                    435881.218        2797.010          14.000                      208119.263        2091.111          15.000  
E33                    194224.884         765.954          20.000                                                                  
J 2                    -30674.198         -95.502          17.000                                                                  
C 6                     19158.843          96.217          18.000                                                                                                                                  
C 8                    196513.983         971.409          20.000                                                                                                                                  
C 9                      2469.101          11.628          23.000                                                                                                                                  
C13                     81424.388         767.342          24.000                                                                                                                                  
C19                    121485.819         722.512          15.000                                                                                                                                  
C20                    235703.884        2178.584          17.000                                                                                      181945.992        1640.277          14.000  
C22                   -276014.305       -1455.596          19.000                                                                                                                                  
C36                   -485907.164       -2022.254          22.000                                                                                      -88720.315       -1521.049          20.000  
> 2021 12  8  2 49 31.0000000  0 16                     
G10                   -802633.188       -2032.227          23.000                     -351660.692       -1515.294          17.000  
G18                   1141398.131          -0.011          14.000                                                                  
G23                      5024.124          27.150          15.000                                                                  
G24                    775737.717        2013.877          17.000                                                                  
G32                   -307279.148          -0.006          23.000                                                                  
R 1                                                        14.000  
R 7                                                        15.000  
R 8                                                        28.000  
R 9                                                        16.000  
R10                                                        21.000  
R24                                                        16.000  
E26                    450579.061        2796.744          14.000                      216320.750        2088.110          16.000  
J 2                    -31171.007         -95.672          18.000                                                                  
C19                    125254.558         724.379          14.000                                                                                                                                  
C22                   -283592.505       -1455.568          26.000                                                                                                                                  
C36                     -9407.712       -2021.324          23.000                                                                                      -94696.869       -1519.862          22.000  
> 2021 12  8  2 49 32.0000000  0 16                     
G10                   -813314.142       -2034.456          23.000                     -357600.052       -1513.295          18.000  
G18                   1158109.092          -0.011          13.000                                                                  
G23                      5163.751          27.001          14.000                        2852.167          22.119          14.000  
G24                    786313.182        2012.625          20.000                                                                  
G32                   -317159.193       -1880.996          23.000                                                                  
R 1                                                        15.000  
R 7                                                        17.000  
R 8                                                        28.000  
R 9                                                        18.000  
R10                                                        29.000  
R24                                                        15.000  
E26                    465277.291        2797.503          13.000                      224513.575        2089.033          15.000  
J 2                    -31671.016         -94.503          18.000                                                                  
C19                    129029.248          -0.007          14.000                                                                                                                                  
C22                   -291169.437       -1454.111          24.000                                                                                                                                  
C36                    -19929.898       -2019.873          30.000                                                                                     -100675.814       -1523.159          23.000  
> 2021 12  8  2 49 33.0000000  0 18                     
G10                   -823998.823       -2034.226          25.000                     -363548.631       -1517.542          16.000  
G18                   1174818.629          -0.011          14.000                                                                  
G23                      5308.618          28.095          15.000                        2939.458          22.847          17.000  
G24                    796887.885        2013.705          17.000                                                                  
R 1                                                        14.000  
R 7                                                        17.000  
R 8                                                        24.000  
R 9                                                        17.000  
R10                                                        27.000  
R24                                                        15.000  
E26                    479979.110        2798.188          14.000                      232709.201        2088.705          14.000  
E33                    206325.425         766.796          20.000                                                                  
J 2                    -32155.227         -91.511          22.000                                                                  
C 6                       318.812          93.511          21.000                                                                                                                                  
C13                      2341.400         767.388          28.000                                                                                                                                  
C19                    132810.505          -0.007          15.000                                                                                                                                  
C22                   -298740.691       -1452.443          23.000                                                                                                                                  
C36                    -30457.974       -2019.178          26.000                                                                                     -106658.684       -1526.699          18.000  
> 2021 12  8  2 49 34.0000000  0 21                     
G10                   -834694.554       -2034.803          25.000                     -369505.080       -1519.133          17.000  
G18                   1191530.611          -0.011          15.000                                                                  
G23                      5453.129          -0.007          15.000                        3020.562          21.381          15.000  
G24                    807464.373        2012.594          17.000                                                                  
R 1                                                        13.000  
R 7                                                        14.000  
R 8                                                        29.000  
R 9                                                        14.000  
R10                                                        23.000  
R24                                                        16.000  
E26                    494684.165        2797.985          15.000                      240907.535        2088.932          16.000  
E33                    210348.479         767.344          18.000                                                                  
J 1                     -6899.206        -528.741          18.000                                                                  
J 2                    -32638.445         -92.000          20.000                                                                  
C 8                      8001.426         969.084          23.000                                                                                                                                  
C 9                        94.154           7.180          21.000                                                                                                                                  
C13                      6319.463         766.183          25.000                                                                                                                                  
C19                    136583.288          -0.007          15.000                                                                                                                                  
C20                     18316.687        2176.038          22.000                                                                                                                                  
C22                   -306314.537       -1456.301          24.000                                                                                                                                  
C36                    -40996.999       -2022.116          33.000                                                                                     -112645.282       -1522.806          22.000  
> 2021 12  8  2 49 35.0000000  0 18                     
G10                   -845373.596       -2030.750          24.000                     -375463.294       -1518.839          19.000  
G18                   1208237.809        3180.034          17.000                                                                  
G23                      5599.994          -0.007          17.000                        3102.084          22.382          16.000  
G24                    818032.807        2010.954          19.000                                                                  
R 1                                                        17.000  
R 7                                                        13.000  
R 8                                                        24.000  
R 9                                                        14.000  
R10                                                        27.000  
R24                                                        13.000  
E26                    509387.695        2797.930          14.000                      249105.725        2088.437          16.000  
E33                    214391.586         770.210          18.000                                                                  
J 1                     -9681.311        -528.368          19.000                                                                  
J 2                    -33121.409         -91.834          21.000                                                                  
C19                    140361.147          -0.007          14.000                                                                                                                                  
C20                     29650.564        2177.215          23.000                                                                                                                                  
C22                   -313890.916       -1455.230          24.000                                                                                                                                  
C36                    -51527.945       -2022.655          32.000                                                                                     -118625.516       -1522.790          24.000  
> 2021 12  8  2 49 36.0000000  0 19                     
G10                   -856051.871       -2031.970          35.000                     -381436.101       -1522.844          13.000  
G12                    -24208.047       -2598.296          16.000                                                                  
G18                   1224950.093        3179.010          17.000                                                                  
G23                      5753.626          29.145          15.000                        3192.179          24.411          13.000  
G24                    828597.606        2011.345          18.000                                                                  
R 1                                                        13.000  
R 7                                                        14.000  
R 8                                                        26.000  
R 9                                                        13.000  
R10                                                        25.000  
R24                                                        10.000  
E26                    524090.096        2797.492          15.000                      257301.530        2088.740          14.000  
E33                    218431.784         769.136          18.000                                                                  
J 1                    -12469.644        -532.201          16.000                                                                  
J 2                    -33603.260         -90.397          16.000                                                                  
C19                    144146.520          -0.007          13.000                                                                                                                                  
C20                     40980.201        2175.893          20.000                                                                                                                                  
C22                   -321468.747       -1454.131          29.000                                                                                                                                  
C36                    -62046.542       -2020.169          30.000                                                                                     -124606.823       -1527.244          17.000  
> 2021 12  8  2 49 37.0000000  0 21                     
G10                   -866725.309       -2031.126          26.000                     -387410.490       -1521.921          16.000  
G12                    -37860.095       -2599.768          17.000                                                                  
G18                   1241660.992          -0.011          15.000                                                                  
G23                      5907.560          29.717          19.000                        3282.316          22.233          15.000  
G24                    839168.049        2011.589          20.000                                                                  
G32                   -366638.615          -0.006          24.000                                                                  
R 1                                                        13.000  
R 7                                                        16.000  
R 8                                                        24.000  
R 9                                                        15.000  
R10                                                        27.000  
R24                                                        12.000  
E26                    538792.739        2798.019          17.000                      265497.111        2089.038          16.000  
E33                    222479.031         769.162          18.000                                                                  
J 1                    -15254.035        -528.562          17.000                                                                  
J 2                    -34081.296         -91.557          19.000                                                                  
C13                      4985.845         766.870          24.000                                                                                                                                  
C19                    147937.895          -0.007          16.000                                                                                                                                  
C20                     52316.606        2178.972          20.000                                                                                                                                  
C22                   -329053.937       -1458.961          22.000                                                                                                                                  
C36                    -72561.306       -2018.782          34.000                                                                                     -130596.778       -1523.332          23.000  
> 2021 12  8  2 49 38.0000000  0 20                     
G10                   -877403.765       -2033.960          28.000                     -393384.245       -1520.861          19.000  
G12                    -51527.232       -2602.572          17.000                                                                  
G18                   1258376.455          -0.011          15.000                                                                  
G23                      6068.895          31.437          19.000                        3364.250          20.473          15.000  
G24                    849742.776        2014.557          20.000                                                                  
G32                   -376522.772       -1881.397          17.000                                                                  
R 1                                                        14.000  
R 7                                                        13.000  
R 8                                                        21.000  
R 9                                                        16.000  
R10                                                        34.000  
R24                                                        14.000  
E26                    553494.838        2797.550          16.000                      273698.047        2089.925          16.000  
E33                    226511.942         766.644          18.000                                                                  
J 1                    -18039.752        -530.328          17.000                                                                  
J 2                    -34578.847         -95.347          19.000                                                                  
C19                    151728.624          -0.007          12.000                                                                                                                                  
C20                     63651.581        2176.381          22.000                                                                                                                                  
C22                   -336642.332       -1454.004          24.000                                                                                                                                  
C36                    -83079.698       -2019.432          32.000                                                                                     -136575.148       -1522.474          27.000  
> 2021 12  8  2 49 39.0000000  0 20                     
G10                   -888093.438       -2030.853          28.000                     -399343.694       -1518.369          17.000  
G12                    -65198.831       -2603.772          18.000                                                                  
G18                   1275094.191          -0.011          13.000                                                                  
G23                      6235.034          31.513          19.000                        3442.788          20.328          16.000  
G24                    860321.872        2013.423          17.000                                                                  
G32                   -386409.786       -1883.182          22.000                                                                  
R 1                                                        14.000  
R 7                                                        16.000  
R 8                                                        22.000  
R 9                                                        14.000  
R10                                                        26.000  
R24                                                        13.000  
E26                    568197.909        2798.302          15.000                      281899.001        2090.981          15.000  
E33                    230546.015         768.095          19.000                                                                  
J 1                    -20824.553        -527.009          19.000                                                                  
J 2                    -35082.235         -94.831          18.000                                                                  
C19                    155509.072          -0.007          17.000                                                                                                                                  
C20                     74980.591        2173.993          19.000                                                                                                                                  
C22                   -344218.085       -1456.248          24.000                                                                                                                                  
C36                    -93595.392       -2019.977          33.000                                                                                     -142547.330       -1520.772          23.000  
> 2021 12  8  2 49 40.0000000  0 20                     
G10                   -898754.771       -2029.854          29.000                     -405308.998       -1520.833          16.000  
G12                    -78872.785       -2600.423          18.000                                                                  
G18                   1291804.965          -0.011          14.000                                                                  
G23                      6404.871          32.197          17.000                        3519.262          21.891          15.000  
G24                    870904.411        2013.974          18.000                                                                  
G32                   -396301.555       -1881.680          22.000                                                                  
R 1                                                        15.000  
R 7                                                        14.000  
R 8                                                        22.000  
R 9                                                        13.000  
R10                                                        24.000  
R24                                                        16.000  
E26                    582904.708        2798.838          16.000                      290112.912        2094.900          13.000  
E33                    234598.720         773.367          20.000                                                                  
J 1                    -23601.040        -528.527          17.000                                                                  
J 2                    -35568.255         -93.367          17.000                                                                  
C19                    159286.139         726.781          19.000                                                                                                                                  
C20                     86298.844        2172.569          17.000                                                                                                                                  
C22                   -351793.300       -1453.343          24.000                                                                                                                                  
C36                   -104108.634       -2018.815          32.000                                                                                     -148518.286       -1524.103          22.000  
> 2021 12  8  2 49 41.0000000  0 20                     
G10                   -909433.706       -2035.229          22.000                     -411276.366       -1518.159          19.000  
G12                    -92529.302       -2598.052          16.000                                                                  
G18                   1308505.768          -0.011          15.000                                                                  
G23                      6573.927          30.560          19.000                        3614.500          25.111          17.000  
G24                    881479.443        2012.295          16.000                                                                  
G32                   -406190.699       -1884.925          24.000                                                                  
R 1                                                        15.000  
R 7                                                        17.000  
R 8                                                        20.000  
R 9                                                        15.000  
R10                                                        27.000  
R24                                                        17.000  
E26                    597611.820        2798.901          16.000                      298324.818        2091.532          20.000  
E33                    238656.058         769.871          21.000                                                                  
J 1                    -26374.163        -528.305          18.000                                                                  
J 2                    -36067.709         -96.913          17.000                                                                  
C19                    163066.741         725.802          18.000                                                                                                                                  
C20                     97613.755        2173.638          18.000                                                                                                                                  
C22                   -359363.823       -1454.950          25.000                                                                                                                                  
C36                   -114630.308       -2020.804          29.000                                                                                     -154490.430       -1518.305          21.000  
> 2021 12  8  2 49 42.0000000  0 19                     
G10                   -920125.870       -2033.130          27.000                     -417230.574       -1514.726          14.000  
G12                   -106186.751       -2599.962          13.000                                                                  
G18                   1325205.312          -0.011          15.000                                                                  
G23                      6729.508          29.932          17.000                        3707.663          23.097          15.000  
G24                    892053.894        2012.030          17.000                                                                  
G32                   -416093.688       -1883.369          21.000                                                                  
R 1                                                        14.000  
R 7                                                        15.000  
R 8                                                        24.000  
R 9                                                        16.000  
R10                                                        29.000  
R24                                                        15.000  
E26                    612320.626        2799.311          21.000                      306529.157        2091.046          18.000  
E33                    242700.638         769.516          21.000                                                                  
J 1                    -29162.316        -531.187          18.000                                                                  
C19                    166838.742         724.038          17.000                                                                                                                                  
C20                    108925.025        2171.223          17.000                                                                                                                                  
C22                   -366933.509       -1455.052          21.000                                                                                                                                  
C36                   -125148.934       -2019.268          24.000                                                                                     -160461.843       -1521.926          20.000  
> 2021 12  8  2 49 43.0000000  0 18                     
G10                   -930812.196       -2032.975          25.000                     -423177.729       -1514.518          16.000  
G12                   -119851.258       -2600.285          14.000                                                                  
G18                   1341906.772          -0.011          15.000                                                                  
G23                      6889.294          32.505          17.000                        3803.031          26.304          14.000  
G24                    902634.013        2013.887          20.000                                                                  
G32                   -425984.766       -1881.492          23.000                                                                  
R 1                                                        12.000  
R 7                                                        15.000  
R 8                                                        21.000  
R 9                                                        16.000  
R10                                                        24.000  
R24                                                        17.000  
E26                    627029.823        2798.413          21.000                      314725.669        2087.909          15.000  
E33                    246753.827         772.402          19.000                                                                  
C19                    170619.756         727.655          15.000                                                                                                                                  
C20                    120240.414        2173.337          18.000                                                                                                                                  
C22                   -374506.760       -1453.148          20.000                                                                                                                                  
C36                   -135662.862       -2017.645          22.000                                                                                     -166433.331       -1520.655          17.000  
> 2021 12  8  2 49 44.0000000  0 18                     
G10                   -941491.191       -2031.611          21.000                     -429130.621       -1517.866          16.000  
G12                   -133517.664       -2600.691          13.000                                                                  
G18                   1358606.688          -0.011          14.000                                                                  
G23                      7053.857          30.081          17.000                        3908.118          27.174          14.000  
G24                    913215.113        2014.342          19.000                                                                  
G32                   -435868.177          -0.006          20.000                                                                  
R 1                                                        12.000  
R 7                                                        15.000  
R 8                                                        25.000  
R 9                                                        14.000  
R10                                                        29.000  
R24                                                        15.000  
E26                    641728.935        2794.649          19.000                      322913.144        2085.370          12.000  
E33                    250824.909         776.158          18.000                                                                  
C19                    174410.719         727.991          17.000                                                                                                                                  
C20                    131564.866        2174.552          19.000                                                                                                                                  
C22                   -382076.509       -1452.889          18.000                                                                                                                                  
C36                   -146174.655       -2019.077          20.000                                                                                     -172400.804       -1521.527          16.000  
> 2021 12  8  2 49 45.0000000  0 19                     
G10                   -952173.916       -2032.484          20.000                     -435089.948       -1519.760          16.000  
G12                   -147180.281          -0.010          12.000                                                                  
G18                   1375305.077          -0.011          13.000                                                                  
G23                      7211.218          30.007          17.000                        4009.595          26.775          12.000  
G24                    923796.435        2013.873          19.000                                                                  
G32                   -445746.795       -1879.976          21.000                                                                  
R 1                                                        13.000  
R 7                                                        14.000  
R 8                                                        28.000  
R 9                                                        15.000  
R10                                                        29.000  
R24                                                        17.000  
E26                    656411.689        2792.958          16.000                      331088.516        2083.266          12.000  
E33                    254903.687         775.325          18.000                                                                  
J 2                    -38169.164         -99.531          25.000                                                                  
C19                    178205.175         728.079          16.000                                                                                                                                  
C20                    142889.922        2174.695          17.000                                                                                                                                  
C22                   -389626.248       -1450.255          18.000                                                                                                                                  
C36                   -156685.790       -2018.030          17.000                                                                                     -178366.624       -1518.826          16.000  
> 2021 12  8  2 49 46.0000000  0 18                     
G10                   -962853.059       -2031.786          20.000                     -441053.640       -1518.003          17.000  
G12                   -160856.513          -0.010          16.000                                                                  
G18                   1391998.983          -0.011          17.000                                                                  
G23                      7369.577          29.968          17.000                        4111.409          25.670          14.000  
G24                    934381.974        2015.370          17.000                                                                  
G32                   -455635.579       -1882.220          19.000                                                                  
R 1                                                        12.000  
R 7                                                        13.000  
R 8                                                        24.000  
R 9                                                        15.000  
R10                                                        28.000  
R24                                                        16.000  
E26                    671104.270        2797.940          16.000                      339252.329        2079.518          12.000  
E33                    258970.568         774.288          19.000                                                                  
J 2                    -38699.259        -100.923          20.000                                                                  
C19                    181988.250         725.455          16.000                                                                                                                                  
C22                   -397187.866       -1454.246          19.000                                                                                                                                  
C36                   -167197.138       -2017.364          17.000                                                                                     -184330.556       -1519.471          15.000  
> 2021 12  8  2 49 47.0000000  0 19                     
G10                   -973531.386       -2033.118          21.000                     -447008.010       -1516.285          17.000  
G12                   -174539.808          -0.010          16.000                                                                  
G18                   1408689.342          -0.011          17.000                                                                  
G23                      7529.567          31.318          18.000                        4207.144          23.566          13.000  
G24                    944966.415        2013.683          17.000                                                                  
G32                   -465536.092       -1885.698          19.000                                                                  
R 1                                                        14.000  
R 7                                                        14.000  
R 8                                                        24.000  
R 9                                                        13.000  
R10                                                        28.000  
R24                                                        15.000  
E26                    685800.737        2796.195          15.000                      347416.163        2081.768          12.000  
E33                    263053.209         777.240          18.000                                                                  
J 1                    -43078.453        -531.880          16.000                                                                  
J 2                    -39223.867         -97.691          18.000                                                                  
C19                    185770.314          -0.007          14.000                                                                                                                                  
C22                   -404766.430       -1456.135          20.000                                                                                                                                  
C36                   -177698.856          -0.018          16.000                                                                                     -190290.607       -1517.266          16.000  
> 2021 12  8  2 49 48.0000000  0 19                     
G10                   -984218.229       -2031.512          22.000                     -452964.228       -1517.630          17.000  
G12                   -188224.542          -0.010          14.000                                                                  
G18                   1425384.116          -0.011          15.000                                                                  
G23                      7697.238          31.968          17.000                        4302.536          24.279          15.000  
G24                    955539.160        2011.757          17.000                                                                  
G32                   -475437.574       -1882.976          18.000                                                                  
R 1                                                        13.000  
R 7                                                        13.000  
R 8                                                        20.000  
R 9                                                        13.000  
R10                                                        30.000  
R24                                                        17.000  
E26                    700498.722        2796.991          12.000                      355588.334        2083.587          13.000  
E33                    267137.901         775.231          18.000                                                                  
J 1                    -45892.542        -538.858          14.000                                                                  
J 2                    -39730.802         -95.414          14.000                                                                  
C19                    189552.430          -0.007          14.000                                                                                                                                  
C22                   -412347.039       -1456.046          20.000                                                                                                                                  
C36                   -188196.648          -0.018          15.000                                                                                     -196248.076       -1517.315          15.000  
> 2021 12  8  2 49 49.0000000  0 20                     
G10                   -994894.191       -2032.311          17.000                     -458923.844       -1518.247          13.000  
G12                   -201907.608          -0.010          13.000                                                                  
G18                   1442090.831          -0.011          14.000                                                                  
G23                      7862.658          32.037          17.000                        4398.868          24.531          16.000  
G24                    966119.036        2013.198          17.000                                                                  
G32                   -485313.128       -1875.354          20.000                                                                  
R 1                                                        15.000  
R 7                                                        16.000  
R 8                                                        29.000  
R 9                                                        14.000  
R10                                                        28.000  
R24                                                        17.000  
E26                    715198.116        2797.734          13.000                                                                  
E33                    271197.396         770.476          18.000                                                                  
J 1                    -48730.514        -538.767          14.000                                                                  
J 2                    -40229.505         -95.983          15.000                                                                  
C13                      6402.083         767.875          24.000                                                                                                                                  
C19                    193334.495          -0.007          14.000                                                                                                                                  
C22                   -419934.021       -1457.139          17.000                                                                                                                                  
C36                   -198698.046          -0.018          17.000                                                                                     -202197.057       -1515.136          15.000  
> 2021 12  8  2 49 50.0000000  0 20                     
G10                  -1005575.081          -0.012          18.000                     -464889.883       -1522.586          13.000  
G12                   -215605.103          -0.010          14.000                                                                  
G18                   1458806.974          -0.011          17.000                                                                  
G23                      8028.440          32.155          17.000                        4493.797          24.325          15.000  
G24                    976701.963        2014.448          16.000                                                                  
G32                   -495177.428       -1877.398          21.000                                                                  
R 1                                                        15.000  
R 7                                                        17.000  
R 8                                                        21.000  
R 9                                                        13.000  
R10                                                        30.000  
R24                                                        17.000  
E26                    729903.749        2798.560          13.000                                                                  
E27                    -13009.477       -2325.592          20.000                                                                  
E33                    275258.284         775.459          19.000                                                                  
J 1                    -51563.160        -540.066          17.000                                                                  
J 2                    -40737.607         -96.138          16.000                                                                  
C19                    197120.481         728.226          18.000                                                                                                                                  
C22                   -427527.623       -1457.776          17.000                                                                                                                                  
C36                   -209188.201       -2013.673          17.000                                                                                     -208141.676       -1514.326          14.000  
> 2021 12  8  2 49 51.0000000  0 20                     
G10                  -1016261.811          -0.012          18.000                     -470865.780       -1522.299          10.000  
G12                   -229299.625          -0.010          13.000                                                                  
G18                   1475526.534          -0.011          15.000                                                                  
G23                      8199.638          32.777          17.000                        4584.911          23.553          15.000  
G24                    987288.772        2015.034          15.000                                                                  
G32                   -505054.819          -0.006          20.000                                                                  
R 1                                                        15.000  
R 7                                                        15.000  
R 8                                                        25.000  
R 9                                                        15.000  
R10                                                        35.000  
R24                                                        17.000  
E26                    744612.228        2799.098          15.000                                                                  
E27                    -25232.097       -2323.627          25.000                                                                  
E33                    279328.924         776.399          18.000                                                                  
J 1                    -54395.526        -535.928          17.000                                                                  
J 2                    -41239.482         -93.894          17.000                                                                  
C19                    200909.762         725.843          19.000                                                                                                                                  
C22                   -435112.035       -1455.427          20.000                                                                                                                                  
C36                   -219673.554       -2013.849          17.000                                                                                     -214081.596       -1514.159          12.000  
> 2021 12  8  2 49 52.0000000  0 20                     
G10                  -1026943.682          -0.012          17.000                     -476844.087       -1522.443          12.000  
G12                   -242984.081          -0.010          14.000                                                                  
G18                   1492249.058        3182.624          14.000                                                                  
G23                      8373.406          31.390          17.000                        4677.471          25.534          14.000  
G24                    997879.627        2015.436          16.000                                                                  
G32                   -514948.513          -0.006          19.000                                                                  
R 1                                                        19.000  
R 7                                                        17.000  
R 8                                                        22.000  
R 9                                                        13.000  
R10                                                        29.000  
R24                                                        19.000  
E26                    759323.300        2799.904          13.000                                                                  
E27                    -37438.873       -2322.543          26.000                                                                  
E33                    283407.293         777.761          20.000                                                                  
J 1                    -57200.869        -531.708          16.000                                                                  
J 2                    -41726.944         -93.956          17.000                                                                  
C19                    204690.365         726.791          17.000                                                                                                                                  
C22                   -442687.674       -1453.909          21.000                                                                                                                                  
C36                   -230157.666       -2013.387          16.000                                                                                     -220027.140       -1514.132          14.000  
> 2021 12  8  2 49 53.0000000  0 20                     
G10                  -1037616.347          -0.012          17.000                                                                  
G12                   -256668.403          -0.010          15.000                                                                  
G18                   1508974.298        3183.967          15.000                                                                  
G23                      8543.709          33.405          19.000                        4785.791          28.774          17.000  
G24                   1008469.747        2014.884          17.000                                                                  
G32                   -524834.359       -1879.585          17.000                                                                  
R 1                                                        18.000  
R 7                                                        16.000  
R 8                                                        16.000  
R 9                                                        14.000  
R10                                                        27.000  
R24                                                        20.000  
E26                    774043.996        2802.635          12.000                                                                  
E27                    -49643.416       -2322.432          28.000                      -10710.962       -1736.779          24.000  
E33                    287489.967         775.472          19.000                                                                  
J 1                    -59983.745        -529.329          14.000                                                                  
J 2                    -42217.457         -94.244          18.000                                                                  
C19                    208480.533         728.055          18.000                                                                                                                                  
C22                   -450253.811       -1451.727          20.000                                                                                                                                  
C36                   -240646.183       -2014.648          16.000                                                                                     -225961.494       -1508.985          14.000  
> 2021 12  8  2 49 54.0000000  0 20                     
G10                  -1048294.605       -2031.551          17.000                                                                  
G12                   -270354.545          -0.010          15.000                                                                  
G18                   1525698.829        3182.037          17.000                                                                  
G23                      8726.233          35.351          20.000                        4901.829          28.086          19.000  
G24                   1019063.503        2017.712          14.000                                                                  
G32                   -534714.521       -1880.554          20.000                                                                  
R 1                                                        16.000  
R 7                                                        17.000  
R 8                                                        18.000  
R 9                                                        13.000  
R10                                                        26.000  
R24                                                        20.000  
E26                    788776.797        2804.514          11.000                                                                  
E27                    -61846.397       -2319.918          22.000                      -17516.419       -1735.932          20.000  
E33                    291572.728         777.764          20.000                                                                  
J 1                    -62781.276        -533.782          15.000                                                                  
J 2                    -42713.066         -94.752          17.000                                                                  
C19                    212274.674         728.982          18.000                                                                                                                                  
C22                   -457818.524       -1454.054          17.000                                                                                                                                  
C36                   -251141.013       -2015.563          16.000                                                                                                                                  
> 2021 12  8  2 49 55.0000000  0 20                     
G10                  -1058962.151       -2030.235          18.000                                                                  
G12                   -284047.377          -0.010          15.000                                                                  
G18                   1542421.987        3183.552          18.000                                                                  
G23                      8905.615          33.640          20.000                        5016.781          30.957          17.000  
G24                   1029669.504        2018.156          17.000                                                                  
G32                   -544597.035       -1880.552          19.000                                                                  
R 1                                                        15.000  
R 7                                                        16.000  
R 8                                                        16.000  
R 9                                                        14.000  
R10                                                        22.000  
R24                                                        19.000  
E26                    803518.402        2805.169          11.000                                                                  
E27                    -74045.264       -2322.189          21.000                      -24321.874       -1734.363          17.000  
E33                    295655.239         779.248          21.000                                                                  
J 1                    -65585.059        -532.606          15.000                                                                  
J 2                    -43215.879         -95.262          15.000                                                                  
C19                    216076.036         729.790          17.000                                                                                                                                  
C22                   -465390.999       -1454.152          17.000                                                                                                                                  
C36                   -261641.878       -2018.653          17.000                                                                                                                                  
> 2021 12  8  2 49 56.0000000  0 20                     
G10                  -1069631.806       -2031.078          17.000                                                                  
G12                   -297735.878          -0.010          14.000                                                                  
G18                   1559156.095        3186.225          19.000                                                                  
G23                      9073.110          31.630          18.000                        5138.155          29.986          17.000  
G24                   1040277.799        2018.284          15.000                                                                  
G32                   -554474.433       -1878.678          19.000                                                                  
R 1                                                        16.000  
R 7                                                        15.000  
R 8                                                        18.000  
R 9                                                        14.000  
R10                                                        22.000  
R24                                                        20.000  
E26                    818266.152        2806.978           7.000                                                                  
E27                    -86239.794       -2318.985          19.000                      -31127.907       -1733.452          14.000  
E33                    299737.728         777.904          21.000                                                                  
J 1                    -68392.076        -534.019          12.000                                                                  
J 2                    -43709.664         -94.653          16.000                                                                  
C19                    219880.471         730.984          14.000                                                                                                                                  
C22                   -472960.922       -1451.517          16.000                                                                                                                                  
C36                   -272154.568       -2019.025          19.000                                                                                                                                  
> 2021 12  8  2 49 57.0000000  0 20                     
G10                  -1080302.529       -2030.830          18.000                                                                  
G12                   -311415.937          -0.010          15.000                                                                  
G18                   1575901.178          -0.011          20.000                                                                  
G23                      9255.057          34.111          17.000                        5255.817          30.457          15.000  
G24                   1050891.532        2018.939          17.000                                                                  
G32                   -564342.535       -1877.193          17.000                                                                  
R 1                                                        16.000  
R 7                                                        15.000  
R 8                                                        18.000  
R 9                                                        13.000  
R10                                                        21.000  
R24                                                        17.000  
E26                    833016.369        2807.207           7.000                                                                  
E27                    -98414.748       -2314.748          18.000                      -37921.547       -1730.200          12.000  
E33                    303826.523         775.805          19.000                                                                  
J 1                    -71190.707        -530.545          13.000                                                                  
J 2                    -44209.059         -96.030          14.000                                                                  
C19                    223684.193         731.047          17.000                                                                                                                                  
C22                   -480523.206       -1452.875          16.000                                                                                                                                  
C36                   -282669.502       -2017.612          19.000                                                                                                                                  
> 2021 12  8  2 49 58.0000000  0 20                     
G10                  -1090975.243       -2030.980          19.000                                                                  
G12                   -325102.542          -0.010          14.000                                                                  
G18                   1592652.827        3187.924          20.000                                                                  
G23                      9428.928          32.050          19.000                        5382.787          32.151          15.000  
G24                   1061502.098        2018.878          15.000                                                                  
G32                   -574211.811       -1878.562          19.000                                                                  
R 1                                                        16.000  
R 7                                                        16.000  
R 8                                                        17.000  
R 9                                                        13.000  
R10                                                        19.000  
R24                                                        17.000  
E26                    847769.180        2807.537           6.000                                                                  
E27                   -110576.611       -2315.330          17.000                      -44712.278       -1732.189          16.000  
E33                    307903.312         777.257          20.000                                                                  
J 1                    -73970.814        -526.865          13.000                                                                  
J 2                    -44712.157         -95.035          14.000                                                                  
C19                    227498.316         733.629          14.000                                                                                                                                  
C22                   -488088.466       -1452.192          17.000                                                                                                                                  
C36                   -293175.994       -2019.023          19.000                                                                                                                                  
> 2021 12  8  2 49 59.0000000  0 22                     
G10                  -1101652.306       -2032.827          15.000                                                                  
G12                   -338789.238          -0.010          15.000                                                                  
G18                   1609394.911        3185.772          27.000                                                                  
G23                      9608.555          35.731          18.000                        5517.719          33.479          15.000  
G24                   1072112.669        2019.141          16.000                                                                  
G32                   -584082.229       -1877.874          20.000                                                                  
R 1                                                        15.000  
R 7                                                        17.000  
R 8                                                        17.000  
R 9                                                        15.000  
R10                                                        18.000  
R24                                                        17.000  
E26                    862523.082        2807.590           5.000                                                                  
E27                   -122745.160       -2316.049          15.000                      -51510.701       -1734.450          13.000  
E33                    311980.341         774.028          20.000                                                                  
J 1                    -76725.055        -520.801          13.000                                                                  
J 2                    -45210.239         -91.958          13.000                                                                  
C 8                      8019.058         968.466          16.000                                                                                                                                  
C 9                        86.552           5.279          19.000                                                                                                                                  
C19                    231316.144         732.582          15.000                                                                                                                                  
C22                   -495648.568       -1450.872          16.000                                                                                                                                  
C36                   -303683.251       -2017.320          20.000                                                                                                                                  
> 2021 12  8  2 50  0.0000000  0 20                     
G10                  -1112328.827       -2031.343          17.000                                                                  
G12                   -352474.562          -0.010          16.000                                                                  
G18                   1626144.220        3186.133          28.000                                                                  
G23                      9795.629          35.712          20.000                        5649.106          32.458          13.000  
G24                   1082730.639        2021.104          15.000                                                                  
G32                   -593951.099       -1877.925          20.000                                                                  
R 1                                                        13.000  
R 7                                                        17.000  
R 8                                                        19.000  
R 9                                                        14.000  
R10                                                        20.000  
R24                                                        16.000  
E26                    877277.867        2807.937           7.000                                                                  
E27                   -134908.960       -2316.640          15.000                      -58310.606       -1734.102          14.000  
E33                    316064.614         779.558          20.000                                                                  
J 1                    -79473.247        -525.673          14.000                                                                  
J 2                    -45704.851         -94.867          13.000                                                                  
C19                    235134.435          -0.007          14.000                                                                                                                                  
C22                   -503207.560       -1452.124          16.000                                                                                                                                  
C36                   -314178.808       -2014.561          19.000                                                                                                                                  
> 2021 12  8  2 50  1.0000000  0 20                     
G10                  -1122992.244       -2029.469          19.000                                                                  
G12                   -366149.153          -0.010          13.000                                                                  
G18                   1642902.676        3189.250          30.000                                                                  
G23                      9991.284          39.244          18.000                        5773.217          26.828          14.000  
G24                   1093344.922          -0.002          17.000                                                                  
G32                   -603827.057       -1881.649          21.000                                                                  
R 1                                                        15.000  
R 7                                                        15.000  
R 8                                                        19.000  
R 9                                                        17.000  
R10                                                        21.000  
R24                                                        17.000  
E26                    892037.347        2809.223           5.000                                                                  
E27                   -147067.607       -2312.425          13.000                      -65113.708       -1734.096          14.000  
E33                    320166.132         783.301          19.000                                                                  
J 1                    -82246.029        -527.718          14.000                                                                  
J 2                    -46197.661         -94.819          15.000                                                                  
C19                    238955.363          -0.007          14.000                                                                                                                                  
C22                   -510768.727       -1453.016          15.000                                                                                                                                  
C36                   -324664.588       -2012.413          19.000                                                                                                                                  
> 2021 12  8  2 50  2.0000000  0 20                     
G10                  -1133652.866       -2028.594          18.000                                                                  
G12                   -379826.290          -0.010          11.000                                                                  
G18                   1659651.269        3185.497          30.000                                                                  
G23                     10201.757          40.713          18.000                        5879.565          25.487          13.000  
G24                   1103965.384          -0.002          14.000                                                                  
G32                   -613703.259       -1878.475          18.000                                                                  
R 1                                                        14.000  
R 7                                                        15.000  
R 8                                                        24.000  
R 9                                                        13.000  
R10                                                        22.000  
R24                                                        15.000  
E26                    906801.350        2809.904           5.000                                                                  
E27                   -159214.240       -2311.026          13.000                      -71913.660       -1733.035          14.000  
E33                    324272.581         781.307          20.000                                                                  
J 1                    -85018.586        -528.840          14.000                                                                  
J 2                    -46688.922         -93.490          15.000                                                                  
C19                    242775.421          -0.007          14.000                                                                                                                                  
C22                   -518333.307           0.006          17.000                                                                                                                                  
C36                   -335158.671       -2017.418          17.000                                                                                                                                  
> 2021 12  8  2 50  3.0000000  0 21                     
G10                  -1144312.407       -2028.936          17.000                                                                  
G12                   -393503.335          -0.010          14.000                                                                  
G18                   1676388.431        3183.653          27.000                       38110.703        2405.517          16.000  
G23                     10414.530          40.380          19.000                        5977.866          23.647          13.000  
G24                   1114591.398          -0.002          16.000                                                                  
G32                   -623575.413       -1878.273          17.000                                                                  
R 1                                                        12.000  
R 7                                                        16.000  
R 8                                                        25.000  
R 9                                                        15.000  
R10                                                        20.000  
R24                                                        15.000  
E26                    921565.754        2809.589           8.000                                                                  
E27                   -171360.218       -2311.132          12.000                                                                  
E33                    328385.006         783.347          19.000                                                                  
J 1                    -87815.439        -532.907          15.000                                                                  
J 2                    -47178.683         -91.431          13.000                                                                  
C13                      6367.985         773.139          29.000                                                                                                                                  
C19                    246594.725          -0.007          15.000                                                                                                                                  
C22                   -525883.455           0.006          14.000                                                                                                                                  
C36                   -345661.806       -2016.224          24.000                                                                                                                                  
> 2021 12  8  2 50  4.0000000  0 20                     
G10                  -1154977.566       -2028.730          17.000                                                                  
G12                   -407168.391          -0.010          14.000                                                                  
G18                   1693120.511        3186.479          25.000                       47545.527        2401.593          14.000  
G23                     10626.302          40.947          17.000                        6072.682          23.165          12.000  
G24                   1125221.370        2022.757          15.000                                                                  
G32                   -633443.913       -1879.072          17.000                                                                  
R 1                                                        12.000  
R 7                                                        15.000  
R 8                                                        20.000  
R 9                                                        16.000  
R10                                                        20.000  
R24                                                        15.000  
E26                    936332.369        2810.046           7.000                                                                  
E27                   -183508.479       -2312.134          11.000                                                                  
E33                    332498.552         783.278          23.000                                                                  
J 1                    -90619.442        -535.182          13.000                                                                  
J 2                    -47662.058         -93.525          16.000                                                                  
C19                    250413.057          -0.007          13.000                                                                                                                                  
C22                   -533425.573           0.006          17.000                                                                                                                                  
C36                   -356147.915       -2010.954          23.000                                                                                                                                  
> 2021 12  8  2 50  5.0000000  0 20                     
G10                  -1165627.589       -2025.849          17.000                                                                  
G12                   -420835.818          -0.010          13.000                                                                  
G18                   1709869.547        3186.595          20.000                       56973.814        2401.627          17.000  
G23                     10836.854          37.934          17.000                        6171.915          25.531          15.000  
G24                   1135853.901        2024.143          15.000                                                                  
G32                   -643321.850          -0.006          18.000                                                                  
R 1                                                        13.000  
R 7                                                        14.000  
R 8                                                        20.000  
R 9                                                        16.000  
R10                                                        23.000  
R24                                                        14.000  
E26                    951098.625        2809.643           7.000                                                                  
E27                   -195657.706       -2312.104           7.000                                                                  
E33                    336616.413         782.761          19.000                                                                  
J 1                    -93433.921        -535.957          14.000                                                                  
J 2                    -48140.241         -90.282          15.000                                                                  
C19                    254217.546         730.860          14.000                                                                                                                                  
C22                   -540972.500       -1450.887          17.000                                                                                                                                  
C36                   -366628.661       -2012.793          30.000                                                                                                                                  
> 2021 12  8  2 50  6.0000000  0 20                     
G10                  -1176279.773       -2028.456          15.000                                                                  
G12                   -434502.453          -0.010          13.000                                                                  
G18                   1726616.093        3190.602          20.000                       66396.084        2400.062          12.000  
G23                     11042.664          39.807          16.000                        6283.868          28.363          13.000  
G24                   1146497.051        2025.799          19.000                                                                  
G32                   -653198.588          -0.006          19.000                                                                  
R 1                                                        13.000  
R 7                                                        14.000  
R 8                                                        22.000  
R 9                                                        17.000  
R10                                                        24.000  
R24                                                        16.000  
E26                    965860.459        2808.018           8.000                                                                  
E27                   -207809.631       -2312.694           6.000                                                                  
E33                    340742.278         786.398          20.000                                                                  
J 1                    -96261.412        -535.532          15.000                                                                  
J 2                    -48618.199         -91.659          14.000                                                                  
C19                    258018.183         728.792          15.000                                                                                                                                  
C22                   -548529.397       -1451.169          17.000                                                                                                                                  
C36                   -377115.544       -2012.595          35.000                                                                                      -12322.312       -1516.578          23.000  
> 2021 12  8  2 50  7.0000000  0 20                     
G10                  -1186940.599       -2027.323          17.000                                                                  
G12                   -448159.395          -0.010          14.000                                                                  
G18                   1743386.391        3190.561          18.000                       75809.854        2397.693          15.000  
G23                     11256.627          40.477          17.000                        6392.555          28.164          15.000  
G24                   1157143.149        2025.515          17.000                                                                  
G32                   -663068.064          -0.006          20.000                                                                  
R 1                                                        11.000  
R 7                                                        16.000  
R 8                                                        30.000  
R 9                                                        17.000  
R10                                                        20.000  
R24                                                        16.000  
E26                    980614.859        2807.325           9.000                                                                  
E27                   -219963.976       -2313.301           7.000                                                                  
E33                    344879.198         785.862          20.000                                                                  
J 1                    -99083.768        -539.002          14.000                                                                  
J 2                    -49108.790         -95.213          12.000                                                                  
C19                    261815.918         728.983          15.000                                                                                                                                  
C22                   -556084.590       -1451.376          23.000                                                                                                                                  
C36                   -387592.811       -2012.705          34.000                                                                                      -18271.172       -1513.883          23.000  
> 2021 12  8  2 50  8.0000000  0 23                     
G10                  -1197591.305       -2027.074          21.000                                                                  
G12                   -461820.331          -0.010          15.000                                                                  
G18                   1760153.535        3188.977          20.000                       85211.604        2393.650          13.000  
G23                     11478.986          44.304          17.000                        6507.588          28.054          13.000  
G24                   1167790.938        2026.202          16.000                                                                  
G32                   -672944.096          -0.006          20.000                                                                  
R 1                                                        14.000  
R 7                                                        15.000  
R 8                                                        23.000  
R 9                                                        16.000  
R10                                                        19.000  
R24                                                        17.000  
E26                    995365.662        2806.117           9.000                                                                  
E27                   -232123.577       -2314.071           8.000                                                                  
E33                    349008.015         784.477          20.000                                                                  
J 1                   -101902.114        -532.033          13.000                                                                  
J 2                    -49614.492         -99.051          14.000                                                                  
C 6                      1299.405          93.292          21.000                                                                                                                                  
C 9                       145.881          10.558          25.000                                                                                                                                  
C19                    265617.639          -0.007          15.000                                                                                                                                  
C22                   -563644.947       -1452.101          19.000                                                                                                                                  
C35                     36375.978        2665.434          16.000                                                                                                                                  
C36                   -398072.948       -2011.443          30.000                                                                                      -24218.105       -1515.547          22.000  
> 2021 12  8  2 50  9.0000000  0 19                     
G10                  -1208246.624       -2030.137          24.000                                                                  
G12                   -475480.997          -0.010          14.000                                                                  
G18                   1776911.943        3186.239          19.000                       94610.290        2393.290          13.000  
G23                     11708.656          43.424          17.000                        6624.284          30.631          14.000  
G24                   1178430.122        2024.421          16.000                                                                  
G32                   -682827.614          -0.006          17.000                                                                  
R 7                                                        16.000  
R 8                                                        26.000  
R 9                                                        16.000  
R10                                                        17.000  
R24                                                        15.000  
E26                   1010108.582        2805.104           9.000                                                                  
E27                   -244284.137       -2314.479           8.000                                                                  
E33                    353128.948         786.641          24.000                                                                  
J 1                   -104691.150        -529.153          15.000                                                                  
J 2                    -50122.173         -95.335          14.000                                                                  
C19                    269429.420          -0.007          13.000                                                                                                                                  
C22                   -571210.167       -1451.865          17.000                                                                                                                                  
C36                   -408548.540       -2011.626          29.000                                                                                      -30178.326       -1521.108          23.000  
> 2021 12  8  2 50 10.0000000  0 19                     
G10                  -1218902.099       -2026.779          20.000                                                                  
G12                   -489122.612          -0.010          13.000                                                                  
G18                   1793670.082        3190.256          17.000                                                                  
G23                     11937.298          42.478          16.000                        6749.670          33.809          13.000  
G24                   1189066.616        2024.026          17.000                                                                  
G32                   -692703.878          -0.006          19.000                                                                  
R 7                                                        16.000  
R 8                                                        29.000  
R 9                                                        16.000  
R10                                                        19.000  
R24                                                        14.000  
E26                   1024849.118        2804.555           9.000                                                                  
E27                   -256447.347       -2314.939           7.000                                                                  
E33                    357262.067         787.177          22.000                                                                  
J 1                   -107473.192        -527.167          14.000                                                                  
J 2                    -50616.873         -93.030          12.000                                                                  
C19                    273224.212          -0.007          13.000                                                                                                                                  
C22                   -578768.594       -1450.820          19.000                                                                                                                                  
C36                   -419024.554       -2010.663          29.000                                                                                      -36123.352       -1513.827          21.000  
> 2021 12  8  2 50 11.0000000  0 19                     
G10                  -1229547.169       -2025.690          18.000                                                                  
G12                   -502760.779          -0.010          13.000                                                                  
G18                   1810432.773        3190.375          18.000                                                                  
G23                     12158.143          41.647          18.000                        6879.611          32.796          15.000  
G24                   1199702.581        2023.841          18.000                                                                  
G32                   -702580.181       -1878.875          18.000                                                                  
R 7                                                        15.000  
R 8                                                        26.000  
R 9                                                        17.000  
R10                                                        19.000  
R24                                                        16.000  
E26                   1039587.950        2804.862           8.000                                                                  
E27                   -268613.165       -2315.246           7.000                                                                  
E33                    361385.547         782.460          23.000                                                                  
J 1                   -110242.997        -524.304          13.000                                                                  
J 2                    -51110.187         -96.075          15.000                                                                  
C19                    277029.341          -0.007          13.000                                                                                                                                  
C22                   -586326.413       -1453.560          20.000                                                                                                                                  
C36                   -429500.693       -2013.479          27.000                                                                                      -42067.811       -1508.690          20.000  
> 2021 12  8  2 50 12.0000000  0 21                     
G10                  -1240196.915       -2028.041          19.000                                                                  
G12                   -516405.951          -0.010          15.000                                                                  
G18                   1827192.459          -0.011          20.000                                                                  
G23                     12375.122          40.477          17.000                        7012.691          34.277          16.000  
G24                   1210338.651        2023.807          15.000                                                                  
G32                   -712453.009       -1878.905          19.000                                                                  
R 7                                                        17.000  
R 8                                                        21.000  
R 9                                                        16.000  
R10                                                        18.000  
R24                                                        15.000  
E26                   1054327.259        2804.759           9.000                                                                  
E27                   -280781.174       -2315.557           9.000                                                                  
E33                    365501.284         785.249          20.000                                                                  
J 1                   -113007.188        -528.314          14.000                                                                  
J 2                    -51628.383         -97.094          13.000                                                                  
C 9                       125.622           9.160          19.000                                                                                                                                  
C13                      6379.598         771.994          20.000                                                                                                                                  
C19                    280838.047          -0.007          14.000                                                                                                                                  
C22                   -593897.285       -1455.149          17.000                                                                                                                                  
C36                   -439976.897       -2011.355          30.000                                                                                      -47996.112       -1513.572          20.000  
> 2021 12  8  2 50 13.0000000  0 19                     
G10                  -1250848.092       -2026.707          20.000                                                                  
G12                   -530064.233          -0.010          15.000                                                                  
G18                   1843955.968          -0.011          17.000                                                                  
G23                     12587.826          40.630          17.000                        7141.975          31.340          15.000  
G24                   1220969.539        2022.674          16.000                                                                  
G32                   -722329.970       -1879.305          19.000                                                                  
R 7                                                        19.000  
R 8                                                        21.000  
R 9                                                        17.000  
R10                                                        19.000  
R24                                                        17.000  
E26                   1069064.566        2804.213           8.000                                                                  
E27                   -292951.278       -2316.052           7.000                                                                  
E33                    369634.853         786.717          24.000                                                                  
J 1                   -115785.667        -528.625          13.000                                                                  
J 2                    -52135.340         -96.059          15.000                                                                  
C19                    284648.150          -0.007          13.000                                                                                                                                  
C22                   -601465.389       -1451.967          22.000                                                                                                                                  
C36                   -450442.026       -2011.813          28.000                                                                                      -53944.693       -1521.483          21.000  
> 2021 12  8  2 50 14.0000000  0 19                     
G10                  -1261498.012       -2026.601          17.000                                                                  
G12                   -543727.465          -0.010          12.000                                                                  
G18                   1860725.565          -0.011          17.000                                                                  
G23                     12807.435          43.615          18.000                        7265.602          31.813          17.000  
G24                   1231605.344          -0.002          17.000                                                                  
G32                   -732194.380       -1876.292          19.000                                                                  
R 7                                                        17.000  
R 8                                                        23.000  
R 9                                                        16.000  
R10                                                        20.000  
R24                                                        18.000  
E26                   1083797.812        2803.409           9.000                                                                  
E27                   -305120.181       -2315.592           8.000                                                                  
E33                    373767.128         788.126          24.000                                                                  
J 1                   -118588.796        -535.997          14.000                                                                  
J 2                    -52644.883         -96.211          13.000                                                                  
C19                    288457.415          -0.007          12.000                                                                                                                                  
C22                   -609021.790       -1451.419          16.000                                                                                                                                  
C36                   -460913.794       -2010.552          28.000                                                                                      -59895.023       -1514.845          21.000  
> 2021 12  8  2 50 15.0000000  0 19                     
G10                  -1272143.206       -2024.982          19.000                                                                  
G12                   -557401.573          -0.010          13.000                                                                  
G18                   1877495.190        3191.215          17.000                                                                  
G23                     13038.886          45.224          19.000                        7390.037          31.091          16.000  
G24                   1242257.892        2026.025          17.000                                                                  
G32                   -742053.978       -1874.581          20.000                                                                  
R 7                                                        15.000  
R 8                                                        19.000  
R 9                                                        17.000  
R10                                                        18.000  
R24                                                        19.000  
E26                   1098527.610        2802.421          12.000                                                                  
E27                   -317288.223       -2315.375           7.000                                                                  
E33                    377906.281         789.443          22.000                                                                  
J 1                   -121411.704        -538.520          12.000                                                                  
J 2                    -53142.435         -95.244          13.000                                                                  
C19                    292264.150          -0.007          13.000                                                                                                                                  
C22                   -616582.403       -1452.824          17.000                                                                                                                                  
C36                   -471380.039       -2014.193          25.000                                                                                      -65845.157       -1517.592          21.000  
> 2021 12  8  2 50 16.0000000  0 18                     
G10                  -1282783.230       -2023.936          18.000                                                                  
G18                   1894268.806        3193.207          17.000                                                                  
G23                     13275.184          45.121          22.000                        7514.562          32.723          18.000  
G24                   1252912.944        2028.877          19.000                                                                  
G32                   -751907.418       -1874.815          21.000                                                                  
R 7                                                        16.000  
R 8                                                        16.000  
R 9                                                        14.000  
R10                                                        17.000  
R24                                                        19.000  
E26                   1113251.043        2800.995          10.000                                                                  
E27                   -329455.127       -2315.458           6.000                                                                  
E33                    382051.271         790.641          28.000                        6813.619         567.247          27.000  
J 1                   -124237.132        -536.879          14.000                                                                  
J 2                    -53640.699         -94.420          13.000                                                                  
C19                    296073.956          -0.007          15.000                                                                                                                                  
C22                   -624146.767       -1451.868          17.000                                                                                                                                  
C36                   -481862.030       -2014.573          26.000                                                                                      -71797.707       -1518.290          23.000  
> 2021 12  8  2 50 17.0000000  0 20                     
G10                  -1293421.567       -2024.764          23.000                                                                  
G18                   1911048.181        3191.842          18.000                                                                  
G23                     13515.161          45.618          25.000                        7646.499          34.489          18.000  
G24                   1263580.790        2030.009          19.000                                                                  
G32                   -761760.617       -1875.160          25.000                                                                  
R 7                                                        17.000  
R 8                                                        20.000  
R 9                                                        17.000  
R10                                                        17.000  
R24                                                        17.000  
E26                   1127969.760        2800.561          12.000                                                                  
E27                   -341622.484       -2315.193           7.000                                                                  
E33                    386192.932         787.121          25.000                        9094.301         585.186          25.000  
J 1                   -127041.227        -530.653          13.000                                                                  
J 2                    -54136.039         -94.745          14.000                                                                  
C 8                      8638.837         973.746          20.000                                                                                                                                  
C 9                       188.346          11.421          25.000                                                                                                                                  
C19                    299893.530          -0.007          15.000                                                                                                                                  
C22                   -631714.965       -1453.386          17.000                                                                                                                                  
C36                   -492331.995       -2008.842          25.000                                                                                      -77739.528       -1516.002          21.000  
> 2021 12  8  2 50 18.0000000  0 23                     
G10                  -1304053.917       -2023.657          20.000                                                                  
G12                   -598436.855          -0.010          15.000                                                                  
G18                   1927820.483        3190.657          17.000                                                                  
G23                     13748.334          44.835          23.000                        7792.658          38.664          21.000  
G24                   1274257.987        2032.798          19.000                                                                  
G32                   -771605.104       -1871.720          25.000                                                                  
R 7                                                        17.000  
R 8                                                        22.000  
R 9                                                        19.000  
R10                                                        17.000  
R24                                                        19.000  
E 7                     28522.361        1404.207          16.000                                                                  
E26                   1142684.507        2799.417          12.000                                                                  
E27                   -353787.876       -2314.701           9.000                                                                  
E33                    390340.392         790.801          23.000                       11256.980         488.912          25.000  
J 1                   -129823.469        -529.947          13.000                                                                  
J 2                    -54647.338         -96.595          13.000                                                                  
C 8                     13704.977         972.981          24.000                                                                                                                                  
C 9                       249.123          11.997          22.000                                                                                                                                  
C13                     11381.295         770.065          14.000                                                                                                                                  
C19                    303708.905          -0.007          15.000                                                                                                                                  
C22                   -639281.035       -1453.438          22.000                                                                                                                                  
C36                   -502808.787       -2014.063          29.000                                                                                      -83674.545       -1510.479          20.000  
> 2021 12  8  2 50 19.0000000  0 20                     
G10                  -1314688.511       -2023.680          20.000                                                                  
G12                   -612111.039          -0.010          12.000                                                                  
G18                   1944586.857        3190.576          17.000                                                                  
G23                     13986.794          46.379          20.000                        7938.264          36.483          19.000  
G24                   1284933.939        2028.710          18.000                                                                  
G32                   -781445.227       -1874.140          24.000                                                                  
R 7                                                        16.000  
R 8                                                        19.000  
R 9                                                        18.000  
R10                                                        17.000  
R24                                                        19.000  
E 7                     35902.709        1406.284          15.000                                                                  
E26                   1157394.512        2798.731          12.000                                                                  
E27                   -365953.053       -2314.959           8.000                                                                  
E33                    394494.832         791.465          22.000                                                                  
J 1                   -132614.459        -533.017          12.000                                                                  
J 2                    -55147.405         -93.859          13.000                                                                  
C19                    307521.301          -0.007          12.000                                                                                                                                  
C22                   -646850.661       -1454.906          20.000                                                                                                                                  
C36                   -513288.628       -2010.385          27.000                                                                                      -89605.804       -1510.583          22.000  
> 2021 12  8  2 50 20.0000000  0 20                     
G10                  -1325336.971       -2027.659          20.000                                                                  
G12                   -625787.782          -0.010          12.000                                                                  
G18                   1961351.584        3188.650          17.000                                                                  
G23                     14236.238          49.726          19.000                        8083.755          38.490          21.000  
G24                   1295602.867        2031.261          17.000                                                                  
G32                   -791260.874       -1867.608          25.000                                                                  
R 7                                                        15.000  
R 8                                                        18.000  
R 9                                                        17.000  
R10                                                        16.000  
R24                                                        17.000  
E 7                     43293.457        1406.109          11.000                                                                  
E26                   1172099.923        2798.010          12.000                                                                  
E27                   -378118.918       -2314.969           8.000                                                                  
E33                    398646.299         790.243          27.000                                                                  
J 1                   -135419.900        -533.875          15.000                                                                  
J 2                    -55626.931         -91.973          14.000                                                                  
C19                    311328.817          -0.007          15.000                                                                                                                                  
C22                   -654422.364       -1453.678          22.000                                                                                                                                  
C36                   -523761.614       -2010.121          27.000                                                                                      -95561.676       -1519.791          20.000  
> 2021 12  8  2 50 21.0000000  0 22                     
G10                  -1335985.241       -2026.173          21.000                                                                  
G12                   -639459.826          -0.010          14.000                                                                  
G18                   1978108.067        3189.287          17.000                                                                  
G23                     14493.223          48.481          22.000                        8234.170          36.712          20.000  
G24                   1306288.930        2033.570          16.000                                                                  
G32                   -801081.742       -1872.838          30.000                                                                  
R 7                                                        17.000  
R 8                                                        19.000  
R 9                                                        16.000  
R10                                                        15.000  
R24                                                        18.000  
E 7                     50683.794        1406.138          14.000                                                                  
E26                   1186802.309        2797.153          12.000                                                                  
E27                   -390282.295       -2314.624           9.000                                                                  
E33                    402792.905         790.316          28.000                                                                  
J 1                   -138237.005        -537.659          12.000                                                                  
J 2                    -56108.055         -92.932          15.000                                                                  
C 8                      6119.567         974.032          21.000                                                                                                                                  
C 9                       100.369           9.073          24.000                                                                                                                                  
C19                    315134.164          -0.007          15.000                                                                                                                                  
C22                   -662002.093       -1455.960          19.000                                                                                                                                  
C36                   -534234.613       -2009.578          30.000                                                                                     -101521.567       -1514.548          21.000  
> 2021 12  8  2 50 22.0000000  0 20                     
G10                  -1346629.140       -2023.276          26.000                       -2454.392       -1512.452          22.000  
G12                   -653137.258          -0.010          14.000                                                                  
G18                   1994870.756        3190.343          17.000                                                                  
G23                     14750.824          49.435          23.000                        8359.601          32.532          19.000  
G24                   1316974.075        2033.968          17.000                                                                  
G32                   -810906.303       -1872.851          32.000                                                                  
R 7                                                        17.000  
R 8                                                        16.000  
R 9                                                        15.000  
R10                                                        16.000  
R24                                                        18.000  
E 7                     58073.249        1405.673          14.000                                                                  
E26                   1201498.321        2796.048          12.000                                                                  
E27                   -402445.648       -2314.644           7.000                                                                  
E33                    406946.212         788.990          27.000                                                                  
J 1                   -141068.575        -536.678          14.000                                                                  
J 2                    -56600.033         -92.630          14.000                                                                  
C19                    318920.258          -0.007          16.000                                                                                                                                  
C22                   -669575.280       -1454.889          22.000                                                                                                                                  
C36                   -544682.649       -2005.181          29.000                                                                                     -107481.655       -1522.459          19.000  
> 2021 12  8  2 50 23.0000000  0 20                     
G10                  -1357260.753       -2021.436          18.000                       -8384.712       -1511.527          19.000  
G12                   -666810.770          -0.010          12.000                                                                  
G18                   2011641.213        3191.827          17.000                                                                  
G23                     15008.608          50.094          22.000                        8485.559          31.967          18.000  
G24                   1327664.360        2035.660          15.000                                                                  
G32                   -820742.013       -1873.750          31.000                       -9521.182       -1400.230          27.000  
R 7                                                        15.000  
R 8                                                        17.000  
R 9                                                        16.000  
R10                                                        14.000  
R24                                                        17.000  
E 7                     65462.235        1406.739          10.000                                                                  
E26                   1216191.090        2796.042           9.000                                                                  
E27                   -414610.134       -2314.941           7.000                                                                  
E33                    411101.455         790.646          29.000                                                                  
J 1                   -143896.925        -538.988          14.000                                                                  
J 2                    -57090.306         -91.373          13.000                                                                  
C19                    322713.273         728.780          15.000                                                                                                                                  
C22                   -677148.178       -1452.651          17.000                                                                                                                                  
C36                   -555126.640       -2004.317          25.000                                                                                     -113450.708       -1518.265          19.000  
> 2021 12  8  2 50 24.0000000  0 22                     
G10                  -1367897.450       -2023.310          22.000                      -14317.058       -1511.803          17.000  
G12                   -680472.244          -0.010          14.000                                                                  
G18                   2028420.522        3193.669          15.000                                                                  
G23                     15274.875          50.795          21.000                        8621.891          35.702          18.000  
G24                   1338354.581        2033.563          14.000                                                                  
G32                   -830576.092       -1874.917          27.000                      -15009.494       -1399.216          27.000  
R 7                                                        19.000  
R 8                                                        15.000  
R 9                                                        16.000  
R10                                                        16.000  
R24                                                        17.000  
E 7                     72850.722        1405.680          10.000                                                                  
E26                   1230881.652        2795.080           9.000                                                                  
E27                   -426774.024       -2314.184           7.000                                                                  
E33                    415260.220         791.033          30.000                                                                  
J 1                   -146723.949        -536.657          13.000                                                                  
J 2                    -57558.174         -86.033          13.000                                                                  
C 6                       328.352          94.274          27.000                                                                                                                                  
C 9                       115.016           9.758          25.000                                                                                                                                  
C19                    326508.068         729.244          13.000                                                                                                                                  
C22                   -684711.895       -1452.743          19.000                                                                                                                                  
C36                   -565572.484       -2006.951          25.000                                                                                     -119414.338       -1516.097          21.000  
> 2021 12  8  2 50 25.0000000  0 21                     
G10                  -1378532.362       -2023.631          21.000                      -20244.386       -1512.190          17.000  
G12                   -694125.489          -0.010          14.000                                                                  
G18                   2045207.092        3194.936          18.000                                                                  
G23                     15536.583          50.075          21.000                        8770.570          36.842          17.000  
G24                   1349047.026        2035.134          17.000                                                                  
G32                   -840423.317       -1874.057          36.000                      -20491.062       -1401.370          25.000  
R 7                                                        19.000  
R 8                                                        18.000  
R 9                                                        17.000  
R10                                                        17.000  
R24                                                        15.000  
E 7                     80239.442        1406.098           9.000                                                                  
E26                   1245570.124        2794.667           9.000                                                                  
E27                   -438934.826       -2314.227           8.000                                                                  
E30                      -763.015        -111.861          18.000                                                                  
E33                    419414.410         790.002          30.000                                                                  
J 1                   -149538.194        -535.278          14.000                                                                  
J 2                    -58017.093         -87.680          16.000                                                                  
C19                    330308.919         730.512          15.000                                                                                                                                  
C22                   -692273.792       -1451.094          20.000                                                                                                                                  
C36                   -576015.198       -2004.193          23.000                                                                                     -125377.126       -1516.031          18.000  
> 2021 12  8  2 50 26.0000000  0 21                     
G10                  -1389170.162       -2025.496          24.000                      -26179.725       -1511.728          16.000  
G12                   -707780.578          -0.010          13.000                                                                  
G18                   2061997.635        3194.522          16.000                                                                  
G23                     15799.523          48.742          20.000                        8911.960          36.299          17.000  
G24                   1359741.631        2036.208          18.000                                                                  
G32                   -850267.504       -1873.095          34.000                      -25973.159       -1395.726          23.000  
R 7                                                        22.000  
R 8                                                        16.000  
R 9                                                        17.000  
R10                                                        16.000  
R24                                                        15.000  
E 7                     87630.212        1406.659           9.000                                                                  
E26                   1260255.909        2794.148           8.000                                                                  
E27                   -451093.555       -2313.425           8.000                                                                  
E30                     -1337.276        -108.720          24.000                                                                  
E33                    423573.215         791.597          25.000                                                                  
J 1                   -152355.187        -533.549          13.000                                                                  
J 2                    -58467.460         -84.179          15.000                                                                  
C19                    334116.474          -0.007          15.000                                                                                                                                  
C22                   -699839.018       -1453.995          19.000                                                                                                                                  
C36                   -586447.664       -2001.261          24.000                                                                                     -131329.337       -1512.887          19.000  
> 2021 12  8  2 50 27.0000000  0 21                     
G10                  -1399805.751       -2023.792          22.000                      -32102.290       -1507.042          15.000  
G12                   -721429.503          -0.010          12.000                                                                  
G18                   2078784.968        3195.118          19.000                                                                  
G23                     16062.775          50.595          20.000                        9060.224          39.160          17.000  
G24                   1370431.465        2033.620          16.000                                                                  
G32                   -860107.890       -1871.001          35.000                      -31459.724       -1398.381          23.000  
R 7                                                        26.000  
R 8                                                        15.000  
R 9                                                        16.000  
R10                                                        17.000  
R24                                                        17.000  
E 7                     95023.587        1407.204           9.000                                                                  
E26                   1274938.078        2794.131           7.000                                                                  
E27                   -463249.767       -2312.903           8.000                                                                  
E30                     -1897.991        -106.842          24.000                                                                  
E33                    427735.579         792.256          28.000                                                                  
J 1                   -155154.314        -532.469          12.000                                                                  
J 2                    -58917.147         -87.019          16.000                                                                  
C19                    337941.672          -0.007          16.000                                                                                                                                  
C22                   -707407.386       -1452.728          22.000                                                                                                                                  
C36                   -596871.990       -2001.758          24.000                                                                                     -137257.153       -1510.587          19.000  
> 2021 12  8  2 50 28.0000000  0 21                     
G10                  -1410447.012       -2026.460          21.000                      -38013.648       -1503.948          15.000  
G12                   -735070.050          -0.010          13.000                                                                  
G18                   2095572.612        3194.599          15.000                                                                  
G23                     16333.105          52.142          21.000                        9212.260          38.180          17.000  
G24                   1381122.054        2034.441          15.000                                                                  
G32                   -869939.539       -1869.908          37.000                      -36944.681       -1396.707          24.000  
R 7                                                        20.000  
R 8                                                        15.000  
R 9                                                        15.000  
R10                                                        15.000  
R24                                                        17.000  
E 7                    102420.656        1408.229           9.000                                                                  
E26                   1289620.881        2794.187           7.000                                                                  
E27                   -475402.583       -2312.296           7.000                                                                  
E30                     -2459.434        -107.229          24.000                                                                  
E33                    431898.442         792.932          31.000                                                                  
J 1                   -157938.639        -532.860          15.000                                                                  
J 2                    -59381.935         -88.122          15.000                                                                  
C19                    341763.588         733.086          16.000                                                                                                                                  
C22                   -714972.502       -1451.402          19.000                                                                                                                                  
C36                   -607294.407       -2003.034          24.000                                                                                     -143198.437       -1515.371          17.000  
> 2021 12  8  2 50 29.0000000  0 20                     
G10                  -1421086.974       -2022.714          19.000                      -43920.693       -1506.459          15.000  
G18                   2112355.801        3193.894          16.000                                                                  
G23                     16614.015          52.290          20.000                        9363.619          39.579          19.000  
G24                   1391815.387        2035.829          16.000                                                                  
G32                   -879784.522       -1866.124          33.000                      -42430.117       -1396.016          26.000  
R 7                                                        23.000  
R 8                                                        17.000  
R 9                                                        15.000  
R10                                                        16.000  
R24                                                        19.000  
E 7                    109822.546        1408.800          10.000                                                                  
E26                   1304303.263        2793.842           6.000                                                                  
E27                   -487551.829       -2311.404           8.000                                                                  
E30                     -3023.663        -106.009          25.000                                                                  
E33                    436063.027         792.919          32.000                        5946.931         567.144          26.000  
J 1                   -160742.832        -536.466          16.000                                                                  
J 2                    -59838.857         -87.778          14.000                                                                  
C19                    345583.012         734.286          19.000                                                                                                                                  
C22                   -722535.834       -1453.633          19.000                                                                                                                                  
C36                   -617721.255       -2002.527          22.000                                                                                     -149142.267       -1514.795          17.000  
> 2021 12  8  2 50 30.0000000  0 20                     
G10                  -1431721.271       -2025.169          21.000                      -49830.520       -1504.991          14.000  
G18                   2129145.852          -0.011          16.000                                                                  
G23                     16892.073          52.383          19.000                        9517.252          39.542          18.000  
G24                   1402512.449        2036.584          16.000                                                                  
G32                   -889608.503       -1872.311          33.000                      -47913.732       -1395.340          27.000  
R 7                                                        22.000  
R 8                                                        16.000  
R 9                                                        15.000  
R10                                                        15.000  
R24                                                        18.000  
E 7                    117225.723        1409.038           9.000                                                                  
E26                   1318984.746        2793.501           7.000                                                                  
E27                   -499697.100       -2310.809           7.000                                                                  
E30                     -3580.958        -103.723          21.000                                                                  
E33                    440233.281         794.846          31.000                        8303.212         620.533          22.000  
J 1                   -163562.798        -537.016          14.000                                                                  
J 2                    -60303.186         -90.345          15.000                                                                  
C19                    349409.070         735.205          17.000                                                                                                                                  
C22                   -730103.059       -1451.693          20.000                                                                                                                                  
C36                   -628153.465       -2003.804          20.000                                                                                     -155075.042       -1511.455          18.000  
> 2021 12  8  2 50 31.0000000  0 19                     
G10                  -1442366.764       -2025.908          23.000                      -55740.317       -1506.820          16.000  
G18                   2145953.334          -0.011          17.000                                                                  
G23                     17170.150          51.420          20.000                        9679.628          41.870          20.000  
G24                   1413219.953        2038.312          15.000                                                                  
G32                   -899449.206       -1869.725          31.000                      -53399.753       -1398.725          25.000  
R 7                                                        30.000  
R 8                                                        14.000  
R 9                                                        15.000  
R10                                                        16.000  
R24                                                        17.000  
E 7                    124630.330        1408.971           9.000                                                                  
E26                   1333663.999        2793.209           8.000                                                                  
E27                   -511840.282       -2310.701           7.000                                                                  
E30                     -4135.328        -107.115          17.000                                                                  
J 1                   -166380.512        -536.576          13.000                                                                  
J 2                    -60786.115         -92.428          14.000                                                                  
C19                    353238.991         734.202          14.000                                                                                                                                  
C22                   -737667.438       -1452.689          17.000                                                                                                                                  
C36                   -638589.831       -2005.060          23.000                                                                                     -161003.982       -1512.219          19.000  
> 2021 12  8  2 50 32.0000000  0 24                     
G10                  -1453003.394       -2023.841          20.000                      -61644.093       -1504.055          14.000  
G18                   2162758.476          -0.011          16.000                                                                  
G23                     17444.018          52.602          21.000                        9845.138          41.467          18.000  
G24                   1423926.141        2037.136          14.000                                                                  
G32                   -909281.916       -1867.712          34.000                      -58884.025       -1399.342          24.000  
R 7                                                        27.000  
R 8                                                        15.000  
R 9                                                        15.000  
R10                                                        16.000  
R24                                                        18.000  
E 7                    132035.318        1409.221           7.000                                                                  
E19                    -10844.369       -1500.428          24.000                                                                  
E26                   1348341.289        2792.973           9.000                                                                  
E27                   -523980.960       -2309.822           8.000                                                                  
E30                     -4711.340        -109.555          18.000                                                                  
E33                    448581.680         793.733          32.000                       13562.543         650.948          24.000  
J 1                   -169198.807        -534.970          13.000                                                                  
J 2                    -61278.678         -92.903          15.000                                                                  
C 6                       835.301          91.966          25.000                                                                                                                                  
C 9                       118.544           5.947          26.000                                                                                                                                  
C13                      5808.774         770.092          17.000                                                                                                                                  
C19                    357070.376          -0.007          15.000                                                                                                                                  
C22                   -745234.612       -1453.365          15.000                                                                                                                                  
C36                   -649028.430       -2003.892          24.000                                                                                     -166934.785       -1510.631          17.000  
