     3.03           OBSERVATION DATA    M: Mixed            RINEX VERSION / TYPE
Geo++ RINEX Logger  Geo++               20210912 125942 UTC PGM / RUN BY / DATE
************************************************************COMMENT
This file was generated by the Geo++ RINEX Logger App       COMMENT
for Android devices (Version 2.1.6). If you encounter       COMMENT
any issues, please send an email to android@geopp.de        COMMENT
Filtering Mode: MORE                                        COMMENT
************************************************************COMMENT
Geo++                                                       MARKER NAME
GEODETIC                                                    MARKER TYPE
Geo++               Geo++                                   OBSERVER / AGENCY
unknown             HUAWEI              ELS-AN00            REC # / TYPE / VERS
unknown             ELS-AN00                                ANT # / TYPE
 -2417257.1269  5386483.8482  2405090.8942                  APPROX POSITION XYZ
        0.0000        0.0000        0.0000                  ANTENNA: DELTA H/E/N
G    8 C1C L1C D1C S1C C5Q L5Q D5Q S5Q                      SYS / # / OBS TYPES
R    4 C1C L1C D1C S1C                                      SYS / # / OBS TYPES
E   12 C1B L1B D1B S1B C1C L1C D1C S1C C5Q L5Q D5Q S5Q      SYS / # / OBS TYPES
C    4 C2I L2I D2I S2I                                      SYS / # / OBS TYPES
J    8 C1C L1C D1C S1C C5Q L5Q D5Q S5Q                      SYS / # / OBS TYPES
  2021     9    12    13     0    0.9993411     GPS         TIME OF FIRST OBS
 24 R01  1 R02 -4 R03  5 R04  6 R05  1 R06 -4 R07  5 R08  6 GLONASS SLOT / FRQ #
    R09 -2 R10 -5 R11  0 R12 -1 R13 -2 R14 -7 R15  0 R16 -1 GLONASS SLOT / FRQ #
    R17  4 R18 -3 R19  3 R20  2 R21  4 R22 -3 R23  3 R24  2 GLONASS SLOT / FRQ #
G L1C                                                       SYS / PHASE SHIFT
G L5Q -0.25000                                              SYS / PHASE SHIFT
R L1C                                                       SYS / PHASE SHIFT
E L1B                                                       SYS / PHASE SHIFT
E L1C +0.50000                                              SYS / PHASE SHIFT
E L5Q -0.25000                                              SYS / PHASE SHIFT
C L2I                                                       SYS / PHASE SHIFT
J L1C                                                       SYS / PHASE SHIFT
J L5Q -0.25000                                              SYS / PHASE SHIFT
 C1C    0.000 C1P    0.000 C2C    0.000 C2P    0.000        GLONASS COD/PHS/BIS
                                                            END OF HEADER
> 2021  9 12 13  0  0.9993411  0  4
G31  21372988.888   112315922.241       -1182.596          30.000  
G32  20951261.244   110099488.335       -1493.634          32.000  
J01  36361413.217   191080429.765         110.094          29.000  
R02  19794491.659   105627187.587       -2914.112          31.000  
> 2021  9 12 13  0  1.9993405  0  5
G26  20208188.462   106194753.9701        177.749          26.000  
G31  21373032.957   112316159.473       -1182.716          33.000  
G32  20951366.771   110100036.572       -1493.686          34.000  
J01  36361211.757   191079374.796         110.193          26.000  
R02  19794862.502   105629141.963       -2914.110          30.000  
> 2021  9 12 13  0  2.9993403  0  5
G26  20208092.229   106194262.049         176.047          25.000  
G31  21373197.243   112317027.134       -1183.359          36.000  
G32  20951586.518   110101215.459       -1495.072          34.000  
J01  36361131.113   191078949.761         109.772          30.000  
R02  19795351.164   105631736.680       -2915.052          32.000  
> 2021  9 12 13  0  3.9993398  0  5
G26  20207905.758   106193298.797         175.687          23.000  
G31  21373277.888   112317420.696       -1180.733          31.000  
G32  20951719.926   110101922.992       -1493.965          29.000  
J01  36360959.631   191078052.386         109.742          30.000  
R02  19795749.588   105633852.321       -2915.812          32.000  
> 2021  9 12 13  0  4.9993395  0  5
G26  20207784.042   106192650.679         175.124          23.000  
G31  21373412.195   112318129.058       -1182.609          27.000  
G32  20951913.592   110102943.522       -1492.723          21.000  
J01  36360847.509   191077470.779         108.914          29.000  
R02  19796204.673   105636288.596       -2916.637          31.000  
> 2021  9 12 13  0  5.9993390  0  5
G26  20207603.567   106191687.511         175.295          26.000  
G31  21373489.241   112318525.801       -1186.866          25.000  
G32  20952047.299   110103649.328       -1494.176          23.000  
J01  36360677.527   191076574.098         108.495          31.000  
R02  19796601.898   105638405.817       -2917.797          31.000  
> 2021  9 12 13  0  6.9993388  0  4
G26  20207510.931   106191197.660         173.948          23.000  
G31  21373654.127   112319398.046       -1187.610          27.000  
J01  36360597.482   191076150.434         108.786          27.000  
R02  19797089.360   105641003.806       -2918.438          33.000  
> 2021  9 12 13  0  7.9993385  0  5
G26  20207388.016   106190551.162         174.321          15.000  
G31  21373789.034   112320112.377       -1186.693          28.000  
G32  20952467.309   110105851.6701      -1497.520          22.000  
J01  36360487.458   191075566.812         111.728          27.000  
R02  19797548.043   105643441.778       -2917.472          30.000  
> 2021  9 12 13  0  8.9993382  0  4
G26  20207268.399   106189905.376         172.872          19.000  
G31  21373922.741   112320825.315       -1185.247          32.000  
J01  36360375.936   191074982.994         110.024          28.000  
R02  19798003.427   105645880.344       -2919.135          27.000  
> 2021  9 12 13  0  9.9993377  0  5
C16  36785558.688   191552230.3491         52.297          28.000  
G26  20207087.924   106188945.142         171.826          21.000  
G31  21373996.790   112321221.861       -1184.019          35.000  
J01  36360205.953   191074086.002         109.073          29.000  
R02  19798400.053   105648000.306       -2920.387          29.000  
> 2021  9 12 13  0 10.9993372  0  5
C16  36785396.500   191551395.856          54.510          30.000  
G26  20206907.149   106187986.753         171.150          21.000  
G31  21374071.138   112321618.078       -1183.941          33.000  
J01  36360035.072   191073189.258         109.581          30.000  
R02  19798795.479   105650121.487       -2921.568          34.000  
> 2021  9 12 13  0 11.9993370  0  6
C16  36785324.850   191551028.186          55.937          29.000  
G26  20206814.214   106187500.727         170.614          24.000  
G31  21374235.425   112322487.837       -1184.834          32.000  
G32  20953162.527   110109489.1931      -1497.647          24.000  
J01  36359954.727   191072765.030         108.457          29.000  
R02  19799280.843   105652723.150       -2922.155          34.000  
> 2021  9 12 13  0 12.9993364  0  6
C16  36785132.683   191550035.666          56.116          27.000  
G26  20206600.761   106186385.302         169.127          24.000  
G31  21374277.995   112322728.370       -1184.948          31.000  
G32  20953267.455   110110042.399       -1500.013          25.000  
J01  36359754.466   191071711.220         108.364          32.000  
R02  19799648.988   105654685.770       -2923.109          37.000  
> 2021  9 12 13  0 13.9993362  0  6
C16  36785061.932   191549667.292          56.133          31.000  
G26  20206507.826   106185902.363         168.379          20.000  
G31  21374444.680   112323598.258       -1184.816          30.000  
G32  20953493.798   110111227.307       -1500.229          29.000  
J01  36359675.021   191071288.723         107.239          28.000  
R02  19800135.851   105657289.139       -2923.863          31.000  
> 2021  9 12 13  0 14.9993357  0  5
C16  36784900.943   191548831.863          54.876          30.000  
G31  21374519.928   112323995.043       -1184.774          26.000  
G32  20953627.805   110111940.155       -1501.214          32.000  
J01  36359503.539   191070393.264         107.551          30.000  
R02  19800532.477   105659413.395       -2924.688          30.000  
> 2021  9 12 13  0 15.9993354  0  7
C06  36212914.921   188570204.0181         11.464          28.000  
C16  36784800.812   191548308.304          55.084          26.000  
G26  20206206.235   106184308.3741        166.019          24.000  
G31  21374654.834   112324706.574       -1184.675          27.000  
G32  20953821.471   110112969.404       -1502.739          33.000  
J01  36359395.015   191069813.398         107.616          31.000  
R02  19800991.459   105661858.572       -2925.672          39.000  
> 2021  9 12 13  0 16.9993352  0  7
C06  36212851.964   188569879.872          12.459          27.000  
C16  36784731.560   191547940.961          54.802          27.000  
G26  20206115.697   106183825.943         167.865          24.000  
G31  21374820.320   112325575.965       -1184.620          26.000  
G32  20954045.716   110114157.552       -1503.009          34.000  
J01  36359314.370   191069390.647         107.835          33.000  
R02  19801478.921   105664464.690       -2926.442          36.000  
> 2021  9 12 13  0 17.9993349  0  7
C06  36212758.429   188569399.462          11.698          25.000  
C16  36784631.729   191547417.643          55.638          26.000  
G26  20205993.981   106183185.572         167.394          24.000  
G31  21374956.725   112326288.334       -1185.060          22.000  
G32  20954239.982   110115188.296       -1503.597          34.000  
J01  36359203.747   191068812.403         104.958          32.000  
R02  19801935.805   105666911.653       -2927.330          36.000  
> 2021  9 12 13  0 18.9993344  0  6
C06  36212605.535   188568607.125          10.607          22.000  
C16  36784471.340   191546581.707          54.739          25.000  
G26  20205814.106   106182230.545         167.192          22.000  
G31  21375031.973   112326686.136       -1185.375          29.000  
J01  36359034.964   191067917.943         106.507          30.000  
R02  19802338.426   105669039.494       -2928.349          36.000  
> 2021  9 12 13  0 19.9993341  0  7
C06  36212513.199   188568126.820          12.024          20.000  
C16  36784369.711   191546058.271          54.700          30.000  
G26  20205694.189   106181590.653         166.250          27.000  
G31  21375167.779   112327398.946       -1185.251          30.000  
G32  20954571.852   110116936.0711      -1506.676          29.000  
J01  36358927.938   191067337.841         108.301          28.000  
R02  19802797.409   105671487.597       -2928.660          35.000  
> 2021  9 12 13  0 20.9993336  0  6
C06  36212360.305   188567334.244          12.336          26.000  
C16  36784209.921   191545223.259          54.726          30.000  
G26  20205511.316   106180637.288         165.389          28.000  
G31  21375243.327   112327796.633       -1185.331          32.000  
J01  36358757.956   191066442.809         107.045          27.000  
R02  19803192.535   105673616.453       -2929.160          33.000  
> 2021  9 12 13  0 21.9993334  0  6
C06  36212297.048   188567009.851          12.045          30.000  
C16  36784139.470   191544856.949          53.451          30.000  
G26  20205420.179   106180157.106         164.592          23.000  
G31  21375409.112   112328666.988       -1185.683          32.000  
J01  36358677.012   191066020.707         107.183          29.000  
R02  19803677.899   105676226.070       -2930.173          30.000  
> 2021  9 12 13  0 22.9993329  0  5
C06  36212144.454   188566217.389          11.590          30.000  
C16  36783979.081   191544023.040          53.796          32.000  
G26  20205240.603   106179204.348         165.278          24.000  
J01  36358505.530   191065125.386         107.343          31.000  
R02  19804072.126   105678356.437       -2930.960          27.000  
> 2021  9 12 13  0 23.9993326  0  5
C06  36212052.718   188565737.258          11.188          31.000  
C16  36783878.950   191543500.656          54.508          30.000  
G26  20205116.489   106178566.981         164.396          23.000  
G31  21375619.567   112329779.1561      -1186.895          30.000  
J01  36358395.207   191064545.494         107.765          31.000  
> 2021  9 12 13  0 24.9993321  0  6
C06  36211899.823   188564944.425          12.686          29.000  
C16  36783718.262   191542665.573          54.340          27.000  
G26  20204934.815   106177615.343         163.407          21.000  
G31  21375695.414   112330177.676       -1185.686          31.000  
J01  36358219.229   191063651.412         106.261          34.000  
R02  19804934.329   105682937.9551      -2932.475          21.000  
> 2021  9 12 13  0 25.9993318  0  6
C06  36211806.588   188564463.745          11.812          30.000  
C16  36783618.131   191542142.581          54.179          29.000  
G26  20204812.799   106176979.651         162.306          21.000  
G32  20955618.427   110122353.6481      -1506.211          23.000  
J01  36358108.006                         108.417          35.000  
R02  19805392.412   105685390.495       -2933.317          31.000  
> 2021  9 12 13  0 26.9993316  0  6
C06  36211744.531   188564140.292          10.872          29.000  
C16  36783546.481   191541776.490          54.230          32.000  
G26  20204724.360   106176502.839         160.422          25.000  
G32  20955846.270   110123545.495       -1508.088          22.000  
J01  36358030.959   191062725.8951        104.945          33.000  
R02  19805879.275   105688003.807       -2933.707          34.000  
> 2021  9 12 13  0 27.9993313  0  7
C06  36211652.495   188563660.482          11.699          29.000  
C16  36783446.050   191541254.387          53.199          32.000  
G26  20204604.144   106175870.350         160.010          27.000  
G31  21376139.706   112332476.6011      -1186.005          32.000  
G32  20956041.434   110124580.596       -1508.053          25.000  
J01  36357922.134   191062147.519         105.383          32.000  
R02  19806335.859   105690458.087       -2934.802          36.000  
> 2021  9 12 13  0 28.9993308  0  6
C06  36211500.500   188562867.665          12.033          31.000  
C16  36783286.561   191540419.103          54.999          28.000  
G26  20204424.868   106174922.621         160.461          26.000  
G31  21376214.355                       -1185.149          34.000  
J01  36357754.550   191061255.404         103.977          31.000  
R02  19806735.482   105692593.236       -2935.037          39.000  
> 2021  9 12 13  0 29.9993306  0  7
C06  36211438.443   188562543.408          11.492          28.000  
C16  36783215.510   191540052.041          53.768          28.000  
G26  20204330.733   106174447.091         160.032          24.000  
G31  21376384.637   112333636.1651      -1181.332          34.000  
G32  20956412.877   110126494.7161      -1508.195          29.000  
J01  36357675.105   191060835.775         104.836          32.000  
R02  19807226.842   105695209.226       -2936.419          34.000  
> 2021  9 12 13  0 30.9993300  0  6
C06  36211257.068   188561595.036          10.665          29.000  
C16  36783025.441   191539061.739          53.145          29.000  
G26  20204121.778   106173342.872         157.892          25.000  
G31  21376427.807   112333878.064       -1189.449          33.000  
J01  36357471.846   191059784.139         106.713          31.000  
R02  19807601.283   105697186.499       -2937.336          34.000  
> 2021  9 12 13  0 31.9993298  0  6
C06  36211194.712   188561271.739          10.827          25.000  
C16  36782955.890   191538696.938          52.701          24.000  
G26  20204032.739   106172870.681         156.784          24.000  
G31  21376598.689   112334750.257       -1186.702          32.000  
J01  36357392.701   191059362.330         106.694          27.000  
R02  19808095.641   105699804.266       -2938.339          35.000  
> 2021  9 12 13  0 32.9993293  0  7
C06  36211044.516   188560480.381          10.752          23.000  
C16  36782794.901   191537863.249          53.300          27.000  
G26  20203853.164   106171925.672         157.295          25.000  
G31  21376677.534   112335149.876       -1186.797          32.000  
G32  20956875.457   110128971.2631      -1509.011          30.000  
J01  36357222.718   191058470.202         103.961          27.000  
R02  19808498.262   105701942.775       -2938.836          37.000  
> 2021  9 12 13  0 33.9993288  0  6
C06  36210893.420   188559689.262          10.415          28.000  
C16  36782636.011   191537029.594          52.776          28.000  
G26  20203672.389   106170981.484         156.238          25.000  
G32  20957010.963   110129693.075       -1510.549          26.000  
J01  36357052.736   191057578.606         103.282          30.000  
R02  19808901.183   105704081.896       -2939.213          38.000  
> 2021  9 12 13  0 34.9993285  0  6
C06  36210801.384   188559209.921          10.286          26.000  
C16  36782535.880   191536508.915          52.269          26.000  
G26  20203551.572   106170352.628         155.411          25.000  
G31  21376880.494   112336264.3541      -1189.436          34.000  
J01  36356944.211   191057002.827         102.752          30.000  
R02  19809369.159   105706541.384       -2940.314          37.000  
> 2021  9 12 13  0 35.9993283  0  7
C06  36210738.427   188558886.776           9.671          28.000  
C16  36782465.729   191536144.302          52.140          28.000  
G26  20203463.733   106169882.149         155.184          29.000  
G31  21377044.780   112337137.958       -1188.501          34.000  
G32  20957436.369   110131928.2491      -1513.079          25.000  
J01  36356866.565   191056585.181         102.411          28.000  
R02  19809860.819   105709161.800       -2939.658          38.000  
> 2021  9 12 13  0 36.9993280  0  6
C06  36210646.091   188558408.563           9.576          26.000  
C16  36782368.296   191535623.529          52.608          24.000  
G26  20203342.617   106169254.612         154.342          28.000  
G31  21377181.785   112337853.585       -1187.977          34.000  
J01  36356757.141   191056009.581         103.585          31.000  
R02  19810320.700   105711622.400       -2941.261          35.000  
> 2021  9 12 13  0 37.9993275  0  6
C06  36210495.296   188557617.902          11.547          25.000  
C16  36782207.608   191534790.190          51.618          23.000  
G26  20203163.641   106168312.721         153.623          28.000  
G31  21377259.131                       -1188.404          34.000  
J01  36356584.460   191055118.192         104.338          25.000  
R02  19810720.623   105713764.131       -2942.146          38.000  
> 2021  9 12 13  0 38.9993272  0  7
C06  36210404.459   188557138.152          10.257          24.000  
C16  36782106.278   191534270.453          52.526          23.000  
G26  20203042.225   106167687.017         152.737          24.000  
G31  21377398.235   112338970.3291      -1187.118          35.000  
G32  20957977.794   110134731.1361      -1511.256          26.000  
J01  36356473.837   191054540.741         104.768          31.000  
R02  19811179.606   105716226.678       -2942.613          36.000  
> 2021  9 12 13  0 39.9993267  0  6
C06  36210252.764   188556348.372           8.151          24.000  
C16  36781947.987   191533437.184          51.993          23.000  
G26  20202865.048   106166746.720         152.575          23.000  
G31  21377468.087   112339371.343       -1189.765          32.000  
J01  36356302.356   191053648.237         104.327          31.000  
R02  19811579.229   105718369.272       -2942.315          31.000  
> 2021  9 12 13  0 40.9993265  0  6
C06  36210191.906   188556027.538           9.217          27.000  
C16  36781877.836   191533072.167          52.807          22.000  
G26  20202776.009   106166279.042         152.863          29.000  
G31  21377633.572   112340246.436       -1190.613          30.000  
G32  20958348.637   110136653.5061      -1513.034          27.000  
R02  19812071.788   105720991.500       -2942.252          31.000  
> 2021  9 12 13  0 41.9993260  0  6
C06  36210042.010   188555237.647           9.118          27.000  
C16  36781716.847   191532238.144          54.001          20.000  
G26  20202597.932   106165338.799         152.102          29.000  
G32  20958487.441   110137378.851       -1513.543          24.000  
J01  36356054.427   191052334.4191        107.794          25.000  
R02  19812471.711   105723133.774       -2942.586          33.000  
> 2021  9 12 13  0 42.9993257  0  7
C06  36209951.472   188554760.556           9.399          27.000  
C16  36781615.218   191531715.695          54.083          22.000  
G26  20202477.716   106164714.232         151.740          28.000  
G31  21377849.123   112341369.9391      -1191.699          38.000  
G32  20958686.803   110138421.327       -1517.011          25.000  
J01  36355943.204   191051754.409         106.953          27.000  
R02  19812931.593   105725596.473       -2942.771          34.000  
> 2021  9 12 13  0 43.9993252  0  8
C06  36209798.878   188553970.938           8.279          27.000  
C16  36781456.028   191530881.416          53.205          23.000  
E01  23927505.133   125739887.8371      -1931.502          31.000  
G26  20202290.345   106163775.284         150.112          22.000  
G31  21377932.765                       -1193.283          34.000  
G32  20958828.605   110139151.032       -1517.477          23.000  
J01  36355774.421   191050860.057         106.498          28.000  
R02  19813332.116   105727739.733       -2944.101          34.000  
> 2021  9 12 13  0 44.9993249  0  6
C06  36209706.842   188553494.451           7.524          28.000  
E01  23927781.542   125741340.211       -1931.953          30.000  
G26  20202171.328   106163152.803         149.248          27.000  
G31  21378066.173   112342514.4951      -1193.185          37.000  
J01  36355664.997   191050281.312         106.278          28.000  
R02  19813794.396   105730204.397       -2945.309          34.000  
> 2021  9 12 13  0 45.9993247  0  7
C06  36209645.084   188553174.187           7.628          27.000  
C16  36781292.641   191529996.3041         51.016          23.000  
E01  23928089.129   125742956.127       -1932.465          31.000  
G26  20202081.690   106162688.912         148.121          26.000  
G31  21378231.958   112343392.405       -1192.678          36.000  
J01  36355587.950   191049860.285         105.553          29.000  
R02  19814284.256   105732830.236       -2946.426          36.000  
> 2021  9 12 13  0 46.9993244  0  8
C06  36209553.048   188552698.322           7.584          27.000  
C16  36781193.410   191529476.688          50.933          22.000  
E01  23928366.736   125744415.501       -1933.811          27.000  
G26  20201963.871   106162068.219         148.040          30.000  
G31  21378369.863   112344112.203       -1192.552          36.000  
G32  20959466.863   110142741.1221      -1520.450          29.000  
J01  36355479.126   191049283.195         103.912          26.000  
R02  19814745.037   105735297.114       -2947.066          34.000  
> 2021  9 12 13  0 47.9993239  0  7
C06  36209401.653   188551910.127           8.146          29.000  
C16  36781033.620   191528645.292          50.805          24.000  
E01  23928584.686   125745560.791       -1934.063          25.000  
G26  20201786.095   106161132.694         147.520          30.000  
G31  21378446.609   112344517.302       -1192.686          35.000  
J01  36355308.843   191048392.027         102.964          25.000  
R02  19815148.258   105737444.588       -2947.716          34.000  
> 2021  9 12 13  0 48.9993236  0  7
C06  36209309.017   188551433.312           8.936          28.000  
C16  36780931.991   191528126.205          50.266          24.000  
G26  20201668.576   106160512.978         146.744          30.000  
G31  21378585.113   112345237.743       -1193.285          37.000  
G32  20959809.826   110144519.5981      -1519.474          33.000  
J01  36355197.321   191047814.556         105.666          26.000  
R02  19815612.637   105739912.779       -2948.553          35.000  
> 2021  9 12 13  0 49.9993231  0  7
C06  36209158.521   188550644.535           7.617          27.000  
C16  36780772.501   191527294.400          52.062          24.000  
G26  20201491.698   106159578.186         147.558          29.000  
G31  21378662.460   112345643.317       -1193.243          36.000  
G32  20959944.432   110145251.608       -1520.983          32.000  
J01  36355028.837   191046921.216         106.072          25.000  
R02  19816017.057   105742061.900       -2949.480          36.000  
> 2021  9 12 13  0 50.9993229  0  5
C06  36209096.764   188550324.571           8.612          26.000  
G26  20201403.859   106159117.371         146.024          28.000  
G31  21378830.943   112346521.479       -1191.847          36.000  
J01  36354951.491   191046500.822         104.922          26.000  
R02  19816512.914   105744691.611       -2950.231          36.000  
> 2021  9 12 13  0 51.9993224  0 10
C06  36208946.868   188549535.535           8.611          27.000  
C09  37301035.630   194236280.2971         65.951          21.000  
C10  37142356.682   193409998.0271        130.517          29.000  
C11  25666908.169   133654325.7441        804.369          21.000  
C16  36780540.761   191526097.4221         51.812          26.000  
E31  24446920.149   128469434.2521        526.503          25.000  
G31  21378901.395   112346926.416       -1193.448          31.000  
G32  20960307.181   110147157.0411      -1521.776          35.000  
J02  39240461.993   206210018.7011      -1329.813          21.000  
R02  19816916.134   105746841.763       -2950.501          36.000  
> 2021  9 12 13  0 52.9993221  0 10
C06  36208855.431   188549058.198           9.165          26.000  
C09  37300932.502   194235747.831          63.639          20.000  
C10  37142242.461   193409399.443         128.867          27.000  
C16  36780442.430   191525577.930          50.296          25.000  
E31  24446730.681   128468435.734         524.714          26.000  
G16  22232108.931   116830520.0021       2497.242          24.000  
G26  20201110.962   106157561.8761        144.541          29.000  
G32  20960503.845   110148206.490       -1523.541          31.000  
J01  36354675.682   191045030.1951        104.122          21.000  
R02  19817382.012   105749312.886       -2952.293          36.000  
> 2021  9 12 13  0 53.9993216  0 10
C06  36208702.537   188548268.769           8.537          26.000  
C09  37300770.314   194234910.853          57.607          20.000  
C10  37142068.881   193408490.421         128.047          26.000  
C11  25666358.949   133651464.5971        802.943          21.000  
C16  36780283.540   191524747.250          48.618          23.000  
G26  20200934.084   106156630.364         142.899          29.000  
G31  21379118.444   112348054.7681      -1193.615          35.000  
J01  36354507.198   191044138.921         103.183          28.000  
J02  39240728.209   206211418.7171      -1330.356          20.000  
R02  19817785.233   105751465.422       -2952.668          35.000  
> 2021  9 12 13  0 54.9993213  0 11
C06  36208609.601   188547792.179           7.815          26.000  
C09  37300667.785   194234384.188          57.274          19.000  
C10  37141957.058   193407894.070         128.246          27.000  
C11  25666114.619   133650193.481         803.123          20.000  
C16  36780183.409   191524229.051          51.116          21.000  
G26  20200818.364   106156015.146         142.694          28.000  
G31  21379256.349   112348775.848       -1195.287          38.000  
G32  20960839.313   110149989.9241      -1521.503          27.000  
J01  36354398.074   191043563.015         103.740          29.000  
J02  39240893.695   206212276.590       -1330.398          23.000  
R02  19818248.712   105753937.962       -2952.609          35.000  
> 2021  9 12 13  0 55.9993211  0  8
C06  36208546.945   188547473.633           5.604          25.000  
C10  37141871.318   193407453.598         128.191          24.000  
C11  25665901.166   133649078.468         800.124          19.000  
C16  36780114.756   191523866.582          49.213          27.000  
G26  20200732.024   106155557.972         140.939          26.000  
G32  20961068.354   110151198.375       -1524.167          30.000  
J01  36354316.530   191043144.833         102.303          28.000  
R02  19818739.772   105756571.400       -2954.268          34.000  
> 2021  9 12 13  0 56.9993206  0  8
C06  36208394.950   188546688.259           2.990          24.000  
C09  37300436.645   194233173.9761         58.391          17.000  
C11  25665598.376   133647496.318         800.900          18.000  
C16  36779954.667   191523036.664          48.170          23.000  
G26  20200556.945   106154629.820         140.482          30.000  
G31  21379499.181   112350062.9541      -1194.372          31.000  
G32  20961207.458   110151935.551       -1525.533          28.000  
R02  19819141.194   105758726.137       -2955.366          28.000  
> 2021  9 12 13  0 57.9993203  0  6
C06  36208304.712   188546215.398           5.287          24.000  
C16  36779854.237   191522519.575          49.239          24.000  
G26  20200441.525   106154017.259         138.641          27.000  
G31  21379637.085   112350784.677       -1194.486          37.000  
J01  36354032.927   191041680.3641        102.151          27.000  
R02  19819602.575   105761202.222       -2956.131          32.000  
> 2021  9 12 13  0 58.9993198  0  8
C06  36208152.717   188545428.675           6.347          28.000  
C09  37300174.027   194231808.9231         59.936          15.000  
C10  37141409.937   193405039.3061        124.978          13.000  
C16  36779693.548   191521690.359          49.048          26.000  
G26  20200266.147   106153092.255         138.136          21.000  
G31  21379715.931   112351191.606       -1194.850          37.000  
G32  20961548.622   110153726.5381      -1525.261          29.000  
R02  19820004.596   105763358.699       -2956.890          33.000  
> 2021  9 12 13  0 59.9993196  0  8
C06  36208090.061   188545110.035           6.414          29.000  
C09  37300100.578   194231436.591          57.055          14.000  
C11  25664833.306   133643541.5761        796.204          15.000  
C16  36779623.097   191521328.900          49.389          27.000  
G26  20200178.607   106152639.250         136.999          26.000  
G31  21379885.313   112352071.374       -1195.196          36.000  
G32  20961778.563   110154935.989       -1524.439          29.000  
R02  19820501.352   105765995.696       -2957.366          33.000  
> 2021  9 12 13  1  0.9993190  0  8
C06  36207908.087   188544166.457           7.528          31.000  
C10  37141121.537   193403540.7191        124.831          12.000  
C16  36779433.328   191520342.695          50.330          28.000  
G26  20199973.549   106151555.948         139.129          27.000  
G31  21379934.779                       -1195.229          36.000  
G32  20961887.987   110155515.120       -1524.476          30.000  
J01  36353575.743   191039326.0041        102.119          37.000  
R02  19820871.896   105767993.384       -2957.994          31.000  
> 2021  9 12 13  1  1.9993188  0  8
C06  36207845.430   188543846.251           8.197          32.000  
C09  37299837.660   194230069.7171         66.478          10.000  
C10  37141036.695   193403103.137         124.628          10.000  
C16  36779363.776   191519979.982          50.770          28.000  
G26  20199888.108   106151101.935         138.613          29.000  
G31  21380100.564                       -1196.312          35.000  
J01  36353496.298   191038908.941         101.075          37.000  
R02  19821365.354   105770631.824       -2958.970          32.000  
> 2021  9 12 13  1  2.9993183  0  8
C06  36207697.333                           6.269          31.000  
C11  25663978.597   133639108.6561        804.683          15.000  
C16  36779204.586   191519149.418          48.889          29.000  
G26  20199712.130   106150175.791         138.221          29.000  
G31  21380180.009   112353601.8531      -1195.004          36.000  
G32  20962259.730   110157464.1111      -1526.759          28.000  
J01  36353325.417                          99.985          38.000  
R02  19821769.774   105772791.265       -2959.762          30.000  
> 2021  9 12 13  1  3.9993180  0  8
C06  36207607.395   188542505.5201          5.697          31.000  
C16  36779105.355   191518631.404          49.615          28.000  
G10  24009695.634   126171801.2091      -4167.174          19.000  
G26  20199595.511   106149565.414         137.287          30.000  
G31  21380317.314   112354325.138       -1196.789          36.000  
G32  20962461.190   110158518.679       -1528.027          30.000  
J01  36353217.491   191037439.7251        101.326          38.000  
R02  19822240.448   105775271.770       -2961.057          32.000  
> 2021  9 12 13  1  4.9993178  0  7
C06  36207545.038   188542185.019           7.282          27.000  
C11  25663524.112   133636719.1231        803.054          16.000  
C16  36779034.904   191518269.003          50.286          26.000  
G26  20199507.072   106149113.370         136.449          26.000  
G31  21380484.599   112355206.236       -1196.736          32.000  
G32  20962692.330   110159731.666       -1528.611          29.000  
R02  19822736.905   105777913.463       -2962.300          33.000  
> 2021  9 12 13  1  5.9993175  0  7
C06  36207452.402   188541709.481           6.959          26.000  
C11  25663282.179   133635449.291         798.585          16.000  
C16  36778934.473   191517750.164          49.698          23.000  
G26  20199388.654   106148503.705         136.912          18.000  
G31  21380621.604   112355930.337       -1196.665          37.000  
G32  20962892.891   110160788.341       -1530.214          25.000  
R02  19823207.279   105780396.619       -2963.600          31.000  
> 2021  9 12 13  1  6.9993170  0  6
C06  36207299.508   188540922.480           5.478          28.000  
C16  36778777.682   191516920.355          48.175          28.000  
G10  24011783.088   126182723.2141      -4167.229          20.000  
G26  20199209.678   106147580.137         134.571          25.000  
G31  21380704.646                       -1196.998          34.000  
J01  36352860.139   191035561.8361        100.374          25.000  
> 2021  9 12 13  1  7.9993167  0  6
C06  36207207.772   188540448.524           5.509          27.000  
C16  36778678.751   191516403.047          48.893          28.000  
G26  20199092.159   106146973.068         134.158          26.000  
G31  21380840.452                       -1196.395          32.000  
G32  20963240.351   110162591.6671      -1532.114          29.000  
R02  19824089.568   105785044.7851      -2964.389          22.000  
> 2021  9 12 13  1  8.9993162  0  7
C06  36207056.077   188539662.411           5.363          28.000  
C16  36778519.261   191515573.939          48.893          28.000  
G26  20198916.181   106146051.703         132.859          27.000  
G31  21380918.998   112357495.0281      -1196.977          31.000  
G32  20963383.052   110163335.661       -1531.814          26.000  
J01  36352579.533   191034100.3581        100.343          30.000  
R02  19824496.986   105787209.709       -2965.395          25.000  
> 2021  9 12 13  1  9.9993157  0  7
C06  36206903.482   188538876.138           5.350          28.000  
C16  36778360.671   191514744.600          48.027          29.000  
G26  20198742.302   106145131.649         131.817          25.000  
G31  21380989.749   112357904.736       -1197.487          33.000  
G32  20963524.254   110164079.905       -1532.431          24.000  
J01  36352408.951   191033212.436          99.977          29.000  
R02  19824904.404   105789375.693       -2966.517          25.000  
> 2021  9 12 13  1 10.9993155  0  6
C06  36206840.826   188538558.451           5.562          27.000  
C16  36778293.217   191514383.939          48.657          24.000  
G31  21381161.830   112358786.777       -1197.722          37.000  
G32  20963757.193   110165297.957       -1533.157          31.000  
J01  36352330.405   191032797.468          99.660          31.000  
R02  19825399.062   105792022.670       -2967.259          31.000  
> 2021  9 12 13  1 11.9993149  0  5
C16  36778107.046   191513397.539          49.173          23.000  
G31  21381211.295   112359038.947       -1197.895          37.000  
G32  20963868.416   110165885.782       -1532.843          30.000  
J01  36352132.842   191031752.271         100.079          31.000  
R02  19825773.503   105794030.472       -2968.113          35.000  
> 2021  9 12 13  1 12.9993147  0  7
C06  36206600.092   188537298.1151          6.279          24.000  
C16  36778036.895   191513036.620          48.472          28.000  
G26  20198382.851   106143163.9111        129.924          28.000  
G31  21381372.884   112359922.253       -1201.247          33.000  
G32  20964100.155   110167105.491       -1536.141          19.000  
J01  36352054.296   191031337.543          98.882          32.000  
R02  19826267.860   105796679.121       -2969.126          33.000  
> 2021  9 12 13  1 13.9993144  0  8
C06  36206508.955   188536823.627           5.758          26.000  
C16  36777934.366   191512519.435          49.463          26.000  
E01  23935318.324   125780946.3011      -1942.032          28.000  
G26  20198270.728   106142562.159         128.615          27.000  
G31  21381509.289   112360647.656       -1197.558          27.000  
G32  20964303.115   110168168.922       -1536.538          24.000  
J01  36351946.971   191030766.103          98.856          33.000  
R02  19826732.239   105799169.248       -2970.933          25.000  
> 2021  9 12 13  1 14.9993142  0  6
C06  36206450.196   188536505.984           5.058          26.000  
C16  36777864.814   191512158.372          48.357          26.000  
E01  23935629.209   125782580.217       -1942.784          32.000  
G32  20964536.953   110169390.062       -1536.011          30.000  
J01  36351867.826   191030351.906          99.490          32.000  
R02  19827226.896   105801820.345       -2971.538          32.000  
> 2021  9 12 13  1 15.9993137  0  7
C06  36206299.101   188535720.097           4.502          22.000  
C07  36418079.688   189638497.0111         74.599          25.000  
C16  36777705.924   191511329.776          47.612          25.000  
E01  23935850.456   125783742.507       -1943.809          32.000  
G32  20964677.856   110170138.147       -1536.087          33.000  
J01  36351697.843   191029464.624          99.019          28.000  
R02  19827631.316   105803992.254       -2972.363          36.000  
> 2021  9 12 13  1 16.9993134  0  8
C06  36206208.863   188535246.354           5.517          23.000  
C07  36417974.761   189637953.590          75.735          24.000  
C16  36777608.192   191510814.782          46.190          25.000  
E01  23936131.361   125785218.881       -1944.862          32.000  
G26  20197899.285   106140603.0811        125.920          18.000  
G31  21381896.621   112362667.4301      -1199.653          36.000  
J01  36351589.318   191028893.746          97.393          31.000  
R02  19828095.095   105806485.037       -2973.370          35.000  
> 2021  9 12 13  1 17.9993129  0  8
C06  36206058.068   188534461.114           3.924          25.000  
C07  36417810.774   189637097.601          75.619          22.000  
E01  23936351.109   125786373.171       -1945.227          31.000  
G26  20197724.806   106139689.835         124.702          19.000  
G31  21381977.565                       -1199.992          36.000  
G32  20965024.416   110171950.9211      -1537.897          30.000  
J01  36351420.535   191028008.799          96.656          31.000  
R02  19828500.415   105808658.852       -2974.147          34.000  
> 2021  9 12 13  1 18.9993126  0  8
C06  36205967.230   188533988.319           4.389          26.000  
C07  36417705.847   189636555.856          72.661          22.000  
E01  23936629.916   125787838.545       -1945.662          30.000  
G26  20197610.285   106139092.947         124.111          19.000  
G31  21382116.369   112363776.7511      -1199.996          37.000  
G32  20965226.476   110173016.257       -1537.931          30.000  
J01  36351312.610   191027439.713          96.607          33.000  
R02  19828964.793   105811153.507       -2975.116          34.000  
> 2021  9 12 13  1 19.9993121  0  9
C06  36205817.034   188533203.113           5.406          25.000  
C07  36417540.361   189635702.244          72.952          21.000  
C16  36777187.283   191508646.2981         46.756          23.000  
E01  23936852.062   125789005.835       -1944.260          32.000  
G26  20197439.703   106138181.198         124.204          19.000  
G31  21382197.013   112364188.855       -1199.149          37.000  
G32  20965367.378   110173765.897       -1537.144          28.000  
J01  36351143.527   191026556.010          96.028          33.000  
R02  19829370.712   105813329.069       -2975.783          34.000  
> 2021  9 12 13  1 20.9993116  0  9
C06  36205663.541   188532417.058           5.936          22.000  
C07  36417375.476   189634848.525          72.966          23.000  
C16  36777027.793   191507819.357          45.709          23.000  
E01  23937073.609   125790170.125       -1945.098          32.000  
G31  21382277.357   112364601.200       -1199.919          38.000  
G32  20965508.880   110174516.092       -1538.901          30.000  
J01  36350974.444   191025672.538          95.878          30.000  
J03  37272823.361   195870007.8391       -474.537          24.000  
R02  19829776.631   105815505.169       -2976.457          35.000  
> 2021  9 12 13  1 21.9993114  0 10
C06  36205604.182   188532098.903           5.505          23.000  
C07  36417299.928   189634462.946          74.246          23.000  
C10  37138350.255   193388962.1311        121.058          21.000  
C16  36776956.743   191507462.803          42.304          23.000  
E01  23937383.894   125791801.041       -1944.662          31.000  
G26  20197182.781   106136830.5521        122.841          18.000  
G31  21382446.141   112365486.376       -1200.299          37.000  
G32  20965740.620   110175740.445       -1540.083          27.000  
J01  36350896.498   191025262.035          94.853          30.000  
R02  19830273.987   105818161.841       -2977.029          35.000  
> 2021  9 12 13  1 22.9993108  0  9
C06  36205423.707   188531157.278           3.456          24.000  
C10  37138144.298   193387903.185         122.489          22.000  
C16  36776768.173   191506482.532          44.103          22.000  
E01  23937575.162   125792805.789       -1947.376          30.000  
G31  21382491.709   112365741.690       -1200.403          37.000  
G32  20965851.843   110176335.611       -1540.594          27.000  
J01  36350698.335   191024221.911          94.879          31.000  
J03  37272767.000   195869697.6951       -474.398          21.000  
R02  19830650.227   105820179.329       -2978.195          34.000  
> 2021  9 12 13  1 23.9993108  0  8
C06  36205424.906   188531153.877           3.585          26.000  
C10  37138119.415   193387780.320         121.559          23.000  
C16  36776759.479   191506437.683          44.855          25.000  
E01  23937945.405   125794751.789       -1946.811          32.000  
G31  21382721.950   112366942.370       -1201.223          35.000  
G32  20966142.641   110177875.818       -1540.154          25.000  
J03  37272858.137   195870172.641        -474.417          21.000  
R02  19831209.639   105823158.121       -2979.230          32.000  
> 2021  9 12 13  1 24.9993103  0  8
C06  36205275.609   188530369.804           3.440          26.000  
C07  36416927.586   189632509.8091         79.052          17.000  
C10  37137944.336   193386878.240         121.129          22.000  
C16  36776596.992   191505611.796          44.577          23.000  
E01  23938163.954   125795900.079       -1946.007          31.000  
G31  21382796.598   112367355.686       -1200.110          35.000  
J01  36350513.363   191023243.5271         96.883          33.000  
R02  19831618.556   105825338.237       -2980.639          34.000  
> 2021  9 12 13  1 25.9993101  0  9
C06  36205214.751   188530054.182           2.764          26.000  
C10  37137859.195   193386444.623         121.064          23.000  
C16  36776528.039   191505254.545          45.461          23.000  
E01  23938476.937   125797544.995       -1946.221          32.000  
G26  20196697.717   106134296.9861        118.954          16.000  
G31  21382967.180   112368241.607       -1200.171          36.000  
G32  20966518.881   110179856.0821      -1544.080          23.000  
J01  36350436.017                          93.771          33.000  
R02  19832118.310   105827999.350       -2981.515          34.000  
> 2021  9 12 13  1 26.9993096  0  8
C06  36205065.755   188529270.035           3.840          25.000  
C10  37137685.315   193385543.113         121.230          24.000  
C16  36776369.749   191504428.112          45.489          24.000  
E01  23938697.285   125798703.285       -1948.444          32.000  
G31  21383045.126   112368654.929       -1200.741          36.000  
G32  20966661.882   110180611.809       -1541.802          25.000  
J01  36350269.032   191021947.1041         93.931          33.000  
R02  19832529.625   105830181.378       -2982.442          35.000  
> 2021  9 12 13  1 27.9993093  0  8
C06  36204974.618   188528797.879           3.490          25.000  
C07  36416581.026   189630720.2501         73.433          18.000  
C10  37137572.593   193384954.298         120.556          25.000  
C16  36776271.417   191503914.566          44.569          24.000  
E01  23938975.492   125800164.659       -1947.464          32.000  
G31  21383180.932   112369383.664       -1199.921          36.000  
J01  36350158.409   191021379.592          94.497          33.000  
R02  19832999.700   105832683.835       -2982.702          36.000  
> 2021  9 12 13  1 28.9993088  0 10
C06  36204825.321   188528012.513           4.807          25.000  
C07  36416416.739   189629867.320          69.773          18.000  
C10  37137400.513   193384052.740         120.502          25.000  
C16  36776115.225   191503089.397          44.926          25.000  
E01  23939195.240   125801319.949       -1948.949          32.000  
G26  20196245.630   106131899.4101        117.930          16.000  
G31  21383261.876   112369797.699       -1202.482          37.000  
G32  20967006.943   110182435.6361      -1543.067          24.000  
J01  36349990.825   191020497.647          94.375          33.000  
R02  19833409.217   105834866.940       -2983.390          37.000  
> 2021  9 12 13  1 29.9993085  0  8
C06  36204735.683   188527539.222           4.615          26.000  
C07  36416312.711   189629328.592          70.571          18.000  
C10  37137286.891   193383464.234         119.737          24.000  
E01  23939477.045   125802800.323       -1949.078          31.000  
G31  21383402.778   112370527.056       -1202.245          35.000  
G32  20967209.903   110183506.195       -1544.278          23.000  
J01  36349889.195   191019930.860          93.157          34.000  
R02  19833878.392   105837370.816       -2984.478          36.000  
> 2021  9 12 13  1 30.9993080  0  9
C06  36204585.787   188526754.841           1.632          25.000  
C10  37137112.112   193382563.314         120.415          24.000  
C16  36775855.005   191501748.9761         46.730          24.000  
E01  23939695.893   125803950.613       -1951.905          28.000  
G26  20195962.626   106130400.0611        117.680          15.000  
G31  21383480.425   112370941.882       -1202.369          35.000  
G32  20967354.403   110184263.659       -1546.249          21.000  
J01  36349723.410   191019049.667          93.503          33.000  
R02  19834294.803   105839555.808       -2985.588          36.000  
> 2021  9 12 13  1 31.9993078  0  7
C06  36204524.329   188526440.598           1.647          27.000  
C10  37137027.271   193382129.565         122.264          24.000  
C16  36775786.653   191501389.946          47.032          25.000  
E01  23940006.778   125805584.529       -1949.188          29.000  
G31  21383646.809   112371829.319       -1201.169          35.000  
G32  20967591.838   110185494.760       -1546.761          23.000  
J01  36349641.267   191018641.151          93.285          34.000  
> 2021  9 12 13  1 32.9993075  0  9
C06  36204434.991   188525969.854           2.623          27.000  
C10  37136913.350   193381539.772         120.375          25.000  
C16  36775689.220   191500874.834          44.534          25.000  
E01  23940288.883   125807066.903       -1949.988          29.000  
G31  21383788.611   112372559.512       -1202.493          35.000  
G32  20967797.496   110186569.582       -1548.019          27.000  
J01  36349533.941   191018075.297          93.893          33.000  
J03  37272683.658   195869246.2711       -477.125          24.000  
R02  19835275.125   105844728.5721      -2987.356          35.000  
> 2021  9 12 13  1 33.9993070  0  8
C06  36204285.095   188525186.512           2.861          26.000  
C10  37136740.969   193380639.449         120.001          24.000  
E01  23940513.427   125808247.193       -1949.111          32.000  
G31  21383864.459   112372974.498       -1202.554          35.000  
G32  20967943.495   110187330.261       -1548.069          27.000  
J01  36349369.655   191017194.378          91.994          33.000  
J03  37272623.700   195868935.228        -475.979          23.000  
R02  19835687.339   105846916.263       -2987.931          35.000  
> 2021  9 12 13  1 34.9993068  0 10
C06  36204224.537   188524871.083           3.508          24.000  
C10  37136656.428   193380207.485         119.276          24.000  
C16  36775462.277   191499693.4281         45.756          25.000  
E01  23940824.912   125809883.109       -1951.499          31.000  
G26  20195518.933   106128043.7141        113.711          15.000  
G31  21384037.439   112373862.581       -1204.914          36.000  
G32  20968181.530   110188563.423       -1547.735          27.000  
J01  36349292.908   191016786.600          92.244          32.000  
J03  37272653.079   195869094.874        -474.242          23.000  
R02  19836190.991   105849584.592       -2988.729          36.000  
> 2021  9 12 13  1 35.9993062  0  9
C06  36204042.863   188523931.469           2.217          24.000  
C10  37136454.667   193379152.611         116.870          24.000  
C16  36775275.806   191498712.079          44.196          24.000  
E01  23941015.580   125810885.857       -1951.574          30.000  
G31  21384084.806   112374120.915       -1203.291          34.000  
G32  20968296.350   110189166.865       -1550.431          26.000  
J01  36349092.947   191015749.140          92.333          32.000  
J03  37272564.341   195868624.203        -476.228          22.000  
R02  19836572.027   105851613.938       -2989.783          34.000  
> 2021  9 12 13  1 36.9993060  0  9
C06  36203981.705   188523616.695           2.407          27.000  
C10  37136372.824   193378724.113         115.855          24.000  
C16  36775206.554   191498355.628          44.553          25.000  
E01  23941328.263   125812528.773       -1952.515          30.000  
G31  21384256.287   112375009.677       -1204.429          35.000  
G32  20968531.388   110190402.237       -1550.451          28.000  
J01  36349017.399   191015342.111          91.604          34.000  
J03  37272592.521   195868785.811        -477.531          22.000  
R02  19837072.381   105854284.356       -2990.855          33.000  
> 2021  9 12 13  1 37.9993055  0 10
C06  36203830.909   188522833.757           2.036          27.000  
C07  36415293.717   189624072.9561         72.646          17.000  
C10  37136201.942   193377827.305         116.227          23.000  
C16  36775049.163   191497530.074          45.100          24.000  
E01  23941549.210   125813690.063       -1951.697          29.000  
G26  20195067.446   106125667.1961        107.592          15.000  
G31  21384333.934   112375425.956       -1203.092          35.000  
G32  20968676.787   110191165.459       -1550.439          28.000  
J01  36348850.414   191014462.669          90.539          34.000  
J03  37272530.164   195868474.955        -476.828          21.000  
> 2021  9 12 13  1 38.9993052  0  8
C06  36203741.571   188522362.996           2.484          27.000  
C10  37136088.921   193377242.463         116.292          23.000  
E01  23941828.617   125815158.437       -1952.723          30.000  
G31  21384472.738   112376157.469       -1203.869          33.000  
G32  20968883.644   110192243.774       -1551.367          29.000  
J01  36348741.890   191013898.423          91.660          35.000  
J03  37272532.263   195868479.799        -477.170          20.000  
R02  19837953.471   105858988.1411      -2992.776          30.000  
> 2021  9 12 13  1 39.9993047  0  7
C06  36203590.176   188521579.736           3.019          27.000  
C10  37135918.638   193376346.169         116.281          24.000  
C16  36774791.342   191496192.4901         44.507          23.000  
E01  23942057.359   125816359.727       -1953.230          29.000  
G31  21384553.382   112376574.183       -1204.258          34.000  
J01  36348576.104   191013019.528          91.193          35.000  
R02  19838362.687   105861181.411       -2993.671          31.000  
> 2021  9 12 13  1 40.9993044  0  7
C06  36203499.339   188521108.732           1.519          26.000  
C10  37135805.317   193375762.661         114.787          22.000  
C16  36774693.609   191495679.129          44.990          22.000  
E01  23942338.864   125817839.101       -1951.029          26.000  
G31  21384691.586   112377306.274       -1204.604          36.000  
J01  36348478.372   191012455.913          92.293          33.000  
R02  19838831.862   105863695.651       -2994.768          32.000  
> 2021  9 12 13  1 41.9993039  0  7
C06  36203348.244   188520326.632           1.434          25.000  
C10  37135634.135   193374867.267         115.778          21.000  
C16  36774535.019   191494853.525          42.913          23.000  
E01  23942558.911   125818995.391       -1952.485          30.000  
G31  21384773.429   112377723.084       -1203.837          36.000  
J01  36348308.390   191011577.116          90.876          32.000  
R02  19839238.681   105865890.647       -2995.054          31.000  
> 2021  9 12 13  1 42.9993037  0  8
C06  36203286.786   188520012.718           1.159          24.000  
C10  37135551.093   193374438.905         116.528          22.000  
E01  23942868.897   125820624.307       -1954.330          29.000  
G26  20194421.393   106122294.1391        106.867          18.000    20194399.508    79247160.5721         79.304          24.000  
G31  21384943.412   112378612.904       -1205.610          35.000  
G32  20969624.431   110196090.8591      -1554.188          26.000  
J01  36348227.146   191011171.458          90.575          31.000  
R02  19839735.437   105868566.036       -2995.725          32.000  
> 2021  9 12 13  1 43.9993034  0  8
C06  36203195.949   188519542.427           1.654          27.000  
C10  37135438.971   193373855.482         114.076          23.000  
C16  36774368.934   191493984.6281         44.646          26.000  
E01  23943148.303   125822092.681       -1954.228          28.000  
G26  20194309.870   106121716.701         104.685          17.000    20194289.185    79246729.205          77.884          25.000  
G31  21385081.316   112379346.466       -1204.710          26.000  
J01  36348112.925   191010608.012          88.965          33.000  
J03  37272434.231   195868015.7541       -473.287          17.000  
> 2021  9 12 13  1 44.9993029  0  9
C06  36203044.854   188518759.851           1.800          28.000  
C10  37135265.691   193372959.616         116.497          24.000  
C16  36774212.143   191493159.646          44.480          27.000  
E01  23943369.250   125823253.971       -1954.506          30.000  
G26  20194139.288   106120823.331         105.746          19.000    20194118.303    79246063.279          77.840          24.000  
G31  21385160.162   112379763.304       -1204.653          31.000  
G32  20969979.685   110197935.4321      -1554.081          12.000  
J01  36347945.341   191009729.658          89.475          35.000  
R02  19840604.835   105873278.8011      -2996.823          25.000  
> 2021  9 12 13  1 45.9993027  0  7
C06  36202983.396   188518446.137           1.226          27.000  
C10  37135182.348   193372531.274         115.695          24.000  
E01  23943681.035   125824892.887       -1955.740          31.000  
G26  20194058.344   106120402.583         105.514          20.000    20194038.258    79245749.844          78.463          24.000  
G31  21385328.945   112380653.252       -1205.608          35.000  
J01  36347870.693   191009325.112          90.558          35.000  
R02  19841100.992   105875956.418       -2998.753          28.000  
> 2021  9 12 13  1 46.9993021  0  9
C06  36202802.621   188517508.227           0.561          25.000  
C10  37134976.091   193371478.868         115.536          21.000  
C16  36773952.223   191491819.0571         46.047          23.000  
E01  23943874.101   125825907.635       -1955.382          33.000  
G26  20193858.383   106119352.271         104.586          24.000    20193838.297    79244965.717          78.921          24.000  
G31  21385377.511   112380913.392       -1205.229          36.000  
G32  20970333.740   110199784.5331      -1555.536          28.000  
J01  36347676.127   191008290.368          91.862          34.000  
R02  19841479.929   105877995.742       -2999.973          31.000  
> 2021  9 12 13  1 47.9993019  0  7
C16  36773885.369   191491462.490          43.587          24.000  
E01  23944187.084   125827551.551       -1956.293          34.000  
G26                                                                  20193758.552    79244652.044          78.063          23.000  
G31  21385546.594                       -1206.622          36.000  
G32  20970568.777   110201026.037       -1556.974          30.000  
J01  36347596.982   191007884.830          91.593          27.000  
R02  19841982.082   105880676.023       -3000.742          32.000  
> 2021  9 12 13  1 48.9993014  0  7
C06  36202591.268   188516412.3601          1.924          21.000  
C16  36773727.978   191490638.858          42.528          25.000  
E01  23944411.329   125828729.841       -1956.580          35.000  
G26  20193603.559   106118041.4791        103.032          28.000  
G31  21385627.838   112382224.6121      -1206.560          36.000  
J01  36347429.398   191007005.874          90.343          27.000  
R02  19842390.999   105882877.202       -3001.574          34.000  
> 2021  9 12 13  1 49.9993009  0  8
C06  36202441.971   188515630.537           0.728          18.000  
C10  37134547.088   193369257.7931        114.376          20.000  
C16  36773566.690   191489815.129          43.843          25.000  
E01  23944634.674   125829904.131       -1957.860          34.000  
G16  22198869.143   116655696.7991       2465.155          26.000  
G31  21385710.581   112382642.443       -1206.130          35.000  
J01  36347261.215   191006127.751          90.847          31.000  
R02  19842801.115   105885078.959       -3001.707          36.000  
> 2021  9 12 13  1 50.9993006  0  7
C06  36202351.134   188515161.787          -0.257          28.000  
C16  36773472.255   191489302.776          43.518          30.000  
E01  23944917.978   125831392.505       -1957.019          32.000  
G16  22198311.229   116652758.540        2466.153          26.000  
G31  21385850.584   112383375.976       -1206.016          28.000  
G32  20971059.238   110203651.9421      -1558.242          28.000  
J01  36347152.390   191005564.807          89.242          29.000  
> 2021  9 12 13  1 51.9993004  0  8
C06  36202290.576   188514849.967          -0.065          28.000  
C10  37134346.227   193368246.2741        117.289          20.000  
C16  36773407.500   191488946.225          44.295          30.000  
E01  23945230.962   125833037.421       -1958.315          31.000  
G16  22197784.494   116649977.389        2466.765          24.000  
G32  20971293.675   110204895.085       -1558.234          29.000  
J01  36347073.844   191005160.521          87.963          29.000  
R02  19843779.637   105890283.7261      -3003.249          33.000  
> 2021  9 12 13  1 52.9993001  0  3
C06  36202200.938   188514381.155           0.650          27.000  
C16  36773310.967   191488433.589          43.979          29.000  
E01  23945513.666   125834522.795       -1956.846          29.000  
> 2021  9 12 13  1 53.9992996  0  6
C06  36202050.442   188513599.567           1.314          28.000  
C16  36773155.074   191487609.278          43.801          29.000  
E01  23945734.313   125835683.085       -1958.267          29.000  
G31  21386234.318   112385416.4981      -1203.377          25.000  
G32  20971647.131   110206751.3681      -1558.969          32.000  
R02  19844677.216   105895012.5071      -3005.508          26.000  
> 2021  9 12 13  1 54.9992993  0  7
C06  36201962.003   188513130.473          -1.946          27.000  
C16  36773056.743   191487097.431          43.012          26.000  
E01  23946017.317   125837169.459       -1961.129          34.000  
G16  22196042.400   116640844.5541       2462.215          22.000  
G31  21386371.623   112386148.362       -1205.765          32.000  
G32  20971854.587   110207839.151       -1560.914          28.000  
R02  19845154.186   105897538.343       -3006.837          30.000  
> 2021  9 12 13  1 55.9992988  0  6
C06  36201813.306   188512351.649          -2.627          22.000  
E01  23946240.663   125838343.749       -1958.776          33.000  
G16  22195427.225   116637595.232        2460.767          23.000  
G31  21386450.468   112386567.219       -1207.367          34.000  
G32  20971999.987   110208611.406       -1559.928          25.000  
R02  19845569.398   105899745.888       -3007.953          36.000  
> 2021  9 12 13  1 56.9992986  0  6
C06  36201753.947   188512040.993          -1.492          23.000  
E01  23946552.447   125839981.665       -1958.917          33.000  
G16  22194896.893   116634819.877        2458.776          23.000  
G31  21386624.348   112387459.972       -1207.925          35.000  
G32  20972236.523   110209856.496       -1561.508          24.000  
R02  19846076.647   105902434.236       -3008.795          35.000  
> 2021  9 12 13  1 57.9992980  0  7
C16  36772637.633   191484940.7861         39.604          20.000  
E01  23946747.012   125841004.413       -1961.371          33.000  
G16  22194249.940   116631415.917        2458.751          24.000  
G31  21386675.912                       -1209.263          35.000  
G32  20972353.442   110210473.608       -1563.473          25.000  
J01  36346259.608   191000861.4931         86.601          34.000  
R02  19846465.778   105904483.429       -3009.484          36.000  
> 2021  9 12 13  1 58.9992975  0  6
C06  36201426.574   188510326.0261         -0.072          23.000  
E01  23946970.957   125842181.703       -1958.294          32.000  
G16  22193629.670   116628169.239        2459.358          23.000  
G31  21386755.657   112388160.9591      -1208.397          34.000  
J01  36346094.422                          85.976          35.000  
R02  19846882.489   105906693.324       -3010.174          34.000  
> 2021  9 12 13  1 59.9992973  0  6
C16  36772409.790   191483767.4861         42.122          22.000  
E01  23947283.341   125843822.619       -1958.224          34.000  
G31  21386926.839   112389053.813       -1207.299          35.000  
G32  20972741.673   110212500.2851      -1566.456          24.000  
J01  36346014.678   190999613.1081         88.211          34.000  
R02  19847389.438   105909383.674       -3010.499          35.000  
> 2021  9 12 13  2  0.9992970  0  8
C06  36201273.080   188509545.6961          0.430          20.000  
C10  37133144.059   193361928.3901        110.288          19.000  
C16  36772312.358   191483255.802          43.371          22.000  
E01  23947567.244   125845314.993       -1960.879          36.000  
G16  22192545.321   116622459.9561       2461.631          25.000  
G31  21387066.542   112389789.430       -1208.095          38.000  
G32  20972949.729   110213594.004       -1565.878          27.000  
R02  19847866.108   105911914.339       -3010.833          37.000  
> 2021  9 12 13  2  1.9992968  0  9
C06  36201213.421   188509232.682           0.299          22.000  
C10  37133063.715   193361505.695         109.118          19.000  
C16  36772243.406   191482899.771          43.608          24.000  
E01  23947881.427   125846965.909       -1961.905          36.000  
G16  22192012.889   116619683.516        2460.754          25.000  
G26  20191964.294   106109505.0971         95.759          28.000  
G31  21387236.824   112390683.051       -1209.231          38.000  
G32  20973187.165   110214844.413       -1565.317          28.000  
R02  19848368.560   105914605.689       -3011.624          37.000  
> 2021  9 12 13  2  2.9992963  0  9
C06  36201059.928   188508449.970           3.981          19.000  
C10  37132892.833   193360614.786         111.602          19.000  
E01  23948103.273   125848131.199       -1961.706          35.000  
G16  22191396.516   116616434.310        2460.950          21.000  
G26  20191797.609   106108622.710          94.207          27.000  
G31  21387315.969   112391103.533       -1207.449          37.000  
G32  20973337.660   110215622.890       -1565.223          29.000  
J01  36345665.419   190997778.6101         86.565          30.000  
R02  19848770.582   105916818.318       -3012.070          36.000  
> 2021  9 12 13  2  3.9992960  0  8
C06  36200970.590   188507977.982           2.166          21.000  
C16  36771990.980   191481563.3361         43.123          24.000  
E01  23948388.076   125849628.573       -1963.236          33.000  
G16  22190837.403   116613499.552        2462.167          20.000  
G26  20191689.984   106108056.008          93.765          23.000  
G31  21387456.572   112391837.830       -1209.766          31.000  
J01  36345558.693   190997219.452          85.837          32.000  
R02  19849243.055   105919350.223       -3011.565          34.000  
> 2021  9 12 13  2  4.9992955  0  8
C06  36200820.094   188507195.787           0.817          29.000  
C16  36771830.591   191480738.765          43.905          23.000  
E01  23948610.222   125850795.863       -1963.099          35.000  
G16  22190221.030   116610250.265        2460.443          21.000  
G26  20191519.702   106107174.677          93.426          21.000  
G31  21387535.118   112392260.058       -1209.967          25.000  
G32  20973685.720   110217492.1621      -1564.719          30.000  
J01  36345393.807   190996345.761          84.694          37.000  
> 2021  9 12 13  2  5.9992950  0  8
C06  36200671.696   188506414.778          -0.688          30.000  
C16  36771670.502   191479915.474          41.663          24.000  
E01  23948834.467   125851974.153       -1962.614          34.000  
G26  20191353.917   106106294.341          91.923          23.000  
G31  21387613.963   112392682.211       -1209.917          30.000  
G32  20973832.918   110218269.578       -1565.927          32.000  
J01  36345226.523   190995472.816          85.340          37.000  
R02  19850091.168   105923776.2651      -3014.313          25.000  
> 2021  9 12 13  2  6.9992947  0  9
C06  36200582.958   188505947.336          -1.588          27.000  
C16  36771574.569   191479406.021          40.559          24.000  
E01  23949118.370   125853465.527       -1962.928          34.000  
G16  22189039.847   116604074.2471       2455.962          11.000  
G26  20191248.689   106105730.152          91.096          24.000  
G31  21387752.467   112393419.637       -1210.174          31.000  
G32  20974041.873   110219363.660       -1567.958          30.000  
J01  36345119.797   190994915.261          85.913          35.000  
R02  19850568.138   105926311.626       -3016.587          23.000  
> 2021  9 12 13  2  7.9992942  0  9
C06  36200433.661   188505168.111          -0.948          31.000  
C16  36771417.777   191478585.180          39.496          25.000  
E01  23949342.016   125854640.817       -1962.919          34.000  
G16  22188422.874   116600831.368        2452.531          12.000  
G26  20191080.206   106104851.963          89.771          25.000  
G31  21387830.713   112393841.937       -1210.178          25.000  
G32  20974189.671   110220143.883       -1568.088          29.000  
J01  36344956.410   190994042.610          85.589          36.000  
R02  19850987.847   105928528.442       -3017.094          27.000  
> 2021  9 12 13  2  8.9992940  0  7
C06  36200374.003   188504856.729          -0.957          31.000  
C16  36771350.024   191478232.496          41.673          23.000  
E01  23949653.800   125856279.733       -1963.590          34.000  
G16  22187900.036   116598062.196        2456.668          11.000  
G26  20191000.761   106104445.594          91.768          26.000  
G32  20974427.406   110221396.972       -1569.003          29.000  
J01  36344884.460   190993643.293          83.960          36.000  
> 2021  9 12 13  2  9.9992934  0  7
C07  36411276.798   189603155.0471         60.391          21.000  
E01  23949848.365   125857302.481       -1963.808          35.000  
G26  20190804.997   106103409.796          89.623          26.000  
G31  21388050.761   112394996.6661      -1208.188          29.000  
G32  20974545.824   110222020.793       -1569.027          29.000  
J01  36344686.597   190992613.621          83.320          35.000  
R02  19851888.124   105933283.4681      -3017.774          21.000  
> 2021  9 12 13  2 10.9992934  0  8
C07  36411267.204   189603095.606          57.979          21.000  
E01  23950222.806   125859269.481       -1964.291          35.000  
G16  22186786.307   116592204.2781       2456.299          12.000  
G26  20190787.908   106103321.403          87.744          29.000  
G31  21388281.001   112396206.026       -1209.953          29.000  
G32  20974843.218   110223590.550       -1570.083          30.000  
J01  36344671.308   190992529.516          83.589          36.000  
R02  19852465.824   105936302.351       -3019.931          23.000  
> 2021  9 12 13  2 11.9992929  0  7
C07  36411107.115   189602256.530          58.520          22.000  
E01  23950445.252   125860438.771       -1965.699          35.000  
G16  22186171.733   116588960.650        2453.629          11.000  
G26  20190621.524   106102446.391          86.559          29.000  
G31  21388361.945   112396628.563       -1210.845          26.000  
G32  20974991.316   110224373.323       -1570.424          30.000  
J01  36344505.223   190991658.138          82.716          36.000  
> 2021  9 12 13  2 12.9992927  0  7
C07  36411037.263   189601885.526          59.198          22.000  
E01  23950758.835   125862086.687       -1965.322          35.000  
G26  20190542.678   106102044.944          85.984          29.000  
G31  21388532.227   112397524.259       -1211.132          28.000  
G32  20975229.051   110225628.719       -1570.960          31.000  
J01  36344427.277   190991259.512          84.071          36.000  
R02  19853390.684   105941496.1141      -3021.773          21.000  
> 2021  9 12 13  2 13.9992922  0  7
C07  36410873.277   189601044.895          60.673          22.000  
E01  23950983.379   125863266.977       -1965.855          35.000  
G26  20190377.493   106101171.389          85.498          29.000  
G31  21388611.972   112397947.880       -1211.727          28.000  
G32  20975378.048   110226412.481       -1571.583          31.000  
J01  36344259.393   190990388.254          83.342          36.000  
R02  19853813.091   105943718.124       -3022.046          22.000  
> 2021  9 12 13  2 14.9992919  0  6
C07  36410771.647   189600514.163          62.896          22.000  
E01  23951267.582   125864760.351       -1967.169          35.000  
G26  20190271.966   106100613.432          85.024          29.000  
G31  21388753.174   112398686.854       -1211.168          27.000  
J01  36344152.966   190989832.242          83.079          36.000  
R02  19854290.361   105946260.558       -3022.797          23.000  
> 2021  9 12 13  2 15.9992914  0  9
C06  36199597.840   188500806.4201         -1.884          30.000  
C07  36410607.961   189599672.680          60.010          22.000  
C16  36770518.400   191473883.2941         41.381          24.000  
E01  23951493.026   125865944.641       -1966.313          35.000  
G26  20190105.581   106099740.711          84.702          29.000  
G31  21388833.818   112399110.338       -1211.294          30.000  
G32  20975741.097   110228296.9631      -1572.155          33.000  
J01  36343987.781   190988961.512          83.269          36.000  
R02  19854707.672   105948483.922       -3023.673          24.000  
> 2021  9 12 13  2 16.9992909  0  9
C06  36199447.644   188500026.101           0.105          29.000  
C07  36410446.672   189598832.396          58.544          22.000  
C16  36770360.709   191473061.419          40.633          24.000  
E01  23951719.070   125867132.931       -1965.975          35.000  
G26  20189939.496   106098868.558          84.104          30.000  
G31  21388913.863   112399533.639       -1211.055          30.000  
G32  20975887.995                       -1574.664          32.000  
J01  36343821.996   190988090.912          83.566          35.000  
R02  19855124.084   105950707.843       -3024.126          28.000  
> 2021  9 12 13  2 17.9992906  0  7
C06  36199357.107   188499558.331          -0.992          29.000  
C16  36770263.276   191472552.236          40.583          25.000  
E01  23952004.173   125868631.305       -1966.861          35.000  
G26  20189833.969   106098312.179          83.452          28.000  
G31  21389055.065   112400272.229       -1211.503          29.000  
G32  20976099.049   110230136.4861      -1575.278          31.000  
J01  36343716.169   190987535.725          82.442          35.000  
> 2021  9 12 13  2 18.9992901  0  8
C06  36199207.510   188498778.468          -1.179          29.000  
C07  36410188.251   189597466.7151         57.194          22.000  
C16  36770105.885   191471731.005          40.493          26.000  
E01  23952228.417   125869809.595       -1968.138          35.000  
G26  20189669.383   106097441.874          82.426          29.000    20189673.880    79228600.6451         62.311          27.000  
G31  21389138.408   112400699.374       -1213.735          30.000  
G32  20976247.446   110230923.382       -1574.998          32.000  
J01  36343548.885   190986665.983          80.854          35.000  
> 2021  9 12 13  2 19.9992901  0  8
C06  36199208.409   188498780.072          -1.969          30.000  
C07  36410177.758   189597408.368          57.962          22.000  
C16  36770099.590   191471690.183          40.230          27.000  
E01  23952601.659   125871770.595       -1968.097          35.000  
G26  20189655.292   106097359.844          81.769          28.000    20189657.691    79228538.503          62.085          25.000  
G31  21389370.147   112401913.041       -1214.026          30.000  
J01  36343539.291   190986584.015          81.476          36.000  
R02  19856579.276   105958505.1651      -3027.315          24.000  
> 2021  9 12 13  2 20.9992896  0  9
C06  36199059.413   188498001.436          -2.450          30.000  
C07  36410017.369   189596570.991          55.773          22.000  
C16  36769942.498   191470869.509          39.061          26.000  
E01  23952827.702   125872958.885       -1969.019          33.000  
G26  20189491.306   106096490.347          80.688          27.000    20189492.205    79227888.386          60.600          28.000  
G31  21389453.489   112402338.734       -1212.459          27.000  
G32  20976713.024   110233286.5891      -1577.808          32.000  
J01  36343372.307   190985714.839          80.154          36.000  
R02  19857001.984   105960733.529       -3028.445          25.000  
> 2021  9 12 13  2 21.9992893  0  7
C06  36198971.573   188497535.606          -2.952          29.000  
C07  36409917.239   189596046.086          56.462          24.000  
E01  23953110.107   125874442.259       -1967.455          34.000  
G26  20189387.578   106095937.679          79.245          26.000    20189387.578    79227474.439          60.996          27.000  
G31  21389596.490   112403078.228       -1212.149          30.000  
J01  36343266.480   190985161.044          81.722          36.000  
R02  19857474.157   105963282.364       -3029.487          25.000  
> 2021  9 12 13  2 22.9992888  0  6
C06  36198821.677   188496758.111          -3.277          28.000  
C07  36409757.749   189595209.507          55.758          23.000  
C16  36769687.075   191469542.5621         39.247          24.000  
E01  23953335.251   125875625.549       -1968.645          33.000  
G26  20189223.891   106095070.159          80.131          28.000    20189222.992    79226826.685          59.505          28.000  
J01  36343101.295   190984292.027          81.382          36.000  
> 2021  9 12 13  2 23.9992883  0  6
C06  36198672.381   188495980.561          -2.838          31.000  
E01  23953561.295   125876813.839       -1970.329          31.000  
G26  20189060.804   106094202.691          79.461          25.000    20189058.406    79226179.542          58.033          28.000  
G31  21389754.781   112403926.3441      -1210.641          23.000  
J01  36342935.209   190983423.500          80.549          37.000  
R02  19858297.087   105967742.3941      -3030.706          23.000  
> 2021  9 12 13  2 24.9992881  0  8
C06  36198612.722   188495670.994          -3.129          31.000  
C07  36409531.406   189594003.2901         56.323          21.000  
C16  36769461.631   191468369.2301         39.168          22.000  
E01  23953874.578   125878459.755       -1969.863          31.000  
G26  20188984.657   106093808.618          77.973          25.000    20188984.357    79225886.180          57.708          28.000  
G32  20977454.710   110237232.3871      -1578.212          28.000  
J01  36342860.561   190983028.104          79.371          37.000  
R02  19858795.642   105970453.691       -3031.194          29.000  
> 2021  9 12 13  2 25.9992876  0  8
C06  36198463.425   188494893.295          -3.639          30.000  
C07  36409371.317   189593165.742          57.268          23.000  
C16  36769305.440   191467550.924          37.061          23.000  
E01  23954097.623   125879632.045       -1969.378          32.000  
G26  20188820.670   106092943.391          77.323          27.000    20188819.471    79225240.546          56.876          27.000  
G31  21390004.508   112405246.6731      -1212.784          27.000  
G32  20977604.607   110238022.967       -1578.536          31.000  
J01  36342696.275   190982160.208          79.450          36.000  
> 2021  9 12 13  2 26.9992873  0  8
C06  36198373.487   188494428.958          -4.157          30.000  
C07  36409269.987   189592640.686          57.995          23.000  
C16  36769207.407   191467044.650          38.065          24.000  
E01  23954384.824   125881141.419       -1971.133          33.000  
G26  20188713.944   106092394.609          75.513          28.000    20188713.944    79224830.384          57.637          27.000  
G31  21390145.410   112405987.772       -1214.357          27.000  
G32  20977814.161   110239129.680       -1580.161          30.000  
J01  36342589.849   190981607.655          79.185          36.000  
> 2021  9 12 13  2 27.9992868  0  8
C06  36198224.790   188493651.900          -2.740          30.000  
C07  36409110.198   189591803.193          55.406          22.000  
C16  36769050.916   191466225.407          39.156          25.000  
E01  23954609.369   125882321.709       -1971.021          33.000  
G26  20188549.058   106091531.110          76.031          29.000    20188549.658    79224184.919          56.391          27.000  
G31  21390226.954   112406414.087       -1214.180          26.000  
G32  20977964.657   110239922.695       -1580.678          30.000  
J01  36342425.862   190980740.416          79.647          36.000  
> 2021  9 12 13  2 28.9992865  0  9
C06  36198135.452   188493186.390          -2.774          30.000  
C07  36409009.467   189591278.511          57.312          23.000  
C16  36768954.383   191465718.705          39.681          25.000  
E01  23954893.272   125883813.083       -1971.397          33.000  
G26  20188442.932   106090982.512          75.998          28.000    20188445.330    79223775.310          56.856          26.000  
G31  21390370.255   112407156.221       -1214.611          26.000  
G32  20978175.411   110241031.023       -1580.849          27.000  
J01  36342318.237   190980188.260          79.612          36.000  
R02  19860624.076   105980026.2031      -3035.010          21.000  
> 2021  9 12 13  2 29.9992863  0  9
C06  36198076.093   188492877.090          -3.381          30.000  
C07  36408939.915   189590909.336          56.524          23.000  
C16  36768886.330   191465366.974          38.978          25.000  
E01  23955209.554   125885474.999       -1972.043          34.000  
G26  20188366.784   106090591.986          75.157          29.000    20188370.682    79223483.487          56.066          26.000  
G31  21390542.036   112408055.292       -1213.831          29.000  
G32  20978414.946   110242297.229       -1581.621          30.000  
J01  36342244.188   190979793.939          77.429          36.000  
R02  19861147.214   105982741.943       -3036.460          21.000  
> 2021  9 12 13  2 30.9992858  0  9
C06  36197926.197   188492100.129          -3.830          30.000  
C07  36408778.627   189590072.705          56.640          22.000  
C16  36768729.238   191464548.351          37.423          24.000  
E01  23955434.098   125886655.289       -1971.395          33.000  
G26  20188203.398   106089729.868          73.868          28.000    20188207.295    79222840.425          53.862          26.000  
G31  21390623.879   112408480.558       -1212.791          28.000  
G32  20978564.242   110243091.629       -1582.809          26.000  
J01  36342076.904   190978927.150          79.297          35.000  
R02  19861570.821   105984978.594       -3037.014          18.000  
> 2021  9 12 13  2 31.9992855  0  7
C06  36197837.159   188491635.668          -3.971          30.000  
C07  36408677.597   189589547.289          56.750          22.000  
C16  36768632.405   191464043.487          35.583          26.000  
E01  23955716.802   125888140.663       -1973.734          33.000  
G26  20188097.871   106089183.682          73.143          28.000    20188103.867    79222432.435          54.099          26.000  
G31  21390762.683   112409221.491       -1214.216          23.000  
J01  36341972.876   190978375.711          77.938          34.000  
> 2021  9 12 13  2 32.9992850  0  8
C06  36197687.562   188490858.407          -3.303          31.000  
C07  36408516.608   189588709.963          55.636          20.000  
C16  36768478.312   191463226.721          36.386          26.000  
E01  23955946.144   125889345.953       -1973.159          33.000  
G26  20187933.884   106088323.183          72.349          29.000    20187940.180    79221790.259          54.027          26.000  
G31  21390844.526   112409649.285       -1215.795          26.000  
G32  20978930.589   110245000.8081      -1584.253          26.000  
J01  36341810.088   190977509.351          79.206          36.000  
> 2021  9 12 13  2 33.9992847  0  7
C06  36197598.824   188490393.218          -3.296          29.000  
C07  36408415.279   189588187.239          53.716          23.000  
E01  23956230.647   125890841.327       -1973.195          33.000  
G26  20187829.556   106087778.726          71.427          29.000    20187836.452    79221382.907          54.210          27.000  
G31  21390986.029   112410392.359       -1215.660          31.000  
G32  20979140.743   110246112.363       -1584.379          26.000  
J01  36341701.264   190976958.302          79.883          34.000  
> 2021  9 12 13  2 34.9992842  0  7
C06  36197449.527   188489615.801          -3.450          29.000  
C16  36768222.289   191461905.5291         36.438          24.000  
E01  23956453.093   125892010.617       -1973.938          33.000  
G26  20187666.469   106086919.741          71.219          27.000    20187672.765    79220741.379          52.133          26.000  
G31  21391067.272   112410819.864       -1215.062          30.000  
G32  20979289.740   110246909.329       -1584.166          23.000  
J01  36341539.975   190976091.975          77.930          33.000  
> 2021  9 12 13  2 35.9992840  0  9
C06  36197389.569   188489306.843          -3.775          29.000  
C07  36408182.340   189586987.6071         52.314          17.000  
C16  36768153.937   191461555.551          38.814          24.000  
E01  23956772.971   125893691.533       -1973.646          33.000  
G26  20187592.720   106086533.779          70.185          27.000    20187598.716    79220453.013          52.977          25.000  
G31  21391238.154   112411719.880       -1215.444          30.000  
G32  20979531.073   110248179.256       -1585.324          27.000  
J01  36341464.727   190975698.933          77.866          35.000  
R02  19863844.147   105997294.2151      -3040.696          24.000  
> 2021  9 12 13  2 36.9992835  0  8
C06  36197239.972   188488529.971          -3.557          28.000  
C07  36408021.351   189586155.702          51.338          20.000  
C16  36767998.344   191460735.391          39.188          24.000  
E01  23957000.514   125894886.823       -1974.150          34.000  
G26  20187429.633   106085676.147          69.372          27.000    20187435.929    79219812.528          53.542          25.000  
G32  20979681.569   110248976.821       -1586.204          28.000  
J01  36341295.345   190974833.527          77.779          33.000  
R02  19864260.559   105999535.557       -3041.962          26.000  
> 2021  9 12 13  2 37.9992832  0 10
C06  36197150.334   188488065.135          -4.033          29.000  
C07  36407921.221   189585635.372          52.361          21.000  
C16  36767901.212   191460227.814          37.276          25.000  
E01  23957284.417   125896379.197       -1973.732          33.000  
G16  22171157.527   116510218.4711       2437.851          22.000  
G26  20187328.004   106085134.371          68.657          27.000    20187333.100    79219407.211          54.108          26.000  
G31  21391461.499   112412890.7491      -1216.101          29.000  
G32  20979892.922   110250090.926       -1586.484          29.000  
J01  36341194.614   190974283.388          77.543          33.000  
R02  19864732.132   106002097.642       -3042.626          27.000  
> 2021  9 12 13  2 38.9992829  0  9
C06  36197061.296   188487601.385          -4.825          30.000  
C07  36407820.191   189585113.611          53.078          23.000  
C16  36767802.880   191459721.758          37.682          25.000  
E01  23957571.318   125897886.571       -1976.335          32.000  
G16  22170602.911   116507307.104        2441.163          23.000  
G26  20187225.175   106084593.476          67.846          26.000    20187229.372    79219001.209          52.359          25.000  
G31  21391604.500   112413634.051       -1215.931          28.000  
J01  36341087.888   190973733.568          77.248          33.000  
R02  19865205.504   106004660.459       -3043.264          23.000  
> 2021  9 12 13  2 39.9992824  0  9
C06  36196911.999   188486825.571          -4.452          29.000  
C07  36407660.401   189584279.755          52.392          22.000  
C16  36767646.088   191458902.266          39.714          24.000  
E01  23957800.060   125899088.861       -1974.918          32.000  
G16  22169989.236   116504078.135        2441.647          23.000  
G26  20187061.788   106083738.165          67.216          26.000    20187067.484    79218361.904          50.716          26.000  
G31  21391687.543   112414061.964       -1214.366          24.000  
J01  36340927.200   190972868.858          76.249          35.000  
R02  19865622.516   106006904.154       -3044.366          23.000  
> 2021  9 12 13  2 40.9992822  0  9
C06  36196853.540   188486517.307          -3.380          30.000  
C07  36407590.849   189583915.163          51.829          21.000  
C16  36767578.335   191458550.967          38.691          25.000  
E01  23958115.142   125900744.777       -1975.683          33.000  
G16  22169464.599   116501321.561        2439.935          23.000  
G26  20186989.538   106083356.357          66.016          25.000    20186994.335    79218077.516          49.187          25.000  
G31  21391856.626   112414962.307       -1215.889          26.000  
J01  36340850.153   190972476.959          77.095          36.000  
R02  19866130.364   106009629.177       -3045.713          21.000  
> 2021  9 12 13  2 41.9992817  0  9
C06  36196705.142   188485740.248          -3.972          28.000  
C07  36407430.460   189583082.385          53.341          22.000  
C16  36767421.544   191457730.902          39.353          26.000  
E01  23958340.286   125901927.067       -1976.006          31.000  
G16  22168853.022   116498095.047        2437.366          23.000  
G26  20186825.851   106082502.429          66.104          25.000    20186831.847    79217439.916          49.422          24.000  
G31  21391940.568   112415391.176       -1217.260          27.000  
J01  36340684.967   190971612.758          77.780          34.000  
R02  19866545.277   106011875.302       -3046.040          23.000  
> 2021  9 12 13  2 42.9992814  0  9
C06  36196616.404   188485275.398          -4.788          30.000  
C07  36407332.128   189582560.527          53.260          20.000  
C16  36767324.411   191457223.470          38.608          27.000  
E01  23958624.489   125903421.441       -1975.646          31.000  
G26  20186721.823   106081963.460          65.794          27.000    20186729.618    79217038.207          47.357          23.000  
G31  21392083.269   112416135.524       -1216.681          28.000  
G32  20980868.447   110255193.6641      -1588.754          27.000  
J01  36340581.839   190971063.497          77.549          36.000  
R02  19867026.144   106014441.857       -3046.846          25.000  
> 2021  9 12 13  2 43.9992809  0  9
C06  36196466.508   188484500.142          -6.471          28.000  
C16  36767165.821   191456405.172          37.441          25.000  
E01  23958849.334   125904602.731       -1976.744          33.000  
G16  22167677.236   116491962.3401       2435.403          25.000  
G26  20186562.633   106081110.270          64.422          29.000    20186567.130    79216401.071          48.884          18.000  
G31  21392166.012   112416564.639       -1217.346          32.000  
G32  20981024.639   110255995.093       -1589.814          31.000  
J01  36340418.452   190970202.001          72.676          36.000  
R02  19867443.755   106016689.171       -3047.539          31.000  
> 2021  9 12 13  2 44.9992804  0 10
C06  36196317.511   188483726.288          -6.871          24.000  
C07  36407013.749   189580897.7471         50.606          21.000  
C16  36767009.329   191455587.068          36.861          25.000  
E01  23959076.576   125905797.021       -1976.197          29.000  
G16  22167063.861   116488740.416        2433.624          23.000  
G26  20186401.345   106080258.672          62.936          29.000    20186406.442    79215765.124          49.984          17.000  
G31  21392247.855   112416994.013       -1217.034          32.000  
G32  20981179.931   110256797.562       -1591.157          25.000  
J01  36340251.767   190969340.982          73.751          29.000  
R02  19867860.466   106018937.705       -3048.944          31.000  
> 2021  9 12 13  2 45.9992801  0  6
C06  36196231.770   188483265.446          -7.567          23.000  
E01  23959361.679   125907295.395       -1977.376          31.000  
G26  20186299.716   106079723.536          62.401          23.000    20186304.812    79215363.205          49.706          16.000  
G31  21392386.059   112417739.030       -1218.750          35.000  
J01  36340149.538   190968792.641          76.455          26.000  
R02  19868345.231   106021507.001       -3049.510          26.000  
> 2021  9 12 13  2 46.9992796  0  8
C06  36196083.972   188482490.537          -5.012          23.000  
C16  36766760.202   191454264.2401         38.685          20.000  
E01  23959586.823   125908477.685       -1979.021          29.000  
G26                                                                  20186141.725    79214727.399          46.159          16.000  
G31  21392467.003   112418169.318       -1217.621          33.000  
G32  20981543.879   110258720.2161      -1591.911          30.000  
J01  36339986.751   190967929.127          75.565          24.000  
R02  19868765.840   106023757.004       -3050.741          29.000  
> 2021  9 12 13  2 47.9992796  0  8
C06  36196083.972   188482495.127          -3.713          27.000  
E01  23959962.463   125910451.685       -1980.768          27.000  
G16  22165441.384   116480194.1831       2425.378          17.000  
G26  20186126.435   106078811.6621         61.413          23.000    20186129.134    79214681.360          45.879          18.000  
G31  21392702.041   112419386.735       -1216.836          33.000  
G32  20981846.070   110260312.745       -1592.821          27.000  
J01  36339967.264   190967853.092          76.682          23.000  
R02  19869332.447   106026807.828       -3050.945          26.000  
> 2021  9 12 13  2 48.9992791  0  6
C06  36195934.976   188481718.028          -4.261          26.000  
C16  36766597.714   191453405.9061         37.956          27.000  
E01  23960188.806   125911641.975       -1979.987          29.000  
G26                                                                  20185967.246    79214046.577          46.353          17.000  
G31  21392780.586                       -1219.759          35.000  
R02  19869747.960   106028782.051       -3051.857          27.000  
> 2021  9 12 13  2 49.9992788  0  6
C06  36195846.237   188481253.636          -3.613          20.000  
C16  36766497.883   191452900.317          36.698          26.000  
E01  23960474.808   125913144.349       -1980.070          31.000  
G26  20185868.914   106077432.5071         57.991          23.000    20185865.916    79213647.684          44.239          17.000  
G32  20982214.515   110262240.7621      -1594.340          34.000  
J01  36339701.648   190966441.3901         75.958          26.000  
> 2021  9 12 13  2 50.9992783  0  8
C06  36195697.540   188480477.566          -5.900          27.000  
C16  36766341.691   191452082.702          38.076          27.000  
E01  23960700.852   125914332.639       -1979.932          33.000  
G26  20185709.724   106076585.545          59.326          23.000  
G31  21393004.531   112420998.4231      -1221.291          32.000  
G32  20982367.709   110263047.721       -1595.354          28.000  
J01  36339536.762   190965577.294          77.002          28.000  
R02  19870656.930   106033607.3821      -3052.359          27.000  
> 2021  9 12 13  2 51.9992778  0  8
C06  36195547.344   188479703.043          -7.090          25.000  
C16  36766182.801   191451265.190          36.297          25.000  
E01  23960929.294   125915532.929       -1980.121          29.000  
G26  20185549.935   106075737.910          60.632          21.000  
G31  21393085.775   112421432.256       -1220.666          36.000  
G32  20982523.601   110263855.336       -1596.333          28.000  
J01  36339372.776   190964712.882          75.297          28.000  
R02  19871081.437   106035859.550       -3051.937          29.000  
> 2021  9 12 13  2 52.9992776  0  8
C06  36195490.084   188479398.125          -7.737          22.000  
C16  36766115.648   191450917.748          34.157          26.000  
E01  23961246.174   125917197.845       -1982.158          25.000  
G26  20185480.083   106075363.201          58.449          26.000  
G31  21393259.355                       -1223.259          34.000  
G32  20982767.332   110265136.666       -1597.567          28.000  
J01  36339296.628   190964322.353          75.567          27.000  
R02  19871588.086   106038591.975       -3053.415          28.000  
> 2021  9 12 13  2 53.9992771  0  8
C06  36195341.087   188478624.720          -7.121          29.000  
C16  36765957.957   191450103.753          32.305          27.000  
E01  23961472.218   125918386.135       -1982.736          27.000  
G26  20185320.593   106074516.973          57.496          22.000  
G31  21393343.297   112422773.9951      -1229.467          34.000  
G32  20982921.126   110265946.104       -1598.074          23.000  
J01  36339133.242   190963459.309          74.361          26.000  
R02  19872006.596   106040845.170       -3052.208          27.000  
> 2021  9 12 13  2 54.9992768  0  7
C06  36195252.948   188478163.972          -7.873          28.000  
C16  36765860.524   191449602.875          32.805          29.000  
E01  23961760.319   125919899.509       -1980.656          27.000  
G31  21393484.499                       -1222.545          35.000  
G32  20983133.979   110267072.052       -1601.776          21.000  
J01  36339027.715   190962911.953          74.705          27.000  
R02  19872486.564   106043417.734       -3052.557          29.000  
> 2021  9 12 13  2 55.9992763  0  8
C06  36195104.551   188477390.620          -7.022          29.000  
C16  36765703.133   191448788.398          34.688          27.000  
E01  23961987.861   125921095.799       -1981.499          28.000  
G26  20185062.172   106073141.0131         56.428          23.000  
G31  21393568.441   112423953.5121      -1222.413          37.000  
G32  20983287.472   110267885.013       -1598.878          20.000  
J01  36338867.026   190962048.969          75.182          26.000  
R02  19872907.173   106045670.834       -3053.195          33.000  
> 2021  9 12 13  2 56.9992760  0  8
C06  36195015.212   188476928.890          -6.700          23.000  
C16  36765607.200   191448285.302          34.399          24.000  
E01  23962275.662   125922608.173       -1982.951          31.000  
G26  20184960.243   106072613.516          54.207          22.000  
G31  21393709.043   112424702.244       -1220.957          35.000  
G32  20983500.625   110269011.126       -1598.410          24.000  
J01  36338761.199   190961500.140          77.187          27.000  
R02  19873389.239   106048244.609       -3054.455          34.000  
> 2021  9 12 13  2 57.9992758  0  8
C06  36194956.453   188476623.409          -6.290          31.000  
C16  36765542.744   191447938.732          34.260          28.000  
E01  23962592.542   125924273.089       -1984.048          27.000  
G26  20184889.492   106072243.796          54.500          22.000  
G31  21393879.925   112425608.393       -1221.747          33.000  
G32  20983742.857   110270294.334       -1599.457          24.000  
J01  36338688.949   190961108.175          76.656          27.000  
R02  19873903.983   106050979.688       -3055.927          29.000  
> 2021  9 12 13  2 58.9992753  0  6
C06  36194807.456   188475849.775          -7.619          26.000  
C16  36765384.154   191447124.259          33.539          25.000  
E01  23962821.584   125925476.379       -1984.469          28.000  
G31  21393966.265   112426043.116       -1222.478          35.000  
J01  36338522.864   190960244.103          76.140          30.000  
R02  19874325.191   106053236.236       -3056.746          29.000  
> 2021  9 12 13  2 59.9992750  0  7
C06  36194720.217   188475389.276          -7.953          26.000  
C16  36765286.122   191446622.451          32.832          24.000  
E01  23963111.783   125927001.753       -1984.612          30.000  
G26  20184623.276   106070874.0111         54.141          25.000  
G31  21394107.767                       -1221.628          34.000  
J01  36338418.836   190959695.271          76.119          29.000  
R02  19874811.754   106055813.755       -3057.764          30.000  
> 2021  9 12 13  3  0.9992745  0  6
C06  36194571.819   188474616.546          -7.906          23.000  
C16  36765130.230   191445809.499          33.567          25.000  
E01  23963338.126   125928191.043       -1983.040          27.000  
G31  21394188.412   112427230.6681      -1220.832          33.000  
J01  36338253.051   190958831.874          75.180          28.000  
R02  19875239.258   106058071.894       -3058.648          31.000  
> 2021  9 12 13  3  1.9992742  0  8
C06  36194483.381   188474155.894          -7.898          23.000  
C16  36765034.896   191445307.337          34.025          30.000  
E01  23963625.028   125929699.417       -1985.066          26.000  
G26  20184362.157   106069509.6321         50.243          22.000  
G31  21394330.813   112427981.887       -1224.530          33.000  
G32  20984463.558   110274178.6081      -1606.123          26.000  
J01  36338149.023   190958284.137          74.273          28.000  
R02  19875724.922   106060650.759       -3059.251          32.000  
> 2021  9 12 13  3  2.9992737  0  8
C06  36194334.384   188473383.268          -9.202          29.000  
C16  36764878.105   191444492.680          32.647          31.000  
E01  23963853.170   125930897.707       -1984.331          28.000  
G26  20184203.567   106068670.944          51.096          23.000  
G31  21394413.556   112428418.377       -1223.989          30.000  
G32  20984620.949   110274996.161       -1605.202          22.000  
J01  36337986.835   190957423.443          72.176          24.000  
R02  19876155.124   106062911.419       -3061.718          26.000  
> 2021  9 12 13  3  3.9992732  0  6
C06  36194185.986   188472612.313         -10.063          28.000  
C16  36764722.212   191443679.106          33.045          28.000  
E01  23964079.513   125932086.997       -1985.674          28.000  
G31  21394495.999   112428854.187       -1223.104          30.000  
J01  36337821.650   190956562.174          73.843          27.000  
R02  19876579.330   106065173.085       -3061.058          26.000  
> 2021  9 12 13  3  4.9992730  0  5
C06  36194128.126   188472310.477          -9.953          28.000  
C16  36764655.059   191443333.211          33.475          31.000  
E01  23964397.893   125933759.913       -1984.311          26.000  
G32  20985019.673   110277098.9201      -1601.448          24.000  
J01  36337748.200   190956173.314          73.016          30.000  
> 2021  9 12 13  3  5.9992727  0  5
C06  36194038.788   188471850.420          -8.260          27.000  
C16  36764557.327   191442830.884          34.123          27.000  
E01  23964686.293   125935276.287       -1984.862          25.000  
G26  20183871.097   106066944.9061         49.322          18.000  
R02  19877577.340   106070495.5501      -3061.963          27.000  
> 2021  9 12 13  3  6.9992724  0  8
C06  36193950.949   188471389.833          -7.657          27.000  
C16  36764459.594   191442327.637          35.622          25.000  
E01  23964973.794   125936786.661       -1984.723          28.000  
G26  20183768.568   106066423.337          49.441          26.000  
G31  21394959.478   112431261.2311      -1222.957          35.000  
G32  20985447.177   110279349.2721      -1596.571          22.000  
J01  36337541.643   190955080.8241         74.229          23.000  
R02  19878060.305   106073077.806       -3062.648          29.000  
> 2021  9 12 13  3  7.9992719  0  7
C06  36193801.653   188470616.667          -6.341          27.000  
C16  36764301.903   191441511.228          36.038          26.000  
E01  23965202.236   125937986.951       -1983.831          25.000  
G26  20183608.778   106065586.094          49.456          20.000  
G31  21395042.520                       -1224.344          34.000  
G32  20985600.071   110280159.309       -1599.020          24.000  
J01  36337377.057   190954218.466          75.222          26.000  
> 2021  9 12 13  3  8.9992717  0  7
C06  36193742.593   188470311.366          -7.211          27.000  
C16  36764237.448   191441162.718          35.244          24.000  
E01  23965520.615   125939659.867       -1986.947          28.000  
G31  21395214.301   112432615.5211      -1222.538          36.000  
G32  20985842.603   110281445.108       -1601.499          23.000  
J01  36337302.709   190953828.980          74.678          31.000  
R02  19878992.060   106078085.9571      -3064.565          24.000  
> 2021  9 12 13  3  9.9992712  0  8
C06  36193595.096   188469539.635          -9.529          27.000  
C16  36764081.856   191440347.735          33.806          25.000  
E01  23965751.755   125940875.157       -1987.142          27.000  
G26  20183379.437   106064385.1481         46.824          20.000  
G31  21395297.644   112433051.782       -1226.143          35.000  
G32  20985995.498   110282259.919       -1603.599          24.000  
J01  36337139.022   190952966.492          74.896          27.000  
R02  19879421.963   106080350.878       -3064.967          25.000  
> 2021  9 12 13  3 10.9992707  0  7
C06  36193446.398   188468766.887          -8.041          27.000  
C16  36763924.465   191439533.373          33.984          22.000  
E01  23965979.598   125942072.447       -1987.756          27.000  
G26  20183221.147   106063550.985          45.580          19.000  
G32  20986149.891   110283075.745       -1604.575          28.000  
J01  36336974.436   190952104.560          73.673          30.000  
R02  19879850.366   106082616.216       -3063.451          25.000  
> 2021  9 12 13  3 11.9992704  0  7
C06  36193357.360   188468305.983          -7.505          27.000  
C16  36763829.131   191439030.025          35.718          25.000  
E01  23966268.298   125943589.821       -1986.661          29.000  
G31  21395522.488   112434243.1071      -1225.855          32.000  
G32  20986363.343   110284207.933       -1605.074          30.000  
J01  36336872.507   190951557.993          73.780          30.000  
R02  19880341.426   106085201.475       -3066.048          22.000  
> 2021  9 12 13  3 12.9992699  0  7
C06  36193208.363   188467532.683          -6.619          28.000  
C16  36763673.838   191438214.225          35.144          24.000  
E01  23966497.639   125944795.111       -1986.973          28.000  
G26  20182961.526   106062201.1991         44.868          24.000  
G32  20986518.935   110285025.235       -1605.082          25.000  
J01  36336709.420   190950696.219          74.214          30.000  
R02  19880766.532   106087468.172       -3067.810          21.000  
> 2021  9 12 13  3 13.9992696  0  8
C06  36193120.224   188467071.431          -7.309          26.000  
C16  36763577.005   191437711.145          35.215          26.000  
E01  23966785.440   125946307.485       -1987.068          25.000  
G26  20182864.993   106061684.001          44.221          23.000  
G31  21395746.433   112435432.7321      -1224.996          33.000  
G32  20986735.086   110286157.249       -1605.183          26.000  
J01  36336605.092   190950149.536          73.475          26.000  
R02  19881253.095   106090055.921       -3068.122          27.000  
> 2021  9 12 13  3 14.9992691  0  8
C06  36192972.726   188466298.495          -6.907          26.000  
C16  36763421.113   191436896.459          33.382          26.000  
E01  23967013.582   125947505.775       -1988.048          23.000  
G26  20182708.202   106060852.712          43.079          22.000  
G31  21395827.677   112435869.991       -1224.576          31.000  
G32  20986888.579   110286975.194       -1605.955          23.000  
J01  36336442.304   190949288.638          73.845          25.000  
R02  19881676.702   106092324.256       -3068.600          27.000  
> 2021  9 12 13  3 15.9992691  0  6
C16  36763414.218   191436863.128          32.940          29.000  
E01  23967391.020   125949489.775       -1987.450          27.000  
G31  21396059.416   112437094.903       -1225.012          29.000  
G32  20987191.670   110288582.483       -1608.308          21.000  
J01  36336427.914   190949214.214          74.331          25.000  
R02  19882249.305   106095393.151       -3069.296          32.000  
> 2021  9 12 13  3 16.9992686  0  5
C16  36763258.925   191436049.589          32.515          26.000  
E01  23967618.863   125950687.065       -1989.616          25.000  
G26  20182540.918   106059977.9211         42.779          18.000  
G31  21396140.960   112437532.135       -1224.821          28.000  
J01  36336262.129   190948352.935          73.573          24.000  
> 2021  9 12 13  3 17.9992681  0  5
C16  36763103.333   191435235.422          34.042          24.000  
E01  23967845.806   125951879.355       -1988.992          24.000  
G31  21396225.501   112437969.786       -1226.006          25.000  
G32  20987504.653   110290219.5831      -1606.994          19.000  
J01  36336096.944   190947491.614          72.876          30.000  
> 2021  9 12 13  3 18.9992678  0  3
C16  36763007.100   191434732.785          34.447          24.000  
G32  20987713.908   110291354.700       -1607.908          12.000  
J01  36335992.016   190946945.926          73.142          35.000  
> 2021  9 12 13  3 19.9992673  0  3
C16  36762851.807   191433917.946          33.672          27.000  
G31  21396452.744   112439157.2841      -1223.532          30.000  
J01  36335827.130   190946085.028          71.658          34.000  
> 2021  9 12 13  3 20.9992671  0  2
C16  36762784.954   191433572.445          32.763          27.000  
J01  36335757.578   190945697.266          73.766          33.000  
> 2021  9 12 13  3 21.9992666  0  3
C06  36192234.038   188462455.6921         -9.618          30.000  
C16  36762628.462   191432758.541          33.242          28.000  
J01  36335591.793   190944835.886          73.128          30.000  
> 2021  9 12 13  3 22.9992663  0  5
C06  36192146.498   188461995.380          -7.952          28.000  
C16  36762531.629   191432256.763          33.889          29.000  
G26  20181806.726   106056105.1761         42.978          17.000  
G31  21396859.562   112441255.8661      -1225.703          37.000  
J01  36335483.268   190944290.539          72.438          27.000  
> 2021  9 12 13  3 23.9992658  0  5
C06  36191998.401   188461222.575          -7.552          28.000  
C16  36762373.638   191431440.988          35.518          27.000  
G26  20181644.538   106055274.580          42.767          18.000  
G31  21396940.506                       -1224.512          38.000  
J01  36335317.183   190943431.033          71.553          27.000  
> 2021  9 12 13  3 24.9992655  0  5
C06  36191910.861   188460761.825          -7.783          27.000  
C16  36762277.705   191430937.613          34.092          26.000  
G26  20181545.607   106054759.437          41.811          19.000  
G31  21397084.706   112442432.8551      -1224.088          36.000  
J01  36335212.556   190942886.917          71.252          30.000  
> 2021  9 12 13  3 25.9992653  0  5
C06  36191853.002   188460457.343          -8.676          28.000  
C16  36762211.151   191430591.890          32.634          26.000  
G26  20181476.954   106054402.762          40.730          20.000  
G31  21397256.488                       -1223.572          40.000  
J01  36335139.406   190942500.664          71.888          30.000  
> 2021  9 12 13  3 26.9992648  0  6
C06  36191705.204   188459684.692          -7.722          24.000  
C16  36762053.460   191429778.249          32.799          24.000  
G26  20181316.865   106053574.663          39.627          26.000  
G31  21397337.132   112443778.1391      -1222.568          34.000  
G32  20989277.026   110299499.5291      -1613.468          23.000  
J01  36334974.820   190941641.120          71.222          29.000  
> 2021  9 12 13  3 27.9992645  0  5
C06  36191615.866   188459223.178          -7.393          25.000  
C16  36761958.126   191429277.237          32.998          24.000  
G26  20181217.934   106053063.376          37.869          25.000  
G32  20989499.772   110300640.697       -1614.910          22.000  
J01  36334872.291   190941097.634          70.527          27.000  
> 2021  9 12 13  3 28.9992640  0  6
C06  36191466.269   188458448.898          -6.599          27.000  
C16  36761803.433   191428463.985          31.785          19.000  
G26  20181058.744   106052238.480          36.276          28.000  
G31  21397568.572   112444966.5521      -1225.505          33.000  
G32  20989657.163   110301468.420       -1616.333          26.000  
J01  36334710.403   190940238.729          70.947          28.000  
> 2021  9 12 13  3 29.9992637  0  5
C06  36191377.231   188457987.652          -7.270          28.000  
C16  36761707.799   191427963.144          34.307          20.000  
G26  20180958.613   106051730.139          35.498          26.000  
G31  21397709.774   112445719.661       -1226.574          30.000  
J01  36334607.275   190939694.878          70.786          26.000  
> 2021  9 12 13  3 30.9992632  0  4
C06  36191228.834   188457214.108          -7.355          28.000  
G26  20180803.021   106050908.407          33.877          24.000  
G31  21397790.718   112446157.757       -1225.177          31.000  
J01  36334444.188   190938835.800          71.552          29.000  
> 2021  9 12 13  3 31.9992627  0  5
C06  36191080.137   188456440.906          -7.899          29.000  
G26  20180644.730   106050086.472          34.577          25.000  
G31  21397871.961   112446595.154       -1225.049          34.000  
G32  20990188.095   110304269.6061      -1616.031          28.000  
J01  36334279.901   190937975.687          72.979          28.000  
> 2021  9 12 13  3 32.9992625  0  5
C06  36191021.677   188456137.449          -8.291          27.000  
G26  20180578.776   106049736.319          35.453          22.000  
G31  21398044.342   112447504.501       -1224.750          31.000  
G32  20990432.426   110305569.935       -1614.498          23.000  
J01  36334205.853   190937587.739          71.271          28.000  
> 2021  9 12 13  3 33.9992622  0  4
C06  36190932.938   188455677.126          -7.121          26.000  
G26  20180480.444   106049228.434          34.792          23.000  
G32  20990645.578   110306712.802       -1615.937          26.000  
J01  36334102.125   190937043.882          70.641          27.000  
> 2021  9 12 13  3 34.9992620  0  3
C06  36190874.479   188455371.680          -7.116          25.000  
G32  20990892.607   110308013.777       -1616.494          25.000  
J01  36334030.474   190936658.212          70.896          26.000  
> 2021  9 12 13  3 35.9992614  0  4
C06  36190696.402   188454442.206          -7.241          26.000  
G31  21398412.787   112449449.0131      -1226.198          33.000  
G32  20991020.319   110308684.675       -1616.793          25.000  
J01  36333838.607   190935642.266          71.089          29.000  
> 2021  9 12 13  3 36.9992612  0  4
C06  36190637.643   188454136.623          -6.471          28.000  
G31  21398589.065   112450359.100       -1225.094          33.000  
G32  20991266.149   110309986.977       -1618.892          23.000  
J01  36333764.858   190935256.467          69.961          27.000  
> 2021  9 12 13  3 37.9992607  0  5
C06  36190488.946   188453362.684          -6.566          27.000  
E04  23848590.165   125325244.4821        538.470          31.000  
G31  21398671.508   112450796.504       -1225.814          36.000  
G32  20991419.043   110310818.459       -1620.012          24.000  
J01  36333602.670   190934398.378          70.740          27.000  
> 2021  9 12 13  3 38.9992602  0  5
C06  36190339.949   188452588.737          -6.698          27.000  
E04  23848338.039   125323918.252         539.695          30.000  
G31  21398759.947   112451234.600       -1225.929          33.000  
G32  20991578.533   110311650.981       -1620.595          23.000  
J01  36333438.084   190933538.756          72.095          29.000  
> 2021  9 12 13  3 39.9992599  0  6
C06  36190248.812   188452126.331          -6.375          25.000  
C16  36760495.738   191421670.8471         37.162          16.000  
E04  23848144.673   125322906.909         538.463          31.000  
G26  20179790.322   106045420.8501         26.483          16.000  
G31  21398902.348   112451986.775       -1224.742          34.000  
J01  36333334.056   190932994.970          70.897          27.000  
> 2021  9 12 13  3 40.9992594  0  3
C06  36190098.616   188451351.711          -6.469          23.000  
E04  23847892.248   125321580.853         537.417          31.000  
J01  36333170.969   190932137.433          69.923          30.000  
> 2021  9 12 13  3 41.9992591  0  4
C06  36190011.077   188450890.077          -7.100          26.000  
E04  23847700.980   125320570.560         538.526          32.000  
G31  21399128.092   112453176.3491      -1225.520          32.000  
J01  36333068.440   190931594.586          70.986          30.000  
> 2021  9 12 13  3 42.9992589  0  5
C06  36189954.116   188450585.125          -8.181          27.000  
C16  36760172.562   191420007.7301         30.283          15.000  
E04  23847539.092   125319717.839         536.378          30.000  
G31  21399301.072   112454087.028       -1226.432          34.000  
J01  36332995.890   190931208.562          71.086          29.000  
> 2021  9 12 13  3 43.9992584  0  4
C06  36189808.417   188449813.244          -8.641          27.000  
C16  36760016.070   191419199.479          24.453          13.000  
E04  23847286.667   125318394.094         534.746          32.000  
J01  36332832.803   190930350.262          69.837          29.000  
> 2021  9 12 13  3 44.9992581  0  4
C06  36189720.878   188449352.583          -7.621          26.000  
E04  23847092.701   125317386.598         534.813          30.000  
G31  21399524.717   112455278.1731      -1224.977          30.000  
J01  36332731.773   190929808.573          67.434          27.000  
> 2021  9 12 13  3 45.9992576  0  3
C06  36189572.480   188448579.647          -7.295          27.000  
G31  21399606.561   112455715.820       -1225.798          30.000  
J01  36332571.084   190928953.385          68.308          26.000  
> 2021  9 12 13  3 46.9992573  0  3
G31  21399748.063   112456469.400       -1226.352          30.000  
G32  20993180.324   110320045.4641      -1621.560          24.000  
J01  36332467.656   190928411.499          70.115          28.000  
> 2021  9 12 13  3 47.9992568  0  3
G26  20178817.495   106040330.9061         24.707          15.000  
G31  21399832.005   112456908.377       -1227.027          31.000  
J01  36332304.569   190927553.901          69.767          29.000  
> 2021  9 12 13  3 48.9992566  0  2
C06  36189274.786   188447039.3951         -6.897          19.000  
J01  36332230.820   190927168.949          70.757          26.000  
> 2021  9 12 13  3 49.9992561  0  4
C06  36189125.190   188446265.021          -5.259          26.000  
E04  23845984.369   125311559.0591        534.634          30.000  
G31  21400093.424   112458256.6821      -1223.398          31.000  
J01  36332062.636   190926309.669          71.816          25.000  
> 2021  9 12 13  3 50.9992556  0  5
C06  36188975.893   188445489.256          -5.532          23.000  
E04  23845733.742   125310236.528         534.793          27.000  
G31  21400174.667   112458692.627       -1224.564          32.000  
G32  20993899.826   110323863.4521      -1624.480          28.000  
J01  36331898.050   190925451.217          70.321          27.000  
> 2021  9 12 13  3 51.9992553  0  4
C06  36188887.754   188445027.514          -7.311          22.000  
G26  20178344.423   106037874.8671         26.914          15.000  
G32  20994115.676   110325015.004       -1624.225          25.000  
J01  36331795.222   190924908.279          69.999          27.000  
> 2021  9 12 13  3 52.9992550  0  4
C06  36188801.714   188444566.125          -7.318          24.000  
G26  20178248.789   106037375.615          25.956          15.000  
G32  20994332.126   110326166.952       -1624.941          23.000  
J01  36331692.093   190924365.628          69.861          30.000  
> 2021  9 12 13  3 53.9992548  0  3
C06  36188743.254   188444261.342          -7.553          24.000  
G32  20994579.755   110327476.936       -1623.720          22.000  
J01  36331618.344   190923980.392          70.030          31.000  
> 2021  9 12 13  3 54.9992543  0  4
C06  36188593.658   188443486.775          -5.797          23.000  
G31  21400722.988   112461548.1811      -1225.706          34.000  
G32  20994735.647   110328312.973       -1625.186          22.000  
J01  36331456.156   190923122.008          71.901          32.000  
> 2021  9 12 13  3 55.9992540  0  4
C06  36188504.320   188443024.230          -5.922          27.000  
G26  20177928.611   106035713.1451         29.265          14.000  
G31  21400866.289   112462302.298       -1226.563          35.000  
J01  36331351.229   190922577.833          71.096          29.000  
> 2021  9 12 13  3 56.9992535  0  4
C06  36188355.623   188442249.183          -6.684          23.000  
G31  21400948.132   112462741.195       -1227.941          32.000  
G32  20995118.782   110330308.2021      -1629.639          23.000  
J01  36331188.741   190921720.139          69.026          29.000  
> 2021  9 12 13  3 57.9992530  0  4
C06  36188206.626   188441473.960          -4.610          24.000  
G31  21401029.975   112463180.727       -1226.357          32.000  
G32  20995275.873   110331148.760       -1627.845          22.000  
J01  36331026.554   190920863.656          68.974          29.000  
> 2021  9 12 13  3 58.9992527  0  4
C06  36188116.688   188441010.203          -4.724          24.000  
G31  21401175.674   112463934.500       -1226.330          35.000  
G32  20995497.420   110332304.363       -1628.523          25.000  
J01  36330922.526   190920321.702          69.002          30.000  
> 2021  9 12 13  3 59.9992522  0  2
G31  21401262.914   112464373.185       -1227.992          32.000  
J01  36330757.940   190919465.289          68.300          27.000  
> 2021  9 12 13  4  0.9992520  0  1
G31  21401434.995   112465285.228       -1226.201          36.000  
> 2021  9 12 13  4  1.9992517  0  4
C06  36187820.493   188439463.7401         -5.729          24.000  
G31  21401576.497   112466039.384       -1227.237          34.000  
G32  20996130.881   110335620.5241      -1630.113          20.000  
J01  36330586.458   190918539.1551         69.584          26.000  
> 2021  9 12 13  4  2.9992515  0  2
C06  36187760.235   188439155.724          -3.940          23.000  
G31  21401748.578   112466951.173       -1226.537          39.000  
> 2021  9 12 13  4  3.9992509  0  5
C06  36187582.458   188438222.491          -2.811          21.000  
G26  20176968.076   106030654.3341         16.840          15.000  
G31  21401804.039   112467233.243       -1227.962          36.000  
G32  20996512.817   110337619.7291      -1629.212          23.000  
J01  36330323.241   190917145.3251         66.813          27.000  
> 2021  9 12 13  4  4.9992504  0  4
C06  36187432.562   188437444.334          -2.398          23.000  
G31  21401887.981   112467670.624       -1223.050          36.000  
G32  20996673.206   110338461.613       -1629.334          24.000  
J01  36330162.552   190916290.790          66.840          30.000  
> 2021  9 12 13  4  5.9992502  0  5
C06  36187374.702   188437136.140          -6.616          23.000  
G26  20176756.722   106029518.5671         16.496          16.000  
G31  21402066.957                       -1223.630          37.000  
G32  20996920.834   110339775.646       -1630.104          21.000  
J01  36330091.501   190915909.356          66.100          30.000  
> 2021  9 12 13  4  6.9992497  0  5
C06  36187228.403   188436361.607          -6.933          24.000  
G26  20176611.622   106028713.695          18.923          16.000  
G31  21402147.602                       -1229.108          36.000  
G32  20997082.123   110340618.907       -1631.550          20.000  
J01  36329929.913   190915054.608          67.256          28.000  
> 2021  9 12 13  4  7.9992494  0  4
C06  36187140.264   188435900.309          -6.780          20.000  
G31  21402293.001   112469815.4341      -1228.406          34.000  
G32  20997303.070   110341777.347       -1630.197          20.000  
J01  36329824.386   190914513.994          68.007          28.000  
> 2021  9 12 13  4  8.9992489  0  4
C06  36186991.567   188435126.329          -7.009          22.000  
G26  20176362.795   106027420.0301         15.903          16.000  
G31  21402374.245   112470255.285       -1226.136          31.000  
J01  36329660.399   190913658.240          68.420          27.000  
> 2021  9 12 13  4  9.9992486  0  3
C06  36186901.629   188434664.155          -5.949          28.000  
G31  21402519.044   112471010.973       -1228.717          30.000  
G32  20997686.204   110343773.5761      -1627.612          25.000  
> 2021  9 12 13  4 10.9992484  0  4
C06  36186841.071   188434357.161          -4.405          26.000  
G31  21402690.226   112471923.513       -1227.029          30.000  
G32  20997933.833   110345086.733       -1630.217          25.000  
J01  36329480.524   190912732.6941         68.286          25.000  
> 2021  9 12 13  4 11.9992479  0  4
C06  36186692.374   188433580.869          -4.361          25.000  
G31  21402770.870   112472362.417       -1226.703          33.000  
G32  20998094.222   110345930.136       -1631.662          27.000  
J01  36329315.638   190911877.007          68.094          30.000  
> 2021  9 12 13  4 12.9992476  0  5
C06  36186602.736   188433116.785          -5.834          25.000  
G26  20175963.171   106025316.1871         12.728          17.000  
G31  21402911.773   112473116.298       -1226.314          34.000  
G32  20998314.569   110347089.768       -1633.233          30.000  
J01  36329211.310   190911335.466          68.872          29.000  
> 2021  9 12 13  4 13.9992471  0  3
C06  36186453.140   188432340.993          -3.157          24.000  
G31  21402999.312   112473554.918       -1224.909          30.000  
J01  36329047.624   190910479.473          67.806          30.000  
> 2021  9 12 13  4 14.9992468  0  3
C06  36186364.701   188431876.409          -4.582          23.000  
G31  21403140.814   112474307.742       -1226.106          33.000  
J01  36328943.596   190909938.770          67.696          30.000  
> 2021  9 12 13  4 15.9992463  0  5
C06  36186214.805   188431100.225          -4.857          26.000  
G26  20175566.846   106023221.7971         13.797          16.000  
G31  21403222.058   112474746.425       -1227.130          35.000  
G32  20998852.097   110349944.9251      -1632.791          30.000  
J01  36328779.909   190909083.950          67.007          26.000  
> 2021  9 12 13  4 16.9992461  0  4
C06  36186156.345   188430793.078          -4.872          27.000  
G26  20175506.587   106022892.529          12.563          17.000  
G32  20999099.726   110351262.824       -1633.521          32.000  
J01  36328706.760   190908702.048          66.879          28.000  
> 2021  9 12 13  4 17.9992456  0  4
C06  36186008.248   188430017.480          -5.452          29.000  
G31  21403482.278   112476095.8761      -1226.612          35.000  
G32  20999258.916   110352108.125       -1632.655          28.000  
J01  36328545.172   190907847.455          66.278          30.000  
> 2021  9 12 13  4 18.9992451  0  4
C06  36185859.851   188429242.115          -5.316          29.000  
G31  21403563.821   112476534.956       -1227.172          31.000  
G32  20999417.806   110352684.729       -1635.624          25.000  
J01  36328381.185   190906992.874          67.306          30.000  
> 2021  9 12 13  4 19.9992451  0  4
C06  36185860.750   188429246.910          -5.430          29.000  
E01  23984489.384   126039341.6951      -2001.766          28.000  
G31  21403797.060   112477762.551       -1227.290          26.000  
J01  36328368.594   190906925.846          67.367          28.000  
> 2021  9 12 13  4 20.9992445  0  5
C06  36185682.973   188428315.771          -5.617          28.000  
E01  23984689.345   126040392.443       -2002.045          24.000  
G31  21403849.823   112478043.819       -1225.965          27.000  
G32  20999868.394   110355013.4621      -1638.753          23.000  
J01  36328174.928   190905913.192          67.162          33.000  
> 2021  9 12 13  4 21.9992443  0  4
C06  36185623.614   188428008.872          -5.311          28.000  
C16  36755535.073   191395914.0721         35.744          30.000  
G31  21404022.504   112478955.126       -1227.309          33.000  
J01  36328101.778   190905530.744          67.437          30.000  
> 2021  9 12 13  4 22.9992438  0  5
C06  36185474.317   188427233.137          -4.728          31.000  
C16  36755378.281   191395097.717          36.184          31.000  
G31  21404107.045   112479395.022       -1228.084          31.000  
G32  21000290.202   110357191.7291      -1641.700          22.000  
J01  36327938.691   190904675.591          67.636          29.000  
> 2021  9 12 13  4 23.9992435  0  3
C06  36185384.380   188426769.465          -4.707          29.000  
C16  36755281.748   191394592.986          36.554          26.000  
G31  21404251.545   112480148.990       -1225.927          34.000  
> 2021  9 12 13  4 24.9992430  0  4
C06  36185235.383   188425993.080          -4.064          29.000  
C16  36755124.357   191393775.407          37.520          30.000  
G32  21000682.630   110359214.2591      -1641.383          20.000  
J01  36327676.973   190903279.9021         67.554          28.000  
> 2021  9 12 13  4 25.9992425  0  4
C06  36185086.086   188425216.832          -4.109          25.000  
C16  36754967.865   191392957.161          37.228          28.000  
G26  20174418.940   106017144.9971          2.197          19.000  
J01  36327513.286   190902425.057          66.221          25.000  
> 2021  9 12 13  4 26.9992422  0  6
C06  36184997.947   188424753.711          -4.782          26.000  
C16  36754872.231   191392450.687          38.181          29.000  
G26  20174329.602   106016668.379           3.666          19.000  
G31  21404570.524                       -1228.057          37.000  
G32  21001066.064   110361231.4081      -1637.015          20.000  
J01  36327412.256   190901885.927          65.941          27.000  
> 2021  9 12 13  4 27.9992417  0  4
C16  36754714.241   191391632.875          36.303          29.000  
G26  20174179.106   106015876.576           4.615          20.000  
G31  21404653.567   112482217.3181      -1225.993          32.000  
J01  36327250.068   190901032.805          65.280          28.000  
> 2021  9 12 13  4 28.9992415  0  4
C16  36754647.087   191391284.156          36.121          30.000  
G31  21404825.947   112483129.599       -1228.855          30.000  
G32  21001478.579   110363405.2591      -1638.609          18.000  
J01  36327178.418   190900653.131          64.610          28.000  
> 2021  9 12 13  4 29.9992412  0  2
C16  36754549.355   191390779.629          36.788          27.000  
J01  36327074.690   190900114.906          66.961          28.000  
> 2021  9 12 13  4 30.9992410  0  3
C16  36754481.602   191390429.737          38.394          28.000  
G31  21405143.428   112484794.4361      -1225.480          27.000  
J01  36327004.538   190899732.282          66.955          23.000  
> 2021  9 12 13  4 31.9992404  0  3
C16  36754294.531   191389454.742          38.346          26.000  
G31  21405194.392   112485075.516       -1226.911          26.000  
J01  36326813.570   190898719.691          67.148          27.000  
> 2021  9 12 13  4 32.9992399  0  4
C16  36754137.440   191388636.585          37.306          26.000  
G31  21405276.535   112485514.864       -1227.515          28.000  
G32  21002241.851   110367441.5651      -1640.417          19.000  
J01  36326649.584   190897865.120          66.492          27.000  
> 2021  9 12 13  4 33.9992397  0  5
C06  36184254.462   188420876.9591         -3.868          27.000  
C16  36754070.586   191388287.072          37.037          30.000  
G31  21405448.616   112486427.158       -1227.630          27.000  
G32  21002494.576   110368767.734       -1642.235          19.000  
J01  36326577.634   190897483.745          66.113          31.000  
> 2021  9 12 13  4 34.9992392  0  5
C06  36184104.865   188420100.937          -5.391          29.000  
C16  36753914.694   191387469.939          36.267          31.000  
G31  21405532.558   112486867.334       -1228.427          31.000  
G32  21002659.761   110369623.567       -1644.824          18.000  
J01  36326414.846   190896630.670          64.286          29.000  
> 2021  9 12 13  4 35.9992389  0  5
C06  36184015.527   188419638.328          -5.428          29.000  
C16  36753817.262   191386964.736          36.635          30.000  
G31  21405678.557   112487623.210       -1228.655          30.000  
G32  21002881.608   110370795.729       -1644.697          19.000  
J01  36326311.718   190896092.715          65.538          27.000  
> 2021  9 12 13  4 36.9992384  0  5
C06  36183866.830   188418862.687          -4.299          29.000  
C16  36753659.871   191386147.308          36.408          31.000  
G31  21405764.298   112488063.900       -1228.398          28.000  
G32  21003041.097   110371652.983       -1645.011          20.000  
J01  36326149.230   190895239.445          65.405          29.000  
> 2021  9 12 13  4 37.9992381  0  6
C06  36183777.492   188418397.981          -2.391          27.000  
C16  36753562.438   191385642.240          37.343          30.000  
G26  20173094.757   106010184.2871         -6.398          15.000  
G31  21405908.498   112488819.689       -1228.568          30.000  
G32  21003265.642   110372826.958       -1646.857          20.000  
J01  36326045.202   190894701.453          65.057          29.000  
> 2021  9 12 13  4 38.9992379  0  5
C06  36183718.433   188418088.757          -4.160          28.000  
C16  36753495.584   191385293.250          36.365          29.000  
G31  21406082.677   112489732.932       -1228.653          29.000  
G32  21003518.067   110374158.284       -1646.737          21.000  
J01  36325972.952   190894321.304          64.660          28.000  
> 2021  9 12 13  4 39.9992374  0  5
C06  36183568.837   188417312.498          -4.865          29.000  
C16  36753337.894   191384476.056          36.693          28.000  
G31  21406168.418   112490173.843       -1229.143          27.000  
G32  21003680.854   110375017.899       -1647.748          22.000  
J01  36325810.465   190893468.759          64.661          29.000  
> 2021  9 12 13  4 40.9992371  0  6
C06  36183479.798   188416849.357          -5.597          31.000  
C16  36753240.461   191383970.268          37.590          28.000  
G26  20172794.365   106008625.1751         -7.077          16.000  
G31  21406310.819   112490930.227       -1229.054          26.000  
G32  21003904.799   110376194.393       -1651.561          21.000  
J01  36325707.036   190892931.497          63.525          26.000  
> 2021  9 12 13  4 41.9992366  0  5
C06  36183329.302   188416073.424          -4.592          30.000  
C16  36753083.370   191383151.925          37.402          27.000  
G31  21406395.061   112491371.618       -1229.091          29.000  
G32  21004068.486   110377059.587       -1652.646          21.000  
J01  36325546.348   190892079.838          64.620          26.000  
> 2021  9 12 13  4 42.9992364  0  4
C06  36183271.442   188415765.249          -4.117          27.000  
C16  36753016.216   191382802.777          36.708          31.000  
G31  21406568.341   112492285.693       -1229.137          32.000  
J01  36325473.798   190891700.343          64.666          27.000  
> 2021  9 12 13  4 43.9992358  0  5
C06  36183091.567   188414832.630          -3.856          28.000  
C16  36752829.745   191381830.139          35.627          31.000  
G31  21406623.803   112492569.953       -1229.227          28.000  
G32  21004459.715   110379106.7681      -1653.284          20.000  
J01  36325280.132   190890689.671          65.733          28.000  
> 2021  9 12 13  4 44.9992356  0  6
C06  36183031.908   188414524.376          -4.326          28.000  
C16  36752763.191   191381481.037          36.458          29.000  
G26  20172341.678   106006293.3431        -12.278          13.000  
G31  21406797.982   112493484.203       -1229.656          33.000  
G32  21004716.038   110380446.973       -1655.463          19.000  
J01  36325206.683   190890309.424          65.043          28.000  
> 2021  9 12 13  4 45.9992351  0  4
C06  36182883.511   188413748.182          -4.398          26.000  
C16  36752606.400   191380664.042          36.315          28.000  
G31  21406883.723   112493925.894       -1229.641          33.000  
J01  36325045.994   190889456.792          64.858          26.000  
> 2021  9 12 13  4 46.9992346  0  5
C06  36182735.114   188412971.694          -4.530          28.000  
C16  36752449.309   191379847.030          36.359          31.000  
G31  21406963.767   112494369.047       -1231.407          33.000  
G32  21005043.111   110382180.2901      -1653.464          18.000  
J01  36324882.307   190888605.629          63.470          28.000  
> 2021  9 12 13  4 47.9992346  0  6
C06  36182737.812   188412976.671          -5.150          29.000  
C16  36752442.414   191379810.828          35.792          29.000  
G26  20172045.783   106004748.0601         -5.610          13.000  
G31  21407197.006   112495599.958       -1230.379          30.000  
G32  21005354.596   110383831.017       -1647.439          17.000  
J01  36324870.316   190888542.211          63.527          28.000  
> 2021  9 12 13  4 48.9992340  0  6
C06  36182558.836   188412044.970          -4.844          29.000  
C16  36752255.343   191378838.428          35.844          32.000  
G26  20171868.606   106003807.940          -7.179          14.000  
G31  21407252.168   112495884.033       -1228.906          30.000  
G32  21005484.406   110384533.519       -1648.788          16.000  
J01  36324677.249   190887533.652          63.398          28.000  
> 2021  9 12 13  4 49.9992338  0  4
C06  36182500.076   188411738.450          -6.408          31.000  
C16  36752188.489   191378490.095          36.351          29.000  
G31  21407426.047   112496797.529       -1228.317          32.000  
J01  36324604.100   190887155.183          63.327          27.000  
> 2021  9 12 13  4 50.9992333  0  5
C06  36182354.377   188410965.170          -7.302          24.000  
C16  36752032.297   191377672.852          36.671          25.000  
G31  21407509.390   112497237.938       -1227.947          30.000  
G32  21005899.918   110386726.4261      -1646.978          14.000  
J01  36324442.512   190886305.184          61.395          26.000  
> 2021  9 12 13  4 51.9992328  0  5
C06  36182206.879   188410191.541          -5.939          29.000  
C16  36751875.206   191376855.178          37.464          27.000  
G31  21407593.631   112497679.201       -1229.855          27.000  
G32  21006063.305   110387588.849       -1650.729          14.000  
J01  36324280.024   190885456.818          60.883          29.000  
> 2021  9 12 13  4 52.9992325  0  4
C06  36182119.040   188409729.239          -6.081          21.000  
C16  36751775.975   191376348.553          36.803          22.000  
G31  21407738.431   112498436.594       -1230.356          25.000  
J01  36324178.994   190884922.911          62.026          26.000  
> 2021  9 12 13  4 53.9992320  0  4
C06  36181969.444   188408954.058          -4.773          24.000  
C16  36751619.783   191375531.940          37.568          24.000  
G31  21407823.272   112498878.083       -1229.389          29.000  
J01  36324018.305   190884072.676          62.929          26.000  
> 2021  9 12 13  4 54.9992317  0  5
C06  36181881.305   188408489.882          -4.666          22.000  
C16  36751522.650   191375025.648          36.933          26.000  
G26  20171183.580   106000243.9051        -15.188          14.000  
G31  21407967.473   112499634.896       -1229.932          31.000  
J01  36323917.875   190883537.053          63.216          26.000  
> 2021  9 12 13  4 55.9992312  0  4
C06  36181732.008   188407714.214          -5.451          26.000  
C16  36751365.859   191374208.537          35.960          29.000  
G31  21408051.714   112500077.366       -1230.082          32.000  
J01  36323754.788   190882686.918          61.827          28.000  
> 2021  9 12 13  4 56.9992310  0  5
C06  36181671.450   188407407.048          -5.400          29.000  
C16  36751300.504   191373860.035          35.559          29.000  
G31  21408226.793   112500992.457       -1231.325          31.000  
G32  21007092.193   110393007.9891      -1654.366          19.000  
J01  36323682.238   190882309.730          62.036          26.000  
> 2021  9 12 13  4 57.9992307  0  6
C06  36181581.512   188406943.312          -3.951          25.000  
C16  36751204.870   191373354.933          37.485          23.000  
G26  20170893.981   105998722.4151        -17.755          15.000  
G31  21408371.593   112501751.617       -1231.673          27.000  
G32  21007313.739   110394189.857       -1654.408          25.000  
J01  36323579.109   190881775.878          59.670          27.000  
> 2021  9 12 13  4 58.9992302  0  4
C06  36181432.515   188406165.879          -1.492          21.000  
C16  36751051.377   191372536.329          38.920          22.000  
G31  21408457.333   112502195.764       -1231.382          27.000  
J01  36323418.720   190880927.937          59.868          28.000  
> 2021  9 12 13  4 59.9992300  0  5
C06  36181372.857   188405856.780          -5.113          20.000  
C16  36750984.223   191372186.136          37.077          25.000  
G31  21408631.813   112503112.854       -1232.225          26.000  
G32  21007726.254   110396397.1451      -1656.149          31.000  
J01  36323349.768   190880553.380          59.278          30.000  
> 2021  9 12 13  5  0.9992294  0  6
C06  36181192.981   188404925.481          -5.502          26.000  
C16  36750796.853   191371213.263          35.182          30.000  
G26  20170513.244   105996727.5611        -17.332          17.000  
G31  21408687.274   112503399.637       -1232.219          28.000  
G32  21007861.160   110397108.948       -1657.368          27.000  
J01  36323156.402   190879548.431          59.966          32.000  
> 2021  9 12 13  5  1.9992292  0  5
C06  36181133.622   188404619.171          -6.349          29.000  
C16  36750729.999   191370865.966          34.723          30.000  
G31  21408861.454   112504317.900       -1233.292          29.000  
G32  21008115.384   110398450.133       -1655.518          28.000  
J01  36323082.653   190879172.431          60.876          28.000  
> 2021  9 12 13  5  2.9992287  0  5
C06  36180984.026   188403844.643          -6.636          29.000  
C16  36750573.507   191370050.324          35.443          31.000  
G31  21408945.396   112504763.058       -1232.757          31.000  
G32  21008278.771   110399318.374       -1654.681          27.000  
J01  36322920.765   190878323.447          61.525          31.000  
> 2021  9 12 13  5  3.9992284  0  5
C06  36180896.187   188403382.383          -6.185          28.000  
G26  20170226.043   105995205.7101        -21.454          17.000  
G31  21409089.296   112505522.817       -1232.232          33.000  
G32  21008503.016   110400501.260       -1657.249          26.000  
J01  36322820.035   190877789.626          61.812          29.000  
> 2021  9 12 13  5  4.9992279  0  5
C06  36180747.190   188402607.620          -5.703          29.000  
G26  20170081.843   105994438.500         -19.450          17.000  
G31  21409178.034   112505966.767       -1230.951          35.000  
G32  21008666.703   110401371.420       -1658.893          27.000  
J01  36322659.346   190876940.927          59.982          24.000  
> 2021  9 12 13  5  5.9992276  0  4
C06  36180658.751   188402144.950          -6.068          29.000  
G31  21409320.436   112506725.225       -1231.745          34.000  
G32  21008890.947   110402557.269       -1658.431          28.000  
J01  36322558.016   190876408.541          59.588          28.000  
> 2021  9 12 13  5  6.9992274  0  4
C06  36180600.591   188401838.988          -7.052          32.000  
G31  21409493.416   112507641.892       -1231.578          35.000  
G32  21009147.570   110403900.665       -1658.998          26.000  
J01  36322487.265   190876034.055          58.981          29.000  
> 2021  9 12 13  5  7.9992269  0  4
C06  36180453.094   188401065.410          -6.993          29.000  
G31  21409576.758   112508085.927       -1232.302          30.000  
G32  21009313.655   110404772.213       -1658.413          25.000  
J01  36322327.476   190875187.362          58.711          28.000  
> 2021  9 12 13  5  8.9992266  0  5
C06  36180364.355   188400604.300          -5.778          27.000  
G26  20169713.398   105992477.0671        -27.213          15.000  
G31  21409720.059   112508845.503       -1232.348          30.000  
G32  21009539.399   110405958.883       -1658.965          24.000  
J01  36322224.347   190874655.120          59.983          31.000  
> 2021  9 12 13  5  9.9992261  0  5
C16  36749744.881   191365746.8381         35.469          26.000  
G26  20169571.296   105991714.513         -20.505          14.000  
G31  21409803.701   112509289.810       -1231.824          30.000  
G32  21009704.584   110406830.851       -1660.307          24.000  
J01  36322064.258   190873807.647          59.603          28.000  
> 2021  9 12 13  5 10.9992259  0  5
C16  36749677.728   191365399.492          35.163          28.000  
G26  20169515.535   105991420.857         -25.695          13.000  
G31  21409977.581   112510206.693       -1232.061          32.000  
G32  21009962.106   110408177.874       -1665.418          21.000  
J01  36321993.207   190873434.631          58.873          24.000  
> 2021  9 12 13  5 11.9992253  0  3
C16  36749489.758   191364427.038          35.489          28.000  
G31  21410031.843   112510494.066       -1232.721          31.000  
J01  36321800.741   190872429.736          60.366          25.000  
> 2021  9 12 13  5 12.9992248  0  4
C16  36749332.966   191363610.761          36.364          30.000  
G31  21410116.685   112510938.908       -1232.504          30.000  
G32  21010267.894   110409777.1731      -1667.585          20.000  
J01  36321637.354   190871581.393          60.481          28.000  
> 2021  9 12 13  5 13.9992246  0  2
C16  36749265.813   191363262.182          36.821          28.000  
J01  36321566.303   190871205.855          60.465          29.000  
> 2021  9 12 13  5 14.9992241  0  5
C16  36749109.321   191362444.941          36.398          29.000  
G26  20168986.701   105988670.7341        -19.841          14.000  
G31  21410375.705   112512301.5311      -1233.002          33.000  
G32  21010696.298   110412001.8371      -1661.276          19.000  
J01  36321405.914   190870356.984          61.023          28.000  
> 2021  9 12 13  5 15.9992241  0  5
C06  36179620.570   188396740.2871         -5.889          31.000  
C16  36749102.426   191362409.210          35.270          29.000  
G26  20168987.600   105988691.222         -21.405          14.000  
G31  21410609.843   112513536.263       -1234.829          32.000  
J01  36321397.520   190870297.434          58.715          27.000  
> 2021  9 12 13  5 16.9992236  0  4
C06  36179473.072   188395965.916          -6.338          30.000  
C16  36748945.934   191361593.518          35.190          32.000  
G31  21410693.785   112513981.896       -1231.057          31.000  
J01  36321236.831   190869450.584          59.536          29.000  
> 2021  9 12 13  5 17.9992233  0  4
C06  36179384.633   188395503.610          -6.260          29.000  
C16  36748849.401   191361089.618          35.678          30.000  
G31  21410837.086   112514741.327       -1232.814          29.000  
J01  36321134.302   190868918.442          59.104          28.000  
> 2021  9 12 13  5 18.9992228  0  4
C06  36179236.236   188394729.098          -5.721          29.000  
C16  36748693.809   191360273.323          36.314          29.000  
G26  20168602.367   105986711.3781        -24.826          15.000  
J01  36320973.613   190868072.380          57.453          25.000  
> 2021  9 12 13  5 19.9992223  0  5
C06  36179087.539   188393954.281          -5.809          26.000  
C16  36748537.017   191359456.505          36.098          32.000  
G26  20168455.469   105985948.667         -26.138          15.000  
J01  36320813.224   190867226.372          58.748          27.000  
J02  39278642.362   206410658.3141      -1336.993          30.000  
> 2021  9 12 13  5 20.9992220  0  5
C06  36178999.700   188393491.243          -5.959          29.000  
C16  36748439.884   191358952.247          35.644          32.000  
G31  21411158.164   112516390.2401      -1229.680          29.000  
J01  36320710.995   190866695.023          59.043          24.000  
J02  39278805.449   206411521.912       -1335.189          30.000  
> 2021  9 12 13  5 21.9992215  0  7
C06  36178848.904   188392716.689          -6.104          30.000  
C16  36748284.892   191358135.807          36.211          27.000  
G26  20168225.228   105984738.3121        -24.801          16.000  
G31  21411241.506   112516833.759       -1232.604          36.000  
G32  21012149.392   110419552.1601      -1668.575          18.000  
J01  36320550.906   190865848.548          58.634          28.000  
J02  39278908.877   206412069.711       -1335.808          28.000  
> 2021  9 12 13  5 22.9992212  0  6
C06  36178759.566   188392254.154          -5.525          26.000  
C16  36748187.459   191357630.600          36.638          26.000  
G31  21411386.306   112517594.374       -1233.521          33.000  
G32  21012384.129   110420748.227       -1668.745          19.000  
J01  36320450.176   190865317.366          58.213          29.000  
J02  39279070.465   206412932.904       -1336.092          30.000  
> 2021  9 12 13  5 23.9992207  0  6
C06  36178610.869   188391478.450          -4.738          26.000  
C16  36748029.469   191356813.237          36.155          28.000  
G26  20167994.388   105983528.0171        -22.512          17.000  
G31  21411472.346   112518039.431       -1233.424          36.000  
J01  36320290.686   190864471.632          57.683          27.000  
J02  39279172.994   206413480.418       -1334.698          29.000  
> 2021  9 12 13  5 24.9992207  0  5
C06  36178612.068   188391482.448          -3.723          28.000  
C16  36748022.274   191356777.929          34.884          26.000  
G31  21411707.084   112519273.900       -1237.616          36.000  
J01  36320278.994   190864413.522          57.876          27.000  
J02  39279425.120   206414815.297       -1335.412          29.000  
> 2021  9 12 13  5 25.9992202  0  5
C06  36178463.371   188390705.813          -4.707          28.000  
C16  36747864.583   191355961.481          36.029          25.000  
G26  20167854.385   105982789.3221        -27.773          16.000  
G31  21411790.426   112519719.189       -1233.015          33.000  
J01  36320116.806   190863567.172          58.692          28.000  
> 2021  9 12 13  5 26.9992197  0  7
C06  36178313.475   188389929.922          -4.480          28.000  
C16  36747708.391   191355145.247          35.188          29.000  
G26  20167710.485   105982030.415         -30.205          16.000  
G31  21411877.666   112520164.393       -1232.355          33.000  
G32  21013207.359   110425074.6141      -1676.077          18.000  
J01  36319955.218   190862720.633          58.782          23.000  
J02  39279633.176   206415910.6221      -1335.739          30.000  
> 2021  9 12 13  5 27.9992195  0  7
C06  36178254.715   188389621.400          -4.189          27.000  
C16  36747641.237   191354797.789          35.375          29.000  
G26  20167657.122   105981747.936         -35.286          14.000  
G31  21412053.344   112521082.726       -1233.268          34.000  
G32  21013465.181   110426436.216       -1676.705          19.000  
J01  36319881.169   190862346.101          58.873          25.000  
J02  39279828.041   206416931.341       -1336.053          30.000  
> 2021  9 12 13  5 28.9992189  0  5
C06  36178077.538   188388689.827          -6.069          29.000  
C16  36747455.366   191353825.550          35.399          28.000  
G31  21412106.707   112521370.750       -1233.142          26.000  
G32  21013601.287   110427167.843       -1677.610          19.000  
J01  36319688.403   190861341.595          59.131          22.000  
> 2021  9 12 13  5 29.9992187  0  5
C06  36178019.378   188388383.810          -6.368          26.000  
C16  36747387.613   191353477.306          36.357          29.000  
G26  20167438.873   105980573.5391        -48.587          13.000  
G31  21412281.486   112522289.043       -1233.215          27.000  
J02  39280099.053   206418342.3591      -1335.179          26.000  
> 2021  9 12 13  5 30.9992182  0  6
C06  36177871.281   188387609.747          -5.906          28.000  
C16  36747231.421   191352660.067          36.721          25.000  
G26  20167295.272   105979831.606         -45.950          13.000  
G31  21412364.828   112522734.756       -1233.444          34.000  
J01  36319460.561   190860128.8981         53.100          21.000  
J02  39280203.081   206418888.596       -1334.029          23.000  
> 2021  9 12 13  5 31.9992179  0  5
C06  36177781.043   188387147.392          -6.508          27.000  
C16  36747134.288   191352155.197          36.044          28.000  
E01  24003890.752   126141297.2711      -2018.930          28.000  
G31  21412508.429   112523495.270       -1233.074          31.000  
J02  39280367.667   206419750.551       -1334.991          30.000  
> 2021  9 12 13  5 32.9992174  0  6
C06  36177630.248   188386373.313          -7.241          26.000  
C16  36746977.497   191351338.392          35.496          27.000  
E01  24004126.389   126142535.561       -2018.094          27.000  
G31  21412594.769   112523941.160       -1233.409          30.000  
J01  36319204.238   190858760.8951         53.222          20.000  
J02  39280472.295   206420297.627       -1335.565          30.000  
> 2021  9 12 13  5 33.9992172  0  5
C06  36177571.788   188386067.364          -5.976          28.000  
C16  36746911.542   191350990.857          34.544          29.000  
G31  21412767.450   112524858.730       -1232.192          25.000  
G32  21014684.137   110432896.4451      -1683.980          16.000  
J02  39280667.760   206421317.976       -1334.924          31.000  
> 2021  9 12 13  5 34.9992169  0  5
C06  36177483.349   188385604.129          -5.033          25.000  
C16  36746815.009   191350487.995          33.932          27.000  
G31  21412910.750   112525618.239       -1232.691          29.000  
J01  36319036.354   190857868.9671         53.132          24.000  
J02  39280835.044   206422181.690       -1337.462          29.000  
> 2021  9 12 13  5 35.9992164  0  4
C06  36177334.952   188384828.274          -5.107          28.000  
C16  36746657.618   191349672.408          35.161          28.000  
J01  36318878.663   190857027.701          55.435          22.000  
J02  39280943.569   206422731.192       -1336.998          21.000  
> 2021  9 12 13  5 36.9992161  0  5
C06  36177248.912   188384365.798          -6.225          24.000  
C16  36746561.085   191349168.252          35.814          22.000  
G31  21413138.593   112526824.5451      -1233.838          33.000  
G32  21015303.808   110436189.1961      -1670.616          18.000  
J01  36318774.636   190856498.616          57.806          24.000  
> 2021  9 12 13  5 37.9992156  0  4
C06  36177101.714   188383592.018          -6.827          25.000  
C16  36746406.092   191348350.731          37.525          26.000  
J01  36318612.148   190855652.430          58.966          27.000  
J02  39281223.575   206424143.6671      -1337.418          22.000  
> 2021  9 12 13  5 38.9992154  0  4
C06  36177047.451   188383286.318          -6.300          24.000  
G31  21413402.410   112528188.8991      -1233.809          25.000  
J01  36318537.799   190855278.458          58.282          28.000  
J02  39281418.440   206425164.499       -1335.978          22.000  
> 2021  9 12 13  5 39.9992148  0  4
C06  36176868.475   188382355.932          -7.499          25.000  
G31  21413460.270   112528478.293       -1234.516          30.000  
J01  36318345.033   190854275.790          57.041          29.000  
J02  39281493.688   206425557.514       -1339.468          20.000  
> 2021  9 12 13  5 40.9992143  0  4
C06  36176718.879   188381582.672          -6.697          20.000  
G31  21413546.310   112528925.163       -1234.880          31.000  
J01  36318183.445   190853431.836          55.214          27.000  
J02  39281604.311   206426109.477       -1340.911          19.000  
> 2021  9 12 13  5 41.9992141  0  4
C06  36176660.719   188381277.470          -8.481          18.000  
G31  21413722.289   112529844.620       -1235.674          25.000  
J01  36318110.295   190853062.423          52.977          30.000  
J02  39281799.176   206427133.353       -1339.077          18.000  
> 2021  9 12 13  5 42.9992136  0  4
C06  36176511.722   188380503.329          -4.134          21.000  
G31  21413812.526   112530292.550       -1235.776          22.000  
G32  21016460.407   110442277.7241      -1672.726          18.000  
J01  36317949.307   190852221.650          53.293          29.000  
> 2021  9 12 13  5 43.9992136  0  5
C06  36176512.322   188380507.116          -3.438          21.000  
G26  20166008.863   105973055.8101        -41.189          17.000  
G31  21414044.266   112531528.409       -1235.947          22.000  
G32  21016778.187   110443949.791       -1671.253          19.000  
J01  36317937.915   190852167.790          54.876          29.000  
> 2021  9 12 13  5 44.9992131  0  4
C06  36176360.327   188379729.957          -3.503          27.000  
G31  21414127.608   112531975.384       -1233.876          26.000  
G32  21016944.272   110444835.781       -1677.171          20.000  
J01  36317775.427   190851324.181          56.906          28.000  
> 2021  9 12 13  5 45.9992125  0  7
C06  36176178.952   188378795.749          -2.036          27.000  
C16  36745424.572   191343212.1011         34.456          29.000  
E04  23821482.331   125182676.5761        500.679          31.000  
G26  20165694.380   105971406.7181        -43.017          18.000  
G31  21414182.170   112532263.848       -1233.460          29.000  
G32  21017081.577   110445568.356       -1678.274          24.000  
J01  36317583.860   190850321.789          56.966          29.000  
> 2021  9 12 13  5 46.9992123  0  6
C06  36176118.694   188378486.261          -4.356          30.000  
C16  36745357.718   191342865.188          35.672          29.000  
E04  23821325.240   125181860.847         500.576          30.000  
G26  20165641.017   105971134.848         -43.756          19.000  
G31  21414356.350   112533182.451       -1233.842          33.000  
J01  36317512.209   190849949.163          57.516          30.000  
> 2021  9 12 13  5 47.9992118  0  7
C06  36175968.198   188377710.242          -5.299          30.000  
C16  36745200.027   191342047.885          36.897          29.000  
E04  23821078.211   125180572.778         500.269          33.000  
G26  20165497.716   105970391.213         -44.620          20.000  
G31  21414441.191   112533628.718       -1234.136          33.000  
G32  21017511.180   110447824.9411      -1679.398          26.000  
J01  36317350.621   190849103.693          57.567          29.000  
> 2021  9 12 13  5 48.9992115  0  6
C06  36175878.860   188377247.734          -6.349          26.000  
C16  36745101.695   191341541.857          37.468          28.000  
E04  23820892.639   125179599.791         500.185          30.000  
G26  20165415.873   105969963.830         -46.115          20.000  
G31  21414586.290   112534391.226       -1236.022          31.000  
J01  36317250.491   190848573.908          56.358          31.000  
> 2021  9 12 13  5 49.9992110  0  7
C06  36175728.664   188376473.343          -6.550          28.000  
C16  36744943.405   191340724.034          36.749          29.000  
E04  23820648.009   125178312.316         499.029          31.000  
G26  20165272.872   105969221.446         -44.702          25.000  
G31  21414669.033   112534838.242       -1234.646          29.000  
G32  21017905.707   110449923.3881      -1680.407          30.000  
J01  36317089.802   190847730.629          54.938          29.000  
> 2021  9 12 13  5 50.9992108  0  7
C06  36175668.406   188376167.036          -5.230          30.000  
C16  36744876.252   191340374.970          36.628          31.000  
E04  23820493.016   125177498.900         498.077          31.000  
G26  20165218.610   105968951.622         -46.272          22.000  
G31  21414843.213   112535756.909       -1234.047          30.000  
G32  21018163.528   110451288.800       -1680.664          30.000  
J01  36317020.550   190847360.315          54.258          27.000  
> 2021  9 12 13  5 51.9992102  0  7
C06  36175488.231   188375235.203          -4.341          29.000  
C16  36744687.982   191339401.614          36.518          30.000  
E04  23820217.207   125176054.383         499.704          31.000  
G26  20165045.330   105968054.958         -51.321          18.000  
G31  21414896.576   112536045.715       -1234.400          33.000  
G32  21018300.234   110452023.413       -1679.983          27.000  
J01  36316831.081   190846360.096          55.039          28.000  
> 2021  9 12 13  5 52.9992100  0  7
C06  36175428.272   188374927.417          -4.704          30.000  
C16  36744619.329   191339053.148          35.945          31.000  
E04  23820060.715   125175239.959         497.497          32.000  
G26  20164995.864   105967790.994         -51.258          20.000  
G31  21415069.856   112536965.172       -1234.399          33.000  
G32  21018557.755   110453389.310       -1681.588          25.000  
J01  36316760.030   190845989.600          55.676          30.000  
> 2021  9 12 13  5 53.9992097  0  5
C06  36175338.334   188374463.721          -4.674          31.000  
C16  36744522.496   191338548.406          36.773          29.000  
E04  23819877.242   125174270.077         497.933          32.000  
G32  21018784.998   110454598.880       -1682.749          25.000  
J01  36316658.401   190845460.878          56.042          28.000  
> 2021  9 12 13  5 54.9992092  0  5
C06  36175189.937   188373687.642          -4.563          30.000  
C16  36744366.305   191337730.512          37.274          28.000  
G31  21415301.595   112538176.8401      -1235.525          33.000  
G32  21018953.781   110455493.378       -1682.923          22.000  
J01  36316498.311   190844618.482          54.114          29.000  
> 2021  9 12 13  5 55.9992090  0  6
C06  36175130.278   188373379.522          -3.878          31.000  
C16  36744301.250   191337381.070          36.842          29.000  
G26  20164730.847   105966367.7771        -49.157          19.000  
G31  21415480.571   112539096.489       -1234.971          31.000  
G32  21019215.200   110456862.723       -1685.238          22.000  
J01  36316426.361   190844249.518          53.518          30.000  
> 2021  9 12 13  5 56.9992084  0  5
C06  36174952.502   188372446.733          -4.343          31.000  
C16  36744115.078   191336407.471          36.358          31.000  
G31  21415535.134   112539386.007       -1235.407          31.000  
G32  21019356.103   110457602.336       -1685.165          21.000  
J01  36316235.993   190843249.263          54.234          27.000  
> 2021  9 12 13  5 57.9992082  0  5
C06  36174892.243   188372138.680          -4.486          30.000  
C16  36744047.925   191336058.750          36.124          27.000  
G31  21415715.908   112540305.711       -1234.302          34.000  
G32  21019619.620   110458972.022       -1685.644          23.000  
J01  36316165.242   190842879.396          54.708          27.000  
> 2021  9 12 13  5 58.9992077  0  6
C06  36174743.246   188371362.813          -4.726          28.000  
C16  36743889.934   191335241.768          36.659          31.000  
G26  20164369.597   105964484.2091        -54.599          18.000  
G31  21415799.550   112540752.692       -1235.031          30.000  
G32  21019793.800   110459871.538       -1689.260          21.000  
J01  36316005.153   190842036.944          54.504          26.000  
> 2021  9 12 13  5 59.9992074  0  5
C06  36174656.007   188370899.517          -5.910          28.000  
C16  36743791.902   191334737.014          35.902          32.000  
G31  21415942.252   112541515.688       -1236.003          28.000  
G32  21020024.940   110461086.754       -1686.939          26.000  
J01  36315902.624   190841509.939          55.746          22.000  
> 2021  9 12 13  6  0.9992069  0  6
C06  36174508.209   188370125.035          -6.158          28.000  
C16  36743633.312   191333919.477          36.848          30.000  
G26  20164154.047   105963329.5731        -50.260          19.000  
G31  21416025.594   112541964.607       -1236.642          31.000  
G32  21020195.222   110461985.574       -1686.656          31.000  
J01  36315741.036   190840666.394          55.859          24.000  
> 2021  9 12 13  6  1.9992067  0  4
C06  36174449.750   188369818.551          -5.590          27.000  
C16  36743565.859   191333570.880          35.210          32.000  
G31  21416198.874   112542886.138       -1236.806          32.000  
J01  36315669.385   190840295.078          55.750          26.000  
> 2021  9 12 13  6  2.9992064  0  5
C06  36174360.112   188369355.439          -5.405          30.000  
C16  36743469.925   191333066.567          36.105          30.000  
G31  21416343.074   112543649.805       -1236.331          32.000  
G32  21020684.183   110464571.8071      -1687.406          31.000  
J01  36315569.255   190839766.802          54.796          27.000  
> 2021  9 12 13  6  3.9992059  0  4
C06  36174211.415   188368579.681          -3.729          29.000  
C16  36743312.834   191332249.541          36.837          28.000  
G32  21020854.465   110465471.341       -1687.818          29.000  
J01  36315409.165   190838924.667          54.713          28.000  
> 2021  9 12 13  6  4.9992056  0  6
C06  36174121.477   188368115.343          -4.894          29.000  
C16  36743214.502   191331744.564          36.811          28.000  
G26  20163801.790   105961479.6931        -51.834          19.000  
G31  21416576.912   112544859.0381      -1235.317          33.000  
G32  21021083.507   110466686.402       -1688.065          29.000  
J01  36315307.536   190838396.916          54.862          28.000  
> 2021  9 12 13  6  5.9992051  0  5
C06  36173973.080   188367339.642          -4.575          27.000  
C16  36743058.910   191330927.443          36.407          27.000  
G31  21416660.255   112545307.580       -1236.282          34.000  
G32  21021254.688   110467587.367       -1689.130          26.000  
J01  36315146.847   190837555.148          53.795          28.000  
> 2021  9 12 13  6  6.9992049  0  5
C06  36173914.020   188367031.782          -4.764          27.000  
C16  36742991.157   191330578.226          37.649          28.000  
G31  21416835.034   112546228.628       -1236.977          33.000  
G32  21021513.409   110468961.701       -1689.970          23.000  
J01  36315076.696   190837186.342          53.966          25.000  
> 2021  9 12 13  6  7.9992044  0  5
C06  36173764.724   188366255.537          -3.886          27.000  
C16  36742834.665   191329760.555          36.816          27.000  
G31  21416920.474   112546676.981       -1235.974          33.000  
G32  21021684.591   110469863.382       -1689.694          22.000  
J01  36314919.005   190836344.350          54.032          27.000  
> 2021  9 12 13  6  8.9992038  0  5
C06  36173585.748   188365322.953          -4.233          29.000  
C16  36742649.993   191328787.090          36.721          29.000  
G31  21416974.437   112546967.880       -1236.138          28.000  
G32  21021826.692   110470608.134       -1691.577          19.000  
J01  36314729.536   190835345.472          53.476          28.000  
> 2021  9 12 13  6  9.9992036  0  5
C06  36173526.089   188365014.957          -4.531          29.000  
C16  36742583.739   191328438.398          36.103          31.000  
G31  21417148.617   112547888.583       -1236.027          27.000  
G32  21022087.512   110471984.862       -1691.892          18.000  
J01  36314659.984   190834977.106          53.189          26.000  
> 2021  9 12 13  6 10.9992033  0  6
C06  36173435.851   188364550.607          -3.383          28.000  
C16  36742487.205   191327933.340          36.681          31.000  
G26  20163185.117   105958191.0051        -58.168          18.000  
G31  21417292.817   112548651.755       -1235.872          30.000  
G32  21022318.352   110473205.026       -1694.153          18.000  
J01  36314558.954   190834451.829          52.762          28.000  
> 2021  9 12 13  6 11.9992031  0  5
C06  36173377.392   188364242.123          -3.982          28.000  
C16  36742420.651   191327584.432          36.224          32.000  
G26  20163139.849   105957933.671         -57.757          17.000  
G31  21417466.996   112549572.661       -1235.875          29.000  
J01  36314488.803   190834083.180          53.581          26.000  
> 2021  9 12 13  6 12.9992026  0  4
C06  36173228.695   188363464.828          -3.116          28.000  
C16  36742263.260   191326767.843          35.845          31.000  
G32  21022755.749   110475493.1771      -1697.429          19.000  
J01  36314328.713   190833241.982          53.491          28.000  
> 2021  9 12 13  6 13.9992023  0  4
C06  36173141.155   188363000.446          -4.510          26.000  
C16  36742165.228   191326263.061          37.551          32.000  
G32  21022988.388   110476718.335       -1696.695          19.000  
J01  36314228.583   190832715.998          53.151          30.000  
> 2021  9 12 13  6 14.9992018  0  3
C06  36172992.758   188362224.243          -5.255          27.000  
C16  36742007.537   191325445.537          36.793          32.000  
J01  36314067.894   190831875.724          51.977          28.000  
> 2021  9 12 13  6 15.9992013  0  3
C06  36172843.761   188361448.837          -4.780          28.000  
C16  36741851.945   191324630.059          34.310          29.000  
J01  36313911.702   190831036.182          52.031          27.000  
> 2021  9 12 13  6 16.9992010  0  5
C06  36172754.423   188360984.623          -4.379          29.000  
C16  36741754.812   191324127.085          34.739          26.000  
G31  21418016.216   112552447.7751      -1236.887          33.000  
G32  21023569.386   110479754.8371      -1691.601          19.000  
J01  36313813.370   190830511.609          51.758          29.000  
> 2021  9 12 13  6 17.9992005  0  3
C06  36172604.827   188360208.468          -4.618          33.000  
C16  36741597.721   191323311.147          35.886          32.000  
J01  36313655.679   190829671.956          51.709          31.000  
> 2021  9 12 13  6 18.9992003  0  4
C06  36172544.868   188359900.377          -4.385          29.000  
C16  36741530.268   191322962.089          37.387          29.000  
G31  21418279.134   112553819.1021      -1236.987          31.000  
J01  36313587.327   190829306.012          50.464          29.000  
> 2021  9 12 13  6 19.9991997  0  4
C06  36172366.192   188358967.911          -3.946          30.000  
C16  36741343.497   191321987.566          37.671          29.000  
G31  21418332.197   112554110.704       -1237.433          28.000  
J01  36313400.856   190828312.016          47.995          28.000  
> 2021  9 12 13  6 20.9991995  0  4
C06  36172307.133   188358659.878          -3.841          29.000  
C16  36741275.744   191321638.047          37.210          32.000  
G31  21418508.475   112555032.440       -1236.769          29.000  
J01  36313332.203   190827948.579          48.757          28.000  
> 2021  9 12 13  6 21.9991992  0  7
C06  36172217.795   188358195.500          -4.223          25.000  
C16  36741177.112   191321132.877          36.303          31.000  
C28  26399716.656   137470252.0521       1403.449          25.000  
E01  24017549.297   126213072.9171      -2030.942          27.000  
G31  21418652.675   112555796.083       -1235.689          30.000  
G32  21024642.943   110485391.8551      -1695.329          20.000  
J01  36313230.873   190827425.826          51.092          26.000  
> 2021  9 12 13  6 22.9991987  0  5
C06  36172068.798   188357419.705          -4.444          26.000  
C16  36741019.721   191320316.245          36.100          28.000  
E01  24017784.334   126214308.207       -2032.085          29.000  
G31  21418738.116   112556244.536       -1237.134          30.000  
J01  36313069.885   190826586.586          52.525          30.000  
> 2021  9 12 13  6 23.9991985  0  4
C06  36172010.938   188357110.918          -2.514          27.000  
C16  36740952.868   191319968.213          35.559          26.000  
G31  21418915.893   112557166.836       -1238.147          28.000  
J01  36312998.534   190826218.514          53.089          28.000  
> 2021  9 12 13  6 24.9991980  0  4
C16  36740796.076   191319152.622          34.298          24.000  
C28  26398550.464   137464162.9861       1405.964          22.000  
G31  21419003.432   112557616.025       -1236.313          23.000  
J01  36312836.946   190825378.157          51.335          29.000  
> 2021  9 12 13  6 25.9991977  0  6
C06  36171775.301   188355869.2891         -5.942          22.000  
C16  36740698.344   191318648.267          36.156          27.000  
C28  26398190.413   137462289.066        1404.862          23.000  
G26  20161677.461   105950262.1091        -67.999          17.000  
G31  21419151.230   112558379.263       -1235.913          26.000  
J01  36312735.916   190824854.081          51.160          28.000  
> 2021  9 12 13  6 26.9991972  0  7
C06  36171624.505   188355094.439          -5.338          25.000  
C16  36740541.552   191317830.930          37.307          27.000  
C28  26397767.106   137460103.152        1406.898          27.000  
G26  20161541.955   105949543.708         -70.140          18.000  
G31  21419236.971   112558827.920       -1236.689          33.000  
G32  21025662.537   110490698.7811      -1693.946          17.000  
J01  36312575.227   190824015.032          51.387          29.000  
> 2021  9 12 13  6 27.9991967  0  4
C16  36740384.161   191317012.580          37.337          28.000  
C28  26397344.699   137457915.430        1406.487          27.000  
G31  21419322.112   112559276.879       -1236.905          34.000  
J01  36312414.239   190823176.559          50.082          29.000  
> 2021  9 12 13  6 28.9991964  0  5
C16  36740288.228   191316507.120          36.257          29.000  
C28  26396985.247   137456040.385        1407.100          27.000  
G31  21419465.413   112560041.476       -1238.097          30.000  
G32  21026075.051   110492830.4861      -1693.723          16.000  
J01  36312313.508   190822653.798          49.659          28.000  
> 2021  9 12 13  6 29.9991962  0  5
C16  36740223.772   191316159.546          34.978          26.000  
C28  26396651.878   137454320.250        1407.558          24.000  
G31  21419639.292   112560964.284       -1237.358          28.000  
G32  21026335.871   110494209.464       -1694.012          16.000  
J01  36312240.959   190822287.561          50.729          24.000  
> 2021  9 12 13  6 30.9991959  0  5
C16  36740126.340   191315655.833          35.862          29.000  
C28  26396290.928   137452444.110        1407.494          23.000  
G31  21419783.492   112561729.361       -1237.777          29.000  
G32  21026564.912   110495431.477       -1695.026          17.000  
J01  36312141.727   190821764.188          50.330          27.000  
> 2021  9 12 13  6 31.9991954  0  3
C16  36739970.448   191314839.802          35.176          30.000  
C28  26395870.919   137450256.760        1405.737          27.000  
J01  36311981.938   190820925.662          50.986          29.000  
> 2021  9 12 13  6 32.9991949  0  5
C16  36739814.256   191314023.268          35.938          30.000  
C28  26395451.509   137448071.637        1405.379          24.000  
G31  21419956.772   112562630.7601      -1239.074          30.000  
G32  21026902.778   110497250.0731      -1699.455          28.000  
J01  36311824.547   190820087.125          50.933          29.000  
> 2021  9 12 13  6 33.9991946  0  7
C06  36170847.743   188351066.9911         -4.556          30.000  
C16  36739717.723   191313518.129          36.614          29.000  
C28  26395089.959   137446197.290        1406.705          23.000  
G26  20160847.636   105945976.4171        -69.886          14.000  
G31  21420101.572   112563397.317       -1239.350          32.000  
G32  21027132.419   110498477.437       -1700.383          27.000  
J01  36311726.815   190819564.226          49.939          27.000  
> 2021  9 12 13  6 34.9991941  0  6
C06  36170699.346   188350291.053          -4.818          30.000  
C16  36739560.931   191312700.592          36.964          29.000  
G26  20160707.633   105945257.877         -68.271          15.000  
G31  21420185.214   112563848.358       -1239.070          33.000  
G32  21027306.599   110499390.773       -1700.896          22.000  
J01  36311568.824   190818726.996          48.741          27.000  
> 2021  9 12 13  6 35.9991939  0  6
C06  36170639.987   188349983.488          -4.854          30.000  
C16  36739493.478   191312351.476          35.943          30.000  
G26  20160658.766   105945013.694         -71.692          17.000  
G31  21420359.094   112564771.188       -1237.568          32.000  
G32  21027569.217   110500777.474       -1703.363          26.000  
J01  36311498.972   190818362.931          48.646          26.000  
> 2021  9 12 13  6 36.9991933  0  5
C06  36170461.910   188349051.505          -4.491          29.000  
C16  36739306.707   191311378.836          35.841          28.000  
G31  21420413.356   112565063.757       -1238.775          30.000  
G32  21027710.419   110501534.579       -1702.127          23.000  
J01  36311308.304   190817368.622          49.189          29.000  
> 2021  9 12 13  6 37.9991931  0  8
C06  36170402.252   188348744.330          -5.572          28.000  
C16  36739240.753   191311030.512          35.983          27.000  
C28  26393566.714   137438226.1631       1412.422          15.000  
E01  24021916.074   126236020.8551      -2036.145          27.000  
G26  20160448.312   105943895.4191        -71.433          18.000  
G31  21420590.234   112565986.424       -1237.152          30.000  
G32  21027971.838   110502921.520       -1702.087          21.000  
J01  36311238.752   190817003.884          48.492          27.000  
> 2021  9 12 13  6 38.9991928  0  6
C06  36170312.614   188348280.817          -3.762          25.000  
C16  36739144.519   191310525.326          38.597          25.000  
C28  26393206.963   137436345.518        1411.235          15.000  
E01  24022214.367   126237588.229       -2036.418          25.000  
G32  21028204.177   110504151.509       -1703.577          23.000  
J01  36311137.423   190816481.509          49.553          24.000  
> 2021  9 12 13  6 39.9991923  0  4
C06  36170163.917   188347502.934          -2.707          26.000  
G26  20160231.862   105942783.3711        -75.500          18.000  
G32  21028377.157   110505066.976       -1703.696          19.000  
J01  36310977.034   190815643.296          52.072          27.000  
> 2021  9 12 13  6 40.9991921  0  2
C06  36170104.558   188347193.762          -3.635          27.000  
J01  36310907.782   190815277.762          48.295          23.000  
> 2021  9 12 13  6 41.9991916  0  4
C06  36169956.160   188346416.599          -3.513          25.000  
C28  26392040.471   137430231.7661       1407.440          15.000  
G32  21028819.951   110507376.5381      -1707.666          18.000  
J01  36310749.491   190814441.012          49.032          27.000  
> 2021  9 12 13  6 42.9991913  0  3
C06  36169865.923   188345950.747          -1.502          24.000  
C28  26391681.619   137428357.820        1399.471          15.000  
J01  36310649.660   190813919.046          50.283          25.000  
> 2021  9 12 13  6 43.9991908  0  4
C06  36169717.825   188345172.419          -3.466          27.000  
C28  26391265.207   137426178.698        1400.877          14.000  
G26  20159853.824   105940725.7141        -78.202          16.000  
J01  36310490.770   190813081.162          49.557          29.000  
> 2021  9 12 13  6 44.9991905  0  4
C06  36169627.888   188344707.374          -3.672          28.000  
G31  21421466.827   112570557.0491      -1237.804          33.000  
G32  21029475.297   110510768.4601      -1707.349          20.000  
J01  36310393.638   190812558.184          50.282          29.000  
> 2021  9 12 13  6 45.9991900  0  5
C06  36169479.490   188343930.271          -3.936          29.000  
C16  36738255.635   191305894.9491         37.375          30.000  
G31  21421553.467   112571007.971       -1237.875          31.000  
G32  21029650.076   110511686.947       -1707.275          24.000  
J01  36310233.548   190811720.307          49.989          31.000  
> 2021  9 12 13  6 46.9991898  0  5
C06  36169420.131   188343621.815          -3.705          27.000  
C16  36738187.882   191305545.446          37.727          28.000  
G31  21421726.747   112571930.598       -1237.898          32.000  
G32  21029911.495   110513079.579       -1707.547          24.000  
J01  36310164.296   190811355.352          49.630          33.000  
> 2021  9 12 13  6 47.9991895  0  6
C06  36169330.793   188343157.244          -4.170          28.000  
C16  36738091.049   191305039.861          37.243          28.000  
G26  20159536.943   105938991.8671        -78.817          16.000  
G31  21421872.446   112572696.737       -1239.215          34.000  
G32  21030144.134   110514315.371       -1708.661          30.000  
J01  36310064.765   190810833.300          49.982          32.000  
> 2021  9 12 13  6 48.9991890  0  5
C06  36169182.096   188342380.003          -3.231          28.000  
C16  36737933.958   191304221.405          37.691          26.000  
G31  21421955.489   112573148.098       -1239.345          31.000  
G32  21030317.414   110515236.459       -1709.997          33.000  
J01  36309903.477   190809995.665          50.141          31.000  
> 2021  9 12 13  6 49.9991887  0  6
C06  36169091.559   188341914.893          -3.190          28.000  
C16  36737836.825   191303715.754          37.237          28.000  
E01  24025242.271   126253500.0071      -2037.236          30.000  
G31  21422101.788   112573913.836       -1238.923          34.000  
G32  21030553.351   110516474.124       -1711.143          28.000  
J01  36309802.747   190809473.054          48.126          28.000  
> 2021  9 12 13  6 50.9991882  0  5
C06  36168944.361   188341136.601          -3.076          28.000  
C16  36737680.633   191302897.858          37.786          29.000  
E01  24025480.306   126254750.297       -2037.110          31.000  
G26  20159195.180   105937177.4121        -73.352          14.000  
J01  36309642.058   190808637.821          47.278          26.000  
> 2021  9 12 13  6 51.9991880  0  6
C06  36168885.602   188340826.854          -2.988          27.000  
C16  36737612.580   191302547.868          37.080          28.000  
G26  20159150.511   105936935.670         -76.441          13.000  
G31  21422359.309   112575289.0941      -1239.266          27.000  
G32  21030994.346   110518795.8671      -1714.443          23.000  
J01  36309572.506   190808275.732          46.711          29.000  
> 2021  9 12 13  6 52.9991875  0  5
C06  36168737.204   188340049.513          -4.263          28.000  
C16  36737454.889   191301730.276          37.007          30.000  
G31  21422443.551   112575740.360       -1238.760          28.000  
G32  21031171.223   110519722.451       -1714.707          22.000  
J01  36309412.117   190807440.265          48.869          26.000  
> 2021  9 12 13  6 53.9991872  0  2
C06  36168647.267   188339584.894          -3.840          30.000  
C16  36737358.956   191301225.008          36.537          33.000  
> 2021  9 12 13  6 54.9991867  0  4
C06  36168497.071   188338808.613          -4.718          29.000  
C16  36737202.164   191300407.535          37.200          32.000  
G32  21031587.335   110521893.3151      -1715.150          20.000  
J01  36309160.591   190806085.3371         47.298          23.000  
> 2021  9 12 13  6 55.9991862  0  4
C06  36168347.174   188338032.791          -4.855          31.000  
C16  36737044.174   191299588.989          37.915          31.000  
G31  21422763.429   112577407.9271      -1239.746          31.000  
J01  36309000.502   190805250.139          47.170          29.000  
> 2021  9 12 13  6 56.9991859  0  5
C06  36168258.136   188337568.656          -3.924          33.000  
C16  36736947.940   191299082.480          38.100          28.000  
G26  20158602.490   105934059.3451        -96.420          14.000  
G32  21032006.145   110524062.0611      -1710.643          18.000  
J01  36308900.371   190804729.827          48.640          28.000  
> 2021  9 12 13  6 57.9991857  0  6
C06  36168199.377   188337260.048          -3.795          31.000  
C16  36736878.988   191298732.158          37.553          29.000  
E01  24027447.844   126265089.7471      -2038.663          31.000  
E04  23806731.043   125105217.6281        478.896          29.000  
G31  21423094.700   112579100.3101      -1238.482          34.000  
J01  36308829.021   190804365.798          48.818          29.000  
> 2021  9 12 13  6 58.9991854  0  7
C06  36168107.340   188336796.007          -2.900          32.000  
C16  36736780.656   191298226.603          36.904          30.000  
E01  24027746.437   126266659.121       -2039.191          30.000  
E04  23806550.568   125104266.145         480.027          27.000  
G31  21423236.802   112579865.855       -1238.127          32.000  
G32  21032511.895   110526696.8611      -1712.628          17.000  
J01  36308727.991   190803844.127          49.029          30.000  
> 2021  9 12 13  6 59.9991849  0  6
C06  36167957.144   188336018.003          -2.110          30.000  
C16  36736622.665   191297408.631          38.299          30.000  
E01  24027984.772   126267911.411       -2039.328          28.000  
G31  21423321.043   112580316.394       -1238.668          29.000  
G32  21032691.471   110527624.254       -1718.300          16.000  
J01  36308568.801   190803006.991          48.801          29.000  
> 2021  9 12 13  7  0.9991846  0  6
C06  36167867.806   188335552.074          -2.670          29.000  
C16  36736525.533   191296902.567          37.246          31.000  
E01  24028282.466   126269475.785       -2040.312          28.000  
G31  21423466.743   112581083.324       -1240.024          30.000  
G32  21032929.506   110528869.457       -1718.302          15.000  
J01  36308469.570   190802485.841          48.353          29.000  
> 2021  9 12 13  7  1.9991841  0  5
C06  36167718.210   188334774.277          -2.924          30.000  
C16  36736368.142   191296084.282          38.235          29.000  
G31  21423552.483   112581535.777       -1240.447          29.000  
G32  21033108.482   110529800.635       -1719.958          15.000  
J01  36308310.380   190801650.040          47.832          30.000  
> 2021  9 12 13  7  2.9991836  0  3
C06  36167569.513   188333996.735          -3.242          28.000  
C16  36736211.350   191295265.626          38.320          30.000  
J01  36308153.289   190800815.425          46.002          30.000  
> 2021  9 12 13  7  3.9991834  0  3
C06  36167511.653   188333687.726          -3.809          29.000  
C16  36736145.096   191294915.241          37.921          23.000  
J01  36308087.634   190800454.044          45.388          25.000  
> 2021  9 12 13  7  4.9991828  0  4
C06  36167330.878   188332754.268          -3.768          22.000  
C16  36735957.126   191293940.554          37.964          28.000  
G31  21423876.259   112583204.8581      -1238.225          32.000  
J01  36307902.662   190799462.781          44.784          27.000  
> 2021  9 12 13  7  5.9991826  0  5
C06  36167270.320   188332445.902          -3.810          25.000  
C16  36735889.973   191293590.411          37.931          32.000  
G26  20157748.681   105929655.5891        -89.021          17.000  
G31  21424050.139   112584128.017       -1238.597          30.000  
J01  36307837.907   190799102.469          46.202          24.000  
> 2021  9 12 13  7  6.9991823  0  5
C06  36167180.982   188331981.294          -3.981          31.000  
C16  36735793.140   191293084.034          37.803          29.000  
G26  20157679.429   105929270.600         -86.045          17.000  
G31  21424193.440   112584894.532       -1239.495          32.000  
J01  36307740.774   190798584.094          45.961          25.000  
> 2021  9 12 13  7  7.9991821  0  6
C06  36167122.222   188331672.755          -4.098          30.000  
C16  36735726.885   191292734.717          36.573          28.000  
G26  20157633.860   105929045.962         -91.894          17.000  
G31  21424367.019   112585818.911       -1239.657          33.000  
G32  21034476.135   110536978.6161      -1723.684          16.000  
J01  36307670.623   190798223.476          45.186          26.000  
> 2021  9 12 13  7  8.9991816  0  4
C06  36166973.825   188330895.855          -3.405          28.000  
C16  36735569.195   191291917.375          37.082          30.000  
G31  21424450.062   112586269.540       -1237.985          28.000  
J01  36307510.234   190797389.359          46.593          26.000  
> 2021  9 12 13  7  9.9991811  0  4
C06  36166826.327   188330118.638          -4.032          28.000  
C16  36735414.202   191291099.511          37.566          30.000  
G26  20157364.347   105927661.5311        -95.753          17.000  
J01  36307351.943   190796555.162          46.458          26.000  
> 2021  9 12 13  7 10.9991808  0  5
C06  36166739.088   188329653.141          -2.532          27.000  
C16  36735317.969   191290593.221          38.038          29.000  
G31  21424681.502   112587486.5201      -1239.472          31.000  
G32  21035067.326   110540092.7191      -1719.788          16.000  
J01  36307248.215   190796034.857          47.365          25.000  
> 2021  9 12 13  7 11.9991803  0  4
C06  36166589.791   188328875.429          -3.708          28.000  
C16  36735160.578   191289774.918          37.213          29.000  
G26  20157155.691   105926592.0851        -92.618          17.000  
J01  36307086.927   190795199.924          47.841          27.000  
> 2021  9 12 13  7 12.9991800  0  4
C06  36166499.553   188328409.730          -2.492          29.000  
C16  36735062.246   191289268.466          38.305          28.000  
G31  21424916.539   112588705.8431      -1239.772          32.000  
J01  36306986.196   190794678.996          47.175          29.000  
> 2021  9 12 13  7 13.9991795  0  5
C06  36166350.557   188327631.474          -2.808          28.000  
C16  36734904.855   191288449.799          38.878          31.000  
G26  20156952.432   105925514.5881        -92.761          17.000  
G31  21425000.481   112589157.769       -1239.680          29.000  
J01  36306825.808   190793844.017          47.698          26.000  
> 2021  9 12 13  7 14.9991793  0  4
C06  36166292.697   188327321.562          -1.782          27.000  
C16  36734837.401   191288099.025          37.406          29.000  
G31  21425176.159   112590082.337       -1239.506          30.000  
J01  36306755.956   190793482.159          46.455          24.000  
> 2021  9 12 13  7 15.9991790  0  4
C06  36166202.759   188326855.128          -2.335          24.000  
C16  36734739.669   191287593.621          36.665          25.000  
G32  21036157.071   110545845.5731      -1724.215          15.000  
J01  36306657.324   190792963.086          46.505          28.000  
> 2021  9 12 13  7 16.9991785  0  5
C06  36166051.963   188326076.328          -2.029          28.000  
C16  36734582.278   191286775.576          37.731          29.000  
G26  20156691.313   105924219.8921        -95.154          18.000  
G31  21425409.098   112591301.6891      -1240.152          31.000  
J01  36306498.734   190792128.780          46.471          26.000  
> 2021  9 12 13  7 17.9991782  0  4
C06  36165962.025   188325610.751          -3.804          29.000  
C16  36734485.445   191286269.504          37.703          31.000  
G31  21425556.596   112592068.508       -1239.026          31.000  
J01  36306399.503   190791609.395          46.235          28.000  
> 2021  9 12 13  7 18.9991777  0  4
C06  36165811.530   188324833.596          -3.557          31.000  
C16  36734330.152   191285451.110          37.894          29.000  
G26  20156481.458   105923150.4901        -96.555          24.000  
J01  36306240.912   190790775.972          45.729          26.000  
> 2021  9 12 13  7 19.9991775  0  6
C06  36165752.770   188324524.374          -3.548          27.000  
C16  36734262.399   191285100.885          38.199          31.000  
E04  23802279.125   125081823.1671        473.574          31.000  
G26  20156436.789   105922931.890         -95.915          20.000  
G32  21037014.478   110550385.5571      -1724.070          24.000  
J01  36306172.260   190790414.568          44.861          25.000  
> 2021  9 12 13  7 20.9991770  0  5
C06  36165603.174   188323747.344          -3.338          27.000  
C16  36734104.708   191284282.368          37.699          29.000  
E04  23802039.591   125080562.528         473.443          32.000  
J01  36306013.670   190789581.485          46.197          28.000  
R02  19999484.945   106721267.9751      -3240.203          31.000  
> 2021  9 12 13  7 21.9991767  0  5
C16  36734007.876   191283775.856          38.141          28.000  
E04  23801860.015   125079616.848         472.717          33.000  
G31  21426054.251   112594665.4211      -1240.186          31.000  
J01  36305912.340   190789061.298          47.828          27.000  
R02  20000003.885   106724028.537       -3240.949          32.000  
> 2021  9 12 13  7 22.9991762  0  5
C16  36733850.484   191282956.984          38.614          28.000  
E04  23801620.481   125078355.864         473.080          31.000  
G26  20156103.420   105921173.6911        -97.960          18.000  
J01  36305750.452   190788225.606          47.805          27.000  
R02  20000460.469   106726470.402       -3241.836          28.000  
> 2021  9 12 13  7 23.9991757  0  6
C16  36733692.794   191282137.417          39.256          27.000  
E04  23801380.647   125077096.178         469.963          33.000  
G26  20155970.012   105920486.429        -102.311          18.000  
G32  21037759.762   110554173.4781      -1723.572          25.000  
J01  36305590.663   190787390.161          46.538          24.000  
R02  20000915.554   106728911.989       -3241.497          28.000  
> 2021  9 12 13  7 24.9991754  0  6
C16  36733595.961   191281630.283          38.676          28.000  
E04  23801200.772   125076152.217         472.022          33.000  
G31  21426378.027                       -1243.621          35.000  
G32  21037995.699   110555425.004       -1724.656          27.000  
J01  36305493.530   190786871.002          46.077          29.000  
R02  20001433.296   106731674.359       -3243.116          32.000  
> 2021  9 12 13  7 25.9991752  0  7
C16  36733528.208   191281279.702          38.102          29.000  
E04  23801050.276   125075365.511         471.810          32.000  
G26  20155857.890   105919902.4721       -100.869          18.000  
G31  21426554.605   112597301.9091      -1243.119          33.000  
G32  21038262.514   110556834.583       -1724.900          26.000  
J01  36305427.276   190786509.736          46.012          31.000  
R02  20001979.818   106734597.552       -3244.694          34.000  
> 2021  9 12 13  7 26.9991749  0  6
C16  36733431.375   191280773.625          36.704          28.000  
E04  23800871.599   125074423.570         469.083          33.000  
G31  21426700.304   112598070.113       -1239.758          33.000  
G32  21038499.350   110558086.725       -1725.017          28.000  
J01  36305328.644   190785991.823          44.869          31.000  
R02  20002497.559   106737363.045       -3245.930          31.000  
> 2021  9 12 13  7 27.9991744  0  6
C16  36733273.384   191279955.661          37.814          29.000  
E04  23800632.365   125073164.480         472.738          32.000  
G31  21426786.045   112598522.503       -1240.746          33.000  
G32  21038676.827   110559024.980       -1726.681          27.000  
J01  36305169.454   190785158.331          45.298          30.000  
R02  20002956.841   106739809.233       -3246.900          33.000  
> 2021  9 12 13  7 28.9991741  0  6
C16  36733175.052   191279449.132          38.082          28.000  
E04  23800452.789   125072220.559         469.929          31.000  
G31  21426932.343   112599292.543       -1243.029          31.000  
G32  21038914.563   110560278.804       -1726.546          28.000  
J01  36305071.422   190784640.151          44.911          30.000  
R02  20003473.084   106742575.114       -3245.777          32.000  
> 2021  9 12 13  7 29.9991736  0  4
C16  36733018.860   191278630.400          38.732          30.000  
G31  21427018.084   112599746.381       -1240.413          27.000  
G32  21039094.138   110561217.824       -1727.506          26.000  
R02  20003933.565   106745021.199       -3246.395          33.000  
> 2021  9 12 13  7 30.9991731  0  6
C16  36732860.870   191277810.910          39.229          29.000  
G26  20155335.352   105917115.2281       -104.414          19.000  
G31  21427103.825   112600199.059       -1239.864          33.000  
G32  21039271.915   110562157.794       -1728.607          27.000  
J01  36304759.038   190782975.4761         44.146          26.000  
R02  20004391.348   106747468.852       -3248.508          29.000  
> 2021  9 12 13  7 31.9991729  0  5
C16  36732794.615   191277459.359          38.631          30.000  
G31  21427276.505   112601123.720       -1241.679          33.000  
G32  21039539.630   110563571.358       -1729.497          24.000  
J01  36304690.086   190782615.907          44.703          32.000  
R02  20004939.369   106750398.726       -3249.688          23.000  
> 2021  9 12 13  7 32.9991724  0  6
C16  36732638.124   191276640.840          37.839          31.000  
G26  20155173.764   105916224.5831       -107.668          18.000  
G31  21427362.546   112601577.358       -1240.912          31.000  
G32  21039718.006   110564514.002       -1730.867          21.000  
J01  36304532.095   190781783.385          44.962          32.000  
R02  20005397.452   106752848.384       -3249.371          29.000  
> 2021  9 12 13  7 33.9991721  0  5
C06  36164139.587   188316130.8171         -3.761          30.000  
C16  36732540.991   191276134.273          38.364          30.000  
G31  21427510.043   112602345.171       -1240.032          32.000  
J01  36304433.464   190781267.231          43.777          31.000  
R02  20005913.994   106755617.600       -3249.021          31.000  
> 2021  9 12 13  7 34.9991718  0  6
C06  36164049.050   188315665.909          -3.736          28.000  
C16  36732444.158   191275628.192          38.033          30.000  
G31  21427655.143   112603113.020       -1240.501          29.000  
G32  21040194.976   110567025.1961      -1728.571          14.000  
J01  36304332.733   190780750.588          43.843          29.000  
R02  20006433.534   106758386.915       -3249.976          28.000  
> 2021  9 12 13  7 35.9991716  0  5
C06  36163988.792   188315357.712          -4.144          25.000  
C16  36732377.604   191275277.540          39.019          29.000  
G31  21427830.522   112604038.127       -1240.335          31.000  
J01  36304263.481   190780392.437          42.393          27.000  
R02  20006983.054   106761317.069       -3250.877          30.000  
> 2021  9 12 13  7 36.9991711  0  5
C06  36163839.795   188314581.303          -4.859          28.000  
C16  36732219.314   191274458.426          38.635          30.000  
G31  21427916.862   112604491.608       -1241.557          31.000  
J01  36304103.992   190779562.175          41.905          29.000  
R02  20007444.135   106763770.157       -3255.117          29.000  
> 2021  9 12 13  7 37.9991706  0  6
C06  36163691.098   188313804.912          -2.816          26.000  
C16  36732062.222   191273638.280          39.590          30.000  
G26  20154726.773   105913921.9511       -108.203          24.000  
G32  21040831.136   110570326.7671      -1730.146          19.000  
J01  36303945.402   190778731.967          43.013          27.000  
R02  20007908.813   106766224.946       -3254.114          25.000  
> 2021  9 12 13  7 38.9991703  0  2
C06  36163601.460   188313339.482          -2.849          27.000  
C16  36731965.689   191273130.523          38.378          30.000  
> 2021  9 12 13  7 39.9991698  0  5
C06  36163452.463   188312560.899          -1.999          29.000  
C16  36731809.497   191272311.318          38.375          28.000  
G32  21041250.545   110572524.9501      -1728.779          20.000  
J01  36303688.180   190777383.1591         45.503          31.000  
R02  20008904.424   106771456.5631      -3255.235          26.000  
> 2021  9 12 13  7 40.9991695  0  5
C06  36163363.724   188312094.232          -2.072          27.000  
C16  36731714.763   191271804.652          37.595          27.000  
G32  21041489.180   110573781.794       -1729.952          25.000  
J01  36303588.948   190776865.872          43.587          32.000  
R02  20009426.962   106774231.277       -3253.825          29.000  
> 2021  9 12 13  7 41.9991690  0  6
C06  36163215.327   188311315.533          -1.529          27.000  
C16  36731557.372   191270986.622          36.991          29.000  
G26  20154340.940   105911832.5211       -103.567          14.000  
G32  21041671.154   110574726.731       -1734.633          25.000  
J01  36303430.058   190776034.660          43.138          27.000  
R02  20009893.739   106776685.722       -3255.526          26.000  
> 2021  9 12 13  7 42.9991685  0  6
C06  36163066.330   188310537.193          -3.049          28.000  
C16  36731399.981   191270168.724          37.723          30.000  
G26  20154212.029   105911150.747        -108.099          15.000  
G32  21041852.529   110575674.490       -1736.898          28.000  
J01  36303273.567   190775204.034          41.833          29.000  
R02  20010353.620   106779141.562       -3256.459          28.000  
> 2021  9 12 13  7 43.9991685  0  6
C06  36163068.129   188310539.544          -2.143          28.000  
C16  36731391.887   191270130.985          37.828          31.000  
G31  21428794.954   112609078.0921      -1241.462          31.000  
G32  21042182.900   110577412.160       -1737.690          31.000  
J01  36303266.072   190775162.046          42.105          28.000  
R02  20010966.696   106782398.534       -3258.119          28.000  
> 2021  9 12 13  7 44.9991680  0  6
C06  36162918.832   188309761.331          -2.647          30.000  
C16  36731235.095   191269313.273          36.802          30.000  
G31  21428882.194   112609531.791       -1241.316          31.000  
G32  21042363.375   110578363.108       -1739.001          32.000  
J01  36303106.882   190774332.360          41.968          32.000  
R02  20011426.578   106784857.076       -3259.104          26.000  
> 2021  9 12 13  7 45.9991677  0  7
C06  36162828.595   188309294.750          -1.516          29.000  
C16  36731138.262   191268807.371          38.330          29.000  
E04  23797021.965   125054183.6651        464.068          27.000  
G31  21429028.192   112610299.332       -1239.679          31.000  
G32  21042604.108   110579629.242       -1738.336          28.000  
J01  36303009.450   190773817.391          42.665          31.000  
R02  20011947.017   106787636.512       -3260.162          26.000  
> 2021  9 12 13  7 46.9991672  0  7
C06  36162679.898   188308515.787          -2.130          26.000  
C16  36730982.370   191267987.737          39.219          29.000  
E04  23796784.229   125052932.010         464.127          27.000  
G31  21429113.334   112610751.801       -1239.849          29.000  
G32  21042782.485   110580579.609       -1738.087          27.000  
J01  36302851.759   190772986.794          43.170          33.000  
R02  20012408.998   106790096.567       -3260.137          26.000  
> 2021  9 12 13  7 47.9991670  0  6
C16  36730917.015   191267635.868          39.434          28.000  
G26  20153871.465   105909341.0501       -107.848          16.000  
G31  21429289.012   112611677.577       -1241.549          30.000  
G32  21043050.499   110582001.566       -1735.750          29.000  
J01  36302785.505   190772628.657          42.626          30.000  
R02  20012957.618   106793036.797       -3260.244          26.000  
> 2021  9 12 13  7 48.9991665  0  6
C06  36162473.041   188307425.1081          0.049          28.000  
C16  36730762.023   191266815.926          38.530          30.000  
G31  21429375.052   112612131.886       -1242.477          33.000  
G32  21043230.375   110582948.852       -1734.235          30.000  
J01  36302627.514   190771798.564          41.629          29.000  
R02  20013415.701   106795497.670       -3260.788          28.000  
> 2021  9 12 13  7 49.9991660  0  8
C06  36162322.845   188306644.630          -0.380          28.000  
C16  36730604.931   191265997.172          37.612          30.000  
G26  20153618.440   105907983.3621       -110.501          16.000  
G31  21429461.393   112612585.917       -1241.939          30.000  
G32  21043409.351   110583894.722       -1734.158          29.000  
J01  36302469.823   190770969.316          41.083          28.000  
J02  39299799.615   206521908.8191      -1329.195          30.000  
R02  20013875.282   106797958.577       -3261.269          30.000  
> 2021  9 12 13  7 50.9991657  0  6
C06  36162233.207   188306177.602          -1.707          27.000  
C16  36730506.899   191265491.531          36.963          31.000  
G31  21429607.991   112613355.651       -1243.083          28.000  
G32  21043651.583   110585156.954       -1735.919          26.000  
J01  36302372.091   190770455.448          40.572          26.000  
J02  39299960.903   206522765.483       -1329.346          25.000  
> 2021  9 12 13  7 51.9991652  0  8
C06  36162084.210   188305399.680          -3.575          28.000  
C16  36730349.208   191264674.100          36.844          30.000  
E01  24042316.651   126343226.6371      -2049.388          28.000  
E04  23795743.350   125047461.3781        461.945          29.000  
G31  21429695.830   112613810.955       -1242.840          25.000  
G32  21043832.958   110586106.785       -1737.835          26.000  
J01  36302213.501   190769625.941          42.094          25.000  
J02  39300064.631   206523306.788       -1328.687          31.000  
> 2021  9 12 13  7 52.9991652  0  8
C06  36162085.409   188305403.920          -4.099          27.000  
C16  36730342.313   191264636.808          38.090          29.000  
E01  24042705.481   126345269.637       -2051.683          30.000  
E04  23795654.611   125046999.087         461.922          28.000  
G31  21429935.364   112615053.577       -1242.592          30.000  
G32  21044163.329   110587845.837       -1740.544          24.000  
J01  36302205.706   190769583.853          41.967          31.000  
J02  39300317.956   206524634.976       -1327.411          29.000  
> 2021  9 12 13  7 53.9991647  0  5
C06  36161935.513   188304626.939          -3.584          29.000  
C16  36730186.121   191263817.804          37.823          29.000  
G31  21430022.904   112615508.685       -1242.936          31.000  
G32  21044344.104   110588800.003       -1742.004          24.000  
J02  39300419.885   206525175.151       -1328.356          29.000  
> 2021  9 12 13  7 54.9991642  0  6
C06  36161786.816   188303849.623          -3.163          27.000  
C16  36730029.929   191262999.104          37.468          30.000  
G26  20153198.731   105905729.7421       -120.625          16.000  
G31  21430109.844   112615963.667       -1242.458          31.000  
G32  21044526.078   110589754.002       -1743.059          20.000  
J01  36301887.626   190767925.8111         41.051          27.000  
> 2021  9 12 13  7 55.9991639  0  7
C06  36161697.778   188303384.182          -3.350          24.000  
C16  36729932.197   191262493.169          37.464          27.000  
G26  20153133.076   105905378.347        -122.650          16.000  
G31  21430257.042   112616734.046       -1243.134          32.000  
G32  21044765.612   110591025.181       -1744.941          22.000  
J01  36301788.695   190767411.808          41.742          27.000  
J02  39300686.401   206526573.1351      -1329.665          28.000  
> 2021  9 12 13  7 56.9991634  0  7
C06  36161547.582   188302607.076          -3.333          29.000  
C16  36729773.907   191261675.159          36.970          28.000  
G26  20153005.664   105904714.536        -125.332          16.000  
G31  21430343.682   112617189.658       -1243.611          36.000  
G32  21044947.886   110591981.956       -1743.865          21.000  
J01  36301631.004   190766581.398          42.625          28.000  
J02  39300788.031   206527114.247       -1328.369          28.000  
> 2021  9 12 13  7 57.9991631  0  7
C06  36161457.644   188302141.561          -2.890          30.000  
C09  37248114.167   193960704.6871         72.167          27.000  
C16  36729675.875   191261169.694          38.047          28.000  
G31  21430490.880   112617960.440       -1244.895          36.000  
G32  21045188.020   110593252.911       -1744.608          19.000  
J01  36301533.871   190766066.196          41.902          31.000  
J02  39300951.417   206527969.637       -1326.887          26.000  
> 2021  9 12 13  7 58.9991626  0  6
C06  36161308.347   188301364.106          -3.668          30.000  
C09  37247949.281   193959850.827          74.000          31.000  
C16  36729517.884   191260350.761          37.766          30.000  
G31  21430575.421   112618415.654       -1243.158          31.000  
J01  36301373.182   190765236.598          41.847          24.000  
J02  39301057.244   206528508.406       -1327.015          24.000  
> 2021  9 12 13  7 59.9991624  0  7
C06  36161248.988   188301055.336          -3.300          29.000  
C09  37247875.832   193959464.462          73.792          28.000  
C16  36729449.831   191260000.400          38.124          28.000  
E04  23794200.318   125039359.4851        461.082          29.000  
G31  21430752.599   112619344.360       -1245.908          29.000  
J01  36301305.429   190764879.853          41.639          28.000  
J02  39301250.311   206529520.381       -1326.048          24.000  
> 2021  9 12 13  8  0.9991619  0  7
C06  36161098.492   188300276.915          -1.981          27.000  
C09  37247711.846   193958610.495          72.792          26.000  
C16  36729292.140   191259182.078          37.574          29.000  
E04  23793963.182   125038111.129         460.697          28.000  
G31  21430838.339   112619800.777       -1242.495          29.000  
J01  36301148.038   190764050.734          41.062          31.000  
J02  39301356.437   206530058.033       -1325.159          21.000  
> 2021  9 12 13  8  1.9991616  0  6
C06  36161008.255   188299811.299          -3.555          30.000  
C09  37247608.417   193958069.391          72.713          30.000  
C16  36729195.307   191258676.233          36.503          30.000  
E01  24045139.496   126358060.1251      -2054.596          30.000  
E04  23793786.005   125037178.443         459.358          29.000  
G31  21430984.638   112620570.272       -1242.172          29.000  
> 2021  9 12 13  8  2.9991613  0  8
C06  36160918.317   188299345.976          -2.813          31.000  
C09  37247504.989   193957528.304          72.983          30.000  
C16  36729098.474   191258170.699          37.690          29.000  
E04  23793609.727   125036245.890         459.563          32.000  
G26  20152524.198   105902129.7291       -117.569          15.000  
G31  21431130.337   112621340.165       -1242.622          33.000  
J01  36300953.473   190763024.1941         37.420          31.000  
J02  39301691.905   206531765.7261      -1327.743          22.000  
> 2021  9 12 13  8  3.9991608  0  8
C06  36160768.721   188298568.327          -2.480          29.000  
C09  37247341.302   193956674.801          72.920          31.000  
C16  36728940.484   191257352.016          38.266          28.000  
C33  25913227.546   134936975.8301      -3856.967          32.000  
E04  23793374.090   125034999.145         457.999          32.000  
G26  20152391.989   105901456.866        -115.007          14.000  
J01  36300795.482   190762198.283          39.324          29.000  
J02  39301797.132   206532305.232       -1327.876          19.000  
> 2021  9 12 13  8  4.9991606  0  8
C06  36160710.561   188298258.992          -3.257          27.000  
C09  37247267.253   193956289.024          73.896          30.000  
C16  36728873.930   191257000.776          39.395          27.000  
C33  25913909.274   134940520.827       -3857.149          27.000  
G31  21431393.855   112622725.7341      -1245.362          31.000  
G32  21046767.626   110601528.9841      -1743.487          18.000  
J01  36300728.029   190761843.240          39.826          27.000  
J02  39301991.697   206533318.322       -1327.353          22.000  
> 2021  9 12 13  8  5.9991601  0  6
C06  36160561.264   188297482.355          -5.158          26.000  
C09  37247103.567   193955434.848          73.459          30.000  
C16  36728714.740   191256180.686          40.445          25.000  
G31  21431480.195   112623182.576       -1243.071          32.000  
J01  36300571.237   190761015.217          40.158          29.000  
J02  39302094.226   206533857.016       -1326.004          24.000  
> 2021  9 12 13  8  6.9991596  0  8
C06  36160411.968   188296705.444          -4.054          25.000  
C09  37246939.580   193954580.307          73.667          29.000  
C16  36728557.649   191255360.745          38.324          29.000  
C33  25915092.855   134946674.8211      -3861.112          20.000  
G31  21431565.936   112623637.597       -1242.406          34.000  
G32  21047138.769   110603443.1541      -1746.589          19.000  
J01  36300413.547   190760187.346          40.200          27.000  
J02  39302194.957   206534395.715       -1327.528          20.000  
> 2021  9 12 13  8  7.9991593  0  7
C06  36160323.229   188296240.777          -4.593          26.000  
C09  37246835.852   193954038.777          73.179          27.000  
C16  36728462.614   191254854.316          38.443          28.000  
C33  25915744.903   134950067.625       -3860.171          23.000  
G31  21431714.333   112624407.478       -1242.737          34.000  
G32  21047383.699   110604717.477       -1747.393          20.000  
J01  36300314.915   190759673.428          41.852          26.000  
> 2021  9 12 13  8  8.9991588  0  7
C06  36160173.932   188295462.979          -1.885          23.000  
C09  37246672.765   193953184.894          72.878          26.000  
C16  36728305.523   191254034.896          38.084          25.000  
C33  25916335.794   134953147.396       -3860.516          25.000  
G31  21431800.074   112624862.405       -1242.844          32.000  
G32  21047566.573   110605677.134       -1748.756          20.000  
J01  36300161.121   190758843.633          41.620          26.000  
> 2021  9 12 13  8  9.9991585  0  7
C06  36160086.093   188294995.872          -2.430          25.000  
C09  37246568.437   193952643.361          72.200          27.000  
C16  36728205.992   191253528.147          37.915          27.000  
C33  25916985.444   134956539.711       -3859.511          27.000  
G31  21431945.773   112625633.893       -1244.028          29.000  
G32  21047809.105   110606952.021       -1747.591          26.000  
J01  36300064.288   190758330.110          40.331          25.000  
> 2021  9 12 13  8 10.9991580  0  5
C06  36159936.797   188294217.799          -3.290          28.000  
C09  37246403.851   193951790.399          73.327          27.000  
C16  36728047.702   191252709.624          38.367          28.000  
C33  25917575.436   134959617.516       -3858.942          29.000  
J01  36299908.097   190757502.976          38.239          26.000  
> 2021  9 12 13  8 11.9991580  0  6
C06  36159937.396   188294220.613          -2.280          29.000  
C09  37246390.061   193951716.681          73.509          27.000  
C16  36728040.507   191252671.582          37.247          30.000  
C33  25918317.122   134963475.365       -3859.102          25.000  
G31  21432268.649   112627332.7691      -1242.472          33.000  
J01  36299899.403   190757464.546          39.345          28.000  
> 2021  9 12 13  8 12.9991575  0  6
C06  36159787.800   188293441.560          -0.257          29.000  
C09  37246226.674   193950862.758          73.111          27.000  
C16  36727884.315   191251853.503          38.066          26.000  
C33  25918908.013   134966553.954       -3859.568          26.000  
G31  21432357.688   112627788.668       -1244.592          33.000  
G32  21048501.925   110610622.8751      -1745.282          24.000  
> 2021  9 12 13  8 13.9991570  0  8
C06  36159635.805   188292661.585          -1.259          24.000  
C16  36727725.725   191251034.242          38.781          30.000  
C33  25919498.305   134969632.477       -3857.924          29.000  
E01  24048450.404   126375459.1931      -2054.864          27.000  
G26  20151503.105   105896721.2781       -131.491          17.000  
G31  21432445.227   112628245.723       -1244.620          31.000  
G32  21048684.199   110611581.869       -1748.846          26.000  
J01  36299584.321   190755813.3311         38.869          25.000  
> 2021  9 12 13  8 14.9991567  0  7
C06  36159545.867   188292194.756          -1.672          32.000  
C09  37245958.659   193949467.4861         73.955          25.000  
C16  36727628.592   191250527.254          38.657          32.000  
C33  25920147.056   134973021.102       -3856.860          31.000  
E01  24048750.796   126377037.567       -2054.345          29.000  
G32  21048928.830   110612860.298       -1752.364          24.000  
J01  36299485.689   190755301.233          39.928          25.000  
> 2021  9 12 13  8 15.9991562  0  8
C06  36159396.271   188291415.859          -2.169          31.000  
C09  37245795.272   193948612.107          75.348          27.000  
C16  36727470.901   191249707.057          39.527          31.000  
C33  25920735.548   134976097.972       -3857.585          27.000  
E04  23790950.867   125022264.4361        455.494          32.000  
G31  21432679.065   112629470.3171      -1242.359          31.000  
G32  21049109.305   110613825.673       -1754.112          27.000  
J01  36299326.499   190754473.203          40.982          27.000  
> 2021  9 12 13  8 16.9991560  0  9
C06  36159335.713   188291105.169          -1.105          32.000  
C09  37245721.224   193948224.959          75.192          26.000  
C16  36727404.347   191249355.005          39.284          29.000  
C33  25921413.679   134979642.961       -3857.802          27.000  
E04  23790803.070   125021492.681         455.816          33.000  
G26  20151263.870   105895537.5681       -130.450          17.000  
G31  21432855.643   112630398.562       -1244.177          31.000  
G32  21049383.315   110615265.680       -1756.168          20.000  
J01  36299259.346   190754117.282          40.743          29.000  
> 2021  9 12 13  8 17.9991555  0  8
C06  36159184.917   188290324.797           1.667          32.000  
C09  37245556.638   193947369.288          76.075          25.000  
C16  36727246.057   191248535.194          39.265          29.000  
C33  25922003.970   134982720.088       -3858.485          27.000  
E04  23790565.934   125020247.805         456.744          34.000  
G26  20151135.559   105894881.149        -137.512          16.000  
G31  21432941.983   112630853.878       -1243.002          30.000  
J01  36299104.353   190753289.301          37.593          29.000  
> 2021  9 12 13  8 18.9991552  0  9
C06  36159096.778   188289855.497           0.667          27.000  
C09  37245451.111   193946825.041          76.281          25.000  
C16  36727148.024   191248027.767          38.230          32.000  
C33  25922654.520   134986109.988       -3858.191          27.000  
E04  23790390.256   125019318.856         455.588          31.000  
G26  20151071.703   105894546.413        -136.588          14.000  
G31  21433087.982   112631624.340       -1242.997          33.000  
G32  21049809.320   110617517.1321      -1754.289          22.000  
J01  36299006.920   190752778.725          38.086          26.000  
> 2021  9 12 13  8 19.9991547  0  6
C06  36158946.282   188289074.169           0.234          25.000  
C09  37245289.523   193945967.947          76.619          24.000  
C16  36726989.734   191247208.713          39.175          34.000  
C33  25923246.010   134989188.104       -3858.698          23.000  
G31  21433174.022   112632079.338       -1242.021          32.000  
J01  36298849.230   190751952.475          38.858          31.000  
> 2021  9 12 13  8 20.9991544  0  7
C06  36158854.246   188288606.106          -1.465          30.000  
C09  37245184.595   193945422.954          75.861          23.000  
C16  36726890.503   191246702.671          35.992          30.000  
C33  25923896.260   134992577.611       -3859.241          25.000  
G26  20150890.329   105893572.0411       -150.615          13.000  
G31  21433319.422   112632850.233       -1243.470          31.000  
J01  36298751.497   190751441.051          39.316          25.000  
> 2021  9 12 13  8 21.9991542  0  6
C06  36158794.288   188288294.607          -0.148          29.000  
C09  37245111.146   193945034.465          76.843          26.000  
C16  36726823.049   191246353.403          37.458          26.000  
C33  25924577.988   134996124.597       -3859.082          26.000  
G26  20150862.748   105893407.493        -148.847          10.000  
J01  36298684.644   190751087.033          38.848          26.000  
> 2021  9 12 13  8 22.9991537  0  5
C06  36158642.293   188287513.806          -0.093          26.000  
C16  36726665.059   191245534.887          38.644          30.000  
C33  25925170.678   134999203.814       -3861.103          21.000  
G31  21433584.138   112634233.4611      -1242.449          28.000  
J01  36298526.653   190750260.001          39.558          31.000  
> 2021  9 12 13  8 23.9991534  0  7
C06  36158552.055   188287044.465           1.954          27.000  
C09  37244840.134   193943628.5461         80.405          21.000  
C16  36726567.327   191245025.920          42.631          32.000  
C33  25925823.026   135002596.834       -3861.268          25.000  
G31  21433731.037   112635002.324       -1240.984          32.000  
G32  21050944.334   110623462.1211      -1755.069          19.000  
J01  36298428.621   190749747.862          39.700          34.000  
> 2021  9 12 13  8 24.9991529  0  8
C06  36158402.159   188286261.002           3.239          22.000  
C09  37244673.449   193942767.828          79.990          24.000  
C16  36726408.736   191244202.548          43.231          32.000  
C33  25926412.718   135005677.986       -3861.533          29.000  
G26  20150559.658   105891805.4501       -145.237          10.000  
G31  21433817.077   112635454.567       -1239.329          38.000  
G32  21051129.906   110624427.217       -1751.852          24.000  
J01  36298273.028   190748921.025          39.011          30.000  
> 2021  9 12 13  8 25.9991526  0  9
C06  36158315.519   188285789.210           3.565          27.000  
C09  37244565.524   193942219.344          81.713          24.000  
C16  36726311.004   191243690.813          43.603          26.000  
C33  25927066.565   135009071.927       -3863.563          30.000  
G31  21433961.877   112636220.896       -1239.767          41.000  
G32  21051370.340   110625705.876       -1751.569          20.000  
J01  36298175.596   190748409.734          34.721          28.000  
J02  39304876.300   206548576.7301      -1324.437          33.000  
J03  37264200.431   195824694.9401       -488.063          30.000  
> 2021  9 12 13  8 26.9991521  0 10
C06  36158168.321   188285004.346           4.236          27.000  
C09  37244401.238   193941357.616          80.558          25.000  
C16  36726152.714   191242866.979          42.865          28.000  
C33  25927655.358   135012154.822       -3863.422          26.000  
G26  20150373.187   105890828.8061       -139.085          13.000  
G31  21434047.917                       -1238.682          40.000  
G32  21051554.412   110626668.903       -1747.677          18.000  
J01  36298020.004   190747588.543          33.056          23.000  
J02  39304975.831                       -1324.399          34.000  
J03  37264144.370   195824394.513        -487.630          27.000  
> 2021  9 12 13  8 27.9991516  0  9
C06  36158019.924   188284219.678           4.163          24.000  
C09  37244235.452   193940496.816          80.212          28.000  
C16  36725997.121   191242043.971          42.405          30.000  
C33  25928247.748   135015238.617       -3865.702          21.000  
E01  24052300.639   126395692.9251      -2054.114          34.000  
G31  21434136.056   112637133.0571      -1238.162          39.000  
G32  21051741.183   110627628.463       -1748.696          18.000  
J01  36297865.311   190746767.120          34.489          28.000  
J03  37264091.606   195824095.143        -488.104          27.000  
> 2021  9 12 13  8 28.9991514  0  8
C06  36157963.263   188283903.441           3.290          23.000  
C09  37244161.703   193940104.308          80.512          29.000  
C16  36725928.769   191241689.683          41.932          24.000  
E01  24052630.710   126397426.841       -2054.420          33.000  
G31  21434310.835   112638057.141       -1239.265          40.000  
G32  21052019.090   110629061.280       -1748.666          19.000  
J01  36297798.757   190746416.906          35.681          23.000  
J02  39305269.928   206550586.6091      -1322.716          31.000  
> 2021  9 12 13  8 29.9991511  0  9
C09  37244057.675   193939555.348          81.220          28.000  
C16  36725831.936   191241179.553          41.398          26.000  
E01  24052931.702   126399009.215       -2051.276          33.000  
E04  23788201.471   125007843.7431        454.783          29.000  
E19  24621040.508   129384440.4661      -2198.536          32.000  
G31  21434455.635   112638823.619       -1241.444          39.000  
J01  36297703.123   190745908.326          36.342          25.000  
J02  39305428.218   206551437.549       -1321.631          31.000  
J03  37264126.982   195824283.2321       -487.786          27.000  
> 2021  9 12 13  8 30.9991508  0 11
C06  36157787.285   188282959.8121          5.166          22.000  
C09  37243952.448   193939005.353          81.212          28.000  
C16  36725733.604   191240669.196          42.385          27.000  
E01  24053236.291   126400609.589       -2055.756          33.000  
E04  23788025.493   125006915.742         455.164          30.000  
E19  24621373.878   129386166.285       -2197.872          33.000  
G26  20150084.187   105889326.9111       -132.297          16.000  
G31  21434601.634   112639590.197       -1240.139          39.000  
J01  36297605.690   190745398.823          37.593          28.000  
J02  39305597.301   206552288.396       -1322.837          31.000  
J03  37264131.179   195824298.722        -488.333          25.000  
> 2021  9 12 13  8 31.9991503  0 12
C06  36157635.590   188282173.880           5.584          22.000  
C09  37243786.063   193938142.684          82.265          28.000  
C16  36725577.712   191239846.492          42.181          26.000  
E01  24053475.525   126401866.879       -2055.230          32.000  
E04  23787789.256   125005673.277         454.396          31.000  
E19  24621639.494                       -2199.105          32.000  
G26  20149956.475   105888667.420        -126.671          15.000  
G31  21434688.874   112640041.530       -1239.359          40.000  
G32  21052709.812   110632585.2731      -1755.626          23.000  
J01  36297446.501   190744573.404          38.300          25.000  
J02  39305702.528   206552823.930       -1322.108          34.000  
J03  37264075.417   195823998.195        -486.531          26.000  
> 2021  9 12 13  8 32.9991501  0 12
C06  36157575.032   188281856.414           5.916          21.000  
C09  37243711.415   193937749.387          81.017          27.000  
C16  36725509.359   191239491.128          42.937          26.000  
E01  24053807.096   126403608.795       -2054.586          32.000  
E04  23787642.957   125004902.578         456.116          30.000  
E19  24621998.045   129389471.8951      -2198.198          32.000  
G26  20149919.301   105888479.598        -127.868          15.000  
G31  21434864.252   112640965.429       -1238.813          40.000  
G32  21052986.821   110634026.937       -1757.074          23.000  
J01  36297376.949   190744219.289          39.262          26.000  
J02  39305891.997   206553831.841       -1321.843          33.000  
J03  37264108.095   195824169.475        -486.756          26.000  
> 2021  9 12 13  8 33.9991496  0 12
C06  36157426.335   188281072.874           1.284          22.000  
C09  37243546.229   193936888.045          81.208          27.000  
C16  36725350.769   191238667.094          44.360          25.000  
C25  24471768.447   127430919.7921      -2492.017          27.000  
E01  24054052.026   126404896.085       -2053.613          33.000  
E04  23787406.421   125003658.738         454.856          32.000  
E19  24622269.358   129390883.285       -2201.557          33.000  
G31  21434949.993   112641416.560       -1239.919          40.000  
G32  21053172.692   110634997.013       -1759.037          25.000  
J01  36297217.759   190743392.698          38.578          27.000  
J02  39305990.329   206554366.940       -1324.027          32.000  
J03  37264048.736   195823868.402        -487.490          26.000  
> 2021  9 12 13  8 34.9991491  0 12
C06  36157275.239   188280290.178           1.420          22.000  
C09  37243380.744   193936026.078          82.167          28.000  
C16  36725193.078   191237841.822          44.319          29.000  
C25  24472098.219   127432631.363       -2492.612          28.000  
E01  24054296.357   126406180.375       -2055.015          34.000  
E04  23787169.885   125002417.706         451.464          31.000  
E19  24622536.473   129392295.095       -2198.997          31.000  
G26  20149663.278   105887160.3331       -129.421          12.000  
G31  21435037.832   112641867.727       -1238.271          39.000  
J01  36297059.469   190742566.813          37.761          33.000  
J02  39306088.361   206554902.342       -1322.504          31.000  
J03  37263992.675   195823567.068        -486.066          27.000  
> 2021  9 12 13  8 35.9991488  0 11
C06  36157185.002   188279819.739           2.007          19.000  
C09  37243276.116   193935475.856          82.113          28.000  
C16  36725096.245   191237328.762          44.779          29.000  
C25  24472484.052   127434655.012       -2492.272          26.000  
E01  24054599.447   126407772.749       -2056.673          35.000  
E04  23786995.106   125001492.273         454.212          29.000  
E19  24622861.448   129394022.468       -2202.032          28.000  
G26  20149594.926   105886818.157        -131.211          12.000  
G31  21435182.632   112642634.224       -1238.316          39.000  
J02  39306248.750   206555751.011       -1321.984          26.000  
J03  37263994.773   195823580.670        -485.640          24.000  
> 2021  9 12 13  8 36.9991483  0  9
C06  36157033.906   188279037.125           1.630          26.000  
C16  36724938.254   191236504.242          43.932          33.000  
E01  24054845.277   126409065.039       -2057.300          32.000  
E04  23786760.368   125000249.872         454.289          30.000  
E19  24623130.362   129395437.846       -2202.773          25.000  
G31  21435271.970   112643085.806       -1240.077          36.000  
J01  36296807.943   190741231.3281         39.105          30.000  
J02                                                                  39306362.971   154246610.1691       -989.360          27.000  
J03  37263939.312   195823278.734        -486.647          22.000  
> 2021  9 12 13  8 37.9991480  0 10
C06  36156942.769   188278566.197           3.538          28.000  
C09  37243007.802   193934065.9781         81.570          19.000  
C16  36724839.922   191235992.358          43.448          34.000  
C25  24473192.162   127438390.0261      -2492.869          20.000  
G26  20149399.161   105885823.3081       -134.298          11.000  
G31  21435416.770   112643855.714       -1240.603          33.000  
G32  21054029.499   110639522.4161      -1759.086          20.000  
J01  36296707.212   190740721.155          36.692          30.000  
J02                                                                  39306524.859   154247247.638        -987.696          17.000  
J03  37263943.509   195823293.196        -486.166          25.000  
> 2021  9 12 13  8 38.9991478  0  7
C06  36156880.113   188278250.169           3.515          28.000  
C09  37242933.154   193933670.710          83.742          20.000  
C16  36724770.071   191235635.766          45.477          35.000  
G26  20149367.383   105885643.402        -136.229          13.000  
G31  21435587.651                       -1237.909          36.000  
J02  39306713.129                       -1321.909          33.000  
J03  37263978.584   195823464.180        -485.995          22.000  
> 2021  9 12 13  8 39.9991475  0  5
C06  36156787.777   188277777.992           2.119          30.000  
C16  36724671.139                          44.757          33.000  
G31  21435734.250   112645537.9151      -1237.577          37.000  
J02  39306873.218   206559019.4381      -1322.418          34.000  
J03  37263982.482   195823476.115        -484.162          25.000  
> 2021  9 12 13  8 40.9991470  0  7
C09  37242660.043   193932252.7561         86.687          19.000  
C16  36724521.243   191234174.5251         43.516          31.000  
C25  24474331.073   127444304.0381      -2491.444          21.000  
C33  25936537.908   135058258.6741      -3861.111          21.000  
E01                                                                                                                                  24056013.568    94400963.7551      -1534.796          27.000  
G31  21435820.290   112645989.078       -1238.457          35.000  
J02  39306976.646   206559554.437       -1322.878          31.000  
> 2021  9 12 13  8 41.9991465  0  8
C09  37242494.258   193931384.280          87.582          19.000  
C16  36724356.957   191233349.823          45.423          30.000  
C25  24474658.447   127446014.039       -2490.414          22.000  
C33  25937131.198   135061339.162       -3861.076          25.000  
E01                                                                                                                                  24056254.302    94401908.530       -1534.866          27.000  
G31  21435907.230   112646440.039       -1238.834          36.000  
J01  36296229.643   190738209.8471         37.062          27.000  
J02  39307076.777   206560089.747       -1322.526          26.000  
> 2021  9 12 13  8 42.9991462  0  7
C06  36156389.952   188275744.5191          1.576          22.000  
C16  36724257.426   191232836.465          45.457          35.000  
C33  25937779.349   135064731.611       -3860.933          28.000  
E01                                                                                                                                  24056556.792    94403095.595       -1536.240          27.000  
G31  21436051.730   112647205.344       -1239.236          36.000  
G32  21055154.020   110645459.5591      -1754.016          24.000  
J02  39307235.967   206560938.822       -1320.822          32.000  
> 2021  9 12 13  8 43.9991457  0  7
C16  36724099.435   191232010.787          45.716          37.000  
C33  25938370.540   135067812.278       -3862.687          25.000  
E01                                                                                                                                  24056801.723    94404056.370       -1535.281          22.000  
G31  21436137.171   112647655.572       -1238.703          33.000  
G32  21055340.491   110646427.038       -1757.479          26.000  
J01  36295976.618   190736873.9791         38.123          38.000  
J02  39307335.498   206561472.007       -1320.720          23.000  
> 2021  9 12 13  8 44.9991455  0  8
C06  36156169.005   188274642.2801          7.117          26.000  
C16  36724029.883   191231653.237          45.334          38.000  
C33  25939049.869   135071362.433       -3861.336          24.000  
E01                                                                                                                                  24057134.492    94405362.080       -1532.091          25.000  
G31  21436312.849   112648578.175       -1238.373          36.000  
G32  21055616.600   110647870.768       -1760.289          29.000  
J01  36295912.163                          38.242          39.000  
J02  39307527.065   206562477.485       -1320.426          24.000  
> 2021  9 12 13  8 45.9991450  0 10
C06  36156014.312   188273854.218           7.767          26.000  
C16  36723870.993   191230827.086          45.531          38.000  
C25  24476116.637   127453647.0471      -2494.935          18.000  
C33  25939636.263   135074442.940       -3860.847          26.000  
E01                                                                                                                                  24057376.725    94406312.855       -1533.785          23.000  
G31  21436402.787   112649027.972       -1238.243          36.000  
G32  21055802.171   110648843.470       -1760.614          28.000  
J01  36295754.172   190735478.8921         38.640          39.000  
J02  39307628.395   206563009.794       -1319.756          29.000  
J03  37263755.239   195822447.0441       -486.640          24.000  
> 2021  9 12 13  8 46.9991447  0 10
C06  36155921.376   188273377.987           7.715          30.000  
C09  37241893.773   193928184.5631         73.759          17.000  
C16  36723773.261   191230312.703          45.239          38.000  
C25  24476501.571   127455672.700       -2494.796          15.000  
C33  25940285.314   135077834.178       -3859.812          27.000  
E01                                                                                                                                  24057678.016    94407494.920       -1534.604          22.000  
G31  21436550.285   112649792.541       -1237.137          35.000  
G32  21056045.603   110650132.088       -1760.823          24.000  
J01  36295656.440   190734967.701          37.303          39.000  
J03  37263751.941   195822459.579        -484.181          27.000  
> 2021  9 12 13  8 47.9991442  0  8
C06  36155769.382   188272589.901           7.140          30.000  
C09  37241732.185   193927327.673          77.576          17.000  
C16  36723614.071   191229485.737          45.631          37.000  
C33  25940873.807   135080913.055       -3859.005          26.000  
E01                                                                                                                                  24057918.450    94408438.695       -1534.529          25.000  
G31  21436633.627   112650241.469       -1237.876          36.000  
J01  36295498.149   190734142.051          36.754          38.000  
J02  39307891.313   206564388.9791      -1320.020          22.000  
> 2021  9 12 13  8 48.9991439  0  6
C06  36155680.343   188272114.469           6.903          30.000  
C16  36723516.339   191228972.253          40.505          33.000  
C33  25941524.956   135084304.253       -3860.086          26.000  
E01                                                                                                                                  24058217.942    94409613.760       -1536.477          23.000  
G31  21436778.727   112651005.874       -1237.049          40.000  
J03  37263692.882   195822168.7731       -484.663          23.000  
> 2021  9 12 13  8 49.9991437  0  9
C06  36155616.488   188271791.783          10.755          23.000  
C16  36723447.087   191228617.593          42.837          28.000  
C25  24477635.386   127461583.4131      -2491.625          17.000  
C33  25942205.485   135087850.936       -3858.874          24.000  
E01                                                                                                                                  24058548.314    94410910.470       -1536.529          27.000  
G31  21436953.506   112651928.529       -1236.109          35.000  
G32  21056736.924   110653842.3491      -1761.840          23.000  
J01  36295330.266   190733277.7381         38.531          29.000  
J03  37263724.360   195822338.760        -485.627          26.000  
> 2021  9 12 13  8 50.9991432  0  9
C06  36155465.992   188271003.179           6.675          30.000  
C09  37241378.130   193925515.1561         86.349          20.000  
C16  36723286.997   191227792.739          45.212          35.000  
G26  20148295.925   105880087.7371       -138.681          16.000  
G31  21437038.947   112652377.530       -1238.089          36.000  
J01  36295170.776   190732451.321          38.578          33.000  
J02  39308352.993                       -1318.023          33.000  
J03  37263665.901   195822036.625        -485.513          26.000  
R14  20916336.921   111495846.5541        151.628          31.000  
> 2021  9 12 13  8 51.9991429  0 10
C06  36155376.354   188270527.735           6.849          29.000  
C16  36723187.466   191227278.080          46.605          31.000  
C33  25943436.133   135094321.5351      -3859.166          26.000  
E01  24059087.340   126431356.7711      -2055.531          34.000  
G31  21437183.447   112653142.133       -1238.355          37.000  
G32  21057168.925   110656108.8761      -1764.590          26.000  
J01  36295072.444   190731940.192          37.770          26.000  
J02  39308511.584   206567634.6421      -1318.586          37.000  
R02  20045053.098   106964243.8981      -3300.911          29.000  
R14  20916222.401   111495235.785         151.595          34.000  
> 2021  9 12 13  8 52.9991424  0 10
C06  36155226.757   188269739.771           7.102          24.000  
C16  36723023.780   191226450.343          47.400          30.000  
C33  25944025.225   135097399.436       -3857.997          28.000  
E01  24059329.273   126432628.061       -2055.175          35.000  
G26  20148112.752   105879095.3101       -127.488          15.000  
G31  21437267.688   112653591.356       -1235.400          40.000  
G32  21057352.998   110657085.584       -1763.738          25.000  
J01  36294912.355   190731113.951          41.175          22.000  
J02  39308610.215   206568165.563       -1317.618          36.000  
R14  20916045.823   111494294.125         150.589          30.000  
> 2021  9 12 13  8 53.9991421  0  8
C06  36155135.920   188269264.291           6.357          29.000  
C16  36722924.848                          46.079          33.000  
C33  25944677.274   135100789.253       -3858.378          29.000  
E01  24059629.665   126434206.435       -2055.928          35.000  
G26  20148049.795   105878748.732        -124.577          12.000  
G31  21437416.086   112654355.144       -1237.243          39.000  
J02  39308771.504   206569011.220       -1317.553          39.000  
R14  20915925.006   111493650.518         151.424          31.000  
> 2021  9 12 13  8 54.9991416  0  9
C06  36154985.724   188268476.888           7.508          29.000  
C16  36722768.356   191225077.9611         46.573          33.000  
C33  25945267.865   135103867.193       -3858.983          26.000  
E01  24059870.698   126435473.725       -2055.253          36.000  
G31  21437500.327   112654803.633       -1235.142          38.000  
G32  21057785.898   110659350.9631      -1762.443          22.000  
J01  36294661.129   190729770.3051         41.817          23.000  
J02  39308871.335   206569541.354       -1317.150          38.000  
R02  20046532.274   106972067.7191      -3302.212          33.000  
> 2021  9 12 13  8 55.9991414  0  8
C06  36154924.567   188268156.371           8.268          30.000  
C16  36722697.306   191224717.766          48.023          36.000  
E01  24060201.969   126437214.641       -2055.547          36.000  
G31  21437671.809   112655724.367       -1236.202          35.000  
J01  36294595.175   190729413.097          40.888          23.000  
J02  39309061.703   206570543.714       -1317.984          38.000  
J03  37263606.842   195821617.5141       -483.683          23.000  
R02  20047095.285   106975049.764       -3302.598          34.000  
> 2021  9 12 13  8 56.9991409  0  8
C06  36154773.771   188267367.455           8.006          32.000  
C16  36722540.214   191223889.018          48.373          35.000  
E01  24060443.002   126438480.931       -2055.475          36.000  
G31  21437761.746   112656172.333       -1234.307          35.000  
J01  36294436.884   190728584.237          41.577          24.000  
J02  39309163.632   206571073.152       -1316.025          36.000  
R02  20047571.655   106977552.994       -3303.703          29.000  
R14  20915461.827   111491181.5891        150.173          26.000  
> 2021  9 12 13  8 57.9991406  0 14
C06  36154682.334   188266890.605           8.390          30.000  
C09  37240455.369   193920837.9591         87.465          22.000  
C16  36722443.082   191223372.356          49.959          36.000  
C25  24480541.574   127476647.8301      -2484.796          24.000  
C33  25947184.738   135113884.5661      -3858.580          27.000  
E01  24060745.792   126440072.305       -2055.889          35.000  
E04  23782630.128   124978604.2541        453.570          28.000  
G31  21437903.548   112656935.937       -1236.727          32.000  
G32  21058509.897   110663060.7051      -1761.413          19.000  
J01  36294335.854   190728070.715          40.135          20.000  
J02  39309324.021   206571917.706       -1315.634          36.000  
J03  37263561.273   195821324.7481       -482.306          21.000  
R02  20048106.485   106980376.101       -3303.193          31.000  
R14  20915341.011   111490538.037         149.949          30.000  
> 2021  9 12 13  8 58.9991404  0  9
C06  36154622.376   188266569.442           8.838          33.000  
C09  37240376.524   193920438.100          87.322          23.000  
C16  36722373.230   191223011.488          49.408          36.000  
C25  24480960.084   127478820.715       -2485.134          22.000  
C33  25947865.566   135117430.085       -3857.495          26.000  
E01  24061077.962   126441817.221       -2056.448          35.000  
G31  21438075.029   112657856.521       -1234.112          23.000  
J02  39309517.687   206572919.183       -1317.362          34.000  
R02  20048671.294   106983359.558       -3304.023          27.000  
> 2021  9 12 13  8 59.9991398  0 11
C06  36154441.601   188265624.150           7.750          33.000  
C09  37240179.260   193919414.272          86.234          23.000  
C16  36722185.260   191222025.803          48.912          36.000  
C33  25948422.881   135120350.074       -3856.526          23.000  
E01  24061289.616   126442929.969       -2055.489          36.000  
E04  23782224.808   124976438.7451        452.365          30.000  
G31  21438129.592   112658145.723       -1234.713          31.000  
J01  36294082.829   190726733.6921         38.231          26.000  
J02  39309586.040   206573290.200       -1315.357          33.000  
R02  20049111.989   106985703.720       -3304.325          24.000  
R14  20915049.612   111488984.1631        148.550          26.000  
> 2021  9 12 13  9  0.9991396  0 12
C06  36154378.944   188265303.193           9.165          31.000  
C09  37240100.415   193919015.836          87.488          22.000  
C16  36722114.809   191221664.378          50.350          36.000  
C25  24481665.496   127482543.5031      -2485.017          20.000  
C33  25949100.112   135123893.855       -3856.325          23.000  
E01  24061619.388   126444662.885       -2055.639          36.000  
E04  23782080.308   124975671.750         451.060          29.000    23782079.409    93325986.8731        336.337          27.000  
J01  36294016.275   190726379.714          39.576          25.000    36294025.569   142425551.6001         31.593          30.000  
J02  39309776.708   206574291.179       -1316.210          34.000    39309780.305   154260020.8181       -983.201          32.000  
J03  37263536.091   195821197.1951       -482.083          18.000  
R02  20049673.800   106988688.356       -3305.033          25.000  
R14  20914964.172   111488528.627         148.490          28.000  
> 2021  9 12 13  9  1.9991391  0  9
C06  36154228.149   188264512.956           9.062          32.000  
C09  37239934.030   193918147.675          88.060          23.000  
C16  36721952.321   191220834.344          49.812          34.000  
E01  24061861.920   126445937.175       -2056.221          34.000  
E04  23781845.871   124974431.781         453.080          30.000    23781843.772    93325061.747         337.992          25.000  
J01  36293859.184   190725551.401          41.088          27.000    36293868.178   142424931.964          31.221          31.000  
J02  39309878.038   206574819.079       -1314.237          34.000    39309881.036   154260415.092        -981.351          31.000  
J03  37263472.235   195820892.164        -483.248          18.000  
R02  20050140.277   106991193.396       -3305.288          26.000  
> 2021  9 12 13  9  2.9991388  0 10
C06  36154136.112                          11.117          32.000  
C09  37239825.805   193917589.368          90.331          22.000  
C16  36721852.191   191220316.191          49.639          34.000  
C25  24482373.905   127486258.2511      -2480.947          13.000  
E01  24062161.712   126447512.549       -2054.366          34.000  
E04  23781671.691   124973506.283         452.320          30.000    23781666.895    93324371.218         336.961          25.000  
J01  36293761.152   190725036.973          42.319          29.000    36293770.446   142424547.943          29.872          31.000  
J02                                                                  39310041.125   154261044.360        -982.736          31.000  
R02  20050672.109   106994019.187       -3306.141          25.000  
R14  20914672.474   111486973.7951        147.838          27.000  
> 2021  9 12 13  9  3.9991383  0 12
C01  37325088.579   194361530.5941       -582.521          34.000  
C06  36153983.518   188263282.7201          9.680          32.000  
C09  37239657.322   193916718.620          90.466          22.000  
C16  36721697.498   191219485.762          50.204          36.000  
C33  25950939.938   135133434.3441      -3856.272          22.000  
E01  24062401.546   126448772.839       -2055.900          34.000  
E04  23781436.354   124972266.023         452.506          29.000    23781430.958    93323445.978         337.515          26.000  
G32  21059816.992   110670030.8311      -1767.231          19.000  
J01  36293601.962   190724207.491          40.709          26.000    36293613.055   142423930.630          28.719          31.000  
J02  39310137.358   206576189.3131      -1315.281          33.000    39310141.255   154261438.285        -981.627          31.000  
R02  20051145.181   106996525.055       -3305.143          24.000  
R14  20914496.196   111486033.711         147.757          28.000  
> 2021  9 12 13  9  4.9991380  0 10
C01  37325110.464   194361644.339        -581.873          34.000  
C06  36153895.079   188262803.986           9.628          32.000  
C09  37239549.996   193916160.097          90.759          20.000  
C16  36721596.468   191218967.385          49.831          34.000  
E01  24062703.137   126450358.213       -2054.314          35.000  
E04  23781261.275   124971340.959         452.153          29.000    23781255.280    93322755.475         338.349          25.000  
J01  36293503.930   190723694.698          40.509          26.000    36293515.922   142423547.707          30.207          31.000  
J02  39310297.148   206577031.639       -1315.673          35.000    39310301.944   154262067.299        -982.185          32.000  
R02  20051666.520   106999350.802       -3306.571          21.000  
R14  20914381.075   111485420.559         147.608          29.000  
> 2021  9 12 13  9  5.9991375  0 11
C01  37325072.990   194361445.442        -581.557          34.000  
C06  36153742.185   188262012.844           9.279          32.000  
C09  37239383.311   193915289.169          90.379          22.000  
C16  36721433.081   191218136.476          49.518          34.000  
E01  24062945.070   126451629.503       -2056.650          34.000  
E04  23781026.238   124970100.733         452.896          28.000    23781018.144    93321827.916         338.895          25.000  
G32  21060241.798   110672302.8231      -1764.179          18.000  
J01  36293346.239   190722866.201          40.473          28.000    36293357.332   142422929.814          29.122          31.000  
J02  39310396.079   206577558.572       -1314.769          35.000    39310401.475   154262460.837        -981.755          31.000  
R02  20052133.897   107001857.804       -3307.570          24.000  
R14  20914204.198   111484478.145         146.956          28.000  
> 2021  9 12 13  9  6.9991373  0 13
C01  37325124.854   194361714.529        -581.199          34.000  
C06  36153681.027   188261689.666          10.686          32.000  
C09  37239304.166   193914886.717          89.841          21.000  
C16  36721366.527   191217773.666          50.912          35.000  
E01  24063277.240   126453374.419       -2054.621          35.000  
E04  23780881.438   124969332.731         452.798          29.000    23780872.445    93321253.847         337.553          25.000  
G31  21439025.372                       -1233.759          31.000  
G32  21060513.710   110673750.625       -1762.365          18.000  
J01  36293279.086   190722510.908          40.744          28.000    36293289.878                          31.661          31.000  
J02  39310587.946   206578557.887       -1315.271          34.000    39310592.143   154263207.055        -982.389          31.000  
J03                                                                  37263382.897   146229518.0581       -358.169          27.000  
R02  20052686.414   107004845.701       -3308.543          24.000  
R14  20914118.757   111484021.881         147.722          28.000  
> 2021  9 12 13  9  7.9991370  0 12
C01  37325147.038   194361827.225        -581.041          33.000  
C06  36153587.192   188261210.257           9.900          32.000  
C09  37239198.339   193914326.793          92.261          22.000  
C16  36721267.595   191217254.501          50.744          36.000  
C33  25953522.051   135146827.2181      -3854.852          21.000  
E01  24063575.833   126454943.793       -2054.615          34.000  
E04  23780707.259   124968407.278         451.096          30.000    23780697.965    93320565.071         336.294          26.000  
J01  36293183.452   190721998.008          39.615          28.000    36293191.846   142422281.2211         29.653          30.000  
J02  39310744.738   206579399.343       -1313.103          34.000    39310751.933   154263835.396        -980.792          32.000  
J03                                                                  37263384.096   146229523.143        -356.869          26.000  
R02  20053207.753   107007674.289       -3308.415          22.000  
R14  20913998.240   111483379.346         147.446          28.000  
> 2021  9 12 13  9  8.9991365  0 12
C01  37325108.065   194361627.241        -580.413          33.000  
C06  36153436.097   188260418.294           9.603          32.000  
C09  37239031.055   193913453.612          94.018          21.000  
C16  36721108.106   191216422.839          51.211          35.000  
E01  24063817.466   126456214.083       -2055.281          34.000  
E04  23780473.121   124967168.391         451.238          30.000    23780462.029    93319638.415         338.991          25.000  
G31  21439265.805   112664044.8981      -1235.228          33.000  
J01  36293026.361   190721170.517          40.019          29.000    36293033.855   142421662.403          32.035          30.000  
J02  39310846.068   206579925.386       -1315.049          35.000    39310851.764   154264228.254        -982.087          31.000  
J03                                                                  37263324.137   146229291.421        -356.970          26.000  
R02  20053671.532   107010182.803       -3308.413          24.000  
R14  20913820.763   111482434.164         146.906          27.000  
> 2021  9 12 13  9  9.9991363  0 13
C01  37325159.630   194361895.264        -580.293          33.000  
C06  36153371.941   188260094.305          13.379          32.000  
C09  37238951.910   193913046.616          94.328          21.000  
C16  36721040.952   191216059.202          50.690          35.000  
C33  25954793.171   135153444.3401      -3855.958          21.000  
E01  24064150.535   126457963.999       -2055.470          34.000  
E04                                                                                                                                  23780316.030    93319065.592         335.615          26.000  
G31  21439436.987   112664963.196       -1236.616          32.000  
J01  36292958.907   190720815.207          40.459          28.000    36292966.702   142421396.372          31.932          30.000  
J02  39311035.237   206580923.689       -1313.693          34.000    39311042.432   154264973.791        -979.444          31.000  
J03                                                                  37263354.716   146229413.097        -357.960          25.000  
R02  20054229.146   107013171.575       -3309.031          27.000  
R14  20913729.926   111481949.653         147.274          27.000  
> 2021  9 12 13  9 10.9991357  0 13
C01  37325091.277   194361538.596        -580.000          34.000  
C06  36153191.466   188259145.769          12.767          32.000  
C16  36720849.685   191215070.939          52.039          36.000  
C33  25955350.785   135156363.581       -3857.577          22.000  
E01  24064362.189   126459076.747       -2054.240          34.000  
E04  23780062.106   124965004.3161        452.100          31.000  
G31  21439490.649   112665251.190       -1234.092          32.000  
G32  21061363.921   110678278.1831      -1767.506          18.000  
J01  36292772.137   190719828.514          42.434          28.000    36292779.032   142420659.735          30.790          31.000  
J02  39311104.189   206581291.684       -1314.142          34.000    39311111.983   154265248.578        -979.803          32.000  
J03                                                                  37263265.978   146229066.725        -360.229          25.000  
R02  20054670.740   107015521.021       -3309.476          28.000  
R14  20913520.971   111480835.625         147.477          28.000  
> 2021  9 12 13  9 11.9991355  0 12
C01  37325142.841   194361806.178        -579.843          33.000  
C06  36153127.910   188258821.528          12.038          32.000  
C16  36720778.034   191214707.022          51.703          36.000  
C33  25956031.014   135159908.520       -3857.718          22.000  
E01  24064691.960   126460809.663       -2055.235          34.000  
E04  23779917.006   124964238.476         449.307          31.000  
G31  21439663.630   112666169.372       -1233.507          33.000  
G32  21061646.925   110679730.993       -1768.360          20.000  
J01  36292705.283   190719471.349          42.131          27.000    36292710.979   142420393.584          30.213          30.000  
J02  39311294.857   206582289.717       -1313.942          34.000    39311302.651   154265993.828        -980.763          32.000  
J03                                                                  37263297.456   146229191.918        -359.533          24.000  
R02  20055226.556   107018510.661       -3309.945          28.000  
> 2021  9 12 13  9 12.9991350  0 10
C01  37325105.067   194361605.170        -579.508          34.000  
C06  36152977.714   188258028.618          12.605          31.000  
C16  36720620.044   191213874.451          51.756          36.000  
E01  24064932.994   126462075.953       -2055.598          34.000  
E04  23779681.069   124963001.680         449.553          30.000  
J01  36292547.292   190718641.437          41.402          28.000    36292552.689   142419774.600          28.663          30.000  
J02  39311395.887   206582814.661       -1312.057          34.000    39311402.482   154266385.914        -980.104          32.000  
J03                                                                  37263238.697   146228962.501        -358.724          26.000  
R02  20055695.131   107021020.708       -3310.105          26.000  
R14  20913244.262   111479361.0861        146.835          26.000  
> 2021  9 12 13  9 13.9991347  0 13
C01  37325126.053   194361716.140        -579.057          33.000  
C06  36152881.181   188257547.995          11.033          31.000  
C16  36720521.112   191213354.196          52.044          36.000  
C25  24486421.403   127507183.8111      -2487.128          23.000  
C33  25957271.255   135166372.4871      -3854.678          22.000  
E01  24065232.486   126463649.327       -2054.568          35.000  
E04  23779502.693   124962079.223         450.264          31.000  
G32  21062093.316   110682009.0731      -1769.418          17.000  
J01  36292452.858   190718127.249          41.042          23.000    36292455.856   142419390.731          28.689          30.000  
J02  39311554.777   206583654.864       -1312.733          35.000    39311561.972   154267013.267        -980.267          32.000  
J03                                                                  37263238.097   146228967.222        -358.999          25.000  
R02  20056225.164   107023851.000       -3310.576          27.000  
R14  20913122.846   111478713.470         146.115          27.000  
> 2021  9 12 13  9 14.9991342  0 13
C01  37325087.080   194361514.374        -578.722          33.000  
C06  36152732.184   188256754.950          14.236          31.000  
C09  37238244.999   193909295.1251         94.560          20.000  
C16  36720358.325   191212521.408          52.385          36.000  
C33  25957860.947   135169446.877       -3854.336          23.000  
E01  24065476.217   126464930.617       -2054.656          34.000  
E04  23779266.756   124960840.829         450.438          31.000  
G31  21439980.810   112667821.0431      -1233.674          31.000  
J01  36292296.666   190717298.500          41.160          27.000    36292298.465   142418771.569          29.525          30.000  
J02  39311656.107   206584179.523       -1312.766          35.000    39311662.402   154267405.079        -979.925          31.000  
J03                                                                  37263178.738   146228736.981        -357.964          23.000  
R02  20056695.239   107026361.858       -3311.075          29.000  
R14  20912938.474   111477730.886         145.414          31.000  
> 2021  9 12 13  9 15.9991340  0 13
C01  37325138.045   194361780.657        -578.616          34.000  
C06  36152665.930   188256429.690          14.237          32.000  
C09  37238167.053   193908887.781          95.626          21.000  
C16  36720287.874   191212156.547          53.358          36.000  
C33  25958544.174   135172989.244       -3855.316          22.000  
E01  24065806.289   126466665.533       -2054.752          34.000  
E04  23779118.958   124960076.147         450.240          30.000  
G31  21440153.790   112668739.301       -1233.074          33.000  
J01  36292227.114   190716942.515          41.759          30.000    36292230.112   142418505.240          30.585          31.000  
J02  39311844.976   206585176.377       -1310.321          34.000    39311852.171   154268149.520        -980.583          31.000  
J03                                                                  37263211.416   146228858.894        -356.061          25.000  
R02  20057257.050   107029353.165       -3311.793          28.000  
R14  20912850.335   111477261.030         145.568          27.000  
> 2021  9 12 13  9 16.9991337  0 11
C01  37325159.630   194361890.686        -578.366          34.000  
C06  36152576.592   188255948.281          13.549          31.000  
C09  37238060.327   193908323.826          95.668          21.000  
C16  36720188.942   191211635.488          53.456          35.000  
C33  25959193.824   135176376.555       -3855.630          21.000  
E01  24066108.780   126468254.907       -2057.465          32.000  
E04  23778943.280   124959153.845         450.198          31.000  
J01  36292128.482   190716427.654          42.047          28.000    36292132.979   142418121.101          30.958          31.000  
J02  39312005.665   206586015.674       -1312.370          36.000    39312010.761   154268776.177        -981.241          31.000  
J03                                                                  37263212.615   146228861.154        -355.758          25.000  
R14  20912735.814   111476650.062         147.543          29.000  
> 2021  9 12 13  9 17.9991334  0 13
C01  37325180.615   194362000.453        -578.115          34.000  
C06  36152487.554   188255466.656          13.476          32.000  
C09  37237952.702   193907760.903          92.719          21.000  
C16  36720087.313   191211114.171          53.484          35.000  
C33  25959846.172   135179763.594       -3855.270          21.000  
E01  24066410.071   126469838.281       -2055.312          32.000  
E04  23778768.501   124958230.622         450.904          30.000  
G31  21440443.390   112670290.0931      -1232.501          32.000  
G32  21063062.245   110687037.7561      -1768.744          25.000  
J01  36292030.750   190715912.943          41.881          31.000    36292034.347   142417737.047          32.337          31.000  
J02  39312165.154   206586854.561       -1310.893          33.000    39312170.551   154269402.653        -979.279          31.000  
J03                                                                  37263214.114   146228864.408        -356.867          26.000  
R02  20058320.114   107035017.6901      -3312.841          31.000  
> 2021  9 12 13  9 18.9991329  0 12
C01  37325143.141   194361797.769        -577.971          33.000  
C06  36152334.060   188254672.609          12.806          32.000  
C09  37237785.418   193906887.780          92.775          21.000  
C16  36719929.022   191210280.538          52.502          34.000  
C33  25960438.562   135182837.076       -3854.002          24.000  
E01  24066652.303   126471110.571       -2056.200          32.000  
E04  23778533.164   124956992.027         451.268          30.000  
G31  21440528.531   112670734.670       -1231.358          33.000  
J01  36291872.460   190715083.220          42.116          32.000    36291877.556   142417117.553          30.910          31.000  
J02  39312268.283   206587378.225       -1311.893          35.000    39312271.581   154269793.693        -980.498          30.000  
J03                                                                  37263156.853   146228633.008        -357.675          27.000  
R14  20912436.921   111475057.4071        144.494          27.000  
> 2021  9 12 13  9 19.9991324  0 13
C01  37325104.768   194361595.034        -577.990          32.000  
C06  36152179.667   188253878.441          12.273          32.000  
C09  37237620.832   193906015.422          91.544          21.000  
C16  36719766.834   191209446.699          53.046          34.000  
C33  25961031.252   135185910.300       -3853.742          23.000  
E01  24066890.339   126472361.861       -2056.248          32.000  
E04  23778296.028   124955753.326         451.377          29.000  
G31  21440617.569   112671179.213       -1231.830          33.000  
J01  36291714.469   190714253.254          41.716          32.000    36291719.565   142416498.077          33.024          31.000  
J02  39312367.214   206587901.670       -1310.678          33.000    39312370.212   154270184.614        -979.922          30.000  
J03                                                                  37263098.993   146228401.732        -355.541          27.000  
R02  20059274.953   107040044.1221      -3313.904          31.000  
R14  20912262.442   111474127.143         144.083          28.000  
> 2021  9 12 13  9 20.9991322  0 13
C01  37325156.632   194361860.590        -577.823          34.000  
C06  36152117.010   188253552.279          13.325          32.000  
C09  37237543.485   193905613.937          89.718          21.000  
C16  36719696.383   191209080.908          54.243          35.000  
C33  25961714.179   135189452.372       -3854.556          22.000  
E01  24067222.509   126474107.777       -2054.213          32.000  
G31  21440788.451   112672096.062       -1232.701          34.000  
J01                                                                  36291651.213   142416231.435          30.793          32.000  
J02  39312556.983   206588897.479       -1309.769          34.000    39312559.681   154270928.245        -980.580          30.000  
J03                                                                  37263129.872   146228523.063        -356.739          27.000  
R02  20059835.265   107043038.273       -3314.588          32.000  
R13  20668740.729   110369921.4831      -2629.089          27.000  
R14  20912179.399   111473684.474         144.117          29.000  
> 2021  9 12 13  9 21.9991316  0 14
C01  37325088.879   194361501.574        -577.697          34.000  
C06  36151934.437   188252601.512          14.968          32.000  
C09  37237345.922   193904586.448          91.834          21.000  
C16  36719505.415   191208090.524          53.046          34.000  
C25  24489271.830   127522197.1341      -2478.736          23.000  
E01  24067436.261   126475230.525       -2056.838          31.000  
G31  21440843.613   112672382.709       -1233.170          34.000  
J01  36291459.645   190712909.7281         41.196          32.000    36291463.243   142415494.236          30.520          31.000  
J02  39312625.935   206589262.819       -1311.727          34.000    39312630.132   154271201.085        -980.635          30.000  
J03                                                                  37263041.733   146228174.289        -357.585          28.000  
R02  20060278.658   107045393.126       -3315.056          32.000  
R03  19398634.005   103842406.0171        766.508          26.000  
R04  22790416.323   122041643.6431       3418.439          26.000  
R13  20669052.812   110371588.476       -2629.139          28.000  
> 2021  9 12 13  9 22.9991314  0 15
C01  37325139.544   194361766.914        -577.693          34.000  
C06  36151872.679   188252274.889          13.288          32.000  
C16  36719436.463   191207724.283          53.400          34.000  
C25  24489686.143   127524363.749       -2479.281          23.000  
C37  24534263.483   127756347.5241        652.471          24.000  
E01  24067767.231   126476970.441       -2054.942          32.000  
E04  23777738.714   255213055.496         449.921          27.000  
G31  21441019.591   112673299.254       -1232.539          34.000  
J01  36291389.494   190712552.734          42.111          33.000    36291395.490   142415227.449          33.297          31.000  
J02  39312815.404   206590258.074       -1310.004          34.000    39312819.002   154271944.274        -977.149          31.000  
J03                                                                  37263072.012   146228294.830        -355.454          27.000  
R02  20060842.568   107048388.312       -3315.398          32.000  
R04  22789720.505   122037917.803        3421.083          26.000  
R13  20669484.514   110373893.198       -2630.679          27.000  
R14  20911891.898   111472151.8181        144.038          28.000  
> 2021  9 12 13  9 23.9991309  0 15
C01  37325100.571   194361563.874        -577.502          33.000  
C06  36151720.085   188251479.923          15.629          32.000  
C09  37237097.694   193903307.8981         96.675          20.000  
C16  36719276.674   191206889.655          54.441          34.000  
C37  24533987.674   127754914.700         652.697          24.000  
E01  24068006.466   126478226.731       -2055.470          32.000  
G31  21441101.135   112673743.262       -1230.801          34.000  
G32  21064312.680   110693723.4891      -1772.622          18.000  
J01  36291230.904   190711723.183          41.978          31.000    36291237.799   142414607.790          29.799          32.000  
J02  39312912.237   206590780.522       -1309.673          35.000    39312918.533   154272334.473        -979.970          31.000  
J03                                                                  37263011.754   146228061.777        -355.772          26.000  
R02  20061315.041   107050903.995       -3315.902          31.000  
R03  19398139.647   103839759.4201        764.501          24.000  
R04  22788932.650   122033699.365        3419.415          28.000  
R13  20669827.476   110375724.725       -2629.493          27.000  
> 2021  9 12 13  9 24.9991306  0 12
C01  37325121.856   194361673.031        -577.740          34.000  
C06  36151628.049   188250996.981          13.606          31.000  
C16  36719177.742   191206367.120          54.258          34.000  
C37  24533770.324   127753793.794         652.043          22.000  
E01  24068308.956   126479817.105       -2055.791          32.000  
G31  21441245.635   112674502.288       -1231.120          34.000  
J01  36291132.872   190711208.332          42.899          31.000    36291139.767   142414223.337          30.168          31.000  
J02  39313072.626   206591618.036       -1310.167          35.000    39313078.022   154272959.823        -979.542          30.000  
J03                                                                  37263012.054   146228064.909        -357.499          26.000  
R02  20061851.070   107053740.126       -3316.333          32.000  
R04  22788204.454   122029799.419        3418.426          28.000  
R13  20670230.697   110377877.793       -2629.876          28.000  
> 2021  9 12 13  9 25.9991304  0 17
C01  37325172.821   194361938.539        -577.782          33.000  
C06  36151565.692   188250669.747          14.750          32.000  
C09  37236906.126   193902330.9931         99.136          19.000  
C16  36719104.893   191206000.323          55.724          34.000  
C25  24490812.763   127530234.6151      -2474.372          15.000  
C37  24533583.254   127752829.952         650.438          23.000  
E01  24068638.129   126481547.021       -2056.136          31.000  
G31  21441417.416   112675418.415       -1231.898          34.000  
G32  21064827.723   110696476.0561      -1770.565          18.000  
J01  36291065.718                          41.271          32.000    36291072.014   142413956.391          32.697          32.000  
J02  39313263.294   206592612.446       -1309.586          34.000    39313265.992   154273702.478        -978.561          30.000  
J03                                                                  37263044.131   146228186.405        -355.578          27.000  
R02  20062415.878   107056737.094       -3317.181          33.000  
R03  19397709.145   103837455.6431        761.653          22.000  
R04  22787502.940   122026042.726        3419.475          28.000  
R13  20670659.400   110380166.984       -2628.938          27.000  
R14  20911527.051   111470206.7331        143.387          28.000  
> 2021  9 12 13  9 26.9991301  0 14
C01  37325193.806   194362047.888        -577.889          34.000  
C02  37185130.170   193632730.8551       -585.249          29.000  
C06  36151473.056   188250186.109          15.785          32.000  
C16  36719003.863   191205477.058          55.476          34.000  
C37  24533367.703   127751709.964         652.280          23.000  
E01  24068941.519   126483140.395       -2053.339          31.000  
E04  23777010.218   261959202.767         446.888          26.000  
G32  21065065.758   110697771.440       -1765.431          17.000  
J01  36290974.581   190710321.3181         44.575          32.000    36290974.281   142413571.699          33.239          31.000  
J02  39313420.685   206593449.107       -1308.437          33.000    39313425.182   154274327.198        -976.980          30.000  
J03                                                                  37263044.431   146228187.766        -354.014          28.000  
R02  20062949.209   107059574.480       -3317.369          34.000  
R04  22786774.444   122022141.756        3419.319          27.000  
R13  20671062.621   110382320.164       -2629.714          28.000  
> 2021  9 12 13  9 27.9991296  0 13
C01  37325155.433   194361844.827        -577.446          34.000  
C06  36151319.262   188249390.108          17.494          32.000  
C16  36718844.673   191204641.424          55.126          34.000  
C37  24533091.594   127750277.265         651.705          24.000  
E01  24069180.453   126484396.685       -2056.882          31.000  
E04  23776774.881   263645465.940         448.385          25.000  
G31  21441648.256   112676620.1191      -1232.561          34.000  
G32  21065243.835   110698747.232       -1762.617          16.000  
J01  36290816.890   190709491.030          42.902          31.000    36290815.391   142412951.669          33.737          31.000  
J02  39313522.015   206593970.428       -1309.758          34.000    39313524.114   154274716.527        -978.466          30.000  
J03                                                                  37262984.173   146227953.637        -355.581          27.000  
R04  22785985.690   122017918.527        3418.962          27.000  
R14  20911239.550   111468674.7611        143.114          29.000  
> 2021  9 12 13  9 28.9991291  0 16
C01  37325117.359   194361641.431        -577.143          34.000  
C06  36151165.469   188248593.902          15.483          32.000  
C09  37236454.039   193900016.7511         94.327          19.000  
C16  36718683.384   191203805.683          54.968          33.000  
C37  24532814.286   127748846.234         649.524          22.000  
E01  24069423.285   126485672.975       -2054.728          30.000  
E04  23776539.544   265331726.706         448.942          28.000  
G31  21441733.097   112677063.341       -1231.546          33.000  
G32  21065428.208   110699724.573       -1765.719          15.000  
J01  36290653.204   190708660.573          41.891          31.000    36290657.101   142412331.437          32.788          31.000  
J02  39313618.248   206594491.720       -1308.048          35.000    39313624.544   154275105.789        -977.610          30.000  
J03                                                                  37262924.514   146227721.030        -356.397          26.000  
R02  20063889.358   107064610.0431      -3318.328          34.000  
R04  22785196.936   122013694.450        3419.600          27.000  
R13  20671744.649   110385962.3241      -2629.148          28.000  
R14  20911066.570   111467752.695         142.848          29.000  
> 2021  9 12 13  9 29.9991288  0 14
C01  37325138.644   194361750.206        -577.139          33.000  
C06  36151074.332   188248109.592          13.473          33.000  
C16  36718583.554   191203281.761          54.763          34.000  
C37  24532596.937   127747727.952         651.420          21.000  
E01  24069725.176   126487259.349       -2057.105          32.000  
E04  23776363.566   267018313.115         448.774          27.000  
G31  21441878.796   112677821.337       -1233.978          32.000  
J01  36290549.475   190708145.164          43.450          32.000    36290559.369   142411946.677          32.530          31.000  
J02  39313781.036   206595327.528       -1307.922          33.000    39313783.134   154275729.932        -976.031          29.000  
J03                                                                  37262926.013   146227724.156        -356.274          28.000  
R02  20064418.192   107067448.454       -3318.544          33.000  
R04  22784469.940   122009801.033        3420.110          27.000  
R13  20672146.371   110388108.236       -2629.979          26.000  
R14  20910953.548   111467149.487         143.165          28.000  
> 2021  9 12 13  9 30.9991283  0 15
C01  37325099.971   194361546.639        -576.920          33.000  
C06  36150922.337   188247313.184          17.766          33.000  
C09  37236176.431   193898577.8361         97.059          19.000  
C16  36718423.764   191202445.838          56.657          34.000  
C37  24532318.729   127746295.368         650.660          22.000  
E01  24069969.807   126488544.639       -2056.020          32.000  
E04  23776127.929   268704568.933         447.709          27.000  
E19                                                                                                                                  24639765.845    96691732.9771      -1646.167          24.000  
G31  21441960.340   112678264.444       -1230.365          33.000  
J01  36290398.380   190707314.800          45.039          31.000    36290401.678   142411326.526          31.942          31.000  
J02  39313880.267   206595848.465       -1308.619          33.000    39313882.366   154276118.948        -977.014          30.000  
J03                                                                  37262866.654   146227491.737        -355.974          27.000  
R02  20064890.365   107069967.327       -3319.135          32.000  
R04  22783679.687   122005570.025        3419.437          27.000  
R13  20672490.233   110389943.820       -2628.378          27.000  
> 2021  9 12 13  9 31.9991281  0 17
C01  37325150.936   194361811.029        -576.510          32.000  
C06  36150861.479   188246984.795          15.758          33.000  
C09  37236097.886   193898168.875          96.026          19.000  
C16  36718353.613   191202077.873          54.367          34.000  
C37  24532131.359   127745332.952         649.298          22.000  
E01  24070299.878   126490279.555       -2054.130          32.000  
E04  23775980.731   270391306.979         448.954          28.000  
E19                                                                                                                                  24640125.596    96693144.531       -1647.339          24.000  
G31  21442133.620   112679179.857       -1229.130          32.000  
J01  36290331.226   190706956.884          42.755          32.000    36290334.524   142411059.277          31.926          31.000  
J02  39314072.134   206596841.513       -1308.203          33.000    39314071.535   154276860.577        -976.901          29.000  
J03                                                                  37262897.233   146227611.546        -355.289          27.000  
R02  20065450.678   107072966.745       -3319.607          33.000  
R03  19396162.216   103829174.1431        763.501          16.000  
R04  22782981.170   122001829.413        3420.303          27.000  
R13  20672922.833   110392253.793       -2628.281          27.000  
R14  20910692.429   111465758.2191        143.081          26.000  
> 2021  9 12 13  9 32.9991276  0 16
C01  37325111.663   194361606.711        -576.151          34.000  
C06  36150707.986   188246187.954          17.095          33.000  
C09  37235929.103   193897291.812          97.029          20.000  
C16  36718192.924   191201241.495          54.391          33.000  
C25  24493307.936   127543185.6041      -2479.151          25.000  
C37  24531854.351   127743902.115         651.083          21.000  
E01  24070542.410   126491553.845       -2056.825          31.000  
E04  23775743.595   124942375.624         447.742          27.000  
E19                                                                                                                                  24640396.009    96694204.214       -1648.610          25.000  
G31  21442218.161   112679622.443       -1229.292          32.000  
J01  36290174.435   190706126.278          42.297          33.000    36290175.934   142410438.964          31.694          30.000  
J02  39314167.168   206597361.981       -1310.723          33.000    39314170.166   154277249.111        -978.330          28.000  
J03                                                                  37262837.574   146227377.836        -353.283          26.000  
R02  20065920.752   107075486.573       -3319.861          32.000  
R13  20673266.995   110394091.937       -2627.254          27.000  
R14  20910518.849   111464832.541         143.641          27.000  
> 2021  9 12 13  9 33.9991273  0 17
C01  37325131.449   194361714.035        -575.388          30.000  
C02  37185078.306   193632448.3501       -583.419          30.000  
C06  36150612.352   188245703.048          15.696          32.000  
C16  36718090.695   191200717.010          57.613          33.000  
C25  24493693.169   127545196.139       -2478.255          25.000  
C37  24531637.900   127742783.255         651.396          21.000  
E01  24070843.402   126493135.219       -2054.907          31.000  
E04  23775566.418   273764133.443         447.748          28.000  
E19                                                                                                                                  24640726.680    96695501.096       -1649.830          24.000  
G31  21442359.963   112680380.555       -1230.892          29.000  
J01  36290076.403   190705610.728          45.330          33.000    36290077.602   142410054.064          32.433          31.000  
J02  39314321.861   206598197.043       -1307.540          32.000    39314329.056   154277872.814        -977.507          29.000  
J03                                                                  37262838.174   146227378.674        -353.705          28.000  
R02  20066452.284   107078326.799       -3320.668          28.000  
R03  19395642.076   103826389.7651        765.420          15.000  
R04  22781460.923   121993687.960        3421.571          25.000  
R13  20673670.816   110396247.912       -2629.077          28.000  
> 2021  9 12 13  9 34.9991268  0 16
C01  37325092.176   194361508.392        -574.900          33.000  
C06  36150462.156   188244905.739          17.396          32.000  
C09  37235655.992   193895850.2871         96.651          20.000  
C16  36717931.205   191199880.180          55.469          33.000  
C25  24494021.142   127546892.957       -2477.717          23.000  
E01  24071083.536   126494397.509       -2053.402          31.000  
E04  23775328.682   124940194.882         448.128          28.000  
E19                                                                                                                                  24640997.093    96696563.044       -1647.376          25.000  
G31  21442443.305   112680823.742       -1231.093          33.000  
J01  36289918.412   190704780.080          42.627          33.000    36289919.911   142409433.733          32.057          31.000  
J02  39314416.896   206598716.898       -1307.991          31.000    39314427.088   154278261.045        -977.313          29.000  
J03                                                                  37262778.515   146227142.851        -353.800          27.000  
R02  20066921.459   107080847.788       -3321.080          30.000  
R04  22780673.668   -28520737.937        3420.645          28.000  
R13  20674013.478   110398078.429       -2628.897          28.000  
R14  20910225.052   111463266.1271        140.497          29.000  
> 2021  9 12 13  9 35.9991268  0 15
C01  37325202.200   194362083.017        -574.682          31.000  
C06  36150456.460   188244888.722          17.668          33.000  
C16  36717920.413   191199823.584          57.590          33.000  
C25  24494496.313   127549370.646       -2477.817          24.000  
E01  24071472.366   126496440.509       -2055.487          32.000  
E04  23775242.342   124939746.611         447.497          26.000  
E19                                                                                                                                  24641416.502    96698210.498       -1647.255          23.000  
G31  21442676.544   112682054.705       -1230.425          31.000  
J01  36289906.121   190704737.090          41.318          33.000    36289911.817   142409401.716          30.675          31.000  
J02  39314674.117   206600024.046       -1305.795          32.000    39314677.115   154279237.111        -976.445          29.000  
J03                                                                  37262869.053   146227496.987        -354.392          26.000  
R02  20067545.927   107084169.222       -3321.805          31.000  
R03  19395204.679   103824048.6891        758.471          18.000  
R13  20674502.740   110400690.781       -2629.710          28.000  
R14  20910198.970   111463127.816         140.182          27.000  
> 2021  9 12 13  9 36.9991263  0 13
C01  37325161.728   194361876.888        -574.436          33.000  
C06  36150307.163   188244090.938          16.486          32.000  
C16  36717755.527   191198986.224          58.783          34.000  
E01  24071712.500   126497702.799       -2054.774          37.000  
E04  23775006.406   278823721.544         447.015          28.000  
E19                                                                                                                                  24641686.316    96699271.273       -1649.516          24.000  
J01  36289743.933   190703906.488          45.390          31.000    36289752.327   142408781.466          32.524          31.000  
J02  39314771.250   206600543.262       -1306.414          33.000    39314775.747   154279624.931        -975.502          32.000  
J03                                                                  37262807.595   146227263.188        -354.623          25.000  
R02  20068013.303   107086691.200       -3322.281          30.000  
R04  22779246.356   121981829.320        3420.350          28.000  
R13  20674844.803   110402517.589       -2628.991          28.000  
R14  20910016.097   111462152.317         139.425          26.000  
> 2021  9 12 13  9 37.9991260  0 12
C06  36150213.028   188243606.066          16.729          30.000  
C16  36717656.895   191198461.257          55.591          28.000  
E01  24072012.892   126499281.173       -2056.687          38.000  
E19                                                                                                                                  24642015.787    96700567.371       -1648.026          22.000  
G22  23029935.507   121023127.6201        -20.309          24.000  
G31  21442908.583                       -1229.036          37.000  
J01  36289655.794   190703390.692          43.224          30.000    36289653.396   142408396.171          26.748          31.000  
J02  39314927.142   206601377.442       -1307.262          36.000    39314933.738   154280247.772        -979.504          30.000  
J03                                                                  37262808.195   146227263.309        -352.765          25.000  
R02  20068548.133   107089533.754       -3322.808          28.000  
R04  22778516.061   121977918.562        3419.499          29.000  
R13  20675248.024   110404670.887       -2629.191          30.000  
> 2021  9 12 13  9 38.9991255  0 16
C01  37325140.143   194361775.9821       -573.380          27.000  
C06  36150058.036   188242808.368          17.508          25.000  
C09  37235191.613   193893432.6951         98.532          21.000  
C16  36717496.506   191197624.283          56.736          27.000  
C37  24530479.802   127736719.1381        654.769          17.000  
E01  24072252.426   126500539.463       -2056.640          37.000  
E04  23774596.589   124936347.359         447.227          27.000  
G22  23029789.508   121022360.093         -20.281          22.000  
G31  21442996.422   112683687.6541      -1230.388          37.000  
G32  21067790.572   110711783.3621      -1773.827          14.000  
J01  36289494.806   190702559.641          43.611          35.000    36289495.705   142407775.649          32.388          29.000  
J02  39315027.873   206601896.732       -1307.587          35.000    39315032.369   154280635.609        -977.766          30.000  
J03                                                                  37262749.435   146227028.910        -353.593          27.000  
R02  20069020.606   107092056.710       -3322.971          34.000  
R13  20675590.986   110406501.391       -2629.868          28.000  
R14  20909726.498   111460609.3481        140.827          20.000  
> 2021  9 12 13  9 39.9991252  0 15
C06  36149962.702   188242322.031          18.378          31.000  
C09  37235082.489   193892867.520          95.809          21.000  
C16  36717394.876   191197099.097          56.936          32.000  
C33  25973669.603   135251753.7211      -3853.047          24.000  
E01  24072553.118   126502119.837       -2053.785          31.000  
G22  23029698.671   121021907.881         -20.522          25.000  
G31  21443143.321   112684444.616       -1230.838          31.000  
G32  21068045.396   110713084.706       -1774.819          26.000  
J01  36289396.174   190702043.635          43.115          29.000    36289399.172   142407390.350          30.372          30.000  
J02                                                                  39315192.159   154281258.426        -974.902          29.000  
J03                                                                  37262750.035   146227029.596        -354.020          26.000  
R02  20069553.937   107094900.044       -3323.733          31.000  
R04  22777002.409   121969813.488        3420.144          29.000  
R13  20675993.607   110408652.139       -2630.073          29.000  
R14  20909596.088   111459913.610         139.667          26.000  
> 2021  9 12 13  9 40.9991247  0 17
C01  37325121.256   194361673.7131       -573.703          31.000  
C06  36149808.308   188241523.053          17.556          34.000  
C09  37234916.104   193891989.404          97.838          23.000  
C16  36717233.888   191196261.081          57.662          34.000  
C25  24496275.282   127558475.5441      -2479.069          14.000  
C33  25974256.596   135254826.484       -3852.480          22.000  
E01  24072799.847   126503416.127       -2054.026          32.000  
E04  23774188.872   285569416.169         448.493          30.000  
G22  23029553.572   121021141.543         -21.681          21.000  
G31  21443227.862   112684886.506       -1229.315          33.000  
J01  36289233.986   190701212.149          42.842          30.000    36289241.181   142406769.433          33.790          32.000  
J02  39315285.094   206603249.1201      -1306.683          34.000    39315290.191   154281644.947        -974.517          29.000  
J03                                                                  37262690.376   146226795.094        -353.490          27.000  
R02  20070025.810   107097423.970       -3323.814          27.000  
R04  22776213.056   121965585.817        3419.058          27.000  
R13  20676336.870   110410485.103       -2629.657          29.000  
R14  20909420.409   111458977.600         139.617          22.000  
> 2021  9 12 13  9 41.9991245  0 15
C01  37325170.122   194361935.274        -574.104          30.000  
C06  36149744.153   188241193.047          18.562          30.000  
C09  37234840.556   193891580.503          95.604          21.000  
C16  36717161.638   191195890.946          57.733          34.000  
E01  24073138.013   126505194.043       -2054.636          30.000  
E04  23774045.271   287256129.136         447.293          29.000  
G22  23029497.511   121020848.002         -21.700          23.000  
G31  21443405.939   112685800.481       -1230.462          35.000  
J01  36289166.233   190700853.428          43.945          33.000    36289172.229   142406501.478          33.902          31.000  
J02  39315475.463   206604239.552       -1307.197          31.000    39315478.461   154282384.001        -975.383          26.000  
J03                                                                  37262721.255   146226912.933        -352.027          28.000  
R02  20070576.829   107100428.095       -3324.596          25.000  
R04  22775510.042   121961821.709        3418.890          26.000  
R13  20676770.370   110412799.271       -2627.901          30.000  
R14  20909331.371   111458503.131         139.540          26.000  
