     3.04           OBSERVATION DATA    M: Mixed            RINEX VERSION / TYPE
Higeo_Hi1105        Huawei CBG          20220123 111755 UTC PGM / RUN BY / DATE 
************************************************************COMMENT             
* If you have any problem,                                 *COMMENT             
*     please contact with LBS Technology Group, thanks.    *COMMENT             
*                                                          *COMMENT             
* Version Higeo2RinexV1.1 2020.07.21                       *COMMENT             
* Fuction:  Convert Higeo Log to Rinex file                *COMMENT             
*                                                          *COMMENT             
* Note that the verision support B1C B2A signal            *COMMENT             
*     BDS: C1D L1D D1D S1D indicate BDS B1C                *COMMENT             
*     BDS: C5D L5D D5D S5D indicate BDS B2A                *COMMENT             
*     Reference: RINEX V3.04                               *COMMENT             
*                                                          *COMMENT             
* Copyright(C) Huawei Technologies Co., Ltd. 2019 - 2020   *COMMENT             
*     All rights reserved.                                 *COMMENT             
************************************************************COMMENT             
                                                            MARKER NAME         
                                                            MARKER NUMBER       
                                                            MARKER TYPE         
                                                            OBSERVER / AGENCY   
                                                            REC # / TYPE / VERS 
                                                            ANT # / TYPE        
        0.0000        0.0000        0.0000                  APPROX POSITION XYZ 
        0.0000        0.0000        0.0000                  ANTENNA: DELTA H/E/N
G    8 C1C L1C D1C S1C C5I L5I D5I S5I                      SYS / # / OBS TYPES 
R    4 C1C L1C D1C S1C                                      SYS / # / OBS TYPES 
E    8 C1C L1C D1C S1C C5I L5I D5I S5I                      SYS / # / OBS TYPES 
J    8 C1C L1C D1C S1C C5I L5I D5I S5I                      SYS / # / OBS TYPES 
C   12 C2I L2I D2I S2I C1D L1D D1D S1D C5D L5D D5D S5D      SYS / # / OBS TYPES 
  2022     1    20     5    32   58.7560000     GPS         TIME OF FIRST OBS   
  2022     1    20     6    17   13.0000000     GPS         TIME OF LAST OBS    
G                                                           SYS / PHASE SHIFT   
R                                                           SYS / PHASE SHIFT   
E                                                           SYS / PHASE SHIFT   
J                                                           SYS / PHASE SHIFT   
C                                                           SYS / PHASE SHIFT   
  0                                                         GLONASS SLOT / FRQ #
 C1C    0.000 C1P    0.000 C2C    0.000 C2P    0.000        GLONASS COD/PHS/BIS 
                                                            END OF HEADER       
> 2022  1 20  5 32 58.7560000  0  6                     
G 4  24604563.356                1       -480.819          38.000                                                                  
G26  21656910.948                1       3442.361          31.000                                                                  
G27  24548698.071                1      -1250.180          18.000                                                                  
G29  25303280.753                1       5123.397          28.000                                                                  
G31  22717042.388                1       3679.056          33.000                                                                  
J 2  40561310.632                1       2957.208          34.000                                                                  
> 2022  1 20  5 32 59.7560000  0 10                     
G 4  24604474.325                1       -475.155          40.000                                                                  
G26  21657558.124                1       3448.080          35.000    21657844.953                1       2573.817          32.000  
G27  24548467.798                1      -1224.241          19.000                                                                  
G29  25304259.082                1       5144.052          33.000                                                                  
G31  22717743.712                1       3683.916          31.000                                                                  
R15  22561643.837                1                         44.000  
J 2  40561866.892                1       2962.486          39.000                                                                  
C22  25263867.622                1       5050.449          32.000                                                                                                                                  
C30  25158039.537                1       2494.481          34.000                                                                                                                                  
C36                                                                  24496460.443                1       3721.111          40.000                                                                  
> 2022  1 20  5 33  0.7560000  0 24                     
G 3  25203548.833                1       3910.409          23.000                                                                  
G 4  24604431.188                1       -472.431          32.000    24604679.504                1       -352.817          25.000  
G16  22238900.890                1       1183.448          28.000                                                                  
G26  21658213.729                1       3448.115          36.000    21658498.359                1       2577.656          28.000  
G27  24548239.829                1      -1209.938          22.000                                                                  
G29  25305235.684                1       5149.250          36.000                                                                  
G31  22718446.415                1       3687.893          44.000                                                                  
G32  24395633.940                1       6054.708          19.000                                                                  
R 5  22065607.629                1                         36.000  
R 9  25081590.256                1                         20.000  
R15  22562464.398                1                         42.000  
R17  23131910.077                1                         26.000  
R18  23796016.800                1                         25.000  
R24  25343064.039                1                         23.000  
J 2  40562431.005                1       2964.045          31.000    40562731.202                1       2209.672          24.000  
J 3  38590522.914                1       2425.047          22.000                                                                  
C 6  37110093.120                1       2360.146          28.000                                                                                                                                  
C 9  37761156.818                1       1996.051          34.000                                                                                                                                  
C10  38865752.163                1       2138.736          25.000                                                                                                                                  
C16  37121890.881                1       2393.728          25.000                                                                                                                                  
C21  25405853.901                1       2538.970          24.000    25405514.006                1       2562.008          22.000                                                                  
C22  25264831.118                1       5054.537          26.000                                                                                                                                  
C30  25158511.496                1       2490.044          34.000    25158042.923                1       2512.081          32.000                                                                  
C36  24497603.014                1       3686.402          31.000    24497167.613                1       3719.047          36.000                                                                  
> 2022  1 20  5 33  1.3520000  0 24                     
G 3  23862507.731                1       3912.125          23.000                                                                  
G 4  23262897.781                1       -471.150          32.000    23263136.779                1       -351.433          29.000  
G16  20897547.500                1       1183.713          28.000                                                                  
G26  20317117.572                1       3449.775          36.000    20317401.696                1       2578.384          28.000  
G27  23206616.605                1      -1208.404          14.000                                                                  
G29  23964330.153                1       5151.004          36.000                                                                  
G31  21377379.592                1       3688.529          44.000                                                                  
G32  23054836.706                1       6055.623          17.000                                                                  
R 5  20724790.222                1                         36.000  
R 9  23740153.174                1                         20.000  
R15  21221464.933                1                         43.000  
R17  21790625.161                1                         26.000  
R18  22454421.445                1                         25.000  
R24  24002099.753                1                         23.000  
J 2  39221279.601                1       2964.853          31.000    39221580.286                1       2210.151          22.000  
J 3  37249308.130                1       2424.534          22.000                                                                  
C 6  35768873.992                1       2361.101          28.000                                                                                                                                  
C 9  36419896.402                1       1996.502          34.000                                                                                                                                  
C10  37524509.040                1       2140.803          25.000                                                                                                                                  
C16  35780679.710                1       2395.286          25.000                                                                                                                                  
C21  24064665.956                1       2536.733          24.000    24064286.658                1       2563.935          22.000                                                                  
C22  23923921.679                1       5054.881          26.000    23923479.874                1       5104.201          32.000                                                                  
C30  23817300.063                1       2491.503          34.000    23816841.890                1       2516.469          33.000                                                                  
C36  23156537.290                1       3686.317          32.000    23156109.446                1       3715.531          25.000                                                                  
> 2022  1 20  5 33  2.3520000  0 30                     
G 3  23862872.493                1       1910.979          18.000                                                                  
G 4  23262437.985                1      -2477.829          31.000    23262664.436                1      -1849.103          28.000  
G16  20897391.565                1       -820.159          23.000                                                                  
G26  20317389.760                1       1445.908          34.000    20317677.724                1       1078.689          29.000  
G27  23206004.242                1      -3213.618          18.000                                                                  
G29  23964929.551                1       3146.231          35.000                                                                  
G31  21377709.733                1       1684.222          45.000                                                                  
G32  23055609.000                1       4053.547          19.000                                                                  
R 5  20725526.970                1                         32.000  
R 6  20720957.997                1                         20.000  
R 9  23739844.165                1                         18.000  
R15  21221903.474                1                         43.000  
R17  21790565.987                1                         31.000  
R18  22453875.829                1                         25.000  
R24  24002601.691                1                         28.000  
E 1  24578858.312                1       2066.335          35.000                                                                  
E 4  23932769.026                1       1791.293          30.000                                                                  
E31  24270591.718                1         48.129          29.000                                                                  
J 2  39221463.247                1        960.615          34.000    39221760.494                1        716.149          29.000  
J 3  37249385.592                1        424.043          20.000                                                                  
C 6  35768945.084                1        372.939          30.000                                                                                                                                  
C 9  36419898.566                1         11.781          34.000                                                                                                                                  
C10  37524537.606                1        157.635          26.000                                                                                                                                  
C16  35780763.418                1        410.346          30.000                                                                                                                                  
C21  24064787.392                1        548.831          23.000    24064393.261                1        557.726          26.000                                                                  
C22  23924500.206                1       3069.921          26.000    23924066.707                1       3097.759          32.000                                                                  
C26  26104748.174                1      -1413.382          15.000                                                                                                                                  
C29  23757651.606                1      -1954.349          21.000    23757276.078                1      -1966.087          17.000                                                                  
C30  23817376.844                1        507.192          36.000    23816945.317                1        511.792          34.000                                                                  
C36  23156862.894                1       1701.379          38.000    23156432.973                1       1715.541          39.000                                                                  
> 2022  1 20  5 33  3.3520000  0 32                     
G 3  23863234.393   125402142.7541       1912.407          19.000                                                                  
G 4  23261958.069   122242413.0661      -2475.920          33.000    23262191.727    91285836.9911      -1848.884          30.000  
G16  20897234.774   109815708.1291       -816.857          30.000                                                                  
G26  20317663.188   106770039.4361       1446.691          41.000    20317955.078    79732019.5321       1079.821          31.000  
G27  23205390.222   121945147.2211      -3214.385          19.000                                                                  
G29  23965518.757   125939650.1971       3146.743          34.000                                                                  
G31  21378028.705   112342298.1731       1684.660          30.000                                                                  
G32  23056374.174   121162063.4151       4056.187          17.000                                                                  
R 5  20726267.522                1                         32.000  
R 6  20720869.036                1                         24.000  
R 9  23739554.858                1                         21.000  
R15  21222333.762                1                         38.000  
R17  21790513.253                1                         32.000  
R18  22453328.887                1                         29.000  
R24  24003087.383                1                         19.000  
E 1  24579278.618   129164980.0021       2057.188          29.000                                                                  
E 4  23933106.112   125769320.3041       1793.969          22.000    23933121.904                1       1343.490          13.000  
E 9  23447313.688   123216464.1421       -978.294          32.000                                                                  
E26  27815337.126   146170582.1991      -1162.380          23.000                                                                  
E31  24270627.822   127543009.9311         49.797          23.000                                                                  
J 2  39221647.015   206111145.6751        960.732          36.000    39221942.221   153915326.1681        718.584          32.000  
J 3  37249460.087   195747232.2321        430.075          17.000                                                                  
C 6  35769015.827   186258650.5781        373.081          29.000                                                                                                                                  
C 9  36419899.438   189647973.1531         11.292          28.000                                                                                                                                  
C10  37524561.356   195400238.0331        157.436          23.000                                                                                                                                  
C16  35780845.399   186320251.3581        411.508          29.000                                                                                                                                  
C21  24064902.529   125312261.9541        550.113          25.000    24064495.467   126459776.2571        557.908          24.000                                                                  
C22  23925085.783   124584199.7451       3071.172          24.000    23924659.334   125724932.0871       3098.485          31.000                                                                  
C26  26104480.628   135932879.9091      -1413.859          20.000                                                                                                                                  
C29  23757255.521   123710263.3731      -1955.825          23.000    23756882.750   124843260.5141      -1964.364          18.000                                                                  
C30  23817471.546   124023824.3391        507.408          35.000    23817043.737   125159409.0441        512.032          37.000                                                                  
C36  23157191.272   120585570.9221       1702.387          41.000    23156757.843   121689582.7071       1718.351          42.000                                                                  
> 2022  1 20  5 33  4.0000000  0 33                     
G 3  23863310.424   125402542.5731       1911.785          19.000                                                                  
G 4  23261450.599   122239747.8641      -2474.721          38.000    23261731.059    91284029.7761      -1848.505          30.000  
G16  20896974.138   109814340.6841       -816.061          25.000                                                                  
G26  20317687.356   106770167.8641       1447.791          38.000    20317978.827    79732113.8561       1080.630          31.000  
G27  23204838.725   121942250.0401      -3217.178          19.000                                                                  
G29  23965749.030   125940861.4041       3148.390          31.000                                                                  
G31  21378078.124   112342558.7131       1685.436          30.000                                                                  
G32  23056709.341   121163825.3141       4058.385          17.000                                                                  
R 5  20726588.973                1                         27.000  
R 6  20720657.592                1                         24.000  
R 7  24132951.293                1                         22.000  
R 9  23739210.304                1                         21.000  
R15  21222459.037                1                         38.000  
R17  21790328.403                1                         35.000  
R18  22452817.717                1                         26.000  
R24  24003253.527                1                         19.000  
E 1  24579387.839   129165554.3511       2057.353          37.000                                                                  
E 4  23933174.150   125769679.4891       1795.044          23.000    23933184.237                1       1340.113           8.000  
E 9  23447043.472   123215045.2391       -978.152          20.000                                                                  
E26  27815041.746   146169030.0371      -1162.100          24.000                                                                  
E31  24270464.122   127542149.8881         50.949          14.000                                                                  
J 2  39221614.192   206110973.5391        962.614          36.000    39221905.296   153915181.5191        719.228          32.000  
J 3  37249355.194   195746682.7351        431.520          14.000                                                                  
C 6  35768906.885   186258084.7441        373.379          31.000                                                                                                                                  
C 9  36419743.625   189647162.1861         11.659          24.000                                                                                                                                  
C10  37524421.650   195399510.2751        157.015          24.000                                                                                                                                  
C16  35780741.204   186319708.5751        411.726          31.000                                                                                                                                  
C21  24064819.204   125311828.0651        552.785          28.000    24064406.646   126459310.0891        558.859          25.000                                                                  
C22  23925311.606   124585375.3821       3073.339          23.000    23924881.877   125726102.1601       3100.020          27.000                                                                  
C26  26104146.648   135931141.5881      -1409.956          18.000                                                                                                                                  
C29  23756858.738   123708197.2721      -1953.934          23.000    23756478.760   124841138.9611      -1966.990          18.000                                                                  
C30  23817379.950   124023347.9001        508.346          37.000    23816949.732   125158915.1901        513.003          37.000                                                                  
C36  23157250.254   120585878.0391       1703.213          41.000    23156813.422   121689875.1381       1719.148          42.000                                                                  
> 2022  1 20  5 33  5.0000000  0 34                     
G 3  23863674.505   125404455.8981       1914.406          18.000                                                                  
G 4  23260952.867   122237132.8621      -2472.748          36.000    23261259.519    91282181.3481      -1848.397          29.000  
G16  20896821.030   109813525.3141       -814.848          30.000                                                                  
G26  20317964.972   106771615.8251       1447.067          34.000    20318254.646    79733194.6841       1080.986          28.000  
G27  23204227.444   121939031.5091      -3217.936          19.000                                                                  
G29  23966348.829   125944009.1491       3147.771          30.000                                                                  
G31  21378396.730   112344244.8151       1686.364          37.000                                                                  
G32  23057477.848   121167885.5211       4062.015          16.000                                                                  
R 5  20727328.182                1                         31.000  
R 6  20720580.200                1                         17.000  
R 7  24132347.062                1                         20.000  
R 9  23738915.517                1                         20.000  
R15  21222894.263                1                         32.000  
R17  21790274.900                1                         30.000  
R18  22452267.547                1                         26.000  
R24  24003747.281                1                         25.000  
E 1  24579788.932   129167611.8761       2058.148          39.000    24579781.883    96456356.1511       1538.852          33.000  
E 4  23933516.995   125771475.0721       1796.394          26.000    23933519.996                1       1340.472          11.000  
E 9  23446849.984   123214066.0661       -979.180          24.000                                                                  
E26  27814824.352   146167868.5481      -1160.771          23.000                                                                  
E31  24270466.408   127542199.7041         48.853          24.000                                                                  
J 1  36605025.395   192360706.5071        763.830          13.000                                                                  
J 2  39221797.000   206111936.1981        962.707          29.000    39222087.651   153915900.9541        719.113          31.000  
J 3  37249435.726   195747114.2881        430.770          16.000                                                                  
C 6  35768978.065   186258458.3891        374.296          30.000                                                                                                                                  
C 9  36419745.841   189647174.0061         12.032          30.000                                                                                                                                  
C10  37524450.373   195399667.2891        157.597          29.000                                                                                                                                  
C16  35780820.323   186320119.2051        410.697          30.000                                                                                                                                  
C21  24064928.861   125312382.8891        555.127          22.000    24064513.441   126459869.3311        559.239          20.000                                                                  
C22  23925900.830   124588448.8331       3073.073          20.000    23925473.491   125729202.2271       3100.472          29.000                                                                  
C26  26103874.547   135929733.1341      -1410.148          13.000                                                                                                                                  
C29  23756487.799   123706244.5851      -1952.636          20.000    23756095.972   124839167.0751      -1975.509          18.000                                                                  
C30  23817477.113   124023856.646         507.076          36.000    23817045.307   125159428.2621        513.183          36.000                                                                  
C36  23157580.900   120587581.1961       1704.527          39.000    23157140.073   121691594.3151       1719.212          38.000                                                                  
> 2022  1 20  5 33  6.0000000  0 34                     
G 3  23864038.115   125406369.2991       1912.623          18.000                                                                  
G 4  23260478.238   122234659.630       -2473.499          36.000    23260788.555    91280333.7311      -1847.481          32.000  
G16  20896665.129   109812711.2011       -813.754          31.000                                                                  
G26  20318240.144   106773062.5151       1447.110          34.000    20318530.813    79734276.2551       1081.756          31.000  
G27  23203618.501   121935813.7751      -3217.662          24.000                                                                  
G29  23966950.007   125947157.0871       3148.440          28.000                                                                  
G31  21378718.233   112345932.0531       1687.829          35.000                                                                  
G32  23058247.211   121171946.0781       4059.136          16.000                                                                  
R 5  20728070.549                1                         29.000  
R 6  20720494.380                1                         23.000  
R 7  24131770.140                1                         19.000  
R 9  23738627.362                1                         19.000  
R15  21223326.801                1                         35.000  
R17  21790220.927                1                         36.000  
R18  22451720.465                1                         27.000  
R24  24004244.403                1                         22.000  
E 1  24580180.515   129169670.9621       2058.976          29.000    24580174.355    96457894.8441       1539.068          34.000  
E 4  23933857.222   125773272.2831       1797.712          21.000    23933860.084    93921607.7851       1340.590          15.000  
E 9  23446665.029   123213088.1501       -977.541          37.000                                                                  
E26  27814603.153   146166707.9361      -1160.495          26.000                                                                  
E31  24270468.711   127542249.7631         50.994          31.000                                                                  
J 1  36605215.742   192361470.7141        764.552          16.000                                                                  
J 2  39221979.931   206112898.7691        962.639          34.000    39222270.250   153916619.7181        719.070          29.000  
J 3  37249518.650   195747543.4371        428.513          17.000                                                                  
C 6  35769050.815   186258834.1381        375.337          22.000                                                                                                                                  
C 9  36419748.215   189647186.6801         12.883          28.000                                                                                                                                  
C10  37524479.794   195399825.2671        157.954          21.000                                                                                                                                  
C16  35780901.118   186320530.2161        411.083          24.000                                                                                                                                  
C21  24065040.455   125312939.1141        557.931          25.000    24064617.305   126460429.3261        560.325          26.000                                                                  
C22  23926488.763   124591521.5541       3071.755          27.000    23926064.408   125732303.4341       3101.459          29.000                                                                  
C26  26103603.457   135928321.9121      -1411.304          16.000                                                                                                                                  
C29  23756114.923   123704293.2441      -1950.339          22.000    23755713.673   124837197.4611      -1963.601          19.000                                                                  
C30  23817576.370   124024366.263         510.350          33.000    23817142.767   125159941.5741        514.162          35.000                                                                  
C36  23157905.335   120589283.7811       1702.564          30.000    23157464.909   121693313.5071       1719.247          34.000                                                                  
> 2022  1 20  5 33  7.0000000  0 34                     
G 3  23864395.461   125408282.3571       1913.438          19.000                                                                  
G 4  23260015.022   122232186.115       -2472.226          37.000    23260319.354    91278486.4051      -1847.163          34.000  
G16  20896510.468   109811897.1741       -813.969          30.000                                                                  
G26  20318514.671   106774511.0081       1448.608          32.000    20318807.085    79735358.2821       1082.585          31.000  
G27  23203004.969   121932595.2991      -3218.434          24.000    23203305.776    91054755.4681      -2400.756          15.000  
G29  23967550.346   125950305.8861       3149.273          32.000                                                                  
G31  21379037.834   112347620.3481       1688.427          34.000                                                                  
G32  23059020.325   121176005.4071       4062.032          16.000                                                                  
R 5  20728815.394                1                         23.000  
R 6  20720412.590                1                         28.000  
R 7  24131182.870                1                         15.000  
R 9  23738340.585                1                         18.000  
R15  21223761.800                1                         38.000  
R17  21790161.160                1                         36.000  
R18  22451180.084                1                         22.000  
R24  24004736.220                1                         24.000  
E 1  24580570.807   129171730.4741       2060.312          34.000    24580567.823    96459427.2341       1544.232          34.000  
E 4  23934196.053   125775069.5181       1797.797          22.000    23934201.637    93922949.1361       1341.938          15.000  
E 9  23446484.192   123212110.8021       -977.599          32.000    23446482.814    92009034.2581       -730.434          24.000  
E26  27814383.158   146165547.6131      -1160.536          19.000                                                                  
E31  24270476.389   127542300.1571         49.832          29.000                                                                  
J 1  36605360.405   192362234.9591        762.990          12.000                                                                  
J 2  39222162.373   206113861.1471        963.002          32.000    39222453.355   153917339.2791        720.125          30.000  
J 3  37249601.050   195747972.5931        428.660          16.000                                                                  
C 6  35769122.186   186259208.7021        374.280          30.000                                                                                                                                  
C 9  36419751.460   189647199.0621         12.085          28.000                                                                                                                                  
C10  37524510.506   195399983.7261        159.875          19.000                                                                                                                                  
C16  35780982.227   186320941.2771        411.284          30.000                                                                                                                                  
C21  24065150.775   125313496.7211        556.923          28.000    24064718.987   126460989.5471        559.556          30.000                                                                  
C22  23927080.552   124594593.1401       3072.003          23.000    23926653.371   125735405.4921       3102.103          27.000                                                                  
C26  26103330.868   135926910.7381      -1411.699          15.000                                                                                                                                  
C29  23755741.924   123702344.6801      -1947.777          19.000    23755331.757   124835231.6711      -1967.392          19.000                                                                  
C30  23817673.829   124024876.3241        510.854          37.000    23817236.945   125160456.3131        515.094          39.000                                                                  
C36  23158230.938   120590986.6201       1703.466          40.000    23157791.612   121695033.5081       1721.937          41.000                                                                  
> 2022  1 20  5 33  8.0000000  0 35                     
G 3  23864758.303   125410195.0881       1912.736          24.000                                                                  
G 4  23259551.038   122229713.0801      -2472.677          36.000    23259849.751    91276638.2961      -1847.959          29.000  
G16  20896355.318   109811083.2591       -813.659          29.000                                                                  
G26  20318790.297   106775959.5581       1449.276          31.000    20319082.658    79736440.9251       1082.648          25.000  
G27  23202391.262   121929378.6001      -3215.404          26.000    23202693.814    91052355.4391      -2399.880          23.000  
G29  23968150.337   125953455.3561       3149.678          26.000                                                                  
G31  21379359.215   112349307.9461       1686.710          31.000                                                                  
G32  23059792.358   121180065.1521       4059.396          16.000                                                                  
R 5  20729547.867                1                         26.000  
R 6  20720327.503                1                         21.000  
R 7  24130597.608                1                         14.000  
R 9  23738041.331                1                         11.000  
R15  21224193.972                1                         35.000  
R17  21790093.331                1                         27.000  
R18  22450639.232                1                         20.000  
R24  24005228.228                1                         21.000  
E 1  24580960.715   129173791.1951       2061.583          36.000    24580959.842    96460965.4651       1537.613          31.000  
E 4  23934537.658   125776867.7411       1799.067          26.000    23934542.684    93924292.1651       1344.395          15.000  
E 9  23446300.215   123211133.2261       -976.648          28.000    23446296.760    92008305.0071       -729.405          23.000  
E26  27814163.809   146164388.2331      -1159.221          19.000                                                                  
E31  24270478.466   127542350.3591         51.577          22.000                                                                  
J 1  36605502.694   192362998.5161        764.060          12.000                                                                  
J 2  39222344.588   206114823.6491        962.660          28.000    39222636.513   153918059.7171        720.992          21.000  
J 3  37249685.858   195748399.6721        426.637          16.000                                                                  
C 3  36905479.580                1        618.053          29.000                                                                                                                                  
C 6  35769194.430   186259583.0991        374.862          25.000                                                                                                                                  
C 9  36419752.403   189647211.9581         12.941          23.000                                                                                                                                  
C10  37524538.531   195400143.4211        159.520          18.000                                                                                                                                  
C16  35781061.136   186321352.4641        410.078          27.000                                                                                                                                  
C21  24065259.019   125314054.3941        558.824          28.000    24064823.427   126461549.7661        561.063          25.000                                                                  
C22  23927669.776   124597666.0721       3073.611          30.000    23927243.153   125738507.4881       3102.113          29.000                                                                  
C26  26103060.808   135925498.5171      -1412.219          15.000                                                                                                                                  
C29  23755367.478   123700398.0661      -1946.083          20.000    23754951.063   124833261.4381      -1974.321          19.000                                                                  
C30  23817772.877   124025387.5071        511.218          30.000    23817335.155   125160972.1431        516.038          31.000                                                                  
C36  23158557.432   120592690.3281       1704.278          29.000    23158120.234   121696753.5931       1719.326          32.000                                                                  
> 2022  1 20  5 33  9.0000000  0 36                     
G 3  23865122.838   125412108.4331       1913.116          16.000                                                                  
G 4  23259082.465   122227239.8691      -2472.652          31.000    23259380.148    91274791.6351      -1845.648          26.000  
G16  20896200.133   109810269.9931       -812.693          26.000                                                                  
G26  20319063.742   106777408.8011       1449.393          29.000    20319357.307    79737522.8781       1081.723          25.000  
G27  23201780.417   121926163.4981      -3214.959          24.000    23202079.095    91049955.2571      -2400.191          23.000  
G29  23968743.854   125956605.6101       3150.624          21.000                                                                  
G31  21379679.496   112350994.6371       1687.614          31.000                                                                  
G32  23060577.286   121184126.4961       4062.034          14.000                                                                  
R 5  20730287.948                1                         30.000  
R 6  20720246.796                1                         16.000  
R 7  24130009.849                1                         14.000  
R 9  23737753.594                1                         11.000  
R15  21224624.626                1                         30.000  
R17  21790028.451                1                         33.000  
R18  22450097.595                1                         18.000  
R24  24005725.804                1                         17.000  
E 1  24581351.111   129175852.4871       2061.006          30.000    24581351.355    96462503.1111       1537.916          26.000  
E 4  23934875.355   125778666.0901       1797.943          27.000    23934883.399    93925637.8931       1345.743          17.000  
E 9  23446113.986   123210156.9781       -975.911          32.000    23446110.566    92007575.7161       -729.149          27.000  
E21                                                                  28277661.241   110967613.3171       2068.987          12.000  
E26  27813943.779   146163229.0871      -1159.449          24.000                                                                  
E31  24270483.736   127542402.9081         52.233          26.000    24270482.671    95242587.8051         43.615          22.000  
J 1  36605649.223   192363764.3401        766.103          13.000                                                                  
J 2  39222527.536   206115786.1251        962.388          28.000    39222819.792   153918780.2121        721.640          21.000  
J 3  37249769.985   195748824.3081        423.306          17.000                                                                  
C 3  36905552.853   192176897.5361        625.500          21.000                                                                                                                                  
C 6  35769265.662   186259958.3321        375.544          25.000                                                                                                                                  
C 9  36419755.160   189647224.1901         12.271          27.000                                                                                                                                  
C10  37524567.533   195400302.4851        158.846          18.000                                                                                                                                  
C16  35781139.959   186321762.8901        411.011          23.000                                                                                                                                  
C21  24065370.543   125314612.4991        558.176          26.000    24064927.046   126462112.1921        563.018          27.000                                                                  
C22  23928262.211   124600740.6681       3074.892          28.000    23927830.178   125741609.6061       3102.276          29.000                                                                  
C26  26102788.550   135924085.0231      -1413.968          14.000                                                                                                                                  
C29  23754989.960   123698450.1331      -1948.951          16.000    23754569.183   124831283.7931      -1979.978          19.000                                                                  
C30  23817867.596   124025898.8901        511.835          31.000    23817436.611   125161488.5231        516.562          32.000                                                                  
C36  23158883.751   120594394.8041       1704.675          30.000    23158447.845   121698472.9971       1719.512          32.000                                                                  
> 2022  1 20  5 33 10.0000000  0 36                     
G 3  23865483.115   125414022.3061       1914.015          17.000                                                                  
G 4  23258612.042   122224767.6421      -2471.412          32.000    23258909.533    91272946.1751      -1845.430          32.000  
G16  20896045.210   109809457.6861       -811.779          29.000                                                                  
G26  20319337.868   106778858.5241       1450.091          27.000    20319633.318    79738606.8781       1083.987          17.000  
G27  23201164.582   121922949.0021      -3213.724          28.000    23201465.388    91047555.3581      -2399.310          24.000  
G29  23969336.429   125959756.5121       3151.254          22.000                                                                  
G31  21380000.946   112352682.6851       1688.964          40.000                                                                  
G32  23061342.897   121188187.3071       4060.393          13.000                                                                  
R 5  20731023.265                1                         31.000  
R 6  20720165.757                1                         25.000  
R 7  24129418.880                1                         14.000  
R 9  23737475.141                1                         14.000  
R15  21225055.280                1                         41.000  
R17  21789961.686                1                         38.000  
R18  22449558.994                1                         24.000  
R24  24006216.015                1                         19.000  
E 1  24581737.371   129177913.4671       2061.443          38.000    24581744.317    96464041.3741       1538.926          29.000  
E 4  23935215.355   125780463.8621       1797.709          33.000    23935223.295    93926982.5741       1344.392          22.000  
E 9  23445926.257   123209181.4771       -974.638          36.000    23445924.581    92006846.8331       -728.635          31.000  
E21                                                                  28278187.731   110969681.8761       2068.502          12.000  
E26  27813723.749   146162069.2051      -1159.532          23.000                                                                  
E31  24270491.780   127542453.9571         50.755          29.000    24270492.374    95242628.8951         39.884          24.000  
J 1  36605792.594   192364529.5881        765.197          13.000                                                                  
J 2  39222711.723   206116748.2571        962.201          31.000    39223003.543   153919502.2181        721.833          21.000  
J 3  37249850.885   195749247.1351        423.134          24.000                                                                  
C 3  36905676.366   192177513.3331        620.366          27.000                                                                                                                                  
C 6  35769336.440   186260334.5251        376.437          27.000                                                                                                                                  
C 9  36419758.126   189647236.8501         12.969          31.000                                                                                                                                  
C10  37524595.454   195400460.4151        157.278          20.000                                                                                                                                  
C16  35781218.921   186322174.0361        411.475          28.000                                                                                                                                  
C21  24065485.663   125315171.0621        558.382          28.000    24065027.472   126462675.5971        563.453          30.000                                                                  
C22  23928853.599   124603815.7311       3075.695          27.000    23928420.624   125744713.1151       3103.926          27.000                                                                  
C26  26102515.559   135922670.9461      -1412.310          13.000                                                                                                                                  
C29  23754613.873   123696500.9231      -1949.811          19.000    23754185.243   124829303.4441      -1976.978          18.000                                                                  
C30  23817966.748   124026410.9251        512.617          40.000    23817537.072   125162005.2761        517.369          41.000                                                                  
C36  23159210.314   120596099.4951       1704.933          37.000    23158775.298   121700184.9241       1720.242          37.000                                                                  
> 2022  1 20  5 33 11.0000000  0 36                     
G 3  23865840.112   125415937.9211       1916.564          16.000                                                                  
G 4  23258150.850   122222407.5931      -2470.564          36.000    23258438.674    91271101.8641      -1843.678          29.000  
G16  20895893.027   109808646.4551       -810.757          31.000                                                                  
G26  20319613.651   106780309.0391       1450.773          35.000    20319910.357    79739692.2881       1086.141          16.000  
G27  23200549.461   121919735.5161      -3213.706          28.000    23200851.560    91045156.7191      -2398.681          16.000  
G29  23969936.594   125962908.3971       3152.333          25.000                                                                  
G31  21380321.943   112354371.9581       1689.736          40.000                                                                  
G32  23062117.024   121192247.4771       4061.198          10.000                                                                  
R 5  20731760.485                1                         30.000  
R 6  20720084.701                1                         19.000  
R 7  24128839.708                1                         13.000  
R 9  23737193.774                1                         16.000  
R15  21225486.545                1                         43.000  
R17  21789893.508                1                         34.000  
R18  22449023.726                1                         26.000  
R24  24006709.542                1                         20.000  
E 1  24582128.727   129179975.1721       2061.933          38.000    24582137.034    96465580.9001       1540.236          31.000  
E 4  23935557.396   125782262.2231       1798.974          31.000    23935563.783    93928326.5511       1344.102          17.000  
E 9  23445745.071   123208206.7941       -974.544          35.000    23445738.824    92006118.6441       -727.908          28.000  
E21  28279088.424   148607611.9211       2768.610          22.000    28278715.321   110971750.9181       2068.689          11.000  
E26  27813505.325   146160911.3731      -1157.736          25.000                                                                  
E31  24270499.458   127542505.2231         51.379          32.000    24270501.936    95242667.6831         38.433          22.000  
J 1  36605936.035   192365296.6341        768.776          14.000                                                                  
J 2  39222896.329   206117710.3411        961.944          31.000    39223185.915   153920221.2761        717.799          20.000  
J 3  37249929.812   195749670.5071        423.040          24.000                                                                  
C 3  36905795.935   192178127.4971        600.601          24.000                                                                                                                                  
C 6  35769407.898   186260711.0431        376.790          30.000                                                                                                                                  
C 9  36419761.337   189647250.0071         13.354          34.000                                                                                                                                  
C10  37524625.904   195400616.8881        156.313          24.000                                                                                                                                  
C16  35781297.988   186322585.5941        411.642          31.000                                                                                                                                  
C21  24065594.691   125315729.2341        558.567          22.000    24065129.504   126463239.2051        563.279          23.000                                                                  
C22  23929444.062   124606892.7581       3076.302          25.000    23929010.075   125747817.1791       3104.239          29.000                                                                  
C26  26102243.283   135921258.4001      -1414.282          10.000                                                                                                                                  
C29  23754239.478   123694550.7671      -1950.528          19.000    23753804.078   124827332.9781      -1964.691          18.000                                                                  
C30  23818068.239   124026931.0841        513.932          38.000    23817637.044   125162527.2931        518.995          40.000                                                                  
C36  23159538.483   120597804.4781       1704.668          36.000    23159102.489   121701905.334        1720.583          35.000                                                                  
> 2022  1 20  5 33 12.0000000  0 36                     
G 3  23866199.534   125417854.1451       1916.479          17.000                                                                  
G 4  23257673.046   122219936.852       -2472.534          35.000    23257968.286    91269258.0011      -1844.460          30.000  
G16  20895740.058   109807836.1631       -810.083          32.000                                                                  
G26  20319890.446   106781760.2751       1451.504          39.000    20320185.931    79740776.9491       1084.370          28.000  
G27  23199934.934   121916521.9001      -3213.406          24.000    23200237.783    91042757.5711      -2399.130          24.000  
G29  23970539.499   125966061.1251       3152.941          34.000                                                                  
G31  21380640.165   112356021.4091       1687.821          44.000                                                                  
G32  23062887.014   121196309.4171       4061.240           9.000                                                                  
R 5  20732498.210                1                         27.000  
R 6  20720006.768                1                         24.000  
R 7  24128259.069                1                         14.000  
R 9  23736907.939                1                         17.000  
R15  21225916.710                1                         46.000  
R17  21789824.562                1                         35.000  
R18  22448474.986                1                         27.000  
R24  24007197.643                1                         24.000  
E 1  24582521.008   129182018.9441       2061.348          41.000    24582529.786    96467121.1321       1539.877          30.000  
E 4  23935899.333   125784061.7011       1799.976          31.000    23935903.871    93929670.0311       1343.489          26.000  
E 9  23445571.354   123207308.4151       -973.954          37.000    23445553.101    92005390.9861       -727.471          28.000  
E21  28279577.798   148610381.7291       2770.353          16.000    28279241.550   110973819.6911       2069.687          11.000  
E26  27813286.918   146159753.4471      -1157.369          28.000                                                                  
E31  24270513.872   127542555.8301         49.228          30.000    24270511.150    95242705.6511         37.838          17.000  
J 1  36606083.018   192366065.6801        769.286          15.000                                                                  
J 2  39223072.890   206118673.2261        962.930          31.000    39223369.125   153920939.1761        718.031          30.000  
J 3  37250009.664   195750094.8781        424.597          24.000                                                                  
C 3  36905911.752   192178729.6321        604.409          12.000                                                                                                                                  
C 6  35769479.793   186261087.9991        377.115          32.000                                                                                                                                  
C 9  36419769.137   189647263.9511         13.865          33.000                                                                                                                                  
C10  37524656.844   195400774.3351        157.877          20.000                                                                                                                                  
C16  35781373.478   186322997.6631        411.581          34.000                                                                                                                                  
C21  24065701.818   125316289.1701        560.387          23.000    24065236.020   126463802.6111        563.793          23.000                                                                  
C22  23930036.811   124609968.9771       3076.342          29.000    23929600.625   125750920.8461       3103.616          26.000    23817436.611                1        516.562          20.000  
C26  26101970.518   135919842.0371      -1418.695          10.000                                                                                                                                  
C29  23753859.866   123692600.6101      -1950.276          22.000    23753424.082   124825370.2261      -1962.785          25.000                                                                  
C30  23818170.829   124027444.554         512.556          39.000    23817737.697   125163045.558         517.324          39.000    23818178.664    93467649.7261        388.210          28.000  
C36  23159864.732   120599492.7821       1702.966          37.000    23159429.349   121703625.575        1718.778          38.000                                                                  
> 2022  1 20  5 33 13.0000000  0 36                     
G 3  23866556.810   125419769.4791       1914.642          17.000                                                                  
G 4  23257192.257   122217466.993       -2468.877          32.000    23257497.287    91267412.2991      -1845.726          32.000  
G16  20895583.757   109807027.6231       -808.858          23.000                                                                  
G26  20320166.020   106783211.9791       1452.537          37.000    20320461.557    79741860.9061       1084.784          32.000  
G27  23199325.887   121913307.5441      -3214.623          20.000    23199624.635    91040358.4551      -2398.955          27.000  
G29  23971142.038   125969214.2881       3153.420          34.000                                                                  
G31  21380962.366   112357711.422        1691.159          40.000                                                                  
G32  23063656.552   121200370.0891       4060.659          12.000                                                                  
R 5  20733240.438                1                         28.000  
R 6  20719929.952                1                         24.000  
R 7  24127671.485                1                         23.000  
R 9  23736618.301                1                         17.000  
R15  21226352.512                1                         44.000  
R17  21789754.360                1                         32.000  
R18  22447939.247                1                         26.000  
R24  24007694.101                1                         24.000  
E 1  24582916.081   129184081.147        2062.951          36.000    24582921.910    96468661.2411       1539.814          30.000  
E 4  23936242.998   125785862.4981       1802.161          29.000    23936243.277    93931013.7651       1344.187          24.000  
E 9  23445382.630   123206334.914        -972.404          36.000    23445367.029    92004663.7121       -727.198          30.000  
E21  28280076.473   148613153.8371       2772.620          14.000    28279769.192   110975889.5841       2069.483          11.000  
E26  27813068.528   146158596.1511      -1157.084          24.000    27813074.095   109144469.4241       -869.117          19.000  
E31  24270529.682   127542606.8431         52.652          31.000    24270520.242    95242743.3431         38.064          24.000  
J 1  36606228.867   192366835.1761        769.690          17.000                                                                  
J 2  39223253.203   206119636.7601        963.623          31.000    39223552.213   153921657.3871        719.058          35.000  
J 3  37250089.638   195750518.7421        423.999          20.000                                                                  
C 3  36906028.407   192179337.4401        614.742          24.000                                                                                                                                  
C 6  35769551.095   186261464.7341        377.285          28.000                                                                                                                                  
C 9  36419771.144   189647277.3261         13.245          32.000                                                                                                                                  
C10  37524686.020   195400933.6071        160.895          19.000                                                                                                                                  
C16  35781450.189   186323409.1541        411.463          31.000                                                                                                                                  
C21  24065814.739   125316849.4791        560.791          22.000    24065352.186   126464366.9041        565.006          26.000                                                                  
C22  23930629.368   124613044.1271       3075.140          26.000    23930188.244   125754025.0571       3104.349          22.000    23753424.082                1      -1962.785          22.000  
C26  26101697.772   135918422.6251      -1419.058          13.000                                                                                                                                  
C29  23753481.842   123690649.3321      -1952.351          22.000    23753046.581   124823407.0501      -1963.019          26.000                                                                  
C30  23818272.441   124027959.363         515.639          40.000    23817832.382   125163565.180         520.408          39.000    23818276.786    93468037.6321        387.927          33.000  
C36  23160191.435   120601198.250        1706.178          37.000    23159757.536   121705346.785        1721.955          37.000    23160205.273    90885619.4921       1285.463          36.000  
> 2022  1 20  5 33 14.0000000  0 36                     
G 3  23866922.811   125421682.6831       1912.830          17.000                                                                  
G 4  23256728.640   122214996.0661      -2471.339          32.000    23257027.335    91265567.3611      -1844.442          31.000  
G16  20895427.577   109806217.9691       -810.077          23.000                                                                  
G26  20320444.124   106784663.9851       1452.114          37.000    20320737.724    79742945.6541       1084.062          30.000  
G27  23198714.850   121910094.5371      -3212.294          21.000    23199012.202    91037959.4451      -2399.018          31.000  
G29  23971753.598   125972368.2131       3153.787          32.000                                                                  
G31  21381285.544   112359401.228        1689.625          40.000                                                                  
G32  23064430.399   121204430.2891       4060.102          16.000                                                                  
R 5  20733984.183                1                         31.000  
R 6  20719852.316                1                         17.000  
R 7  24127080.586                1                         24.000  
R 9  23736343.599                1                         18.000  
R15  21226786.988                1                         45.000  
R17  21789685.222                1                         30.000  
R18  22447400.960                1                         24.000  
R24  24008202.793                1                         26.000  
E 1  24583308.135   129186142.949        2061.201          37.000    24583313.632    96470200.7321       1539.312          34.000  
E 4  23936586.418   125787663.5701       1800.961          27.000    23936583.696    93932358.0701       1344.499          27.000  
E 9  23445207.744   123205361.363        -973.929          36.000    23445181.237    92003935.3591       -729.336          23.000  
E21  28280600.538   148615926.0241       2772.016          15.000    28280296.485   110977956.1371       2065.050          11.000  
E26  27812849.388   146157440.2141      -1156.777          19.000    27812854.135   109143603.4471       -864.039          15.000  
E31  24270545.091   127542660.2151         53.043          34.000    24270530.537    95242781.3091         38.159          21.000  
J 1  36606372.395   192367604.9701        770.282          18.000                                                                  
J 2  39223436.780   206120599.6451        961.431          31.000    39223735.440   153922376.3281        718.508          28.000  
J 3  37250169.665   195750942.7471        424.128          19.000                                                                  
C 3  36906147.644   192179955.4841        618.298          22.000                                                                                                                                  
C 6  35769622.728   186261841.2641        376.684          31.000                                                                                                                                  
C 9  36419772.802   189647290.0261         12.745          30.000                                                                                                                                  
C10  37524717.378   195401096.1041        162.985          17.000                                                                                                                                  
C16  35781526.918   186323820.9161        412.151          27.000                                                                                                                                  
C21  24065928.270   125317410.7371        561.593          27.000    24065472.034   126464932.7791        566.829          22.000                                                                  
C22  23931220.180   124616119.2751       3075.293          27.000    23930776.299   125757129.3691       3104.125          28.000    23753046.581                1      -1963.019          22.000  
C26  26101425.409   135917002.6271      -1421.041          15.000                                                                                                                                  
C29  23753104.952   123688698.9121      -1949.579          11.000    23752672.239   124821443.4661      -1963.087          25.000                                                                  
C30  23818362.903   124028473.884         513.659          38.000    23817929.737   125164084.480         518.790          37.000    23818374.996    93468425.5221        388.016          23.000  
C36  23160518.854   120602903.2671       1705.540          39.000    23160082.755   121707067.5951       1722.179          41.000    23160532.360    90886904.5841       1285.405          34.000  
> 2022  1 20  5 33 15.0000000  0 37                     
G 3  23867292.249   125423593.8841       1910.389          16.000                                                                  
G 4  23256280.309   122212525.5741      -2470.055          33.000    23256558.937    91263723.3801      -1843.284          26.000  
G16  20895274.173   109805407.0761       -811.137          22.000                                                                  
G26  20320722.490   106786117.0791       1452.127          34.000    20321013.857    79744029.3441       1084.272          30.000  
G27  23198101.859   121906882.1891      -3212.357          31.000    23198400.432    91035560.4061      -2398.037          33.000  
G29  23972351.338   125975556.8631       3156.220          34.000                                                                  
G31  21381608.373   112361091.522        1692.313          40.000                                                                  
G32  23065201.734   121208490.0451       4059.738          22.000                                                                  
R 5  20734726.516                1                         33.000  
R 6  20719778.118                1                         17.000  
R 7  24126498.080                1                         22.000  
R 9  23736067.991                1                         18.000  
R15  21227225.407                1                         42.000  
R17  21789616.277                1                         36.000  
R18  22446850.930                1                         21.000  
R24  24008704.434                1                         23.000  
E 1  24583693.733   129188205.183        2065.120          39.000    24583705.006    96471740.7071       1539.983          31.000  
E 4  23936929.612   125789464.4791       1801.539          35.000    23936925.563    93933702.7051       1344.807          32.000  
E 9  23445031.968   123204388.201        -972.348          32.000    23444997.381    92003206.5241       -727.953          25.000  
E21  28281126.679   148618697.1201       2769.724          15.000    28280823.674   110980021.8691       2066.227          12.000  
E26  27812630.807   146156282.5631      -1156.151          18.000    27812633.006   109142740.0081       -863.174          19.000  
E31  24270562.035   127542711.9401         51.614          24.000    24270540.362    95242819.3391         38.025          21.000  
J 1  36606516.743   192368374.9551        769.593          26.000    36606792.509   143652915.9191        573.410          22.000  
J 2  39223624.020   206121534.8041        963.328          34.000    39223919.173   153923094.7061        718.695          36.000  
J 3  37250250.180   195751366.6621        423.763          24.000                                                                  
C 3  36906267.824   192180571.0501        615.172          30.000                                                                                                                                  
C 4  38235602.551   199102815.3231        592.302          27.000                                                                                                                                  
C 6  35769695.879   186262217.9611        377.239          32.000                                                                                                                                  
C 9  36419775.821   189647303.3321         13.708          28.000                                                                                                                                  
C10  37524748.492   195401257.7951        160.264          19.000                                                                                                                                  
C16  35781606.840   186324233.2011        412.592          34.000                                                                                                                                  
C21  24066037.526   125317972.3841        561.948          30.000    24065588.060   126465500.1091        567.497          31.000                                                                  
C22  23931810.451   124619195.0111       3076.352          31.000    23931372.363   125760233.8141       3104.954          30.000    23753046.581                1      -1963.019          22.000  
C26  26101156.588   135915584.0161      -1417.297          16.000                                                                                                                                  
C29  23752732.163   123686750.3091      -1948.716          14.000    23752297.932   124819479.5711      -1964.327          17.000                                                                  
C30  23818462.404   124028988.6301        515.972          30.000    23818025.154   125164605.0281        520.691          32.000    23818472.997    93468813.5581        388.237          32.000  
C36  23160846.778   120604609.1731       1705.848          32.000    23160409.232   121708788.1771       1720.429          29.000    23160859.465    90888189.8551       1285.713          36.000  
> 2022  1 20  5 33 16.0000000  0 38                     
G 3  23867662.002   125425506.3311       1913.319          16.000                                                                  
G 4  23255823.515   122210178.2951      -2471.612          35.000    23256089.421    91261879.8121      -1844.800          20.000  
G16  20895124.938   109804597.0481       -809.181          20.000                                                                  
G26  20321000.734   106787570.533        1451.715          33.000    20321292.310    79745115.8701       1087.324          29.000  
G27  23197491.869   121903669.7611      -3212.117          30.000    23197790.320    91033162.9721      -2398.323          30.000  
G29  23972948.833   125978712.3581       3155.335          31.000                                                                  
G31  21381932.598   112362782.9191       1694.654          37.000                                                                  
G32  23065976.855   121212549.7961       4060.251          22.000                                                                  
R 5  20735474.711                1                         27.000  
R 6  20719695.578                1                         19.000  
R 7  24125918.018                1                         21.000  
R 9  23735790.672                1                         17.000  
R15  21227660.196                1                         39.000  
R17  21789547.331                1                         34.000  
R18  22446313.428                1                         20.000  
R24  24009202.533                1                         24.000  
E 1  24584091.737   129190268.6571       2064.489          31.000    24584096.885    96473276.2391       1540.191          35.000  
E 4  23937272.107   125791267.0531       1803.768          29.000    23937267.937    93935047.9701       1345.697          28.000  
E 9  23444856.785   123203416.1191       -971.865          29.000    23444813.386    92002480.3271       -726.125          25.000  
E21  28281652.577   148621466.5411       2769.291          16.000    28281350.932   110982089.0441       2068.824          14.000  
E26  27812409.154   146155128.1121      -1154.545          19.000    27812413.063   109141877.3571       -862.321          19.000  
E31  24270572.819   127542764.6091         53.743          23.000    24270550.779    95242857.5891         38.990          20.000  
J 1  36606660.655   192369144.8751        770.293          23.000    36606939.527   143653490.1071        574.569          21.000  
J 2  39223808.993   206122498.1581        963.780          35.000    39224101.825   153923814.2521        720.190          33.000  
J 3  37250330.521   195751791.4111        425.479          23.000                                                                  
C 2  37958671.348                1        981.132          21.000                                                                                                                                  
C 3  36906387.445   192181191.7641        624.069          21.000                                                                                                                                  
C 4  38235715.297   199103405.3981        590.467          30.000                                                                                                                                  
C 6  35769767.931   186262595.9801        378.643          26.000                                                                                                                                  
C 9  36419778.683   189647317.8841         14.195          24.000                                                                                                                                  
C10  37524776.622   195401418.0131        160.027          18.000                                                                                                                                  
C16  35781684.912   186324646.3211        413.261          30.000                                                                                                                                  
C21  24066153.116   125318534.2271        562.174          28.000    24065705.692   126466068.5961        568.229          31.000                                                                  
C22  23932403.915   124622272.0311       3077.868          25.000    23931964.658   125763340.0281       3107.043          24.000    23752297.932                1      -1964.327          23.000  
C26  26100888.727   135914169.3511      -1413.155          17.000                                                                                                                                  
C29  23752359.968   123684801.4541      -1949.374          12.000    23751922.019   124817514.9561      -1964.800          16.000                                                                  
C30  23818562.604   124029505.6281        517.416          28.000    23818124.760   125165125.9791        521.645          28.000    23818571.224    93469202.4901        389.195          33.000  
C36  23161174.109   120606314.8541       1705.687          31.000    23160736.406   121710509.0551       1721.195          31.000    23161187.703    90889475.9641       1286.360          38.000  
> 2022  1 20  5 33 17.0000000  0 38                     
G 3  23868037.670   125427422.1311       1916.776          16.000                                                                  
G 4  23255354.924   122207705.5731      -2471.778          28.000    23255619.469    91260036.9401      -1842.075          21.000  
G16  20894974.395   109803788.6891       -807.846          28.000                                                                  
G26  20321276.954   106789021.3901       1452.256          32.000    20321568.198    79746203.0641       1087.564          27.000  
G27  23196882.507   121900457.2301      -3213.330          25.000    23197180.993    91030764.1811      -2398.855          24.000  
G29  23973546.992   125981868.0761       3155.923          28.000                                                                  
G31  21382254.555   112364474.164        1691.448          34.000                                                                  
G32  23066750.213   121216614.6081       4065.903          16.000                                                                  
R 5  20736219.975                1                         22.000  
R 6  20719622.916                1                         20.000  
R 7  24125318.864                1                         20.000  
R 9  23735508.100                1                         16.000  
R15  21228093.974                1                         33.000  
R17  21789480.357                1                         33.000  
R18  22445783.971                1                         21.000  
R24  24009701.801                1                         17.000  
E 1  24584484.402   129192332.7511       2063.144          32.000    24584490.981    96474816.5791       1541.268          31.000  
E 4  23937619.471   125793070.3621       1803.751          22.000    23937610.048    93936393.8241       1346.189          20.000  
E 9  23444667.014   123202443.3581       -972.794          26.000    23444629.269    92001756.2901       -723.264          21.000  
E21  28282176.188   148624238.0141       2772.153          15.000    28281878.784   110984157.8381       2068.556          15.000  
E26  27812189.613   146153973.6571      -1155.011          25.000    27812192.353   109141014.8881       -863.512          19.000  
E31  24270584.144   127542817.5691         53.484          23.000    24270561.634    95242898.6761         42.733          18.000  
J 1  36606806.487   192369913.8691        768.767          15.000    36607085.551   143654063.3431        573.201          11.000  
J 2  39223994.890   206123462.0271        963.498          30.000    39224285.035   153924533.6291        719.418          28.000  
J 3  37250413.340   195752217.1131        426.046          20.000    37250708.371   146179780.9471        322.627          17.000  
C 2  37958864.190   197661766.8511       1023.876           8.000                                                                                                                                  
C 3  36906510.574   192181830.1011        639.771           8.000                                                                                                                                  
C 4  38235828.759   199103996.2341        590.466          29.000                                                                                                                                  
C 6  35769840.140   186262974.4381        378.988          22.000                                                                                                                                  
C 9  36419781.492   189647331.9131         14.086          28.000                                                                                                                                  
C10  37524809.306   195401579.6081        162.865          18.000                                                                                                                                  
C16  35781764.677   186325060.4921        414.793          25.000                                                                                                                                  
C21  24066258.620   125319096.6011        562.371          23.000    24065815.943   126466636.5861        568.810          26.000                                                                  
C22  23933000.730   124625349.3661       3077.255          24.000    23932559.013   125766447.9201       3108.699          20.000    23752297.932                1      -1964.327          20.000  
C26  26100620.273   135912756.7241      -1412.314          18.000                                                                                                                                  
C29  23751992.274   123682853.8361      -1944.611          13.000    23751547.922   124815549.6231      -1965.749          16.000                                                                  
C30  23818662.419   124030023.1821        517.533          33.000    23818223.685   125165647.7631        522.206          33.000    23818670.777    93469591.0311        388.847          29.000  
C36  23161501.476   120608020.7851       1705.196          36.000    23161064.801   121712230.3721       1721.885          34.000    23161514.720    90890760.2131       1282.503          25.000  
> 2022  1 20  5 33 18.0000000  0 38                     
G 3  23868400.792   125429339.8271       1917.944          16.000                                                                  
G 4  23254886.124   122205235.4211      -2469.801          28.000    23255149.605    91258194.6661      -1841.017          23.000  
G16  20894822.840   109802981.0221       -807.499          27.000                                                                  
G26  20321553.086   106790482.7131       1451.405          32.000    20321844.819    79747289.0951       1085.729          29.000  
G27  23196271.506   121897243.7351      -3213.225          26.000    23196569.468    91028364.3561      -2399.995          29.000  
G29  23974146.215   125985023.0511       3154.619          28.000                                                                  
G31  21382574.801   112366162.2881       1687.510          34.000                                                                  
G32  23067520.222   121220677.5241       4061.095          14.000                                                                  
R 5  20736961.278                1                         25.000  
R 6  20719550.620                1                         20.000  
R 7  24124728.663                1                         19.000  
R 9  23735228.199                1                         16.000  
R15  21228524.802                1                         31.000  
R17  21789413.854                1                         33.000  
R18  22445242.072                1                         24.000  
R24  24010195.223                1                         23.000  
E 1  24584876.369   129194394.8391       2061.715          30.000    24584882.756    96476356.8821       1539.895          30.000  
E 4  23937964.410   125794873.4081       1802.228          27.000    23937954.079    93937738.1441       1344.355          23.000  
E 9  23444483.560   123201470.7761       -972.540          33.000    23444444.960    92001031.4091       -726.520          22.000  
E21  28282702.312   148627010.0371       2773.417          15.000    28282406.409   110986224.8431       2066.513          15.000  
E26  27811969.985   146152817.3741      -1156.415          24.000    27811971.224   109140150.7621       -864.357          18.000  
E31  24270597.075   127542870.9851         53.637          27.000    24270572.540    95242941.3261         43.435          19.000  
J 1  36606952.091   192370682.7251        768.862          17.000    36607230.806   143654637.1941        573.848          12.000  
J 2  39224177.088   206124425.0221        962.757          30.000    39224468.367   153925252.1101        718.073          29.000  
J 3  37250494.082   195752643.7301        427.090          20.000    37250788.485   146180102.8511        322.400          14.000  
C 2  37959060.365   197662792.3711       1021.052          15.000                                                                                                                                  
C 3  36906631.067   192182460.2941        626.044          17.000                                                                                                                                  
C 4  38235941.853   199104587.0151        591.261          27.000                                                                                                                                  
C 6  35769912.454   186263352.5591        377.828          26.000                                                                                                                                  
C 9  36419787.949   189647346.2451         14.556          22.000                                                                                                                                  
C10  37524841.031   195401741.9071        161.659          18.000                                                                                                                                  
C16  35781843.360   186325474.5441        413.266          25.000                                                                                                                                  
C21  24066370.109   125319658.6811        561.832          26.000    24065929.561   126467205.2781        568.053          26.000                                                                  
C22  23933593.811   124628426.0931       3076.313          23.000    23933149.249   125769557.2011       3108.495          22.000    23752297.932                1      -1964.327          15.000  
C26  26100352.168   135911348.4331      -1404.886          18.000                                                                                                                                  
C29  23751622.050   123680909.2861      -1944.291          15.000    23751171.259   124813583.4161      -1966.127          16.000                                                                  
C30  23818762.723   124030539.9631        516.241          33.000    23818322.681   125166169.6061        521.677          34.000    23818770.663    93469980.3441        388.562          32.000  
C36  23161828.650   120609725.2811       1704.414          28.000    23161393.912   121713951.5411       1720.838          31.000    23161842.278    90892043.0461       1283.744          33.000  
> 2022  1 20  5 33 19.0000000  0 38                     
G 3  23868763.128   125431256.7611       1917.313          16.000                                                                  
G 4  23254416.155   122202765.7011      -2469.266          28.000    23254678.763    91256351.7361      -1843.337          24.000  
G16  20894670.692   109802173.5151       -807.738          24.000                                                                  
G26  20321827.822   106791935.191        1452.854          34.000    20322121.457    79748373.6181       1084.833          29.000  
G27  23195657.694   121894030.0531      -3214.436          30.000    23195957.768    91025963.9571      -2399.570          32.000  
G29  23974744.757   125988177.1951       3153.992          31.000                                                                  
G31  21382895.100   112367850.6321       1688.751          34.000                                                                  
G32  23068289.707   121224737.8301       4059.546          16.000                                                                  
R 5  20737705.774                1                         31.000  
R 6  20719483.000                1                         21.000  
R 7  24124143.243                1                         21.000  
R 9  23734947.146                1                         16.000  
R15  21228960.028                1                         38.000  
R17  21789344.926                1                         36.000  
R18  22444692.617                1                         29.000  
R24  24010694.439                1                         25.000  
E 1  24585269.016   129196455.3001       2060.193          33.000    24585273.763    96477895.0181       1538.635          32.000  
E 4  23938304.445   125796675.3681       1801.711          27.000    23938297.848    93939083.4531       1346.094          26.000  
E 9  23444297.104   123200497.9071       -973.016          32.000    23444258.749    92000302.0811       -730.128          19.000  
E21  28283227.982   148629783.0931       2773.544          14.000    28282933.859   110988291.1511       2066.143          16.000  
E26  27811750.443   146151660.7061      -1156.181          24.000    27811749.466   109139286.5321       -863.991          19.000  
E31  24270615.066   127542923.6621         51.455          22.000    24270581.928    95242983.8361         42.298          20.000  
J 1  36607096.126   192371451.7091        768.761          19.000    36607376.760   143655210.9921        573.877          16.000  
J 2  39224360.036   206125386.2741        961.206          36.000    39224651.594   153925969.8091        717.935          33.000  
J 3  37250569.868   195753070.8391        427.117          21.000    37250869.419   146180424.1951        319.344          14.000  
C 2  37959255.406   197663809.9101       1015.357          16.000                                                                                                                                  
C 3  36906749.205   192183075.1121        617.600          26.000                                                                                                                                  
C 4  38236054.006   199105178.2181        591.471          29.000                                                                                                                                  
C 6  35769982.883   186263728.2021        374.947          27.000                                                                                                                                  
C 9  36419791.805   189647359.7801         13.359          24.000                                                                                                                                  
C10  37524870.190   195401901.2121        158.514          18.000                                                                                                                                  
C16  35781923.177   186325886.6581        412.385          30.000                                                                                                                                  
C21  24066478.981   125320220.6421        562.359          25.000    24066043.616   126467772.4251        567.452          29.000                                                                  
C22  23934182.372   124631501.4551       3075.018          27.000    23933737.426   125772663.4151       3106.805          27.000    23752297.932                1      -1964.327          31.000  
C26  26100083.557   135909943.0011      -1406.358          17.000                                                                                                                                  
C29  23751249.348   123678965.1341      -1943.866          16.000    23750794.177   124811617.6601      -1965.311          17.000                                                                  
C30  23818862.695   124031056.8521        517.455          35.000    23818423.647   125166691.3241        521.898          35.000    23818870.495    93470368.4401        388.572          30.000  
C36  23162155.911   120611429.5711       1704.358          35.000    23161719.725   121715672.0411       1721.380          37.000    23162169.278    90893327.4161       1284.564          33.000  
> 2022  1 20  5 33 20.0000000  0 37                     
G 3  23869126.267   125433174.4091       1917.572          17.000                                                                  
G 4  23253946.133   122200296.7081      -2468.926          33.000    23254208.183    91254508.2411      -1843.708          26.000  
G16  20894515.681   109801366.3791       -806.397          22.000                                                                  
G26  20322105.385   106793387.8171       1453.776          33.000    20322397.554    79749458.8161       1084.724          31.000  
G27  23195047.844   121890815.4661      -3214.871          27.000    23195346.574    91023564.8631      -2399.646          27.000  
G29  23975345.847   125991331.4031       3154.412          33.000                                                                  
G31  21383220.354   112369541.3301       1691.080          33.000                                                                  
G32  23069061.059   121228797.0061       4058.873          17.000                                                                  
R 5  20738448.298                1                         23.000  
R 6  20719409.692                1                         25.000  
R 7  24123546.673                1                         19.000  
R 9  23734664.190                1                         16.000  
R15  21229396.214                1                         40.000  
R17  21789275.962                1                         36.000  
R18  22444147.420                1                         26.000  
R24  24011187.897                1                         23.000  
E 1  24585659.657   129198516.9501       2061.266          30.000    24585665.520    96479433.4231       1537.490          35.000  
E 4  23938648.982   125798476.4141       1799.818          24.000    23938642.071    93940429.8641       1345.848          24.000  
E 9  23444112.743   123199527.1141       -970.393          29.000    23444073.480    91999574.0591       -726.406          25.000  
E21  28283756.183   148632557.6681       2775.098          12.000    28283461.658   110990357.2271       2065.695          15.000  
E26  27811530.885   146150503.6541      -1159.709          20.000    27811528.529   109138422.8111       -863.854          19.000  
E31  24270629.393   127542973.2601         50.979          26.000    24270591.526    95243025.3111         42.093          20.000  
J 1  36607241.870   192372220.0841        767.503          19.000    36607522.906   143655784.0981        572.015          17.000  
J 2  39224540.785   206126348.0191        962.093          32.000    39224835.100   153926687.7101        718.404          32.000  
J 3  37250650.506   195753498.1761        427.511          19.000    37250950.004   146180743.0441        319.658          15.000  
C 3  36906868.041   192183693.5561        620.290          12.000                                                                                                                                  
C 4  38236167.153   199105769.5571        591.609          30.000                                                                                                                                  
C 6  35770055.144   186264103.7021        376.077          28.000                                                                                                                                  
C 9  36419794.580   189647372.8731         13.164          25.000                                                                                                                                  
C10  37524901.967   195402059.2811        157.891          17.000                                                                                                                                  
C16  35782003.466   186326299.3161        413.100          29.000                                                                                                                                  
C21  24066593.472   125320784.5861        563.703          22.000    24066154.442   126468340.4021        567.966          29.000                                                                  
C22  23934778.070   124634577.4671       3077.266          21.000    23934330.053   125775770.1481       3105.609          16.000    23818423.647                1        521.898          13.000  
C26  26099817.860   135908535.2981      -1408.538          17.000                                                                                                                                  
C29  23750878.165   123677020.7381      -1944.605          18.000    23750420.097   124809652.3561      -1965.179          16.000                                                                  
C30  23818960.870   124031579.6981        517.791          34.000    23818527.913   125167213.9621        523.285          35.000    23818969.996    93470757.4101        388.462          31.000  
C36  23162481.096   120613133.9161       1704.012          35.000    23162046.551   121717393.2501       1721.238          33.000    23162496.661    90894611.8091       1284.299          30.000  
> 2022  1 20  5 33 21.0000000  0 37                     
G 3  23869489.947   125435091.4471       1916.206          18.000                                                                  
G 4  23253467.770   122197827.8331      -2469.450          33.000    23253738.196    91252663.6181      -1844.907          30.000  
G16  20894362.434   109800561.3271       -804.775          18.000                                                                  
G26  20322384.693   106794841.8601       1453.267          31.000    20322673.669    79750543.2251       1084.470          26.000  
G27  23194440.140   121887599.7621      -3215.883          21.000    23194733.164    91021162.9281      -2402.380          14.000  
G29  23975946.589   125994485.6381       3153.986          30.000                                                                  
G31  21383538.367   112371252.0991       1689.859          34.000                                                                  
G32  23069834.103   121232855.7531       4058.585          16.000                                                                  
R 5  20739196.581                1                         25.000  
R 6  20719344.149                1                         22.000  
R 7  24122962.876                1                         16.000  
R 9  23734379.403                1                         16.000  
R15  21229830.986                1                         35.000  
R17  21789219.127                1                         34.000  
R18  22443608.033                1                         22.000  
R24  24011669.488                1                         19.000  
E 1  24586052.531   129200577.4671       2059.933          22.000    24586057.609    96480971.7581       1538.025          24.000  
E 4  23938989.627   125800275.2511       1799.214          20.000    23938985.090    93941774.8811       1344.741          20.000  
E 9  23443919.255   123198553.7471       -973.281          22.000    23443888.647    91998849.2741       -723.729          24.000  
E21  28284282.778   148635330.2281       2771.541           9.000    28283988.306   110992423.5911       2066.370          14.000  
E26  27811309.145   146149341.5791      -1162.215          18.000    27811307.539   109137559.3591       -864.066          18.000  
E31  24270639.008   127543024.2091         51.296          23.000    24270600.931    95243066.3051         40.830          20.000  
J 1  36607392.151   192372987.5851        768.235          19.000    36607669.330   143656357.1481        573.903          16.000  
J 2  39224724.780   206127309.4861        960.788          30.000    39225018.502   153927406.1361        718.175          28.000  
J 3  37250723.657   195753926.1071        427.693          15.000    37251030.223   146181060.4451        316.171          14.000  
C 3  36906986.511   192184312.4571        619.788          12.000                                                                                                                                  
C 4  38236280.806   199106361.5341        592.539          26.000                                                                                                                                  
C 6  35770126.708   186264480.7001        377.145          25.000                                                                                                                                  
C 9  36419795.575   189647386.3781         12.866          26.000                                                                                                                                  
C10  37524931.824   195402216.5901        157.704          18.000                                                                                                                                  
C16  35782082.759   186326712.3151        412.871          26.000                                                                                                                                  
C21  24066696.289   125321348.6591        564.455          28.000    24066258.201   126468908.5671        567.639          25.000    24066692.397    94442870.3661        427.204          14.000  
C22  23935371.552   124637655.0061       3077.461          23.000    23934922.697   125778873.8601       3102.962          19.000    23818423.647                1        521.898          13.000  
C26  26099547.852   135907125.1501      -1410.720          17.000                                                                                                                                  
C29  23750506.056   123675077.5321      -1943.209          18.000    23750043.922   124807687.4021      -1965.098          17.000                                                                  
C30  23819060.790   124032096.729         518.635          33.000    23818628.234   125167736.0711        522.251          35.000    23819070.911    93471144.7181        387.952          25.000  
C36  23162805.775   120614836.9931       1703.372          32.000    23162375.487   121719112.4051       1718.101          33.000    23162824.778    90895895.4271       1284.996          25.000  
> 2022  1 20  5 33 22.0000000  0 37                     
G 3  23869853.453   125437006.7761       1915.325          17.000                                                                  
G 4  23252983.195   122195359.0651      -2469.992          29.000    23253267.721    91250819.0501      -1843.764          28.000  
G16  20894209.535   109799754.3231       -807.815          17.000                                                                  
G26  20322656.550   106796294.7801       1451.124          32.000    20322950.342    79751627.8321       1085.302          27.000  
G27  23193826.573   121884383.6251      -3217.361          17.000    23194122.197    91018765.3161      -2394.372          13.000  
G29  23976546.213   125997639.9551       3153.516          21.000                                                                  
G31  21383852.785   112372945.8551       1692.143          33.000                                                                  
G32  23070605.857   121236915.8731       4060.322          16.000                                                                  
R 5  20739936.016                1                         21.000  
R 6  20719266.006                1                         18.000  
R 7  24122376.566                1                         14.000  
R 9  23734099.414                1                         15.000  
R15  21230264.764                1                         29.000  
R17  21789146.569                1                         30.000  
R18  22443073.341                1                         19.000  
R24  24012157.518                1                         18.000  
E 1  24586446.365   129202637.5701       2060.012          31.000    24586450.396    96482510.5901       1538.922          26.000  
E 4  23939330.116   125802072.7921       1797.419          16.000    23939327.307    93943120.8401       1346.633          15.000  
E 9  23443718.787   123197581.1071       -972.732          28.000    23443704.111    91998126.3521       -722.633          19.000  
E21  28284809.129   148638102.9181       2771.853           9.000    28284515.564   110994489.0401       2064.233          12.000  
E26  27811084.962   146148180.2931      -1161.680          19.000    27811086.916   109136696.3471       -861.918          17.000  
E31  24270647.279   127543076.0751         52.392          17.000    24270610.529    95243105.4281         38.472          20.000  
J 1  36607538.314   192373754.5811        765.944          18.000    36607815.424   143656931.7291        576.353          16.000  
J 2  39224909.212   206128269.9401        959.306          31.000    39225201.066   153928123.0071        716.285          27.000  
J 3  37250797.611   195754353.6601        427.005          16.000    37251109.883   146181379.7791        323.249          13.000  
C 3  36907105.190   192184932.8851        617.252          14.000                                                                                                                                  
C 4  38236396.117   199106965.4181        616.865          20.000                                                                                                                                  
C 6  35770198.899   186264857.0201        375.679          27.000                                                                                                                                  
C 9  36419796.988   189647399.2251         12.899          25.000                                                                                                                                  
C10  37524961.612   195402373.3341        156.959          17.000                                                                                                                                  
C16  35782163.362   186327123.9491        410.803          25.000                                                                                                                                  
C21  24066801.880   125321914.5391        566.067          14.000    24066362.327   126469474.6461        564.239          16.000    24066796.732    94443300.4541        430.092          10.000  
C22  23935960.252   124640732.9551       3078.969          19.000    23935512.811   125781976.4671       3101.932          19.000    23818628.234                1        522.251          13.000  
C26  26099277.234   135905710.4261      -1415.892          15.000                                                                                                                                  
C29  23750133.058   123673133.5121      -1944.113          18.000    23749665.514   124805719.8101      -1968.557          16.000                                                                  
C30  23819156.452   124032613.7281        511.566          28.000    23818725.397   125168259.9511        524.002          31.000    23819171.075    93471534.0821        389.831          24.000  
C36  23163132.931   120616540.8081       1703.442          28.000    23162702.661   121720832.2021       1718.825          31.000    23163151.429    90897180.6381       1285.166          23.000  
> 2022  1 20  5 33 23.0000000  0 37                     
G 3  23870221.949   125438921.3441       1913.383          16.000                                                                  
G 4  23252510.783   122192887.7091      -2471.393          20.000    23252798.362    91248976.4881      -1841.359          20.000  
G16  20894050.563   109798944.4111       -811.310          15.000                                                                  
G26  20322932.525   106797744.1501       1448.589          28.000    20323225.916    79752710.8401       1080.960          26.000  
G27  23193212.046   121881164.3761      -3219.129          16.000    23193512.207    91016372.5171      -2392.669          12.000  
G29  23977145.733   126000791.9251       3151.843          17.000                                                                  
G31  21384172.351   112374633.1801       1685.139          25.000                                                                  
G32  23071375.516   121240970.9561       4053.355          16.000                                                                  
R 5  20740686.323                1                         24.000  
R 6  20719186.957                1                         16.000  
R 7  24121792.786                1                         14.000  
R 9  23733815.045                1                         14.000  
R15  21230697.930                1                         26.000  
R17  21789075.110                1                         30.000  
R18  22442521.496                1                         12.000  
R24  24012655.006                1                         16.000  
E 1  24586837.634   129204693.4511       2053.531          24.000    24586843.357    96484050.0311       1538.360          27.000  
E 4  23939670.360   125803869.2721       1796.458          14.000    23939669.575    93944466.7031       1346.406          13.000  
E 9  23443522.349   123196604.4661       -977.478          20.000    23443519.296    91997398.3931       -730.236          19.000  
E21  28285332.740   148640871.7901       2767.155           8.000    28285043.154   110996550.6301       2057.840          13.000  
E26  27810861.564   146147016.5211      -1164.447          17.000    27810867.550   109135834.7841       -861.216          17.000  
E31  24270656.214   127543129.4151         53.260          14.000    24270620.668    95243142.0541         35.114          20.000  
J 1  36607680.970   192374519.1381        764.111          18.000    36607961.883   143657507.7421        576.495          15.000  
J 2  39225092.177   206129226.7241        955.997          24.000    39225383.648   153928838.7231        715.476          24.000  
J 3  37250875.055   195754777.3201        420.751          14.000    37251193.382   146181708.5371        333.934          12.000  
C 3  36907223.066   192185545.0491        616.855          14.000                                                                                                                                  
C 4  38236516.035   199107590.5681        623.031          16.000                                                                                                                                  
C 6  35770268.753   186265231.0711        372.859          21.000                                                                                                                                  
C 9  36419798.279   189647410.5941         10.673          20.000                                                                                                                                  
C10  37524993.249   195402529.2991        156.575          16.000                                                                                                                                  
C16  35782242.917   186327533.6561        409.168          22.000                                                                                                                                  
C21  24066906.704   125322481.0381        567.023          15.000    24066470.204   126470035.7431        560.405          13.000    24066902.324    94443724.5261        423.474          10.000  
C22  23936550.436   124643809.5191       3074.218          15.000    23936103.169   125785077.0741       3100.272          19.000    23818628.234                1        522.251          13.000  
C26  26099007.978   135904298.0481      -1411.426          14.000                                                                                                                                  
C29  23749758.210   123671187.2961      -1946.200          17.000    23749287.508   124803748.7261      -1970.073          15.000                                                                  
C30  23819254.470   124033125.1421        511.970          27.000    23818822.943   125168778.8691        517.424          28.000    23819269.145    93471923.8681        389.306          23.000  
C36  23163458.500   120618243.2881       1701.323          28.000    23163030.516   121722549.0421       1716.196          27.000    23163478.655    90898465.0231       1283.243          21.000  
> 2022  1 20  5 33 24.0000000  0 37                     
G 3  23870586.938   125440834.2721       1913.649          16.000                                                                  
G 4  23252038.004   122190416.6601      -2470.346          25.000    23252329.161    91247133.7051      -1842.026          11.000  
G16  20893893.825   109798132.4701       -811.151          15.000                                                                  
G26  20323209.740   106799193.6531       1450.004          27.000    20323500.966    79753791.6981       1080.148          24.000  
G27  23192595.355   121877944.8741      -3219.193          15.000    23192901.991    91013981.3101      -2388.490          11.000  
G29  23977747.660   126003945.2501       3155.137          23.000                                                                  
G31  21384493.365   112376317.6711       1685.105          26.000                                                                  
G32  23072147.967   121245027.4471       4056.700          15.000                                                                  
R 5  20741423.578                1                         22.000  
R 6  20719112.375                1                         16.000  
R 7  24121207.558                1                         13.000  
R 9  23733528.391                1                         12.000  
R15  21231129.352                1                         27.000  
R17  21789010.388                1                         22.000  
R18  22441974.100                1                         11.000  
R24  24013148.202                1                         15.000  
E 1  24587233.649   129206750.0981       2058.896          23.000    24587236.232    96485590.1651       1540.956          23.000  
E 4  23940013.100   125805667.6091       1800.360          15.000    23940012.524    93945814.2551       1349.126          12.000  
E 9  23443327.012   123195628.5731       -974.076          21.000    23443334.725    91996669.7481       -726.239          12.000  
E21  28285858.411   148643637.0061       2760.868           9.000    28285566.573   110996550.6301       2049.032          10.000  
E26  27810636.736   146145852.6031      -1165.265          16.000    27810647.031   109134970.8511       -865.025          15.000  
E31  24270663.089   127543183.2841         53.978          14.000    24270631.853    95243180.6881         40.170          19.000  
J 1  36607825.004   192375282.9761        765.098          15.000    36608110.350   143658088.9631        583.583          12.000  
J 2  39225275.753   206130183.8521        958.249          25.000    39225564.031   153929553.7211        715.579          22.000  
J 3  37250955.902   195755196.1451        419.787          13.000    37251278.853   146181708.5371        338.247          10.000  
C 3  36907341.780   192186165.1971        623.306          13.000                                                                                                                                  
C 4  38236634.976   199108209.6931        623.070          14.000                                                                                                                                  
C 6  35770340.264   186265603.7521        372.777          23.000                                                                                                                                  
C 9  36419801.054   189647421.0141         11.896          22.000                                                                                                                                  
C10  37525023.508   195402687.6921        159.022          14.000                                                                                                                                  
C16  35782321.635   186327942.6581        409.945          21.000                                                                                                                                  
C21  24067012.469   125323047.8931        566.077          14.000    24066575.115   126470599.4281        566.378          16.000    24067009.276    94444148.6881        424.288           9.000  
C22  23937142.243   124646884.1441       3075.261          15.000    23936695.343   125788179.4091       3103.328          19.000    23818628.234                1        522.251          13.000  
C26  26098737.883   135902885.7801      -1412.698          14.000                                                                                                                                  
C29  23749384.897   123669241.4481      -1945.744          17.000    23748910.478   124801779.1411      -1970.304          12.000                                                                  
C30  23819353.692   124033640.9781        518.028          24.000    23818924.853   125169297.9401        520.953          26.000    23819368.193    93472312.4471        389.495          19.000  
C36  23163784.139   120619944.8141       1701.685          19.000    23163357.289   121724266.8111       1719.069          22.000    23163804.224    90899747.5721       1282.125          22.000  
> 2022  1 20  5 33 25.0000000  0 36                     
G 3  23870948.227   125442746.5411       1911.971          15.000                                                                  
G 4  23251567.162   122187947.6701      -2467.462          32.000    23251860.640    91247133.7051      -1841.262           9.000  
G16  20893737.943   109797323.6801       -804.142          14.000                                                                  
G26  20323485.942   106800644.8131       1452.243          25.000    20323778.582    79754875.3791       1085.311          23.000  
G27  23191983.708   121874725.8991      -3217.344          15.000    23192292.420    91011590.6891      -2393.099          11.000  
G29  23978350.478   126007102.0051       3157.162          28.000                                                                  
G31  21384813.664   112378005.3881       1689.144          29.000                                                                  
G32  23072920.925   121249086.5421       4059.801          14.000                                                                  
R 5  20742162.280                1                         16.000  
R 6  20719032.208                1                         16.000  
R 7  24120629.677                1                         14.000  
R 9  23733236.448                1                         10.000  
R15  21231558.802                1                         31.000  
R17  21788944.810                1                         24.000  
R18  22441432.166                1                         13.000  
R24  24013647.191                1                         15.000  
E 1  24587628.617   129208812.3351       2064.017          23.000    24587627.849    96487132.0331       1542.282          20.000  
E 4  23940357.218   125807471.3741       1805.359          15.000    23940356.503    93947163.7081       1350.099          12.000  
E 9  23443137.991   123194656.1011       -972.868          20.000    23443149.665    91995944.9521       -723.938          13.000  
E21  28286381.097   148646395.6041       2754.379           9.000    28286087.200   110996550.6301       2044.771           9.000  
E26  27810411.924   146144689.8271      -1162.682          15.000    27810426.635   109134106.3841       -863.059          12.000  
E31  24270668.150   127543237.3011         54.053          16.000    24270643.859    95243223.3621         43.323          18.000  
J 1  36607974.273   192376049.3891        766.896          11.000    36608259.671   143658088.9631        587.054           8.000  
J 2  39225458.038   206131143.9851        962.186          27.000    39225747.869   153930271.3861        719.665          18.000  
J 3  37251036.138   195755613.5381        415.329          12.000    37251364.202   146181708.5371        340.538           8.000  
C 4  38236756.203   199108840.5111        631.764          14.000                                                                                                                                  
C 6  35770411.024   186265977.3781        375.598          21.000                                                                                                                                  
C 9  36419801.159   189647433.6421         14.091          23.000                                                                                                                                  
C10  37525057.483   195402848.5031        161.620          13.000                                                                                                                                  
C16  35782400.406   186328353.1191        411.879          23.000                                                                                                                                  
C21  24067113.192   125323612.9521        565.404          24.000    24066675.645   126471169.0571        570.779          17.000    24067115.897    94444575.8621        427.819           8.000  
C22  23937735.323   124649959.0831       3074.746          17.000    23937285.788   125791284.3151       3105.749          20.000    23818924.853                1        520.953          12.000  
C26  26098464.648   135901468.9541      -1416.962          11.000                                                                                                                                  
C29  23749010.381   123667297.2891      -1943.357          14.000    23748533.623   124801779.1411      -1974.064          10.000                                                                  
C30  23819454.083   124034161.7901        521.773          28.000    23819027.216   125169820.5391        523.775          29.000    23819466.630    93472704.4411        394.929          18.000  
C36  23164105.868   120621647.0411       1702.772          22.000    23163684.166   121725986.7811       1720.468          25.000    23164131.852    90901030.8931       1283.763          23.000  
> 2022  1 20  5 33 26.0000000  0 36                     
G 3  23871309.726   125444655.4901       1906.916          13.000                                                                  
G 4  23251096.861   122185481.3281      -2465.844          30.000    23251391.281                1      -1842.438          12.000  
G16  20893582.932   109796519.3111       -806.572          13.000                                                                  
G26  20323763.557   106802099.4221       1455.454          28.000    20324056.511    79755963.1391       1089.839          25.000  
G27  23191367.227   121871510.2321      -3215.506          15.000    23191681.924    91011590.6891      -2396.213          10.000  
G29  23978953.488   126010260.5891       3158.759          26.000                                                                  
G31  21385135.254   112379696.0041       1690.981          29.000                                                                  
G32  23073690.793   121253146.4521       4057.490          15.000                                                                  
R 5  20742895.521                1                         16.000  
R 6  20718959.267                1                         16.000  
R 7  24120047.380                1                         14.000  
R 9  23732944.384                1                          8.000  
R15  21231992.475                1                         30.000  
R17  21788883.088                1                         22.000  
R18  22440891.122                1                         13.000  
R24  24014146.598                1                         15.000  
E 1  24588023.132   129210876.9891       2064.162          28.000    24588019.537    96488672.0221       1539.097          19.000  
E 4  23940702.000   125809277.0271       1804.793          15.000    23940700.220    93948513.5431       1349.574          12.000  
E 9  23442951.256   123193687.7341       -966.867          20.000    23442963.698    91995221.0541       -724.216          15.000  
E21  28286901.951   148649144.9511       2747.284           9.000    28286608.578   110996550.6301       2040.908           8.000  
E26  27810189.085   146143527.9001      -1160.194          13.000    27810206.954   109134106.3841       -857.194          10.000  
E31  24270674.222   127543292.4161         56.383          17.000    24270654.957    95243266.2931         42.955          18.000  
J 1  36608122.547   192376817.5221        768.206           9.000    36608409.010   143658088.9631        585.636           8.000  
J 2  39225638.055   206132107.0891        963.508          26.000    39225930.206   153930989.8471        716.876          19.000  
J 3  37251113.827   195756028.5851        414.656          11.000    37251451.558   146181708.5371        345.160           8.000  
C 4  38236877.691   199109475.1181        633.983          13.000                                                                                                                                  
C 6  35770482.989   186266354.4391        378.359          20.000                                                                                                                                  
C 9  36419800.181   189647447.6951         13.481          23.000                                                                                                                                  
C10  37525087.463   195403007.8021        156.785          10.000                                                                                                                                  
C16  35782481.183   186328766.5511        414.209          22.000                                                                                                                                  
C21  24067216.934   125324179.4641        567.338          25.000    24066778.427   126471742.5361        573.300          18.000    24067222.378    94445003.5981        425.302           9.000  
C22  23938326.938   124653034.8731       3076.421          17.000    23937876.234   125794392.7641       3109.485          19.000    23819027.216                1        523.775          12.000  
C26  26098193.506   135900046.1561      -1422.940           9.000                                                                                                                                  
C29  23748637.103   123665354.1501      -1940.526          12.000    23748154.256   124801779.1411      -1977.328           8.000                                                                  
C30  23819556.393   124034685.0301        523.530          28.000    23819131.376   125170346.6061        526.821          29.000    23819567.352    93473101.6381        396.781          17.000  
C36  23164433.444   120623352.8471       1706.867          23.000    23164010.660   121727710.2271       1723.965          28.000    23164459.654    90902314.1571       1282.666          21.000  
> 2022  1 20  5 33 27.0000000  0 35                     
G 3  23871669.008   125446560.4921       1901.985          11.000                                                                  
G 4  23250624.170   122183015.5191      -2465.999          23.000    23250921.766    91241611.3251      -1843.332          23.000  
G16  20893428.585   109795713.4541       -806.193          12.000                                                                  
G26  20324041.016   106803555.7151       1457.226          30.000    20324333.324    79757051.5791       1088.870          18.000  
G27  23190755.806   121868291.4911      -3218.607          14.000    23191070.712    91011590.6891      -2394.912          10.000  
G29  23979556.079   126013419.2561       3158.161          16.000                                                                  
G31  21385459.950   112381387.6241       1691.761          32.000                                                                  
G32  23074460.610   121257203.0671       4057.845          14.000                                                                  
R 5  20743637.330                1                         19.000  
R 6  20718889.082                1                         15.000  
R 7  24119467.998                1                         13.000  
R 9  23732654.693                1                          8.000  
R15  21232420.668                1                         27.000  
R17  21788820.267                1                         30.000  
R18  22440353.428                1                         15.000  
R24  24014646.722                1                         13.000  
E 1  24588415.133   129212938.6251       2061.559          29.000    24588411.678    96490211.5031       1540.899          19.000  
E 4  23941044.251   125811082.1011       1806.034          14.000    23941044.111    93949862.3711       1348.922          12.000  
E 9  23442760.700   123192722.3261       -961.773          17.000    23442778.534    91994496.5911       -724.513          25.000  
E21  28287420.990   148651888.4721       2740.674           8.000    28287128.507   110996550.6301       2038.335           8.000  
E26  27809970.626   146142368.8011      -1157.917          12.000    27809987.064   109134106.3841       -863.647           8.000  
E31  24270683.733   127543347.7361         54.609          16.000    24270663.700    95243308.3371         41.621          18.000  
J 1  36608265.779   192377584.6191        769.277           9.000    36608557.703   143658088.9631        589.883           8.000  
J 2  39225820.636   206133070.2711        962.684          29.000    39226110.694   153931702.8591        711.896          18.000  
J 3  37251192.440   195756440.6341        411.561           8.000    37251538.216   146181708.5371        345.513           8.000  
C 6  35770556.943   186266731.8581        377.806          24.000                                                                                                                                  
C 9  36419802.712   189647462.2561         16.233          19.000                                                                                                                                  
C10  37525115.662   195403163.8881        156.512          10.000                                                                                                                                  
C16  35782562.326   186329182.0261        415.210          22.000                                                                                                                                  
C21  24067323.868   125324747.4351        568.152          14.000    24066882.779   126472316.5201        574.350          18.000    24067327.446    94445429.3981        427.876           9.000  
C22  23938917.384   124656109.9571       3074.433          16.000    23938465.894   125797500.9511       3107.756          19.000    23819027.216                1        523.775          10.000  
C26  26097921.579   135898623.1401      -1419.942           8.000                                                                                                                                  
C29  23748264.646   123663414.8141      -1940.900          11.000    23747775.097   124801779.1411      -1979.467           8.000                                                                  
C30  23819657.326   124035208.0421        522.505          29.000    23819230.964   125170873.6941        526.984          31.000    23819667.656    93473497.0101        395.268          19.000  
C36  23164763.253   120625058.8051       1705.843          20.000    23164337.817   121729435.4881       1726.622          21.000    23164786.270    90903597.0651       1283.753          18.000  
> 2022  1 20  5 33 28.0000000  0 35                     
G 3  23872028.221   125448457.7581       1894.608          12.000                                                                  
G 4  23250150.030   122180548.5941      -2467.553          25.000    23250451.814    91239767.1011      -1844.928          20.000  
G16  20893274.622   109794908.2121       -804.305          12.000                                                                  
G26  20324317.584   106805011.9241       1455.220          27.000    20324610.067    79758137.1001       1082.995          18.000  
G27  23190144.298   121865075.1881      -3216.151          16.000    23190460.060                1      -2394.498          11.000  
G29  23980154.935   126016575.4901       3155.188          16.000                                                                  
G31  21385783.355   112383078.9531       1689.391          29.000                                                                  
G32  23075232.904   121261262.0491       4062.223          14.000                                                                  
R 5  20744379.662                1                         20.000  
R 6  20718821.864                1                         14.000  
R 7  24118891.059                1                         12.000  
R 9  23732362.001                1                          9.000  
R15  21232854.097                1                         24.000  
R17  21788755.614                1                         28.000  
R18  22439819.312                1                         16.000  
R24  24015153.808                1                         13.000  
E 1  24588808.915   129214999.1081       2059.506          24.000    24588803.331    96491750.5011       1536.814          19.000  
E 4  23941387.008   125812887.3611       1804.613          15.000    23941387.619    93951209.9971       1346.033          15.000  
E 9  23442575.466   123191758.1371       -967.879          16.000    23442593.282    91993771.5001       -725.728          26.000  
E21  28287936.121   148654624.3291       2732.718           8.000    28287650.269   110996550.6301       2043.516           8.000  
E26  27809751.120   146141211.2301      -1158.164          15.000    27809765.987   109134106.3841       -865.884          10.000  
E31  24270688.793   127543401.3921         52.275          16.000    24270672.024    95243348.1121         39.585          17.000  
J 1  36608408.836   192378353.7921        768.709           8.000                                                                  
J 2  39226003.201   206134030.5701        958.523          27.000    39226292.909   153932414.0481        711.043          18.000  
J 3  37251268.767   195756851.5911        409.780           8.000                                                                  
C 6  35770627.791   186267109.6511        377.672          19.000                                                                                                                                  
C 9  36419804.247   189647478.2321         15.685          19.000                                                                                                                                  
C10  37525143.809   195403317.9361        152.104          10.000                                                                                                                                  
C16  35782642.562   186329594.7461        410.428          23.000                                                                                                                                  
C21  24067429.477   125325313.9801        565.390          14.000    24066988.161   126472889.6261        572.298          19.000    24067432.636    94445856.8611        426.608          11.000  
C22  23939504.932   124659182.7881       3071.729          16.000    23939056.235   125800607.4271       3105.482          19.000    23819027.216                1        523.775           8.000  
C26  26097650.385   135897205.2441      -1415.848           8.000                                                                                                                                  
C29  23747890.478   123661476.3631      -1934.023           9.000    23747392.955   124801779.1411      -1981.619           8.000                                                                  
C30  23819757.472   124035730.0281        520.415          30.000    23819326.469   125171398.7351        522.458          32.000    23819767.210    93473891.3481        393.464          19.000  
C36  23165092.643   120626763.5211       1702.353          24.000    23164665.689   121731159.4841       1721.641          20.000    23165113.880    90904879.9011       1281.157          27.000  
> 2022  1 20  5 33 29.0000000  0 35                     
G 3  23872384.799   125450346.6681       1884.948           9.000                                                                  
G 4  23249678.735   122178080.5311      -2467.753          27.000    23249981.217    91237922.4191      -1843.839          23.000  
G16  20893119.594   109794104.6561       -801.966          13.000                                                                  
G26  20324594.659   106806467.4561       1456.920          29.000    20324885.432    79759220.4631       1084.330          22.000  
G27  23189533.209   121861861.0561      -3212.796          16.000    23189848.831    91001946.9831      -2397.078          12.000  
G29  23980756.148   126019732.1021       3159.087          22.000                                                                  
G31  21386105.329   112384769.0871       1692.592          31.000                                                                  
G32  23076005.059   121265327.5461       4069.747          13.000                                                                  
R 5  20745113.199                1                         20.000  
R 6  20718746.793                1                         13.000  
R 7  24118307.472                1                         12.000  
R 9  23732071.036                1                          9.000  
R15  21233284.977                1                         28.000  
R17  21788688.152                1                         29.000  
R18  22439273.836                1                         17.000  
R24  24015663.092                1                         14.000  
E 1  24589200.446   129217059.0211       2061.116          30.000    24589194.390    96493287.0481       1536.975          26.000  
E 4  23941730.202   125814692.2151       1806.634          15.000    23941730.568    93952556.6941       1348.687          16.000  
E 9  23442388.225   123190788.5881       -968.432          19.000    23442407.821    91993045.4531       -724.735          26.000  
E21  28288453.537   148657352.3891       2726.289           8.000                                                                  
E26  27809533.149   146140053.0571      -1157.087          16.000    27809545.102   109134106.3841       -862.971           9.000  
E31  24270694.063   127543453.0451         52.696          17.000    24270681.482    95243388.8821         42.020          18.000  
J 1  36608553.323   192379122.1171        768.066          11.000                                                                  
J 2  39226184.683   206134988.5561        959.185          30.000    39226474.950   153933127.3391        716.271          23.000  
J 3  37251346.979   195757260.5131        409.844           8.000                                                                  
C 6  35770700.994   186267487.2851        378.947          26.000                                                                                                                                  
C 9  36419806.743   189647493.2801         15.498          23.000                                                                                                                                  
C10  37525172.550   195403465.6891        145.847          11.000                                                                                                                                  
C16  35782720.600   186330004.9621        411.433          25.000                                                                                                                                  
C21  24067531.596   125325878.7601        565.831          15.000    24067089.599   126473460.3571        572.587          19.000    24067537.302    94446283.3791        425.468          13.000  
C22  23940092.726   124662255.6401       3074.074          16.000    23939646.576   125803712.7601       3105.766          20.000    24066988.161                1        572.298           8.000  
C26  26097379.558   135895791.0341      -1410.281           8.000                                                                                                                                  
C29  23747517.881   123659544.3791      -1931.870          10.000    23747012.767   124801779.1411      -1985.553           8.000                                                                  
C30  23819857.741   124036250.1611        521.687          29.000    23819424.191   125171924.2621        528.058          30.000    23819866.187    93474282.1941        391.367          19.000  
C36  23165421.527   120628466.8491       1705.195          25.000    23164993.543   121732878.6271       1720.821          25.000    23165442.223    90906162.5511       1285.375          25.000  
> 2022  1 20  5 33 30.0000000  0 34                     
G 3  23872736.107   125452230.7371       1883.114           8.000                                                                  
G 4  23249209.045   122175615.0261      -2463.877          30.000    23249512.172    91236082.8081      -1838.986          19.000  
G16  20892968.039   109793303.9671       -799.730          15.000                                                                  
G26  20324870.721   106807926.1361       1459.248          24.000    20325163.431    79760306.6371       1087.770          21.000  
G27  23188919.729   121858651.0251      -3209.396          17.000    23189236.817    90999546.9941      -2401.383          11.000  
G29  23981359.506   126022893.1661       3162.814          25.000                                                                  
G31  21386429.275   112386463.5081       1695.541          27.000                                                                  
G32  23076781.297   121269399.9701       4072.387          12.000                                                                  
R 5  20745853.560                1                         21.000  
R 6  20718672.908                1                         13.000  
R 7  24117726.833                1                         11.000  
R 9  23731776.720                1                         11.000  
R15  21233720.221                1                         31.000  
R17  21788624.284                1                         25.000  
R18  22438731.361                1                         18.000  
R24  24016166.199                1                         13.000  
E 1  24589594.210   129219121.1311       2063.218          23.000    24589586.043    96494826.0331       1540.165          20.000  
E 4  23942073.657   125816500.1591       1809.038          17.000    23942075.751    93953908.9751       1353.545          16.000  
E 9  23442202.642   123189820.5801       -967.588          20.000    23442223.285    91992320.4141       -725.669          18.000  
E21  28288969.139   148660076.1381       2719.564           8.000                                                                  
E26  27809315.562   146138897.5941      -1154.297          17.000    27809324.148   109134106.3841       -863.055           8.000  
E31  24270699.560   127543506.8741         54.994          17.000    24270691.760    95243430.1841         40.290          19.000  
J 1  36608702.662   192379890.6091        769.000          11.000                                                                  
J 2  39226367.613   206135949.6191        961.488          26.000    39226659.102   153933847.4861        721.862          17.000  
C 6  35770774.093   186267867.8741        381.391          20.000                                                                                                                                  
C 9  36419808.261   189647510.0691         17.186          23.000                                                                                                                                  
C10  37525199.772   195403611.4261        145.453          11.000                                                                                                                                  
C16  35782801.464   186330418.3061        414.215          26.000                                                                                                                                  
C21  24067637.658   125326446.3101        569.456          24.000    24067194.632   126474034.4531        575.172          23.000    24067642.998    94446710.0721        428.543          13.000  
C22  23940683.101   124665333.0371       3079.415          15.000    23940237.946   125806818.0781       3106.205          19.000    24066988.161                1        572.298           8.000  
C26  26097111.575   135894383.6381      -1404.799           8.000                                                                                                                                  
C29  23747146.279   123657615.8851      -1925.299          11.000    23746632.230   124801779.1411      -1987.594           8.000                                                                  
C30  23819962.861   124036773.5441        524.764          25.000    23819529.921   125172453.1901        529.772          27.000    23819965.304    93474674.9291        394.034          19.000  
C36  23165751.424   120630171.3311       1705.201          26.000    23165320.717   121734600.0861       1721.570          26.000    23165771.003    90907448.6801       1285.648          23.000  
> 2022  1 20  5 33 31.0000000  0 34                     
G 3  23873094.272   125454115.2491       1884.060           8.000                                                                  
G 4  23248738.220   122173151.9911      -2462.829          29.000    23249043.459    91234243.8181      -1839.028          19.000  
G16  20892818.403   109792506.1571       -797.404          18.000                                                                  
G26  20325147.534   106809385.6091       1459.881          24.000    20325443.874    79761397.7681       1091.479          26.000  
G27  23188306.703   121855446.3271      -3204.040          17.000    23188623.895    90999546.9941      -2405.398          10.000  
G29  23981959.567   126026056.5831       3163.808          28.000                                                                  
G31  21386752.593   112388159.5201       1696.442          31.000                                                                  
G32  23077561.601   121273474.3431       4076.806          12.000                                                                  
R 5  20746591.931                1                         23.000  
R 6  20718595.796                1                         14.000  
R 7  24117149.144                1                         11.000  
R 9  23731482.510                1                         12.000  
R15  21234155.447                1                         32.000  
R17  21788561.394                1                         29.000  
R18  22438195.482                1                         18.000  
R24  24016671.087                1                         14.000  
E 1  24589988.253   129221185.8631       2065.868          29.000    24589980.156    96496368.6241       1544.036          20.000  
E 4  23942417.967   125818310.0431       1810.553          22.000    23942419.921    93955261.2991       1352.132          16.000  
E 9  23442027.354   123188854.2881       -965.196          25.000    23442038.714    91991596.7631       -722.603          17.000  
E21  28289484.025   148662793.4161       2717.296           8.000                                                                  
E26  27809097.941   146137745.1141      -1151.923          18.000    27809103.193   109134106.3841       -861.775           9.000  
E31  24270705.633   127543563.3721         57.269          17.000    24270701.811    95243472.4421         44.271          18.000  
J 1  36608853.258   192380658.7771        768.280          12.000                                                                  
J 2  39226549.148   206136912.7191        963.709          29.000    39226844.057   153934569.9891        722.260          19.000  
C 6  35770847.995   186268249.0481        382.043          27.000                                                                                                                                  
C 9  36419812.187   189647526.5281         15.995          24.000                                                                                                                                  
C10  37525226.471   195403753.8021        140.395          11.000                                                                                                                                  
C16  35782881.020   186330833.8501        416.139          28.000                                                                                                                                  
C21  24067745.309   125327016.6721        571.743          27.000    24067299.316   126474611.1871        577.401          24.000    24067748.886    94447139.8121        430.047          14.000  
C22  23941274.088   124668413.5451       3081.118          15.000    23940830.678   125809928.2191       3111.582          19.000                                                                  
C26  26096842.493   135892981.1161      -1402.881           8.000                                                                                                                                  
C29  23746776.003   123655695.2181      -1917.226          11.000                                                                                                                                  
C30  23820064.893   124037299.6451        526.775          29.000    23819632.337   125172983.9111        531.511          30.000    23820065.887    93475069.8581        394.565          20.000  
C36  23166081.163   120631878.5861       1707.888          24.000    23165647.874   121736323.2181       1723.907          26.000    23166099.887    90908735.1411       1287.951          21.000  
> 2022  1 20  5 33 32.0000000  0 33                     
G 3  23873452.176   125456001.1551       1885.346           8.000                                                                  
G 4  23248272.858   122170690.1561      -2461.792          22.000    23248574.502    91232404.5361      -1839.691          23.000  
G16  20892671.403   109791708.8321       -797.306          25.000                                                                  
G26  20325426.319   106810845.6351       1460.242          29.000    20325723.897    79762488.4641       1090.151          25.000  
G27  23187698.249   121852245.9661      -3197.900          17.000    23188010.032                1      -2403.665          11.000  
G29  23982563.031   126029220.9711       3164.163          28.000                                                                  
G31  21387075.561   112389855.8571       1696.055          28.000                                                                  
G32  23078341.765   121277554.6591       4081.789          12.000                                                                  
R 5  20747339.550                1                         23.000  
R 6  20718520.010                1                         15.000  
R 7  24116571.227                1                         13.000  
R 9  23731198.909                1                         12.000  
R15  21234590.690                1                         33.000  
R17  21788496.025                1                         27.000  
R18  22437654.246                1                         17.000  
R24  24017173.775                1                         14.000  
E 1  24590380.517   129223250.5691       2063.664          29.000    24590374.200    96497911.5561       1541.371          26.000  
E 4  23942763.237   125820119.6061       1807.355           8.000    23942763.586    93956612.3931       1351.026          16.000  
E 9  23441855.574   123187889.1501       -965.226          24.000    23441854.911    91990875.7031       -721.154          18.000  
E26  27808879.289   146136596.1971      -1149.345          17.000    27808884.612   109134106.3841       -857.222           9.000  
E31  24270714.585   127543620.8901         56.928          22.000    24270712.386    95243516.4771         44.426          18.000  
J 1  36609001.044   192381426.3571        768.004          12.000                                                                  
J 2  39226732.707   206137876.1501        963.303          23.000    39227028.837   153935290.7751        720.044          23.000  
C 6  35770920.658   186268629.7971        378.480          17.000                                                                                                                                  
C 9  36419814.089   189647543.4761         15.621          13.000                                                                                                                                  
C10  37525253.362   195403893.8171        139.823          11.000                                                                                                                                  
C16  35782963.123   186331250.6401        415.716          26.000                                                                                                                                  
C21  24067856.292   125327589.3241        573.136          23.000    24067407.350   126475188.9341        577.498          21.000    24067855.611    94447570.5351        430.723          15.000  
C22  23941868.006   124671498.8941       3086.469          16.000    23941423.776   125813040.9091       3113.420          19.000                                                                  
C26  26096574.859   135891578.1561      -1402.148           8.000                                                                                                                                  
C29  23746408.117   123653782.5211      -1911.479           9.000                                                                                                                                  
C30  23820165.650   124037826.1291        525.916          34.000    23819733.304   125173514.9591        530.657          35.000    23820166.017    93475463.4471        393.046          19.000  
C36  23166412.263   120633587.1261       1709.427          26.000    23165975.729   121738047.7201       1723.990          28.000    23166428.248    90910023.7831       1287.949          24.000  
> 2022  1 20  5 33 33.0000000  0 32                     
G 4  23247803.011   122168227.9301      -2462.528          26.000    23248105.126    91230563.6961      -1840.349          23.000  
G16  20892523.809   109790910.7891       -798.115          22.000                                                                  
G26  20325703.341   106812306.1801       1460.899          30.000    20326003.205    79763579.3731       1091.788          27.000  
G27  23187090.440   121849049.2381      -3197.190          15.000    23187396.412                1      -2401.280           9.000  
G29  23983165.988   126032384.8101       3163.830          27.000                                                                  
G31  21387398.966   112391551.9421       1696.339          34.000                                                                  
G32  23079127.793   121281643.5211       4090.094          12.000                                                                  
R 5  20748072.198                1                         20.000  
R 6  20718449.842                1                         17.000  
R 7  24115992.247                1                         13.000  
R 9  23730914.086                1                         13.000  
R15  21235025.916                1                         31.000  
R17  21788422.699                1                         28.000  
R18  22437113.394                1                         17.000  
R24  24017673.165                1                         13.000  
E 1  24590772.640   129225315.2041       2065.584          28.000    24590767.161    96499453.1301       1542.261          26.000  
E 4  23943108.036   125821927.3631       1808.794          22.000    23943107.582    93957963.8821       1351.789          16.000  
E 9  23441673.778   123186923.4961       -966.359          24.000    23441671.440    91990155.1451       -719.673          24.000  
E26  27808659.975   146135446.2211      -1150.006          16.000    27808665.419   109134106.3841       -861.030           8.000  
E31  24270721.914   127543678.5631         57.817          12.000    24270724.392    95243561.1701         45.408          18.000  
J 1  36609152.459   192382194.3841        768.489          12.000                                                                  
J 2  39226914.643   206138839.8381        963.626          28.000    39227210.791   153936009.9161        719.195          19.000  
C 6  35770993.443   186269008.4011        379.630          23.000                                                                                                                                  
C 9  36419817.771   189647558.4051         15.415          19.000                                                                                                                                  
C10  37525280.427   195404033.4141        140.607          11.000                                                                                                                                  
C16  35783041.195   186331666.1871        415.978          23.000                                                                                                                                  
C21  24067964.134   125328161.9011        572.747          23.000    24067514.041   126475766.6971        578.203          22.000    24067962.756    94448001.8381        431.926          22.000  
C22  23942460.737   124674584.5541       3085.824          15.000    23942019.491   125816153.1171       3111.825          19.000                                                                  
C26  26096307.015   135890177.7391      -1399.691           8.000                                                                                                                                  
C29  23746038.277   123651874.6281      -1907.304           9.000                                                                                                                                  
C30  23820266.809   124038352.3961        527.040          32.000    23819833.992   125174045.9841        531.919          32.000    23820267.839    93475857.4181        395.103          19.000  
C36  23166742.596   120635296.8211       1709.380          22.000    23166303.601   121739772.4311       1724.637          25.000    23166756.015    90911312.0421       1289.452          30.000  
> 2022  1 20  5 33 34.0000000  0 32                     
G 4  23247334.455   122165765.5681      -2461.502          26.000    23247635.489    91228722.6641      -1841.248          23.000  
G16  20892371.591   109790113.2671       -797.002          23.000                                                                  
G26  20325978.688   106813767.2971       1462.214          28.000    20326280.873    79764671.6401       1092.533          26.000  
G27  23186480.468   121845850.6331      -3202.024          16.000    23186785.288                1      -2400.345           9.000  
G29  23983768.649   126035549.2081       3165.269          25.000                                                                  
G31  21387725.878   112393248.5061       1697.897          32.000                                                                  
G32  23079908.044   121285733.9321       4090.360          12.000                                                                  
R 5  20748815.019                1                         25.000  
R 6  20718383.200                1                         17.000  
R 7  24115413.999                1                         14.000  
R 9  23730623.941                1                         13.000  
R15  21235460.007                1                         32.000  
R17  21788353.666                1                         27.000  
R18  22436583.204                1                         17.000  
R24  24018177.494                1                         10.000  
E 1  24591165.375   129227381.5531       2067.127          32.000    24591160.454    96500996.4561       1543.259          28.000  
E 4  23943453.794   125823737.8521       1811.479          15.000    23943452.939    93959318.7451       1355.414          15.000  
E 9  23441493.692   123185957.3351       -964.804          26.000    23441487.846    91989435.7391       -719.433          16.000  
E26  27808442.004   146134297.5971      -1148.957          16.000    27808444.936   109134106.3841       -863.392           8.000  
E31  24270731.895   127543736.6781         58.528          16.000    24270735.106    95243605.1011         43.870          17.000  
J 1  36609297.226   192382963.7531        769.091          12.000                                                                  
J 2  39227096.457   206139802.8871        963.375          28.000    39227394.594   153936730.5001        721.780          24.000  
C 6  35771066.629   186269388.2641        380.865          23.000                                                                                                                                  
C 9  36419818.923   189647574.7801         17.128          25.000                                                                                                                                  
C10  37525303.671   195404171.4011        137.611          10.000                                                                                                                                  
C16  35783120.751   186332083.0291        418.047          28.000                                                                                                                                  
C21  24068071.872   125328734.4941        573.310          25.000    24067620.732   126476345.4131        579.329          23.000    24068070.825    94448434.4581        432.884          20.000  
C22  23943051.375   124677668.3591       3083.892          15.000    23942615.783   125819264.6011       3112.026          18.000                                                                  
C26  26096038.963   135888780.9431      -1393.849           8.000                                                                                                                                  
C29  23745671.666   123649966.1801      -1910.715           9.000                                                                                                                                  
C30  23820366.956   124038880.2701        528.743          28.000    23819933.824   125174577.5171        533.093          29.000    23820370.132    93476252.3691        396.128          20.000  
C36  23167071.777   120637005.4911       1708.918          32.000    23166630.758   121741496.3891       1724.311          30.000    23167083.329    90912600.7151       1287.916          28.000  
> 2022  1 20  5 33 35.0000000  0 32                     
G 4  23246864.137   122163304.7561      -2460.387          27.000    23247166.497    91226882.0451      -1840.621          18.000  
G16  20892218.221   109789316.7951       -796.194          24.000                                                                  
G26  20326257.298   106815230.1571       1463.662          32.000    20326558.035    79765763.9861       1092.931          28.000  
G27  23185872.711   121842646.5681      -3204.752          13.000    23186174.408                1      -2396.798           9.000  
G29  23984372.723   126038715.8501       3167.165          31.000                                                                  
G31  21388046.195   112394941.2121       1700.330          34.000                                                                  
G32  23080688.208   121289823.2671       4089.055          12.000                                                                  
R 5  20749555.362                1                         25.000  
R 6  20718309.665                1                         18.000  
R 7  24114839.764                1                         13.000  
R 9  23730336.693                1                         15.000  
R15  21235894.919                1                         34.000  
R17  21788289.432                1                         34.000  
R18  22436052.560                1                         16.000  
R24  24018696.132                1                         11.000  
E 1  24591556.400   129229449.1521       2067.718          36.000    24591553.799    96502539.8681       1543.479          29.000  
E 4  23943799.012   125825550.4831       1813.175          23.000    23943798.419    93960674.2341       1355.347          16.000  
E 9  23441315.194   123184994.4531       -962.311          31.000    23441305.247    91988716.8281       -718.382          18.000  
E26  27808226.320   146133148.0921      -1149.963          17.000    27808224.156   109134106.3841       -861.790           8.000  
E31  24270742.313   127543796.0761         60.345          18.000    24270745.943    95243649.0171         45.276          17.000  
J 1  36609449.462   192383732.7141        769.896          13.000                                                                  
J 2  39227279.405   206140767.3081        965.192          32.000    39227578.589   153937451.2801        720.330          26.000  
C 6  35771141.368   186269770.1871        382.733          25.000                                                                                                                                  
C 9  36419822.518   189647592.8771         18.627          29.000                                                                                                                                  
C10  37525329.183   195404306.9381        136.932           9.000                                                                                                                                  
C16  35783201.301   186332501.8471        419.013          28.000                                                                                                                                  
C21  24068181.599   125329308.7241        574.844          28.000    24067730.773   126476925.9601        581.507          28.000    24068179.086    94448868.4931        434.476          20.000  
C22  23943641.035   124680750.4381       3081.888          16.000    23943207.851   125822377.4531       3113.979          26.000                                                                  
C26  26095772.777   135887390.6141      -1386.013           8.000                                                                                                                                  
C29  23745301.913   123648052.6001      -1917.158           8.000                                                                                                                                  
C30  23820468.516   124039409.7901        529.752          35.000    23820034.337   125175111.3661        534.619          35.000    23820472.739    93476648.6341        396.986          22.000  
C36  23167400.801   120638715.5151       1710.429          30.000    23166957.932   121743222.1071       1726.628          32.000    23167411.428    90913889.9321       1290.131          27.000  
> 2022  1 20  5 33 36.0000000  0 32                     
G 4  23246397.500   122160844.7271      -2459.335          25.000    23246699.162    91225043.4451      -1838.148          18.000  
G16  20892067.241   109788520.8631       -795.320          23.000                                                                  
G26  20326538.177   106816694.3491       1464.541          30.000    20326835.302    79766857.6241       1093.562          24.000  
G27  23185261.622   121839440.7821      -3205.841          27.000    23185565.273                1      -2394.017          25.000  
G29  23984976.134   126041883.9971       3168.700          30.000                                                                  
G31  21388370.821   112396642.2131       1700.002          31.000                                                                  
G32  23081470.641   121293910.8731       4087.356           9.000                                                                  
R 5  20750296.211                1                         28.000  
R 6  20718242.010                1                         18.000  
R 7  24114262.057                1                         13.000  
R 9  23730054.855                1                         16.000  
R15  21236330.163                1                         31.000  
R17  21788224.657                1                         28.000  
R18  22435514.291                1                         15.000  
R24  24019221.802                1                         23.000  
E 1  24591948.977   129231516.6611       2067.244          31.000    24591946.796    96504083.7281       1544.549          28.000  
E 4  23944144.492   125827364.2421       1814.538          29.000    23944144.212    93962029.1921       1355.049          18.000  
E 9  23441135.090   123184034.6901       -960.076          26.000    23441122.822    91987999.0921       -717.494          18.000  
E26  27808009.291   146131999.2601      -1146.758          16.000                                                                  
E31  24270753.534   127543856.9191         61.311          22.000    24270758.838    95243694.8171         45.226          18.000  
J 1  36609595.747   192384503.4551        772.415          14.000                                                                  
J 2  39227463.051   206141732.9421        965.649          29.000    39227763.177   153938171.4541        719.011          25.000  
C 6  35771216.997   186270154.2321        384.658          22.000                                                                                                                                  
C 9  36419825.345   189647611.5661         18.309          20.000                                                                                                                                  
C10  37525361.326   195404451.7251        147.947          10.000                                                                                                                                  
C16  35783282.043   186332920.3101        416.865          24.000                                                                                                                                  
C21  24068292.373   125329885.5971        577.902          26.000    24067846.834   126477508.1531        581.914          24.000    24068287.801    94449303.6221        435.250          17.000  
C22  23944230.155   124683833.2331       3084.341          25.000    23943796.604   125825492.0931       3115.318          29.000                                                                  
C26  26095509.122   135886005.8661      -1383.162           8.000                                                                                                                                  
C29  23744933.050   123646135.6271      -1916.010           8.000                                                                                                                                  
C30  23820570.844   124039940.8221        531.969          34.000    23820135.392   125175647.0891        536.484          34.000    23820575.102    93477047.3751        398.371          24.000  
C36  23167729.511   120640426.3451       1711.204          31.000    23167286.991   121744949.0381       1726.783          31.000    23167740.225    90915179.9681       1288.988          21.000  
> 2022  1 20  5 33 37.0000000  0 33                     
G 4  23245930.602   122158385.3101      -2459.471          24.000    23246231.549    91223205.1451      -1838.024          19.000  
G16  20891915.582   109787726.1381       -794.277          23.000                                                                  
G26  20326817.555   106818158.9061       1464.869          21.000    20327112.498    79767951.1771       1093.615          22.000  
G27  23184650.847   121836234.9381      -3205.872          30.000    23184956.558    90982748.5261      -2392.284          30.000  
G29  23985579.772   126045052.6131       3168.959          27.000                                                                  
G31  21388691.940   112398341.6221       1699.509          28.000                                                                  
G32  23082247.089   121297997.0331       4086.267          10.000                                                                  
R 5  20751040.009                1                         27.000  
R 6  20718168.492                1                         19.000  
R 7  24113685.450                1                         14.000  
R 9  23729769.701                1                         16.000  
R15  21236763.940                1                         34.000  
R17  21788164.506                1                         24.000  
R18  22434976.353                1                         15.000  
R24  24019735.275                1                         23.000  
E 1  24592340.036   129233583.9171       2068.007          31.000    24592341.083    96505628.6421       1544.696          25.000  
E 4  23944489.482   125829179.5911       1815.595          23.000    23944489.744    93963384.1091       1354.767          24.000  
E 9  23440962.629   123183073.0651       -962.095          26.000    23440940.642    91987281.9451       -717.062          19.000  
E21  28292622.953   148678365.2971       2770.829          18.000                                                                  
E26  27807796.276   146130853.7461      -1145.983          18.000                                                                  
E31  24270765.993   127543918.1831         61.386          23.000    24270771.769    95243740.1481         43.024          18.000  
J 1  36609738.525   192385275.4701        772.741          15.000                                                                  
J 2  39227646.732   206142698.2591        965.591          25.000    39227947.015   153938891.1231        720.095          21.000  
C 6  35771290.951   186270538.0651        385.271          17.000                                                                                                                                  
C 9  36419830.178   189647630.1811         19.167          20.000                                                                                                                                  
C10  37525396.523   195404607.0131        160.984          12.000                                                                                                                                  
C16  35783362.401   186333338.3721        418.867          18.000                                                                                                                                  
C21  24068404.526   125330462.2371        576.214          24.000    24067966.752   126478089.8561        581.746          24.000    24068397.563    94449739.3931        436.039          16.000  
C22  23944820.792   124686918.7451       3086.351          24.000    23944386.160   125828607.2211       3115.434          29.000                                                                  
C26  26095244.768   135884621.7171      -1386.625           8.000                                                                                                                                  
C29  23744562.809   123644216.6351      -1922.286           8.000                                                                                                                                  
C30  23820671.811   124040471.5621        530.410          27.000    23820237.580   125176182.9171        535.458          27.000    23820675.493    93477444.8901        397.500          22.000  
C36  23168057.871   120642137.7501       1712.482          31.000    23167615.613   121746675.4151       1726.212          30.000    23168068.586    90916468.6281       1289.445          23.000  
> 2022  1 20  5 33 38.0000000  0 33                     
G 4  23245469.393   122155926.4141      -2458.478          29.000    23245764.843    91221369.6941      -1834.616          19.000  
G16  20891762.770   109786932.6261       -793.343          25.000                                                                  
G26  20327100.842   106819623.9511       1465.237          22.000    20327391.772    79769045.6591       1094.580          23.000  
G27  23184043.004   121833029.4601      -3204.939          37.000    23184348.016    90980356.7761      -2391.415          25.000  
G29  23986183.637   126048221.8581       3169.503          30.000                                                                  
G31  21389013.792   112400040.9541       1699.317          28.000                                                                  
G32  23083020.797   121302081.7261       4084.260          14.000                                                                  
R 5  20751782.323                1                         37.000  
R 6  20718096.964                1                         19.000  
R 7  24113119.871                1                         15.000  
R 9  23729486.606                1                         16.000  
R15  21237200.632                1                         31.000  
R17  21788102.802                1                         27.000  
R18  22434450.404                1                         16.000  
R24  24020255.082                1                         31.000  
E 1  24592733.818   129235652.6791       2068.958          31.000    24592734.027    96507173.5451       1543.845          24.000  
E 4  23944834.770   125830995.4721       1816.258          30.000    23944834.857    93964739.0531       1355.228          19.000  
E 9  23440802.820   123182112.7101       -959.854          29.000    23440758.392    91986564.6421       -717.640          19.000  
E21  28293156.196   148681136.6621       2771.987          19.000                                                                  
E26  27807585.443   146129708.1901      -1145.503          17.000                                                                  
E31  24270777.458   127543980.0881         62.165          29.000    24270783.496    95243782.2791         42.538          16.000  
J 1  36609876.434   192386049.5951        775.340          24.000                                                                  
J 2  39227829.697   206143664.9741        966.993          25.000    39228130.085   153939610.6621        719.206          20.000  
C 6  35771363.509   186270922.5291        383.602          23.000                                                                                                                                  
C 9  36419840.212   189647650.3501         21.114          22.000                                                                                                                                  
C10  37525433.256   195404771.8421        168.628          22.000                                                                                                                                  
C16  35783443.702   186333757.3591        418.874          25.000                                                                                                                                  
C21  24068520.535   125331038.8961        576.592          26.000    24068085.937   126478672.3541        584.328          25.000    24068507.429    94450176.5181        439.517          17.000  
C22  23945411.151   124690006.0011       3087.811          32.000    23944974.773   125831722.9501       3115.907          36.000                                                                  
C26  26094980.764   135883231.3131      -1392.372          12.000                                                                                                                                  
C29  23744191.747   123642288.1381      -1931.178          11.000                                                                                                                                  
C30  23820771.260   124041001.7471        530.055          28.000    23820341.898   125176719.2401        536.641          27.000    23820777.769    93477843.2231        398.517          14.000  
C36  23168386.093   120643850.0881       1711.949          27.000    23167945.475   121748401.8141       1727.215          30.000    23168396.755    90917758.1121       1290.066          26.000  
> 2022  1 20  5 33 39.0000000  0 33                     
G 4  23245012.180   122153467.8511      -2458.507          31.000    23245297.857    91219538.9581      -1827.336          19.000  
G16  20891610.848   109786138.8401       -793.764          24.000                                                                  
G26  20327378.614   106821089.1971       1465.244          18.000    20327669.405    79770139.0911       1094.672          18.000  
G27  23183437.289   121829785.2341      -3204.082          41.000    23183739.248    90977965.4281      -2391.367          26.000  
G29  23986788.042   126051391.5561       3169.890          28.000                                                                  
G31  21389336.377   112401740.4401       1699.618          31.000                                                                  
G32  23083794.365   121306165.1981       4082.374          14.000                                                                  
R 5  20752524.656                1                         40.000  
R 6  20718030.234                1                         20.000  
R 7  24112542.164                1                         15.000  
R 9  23729201.679                1                         15.000  
R15  21237635.875                1                         29.000  
R17  21788040.714                1                         29.000  
R18  22433916.305                1                         15.000  
R24  24020770.788                1                         33.000  
E 1  24593130.147   129237719.8501       2066.760          23.000    24593126.343    96508714.2661       1541.245          23.000  
E 4  23945180.249   125832811.7281       1816.405          26.000    23945180.145    93966094.5911       1355.724          23.000  
E 9  23440637.776   123181152.3141       -960.477          32.000    23440576.229    91985846.8631       -717.394          19.000  
E21  28293691.726   148683908.5961       2772.088          14.000                                                                  
E26  27807374.348   146128561.9541      -1146.880          16.000                                                                  
E31  24270791.976   127544042.0621         62.086          27.000    24270794.995    95243825.1061         42.906          16.000  
J 1  36610019.212   192386825.3821        776.424          25.000                                                                  
J 2  39228014.757   206144632.5161        968.147          26.000    39228311.655   153940328.8881        718.326          18.000  
C 6  35771437.411   186271305.7481        383.375          24.000                                                                                                                                  
C 9  36419845.918   189647671.0621         20.708          22.000                                                                                                                                  
C10  37525470.687   195404942.3711        171.129          24.000                                                                                                                                  
C16  35783522.874   186334177.1271        419.941          28.000                                                                                                                                  
C21  24068635.584   125331616.8171        579.167          16.000    24068210.374   126479256.9981        584.493          25.000    24068618.343    94450615.5401        438.409          16.000  
C22  23946002.312   124693093.8381       3087.915          34.000    23945565.236   125834838.7981       3115.855          39.000                                                                  
C26  26094715.974   135881836.6351      -1396.837          13.000                                                                                                                                  
C29  23743819.831   123640353.8231      -1935.083          13.000                                                                                                                                  
C30  23820872.978   124041532.5741        530.966          25.000    23820444.313   125177256.9411        538.427          24.000    23820881.144    93478243.9741        402.619          23.000  
C36  23168713.494   120645561.5181       1711.113          30.000    23168275.196   121750129.7171       1728.383          29.000    23168724.487    90919048.3541       1291.597          22.000  
> 2022  1 20  5 33 40.0000000  0 33                     
G 4  23244561.598   122151009.5901      -2457.917          30.000    23244834.659    91217717.5731      -1818.230          18.000  
G16  20891462.173   109785345.4891       -793.254          21.000                                                                  
G26  20327657.730   106822554.8871       1466.040          23.000    20327948.713    79771232.3351       1093.933          16.000  
G27  23182826.741   121826581.103       -3203.922          42.000    23183129.991    90975573.7721      -2391.665          27.000  
G29  23987386.550   126054561.5971       3170.189          26.000                                                                  
G31  21389659.712   112403440.2321       1699.960          23.000                                                                  
G32  23084569.311   121310246.4251       4080.165          15.000                                                                  
R 5  20753274.649                1                         41.000  
R 6  20717955.233                1                         20.000  
R 7  24111973.287                1                         14.000  
R 9  23728914.518                1                         12.000  
R15  21238070.403                1                         33.000  
R17  21787982.570                1                         24.000  
R18  22433381.944                1                         16.000  
R24  24021288.536                1                         32.000  
E 1  24593523.702   129239784.6801       2064.848          21.000    24593518.432    96510256.6131       1542.069          20.000  
E 4  23945525.746   125834628.3281       1816.840          31.000    23945525.083    93967450.4721       1356.156          20.000  
E 9  23440465.438   123180192.6281       -959.194          32.000    23440394.171    91985132.0311       -713.145          17.000  
E21  28294216.716   148686680.9451       2772.420          17.000                                                                  
E26  27807161.036   146127412.9001      -1148.295          14.000                                                                  
E31  24270807.228   127544104.3461         62.474          25.000    24270807.263    95243870.0651         44.611          16.000  
J 1  36610166.805   192387602.5371        777.275          26.000                                                                  
J 2  39228200.026   206145600.2231        966.878          24.000    39228495.580   153941047.9991        720.209          19.000  
C 6  35771510.423   186271690.0661        385.451          23.000                                                                                                                                  
C 9  36419853.684   189647691.3761         19.881          21.000                                                                                                                                  
C10  37525509.217   195405113.7501        172.042          27.000                                                                                                                                  
C16  35783602.412   186334597.2371        420.610          27.000                                                                                                                                  
C21  24068748.888   125332196.2741        579.728          19.000    24068322.701   126479840.3961        583.845          22.000    24068729.065    94451053.7601        438.245          16.000  
C22  23946591.396   124696181.7841       3088.088          35.000    23946156.973   125837954.8591       3116.555          39.000                                                                  
C26  26094449.527   135880436.1001      -1401.202          15.000                                                                                                                                  
C29  23743447.705   123638414.7401      -1939.953          14.000                                                                                                                                  
C30  23820975.323   124042064.3521        533.282          24.000    23820544.948   125177795.1781        538.020          25.000    23820983.088    93478646.2451        401.423          21.000  
C36  23169042.221   120647272.5881       1710.777          29.000    23168607.152   121751858.2841       1728.494          23.000    23169052.935    90920341.0181       1293.688          20.000  
> 2022  1 20  5 33 41.0000000  0 34                     
G 3  23876831.027                1       1929.761          18.000                                                                  
G 4  23244112.621   122148551.8861      -2457.372          29.000    23244372.752    91215901.4331      -1814.444          17.000  
G16  20891310.146   109784552.9891       -791.864          20.000                                                                  
G26  20327938.312   106824021.2271       1466.508          23.000    20328227.969    79772325.4221       1093.292          16.000  
G27  23182217.362   121823377.328       -3203.467          42.000    23182520.594    90973182.0611      -2391.778          27.000  
G29  23987987.884   126057732.1421       3170.872          26.000                                                                  
G31  21389982.296   112405140.2481       1700.217          24.000                                                                  
G32  23085344.572   121314325.2071       4077.714          16.000                                                                  
R 5  20754021.117                1                         41.000  
R 6  20717880.250                1                         21.000  
R 7  24111404.392                1                         14.000  
R 9  23728630.760                1                          9.000  
R15  21238502.959                1                         30.000  
R17  21787922.035                1                         21.000  
R18  22432858.455                1                         16.000  
R24  24021797.472                1                         34.000  
E 1  24593917.868   129241852.0441       2068.515          27.000    24593912.807    96511800.0441       1543.491          21.000  
E 4  23945871.226   125836444.3581       1816.200          30.000    23945870.650    93968807.1361       1357.282          18.000  
E 9  23440274.602   123179234.2691       -958.094          33.000    23440212.951    91984418.3061       -714.956          16.000  
E21  28294743.765   148689453.5011       2772.716          18.000                                                                  
E26  27806950.621   146126265.0911      -1146.612          14.000                                                                  
E31  24270822.444   127544166.9251         61.844          29.000    24270818.361    95243913.6841         43.708          17.000  
J 1  36610312.026   192388380.0081        777.622          26.000                                                                  
J 2  39228382.904   206146566.7641        966.281          24.000    39228679.261   153941767.9891        718.816          19.000  
C 6  35771584.778   186272075.6471        384.943          23.000                                                                                                                                  
C 9  36419861.641   189647711.7951         20.859          19.000                                                                                                                                  
C10  37525546.944   195405285.5851        171.104          25.000                                                                                                                                  
C16  35783681.967   186335017.8751        420.014          28.000                                                                                                                                  
C21  24068851.321   125332775.7301        580.341          20.000    24068440.176   126480424.8431        585.342          29.000    24068838.181    94451489.4801        434.641          15.000  
C22  23947184.075   124699269.9631       3087.918          29.000    23946747.680   125841007.5411       3117.037          37.000    38236877.691                1        633.983          26.000  
C26  26094179.991   135879033.2421      -1403.916          15.000                                                                                                                                  
C29  23743075.440   123636471.2571      -1944.656          15.000                                                                                                                                  
C30  23821078.401   124042598.2751        534.671          25.000    23820653.157   125178333.3301        538.624          25.000    23821086.621    93479048.9501        401.893          19.000  
C36  23169371.471   120648983.4221       1711.018          30.000    23168935.931   121753587.1081       1729.067          27.000    23169382.989    90921635.3201       1294.310          25.000  
> 2022  1 20  5 33 42.0000000  0 34                     
G 3  23877192.281   125475492.5691       1931.175          11.000                                                                  
G 4  23243658.165   122146094.6571      -2457.029          30.000    23243912.083    91214092.8231      -1805.038          15.000  
G16  20891157.335   109783761.3451       -790.868          24.000                                                                  
G26  20328215.910   106825487.8731       1467.141          27.000    20328507.364    79773419.0681       1094.222          17.000  
G27  23181606.849   121820173.737       -3203.651          43.000    23181911.337    90970789.5381      -2391.874          25.000  
G29  23988593.302   126060903.4671       3171.618          28.000                                                                  
G31  21390308.912   112406840.7721       1700.750          29.000                                                                  
G32  23086118.926   121318401.3861       4075.285          17.000                                                                  
R 5  20754765.508                1                         41.000  
R 6  20717803.992                1                         23.000  
R 7  24110837.121                1                         15.000  
R 9  23728352.010                1                          9.000  
R15  21238940.925                1                         29.000  
R17  21787846.179                1                         21.000  
R18  22432316.032                1                         15.000  
R24  24022305.692                1                         35.000  
E 1  24594314.302   129243920.0451       2068.337          30.000    24594307.740    96513344.8141       1545.546          24.000  
E 4  23946216.687   125838261.5731       1816.945          31.000    23946216.478    93970164.7381       1357.924          18.000  
E 9  23440081.969   123178462.4691       -957.980          32.000    23440031.137    91983701.8351       -716.903          13.000  
E21  28295268.301   148692225.6981       2771.984          18.000                                                                  
E26  27806738.427   146125118.8871      -1145.959          12.000                                                                  
E31  24270841.116   127544226.9871         60.077          23.000    24270829.145    95243957.1401         43.405          17.000  
J 1  36610455.327   192389157.0271        776.860          27.000                                                                  
J 2  39228565.835   206147532.4551        965.275          23.000    39228863.954   153942487.3891        719.644          21.000  
C 6  35771658.593   186272460.0911        384.901          24.000                                                                                                                                  
C 9  36419866.946   189647732.4051         21.138          21.000                                                                                                                                  
C10  37525582.997   195405455.4401        169.479          29.000                                                                                                                                  
C16  35783761.872   186335437.8021        420.071          27.000                                                                                                                                  
C21  24068954.015   125333356.6091        580.306          20.000    24068556.901   126481010.8251        587.453          25.000    24068948.065    94451925.8891        437.855          14.000  
C22  23947777.243   124702358.0931       3088.778          30.000    23947340.865   125844124.471        3116.939          36.000                                1                         27.000  
C26  26093910.734   135877625.3641      -1409.962          16.000                                                                                                                                  
C29  23742701.918   123634525.1471      -1947.903          16.000                                                                                                                                  
C30  23821183.661   124043133.2091        535.500          27.000    23820759.760   125178872.1631        538.986          28.000    23821188.861    93479449.7941        401.284          17.000  
C36  23169700.478   120650694.6441       1711.710          33.000    23169265.147   121755315.9101       1728.698          31.000    23169712.379    90922927.3651       1290.123          27.000  
> 2022  1 20  5 33 43.0000000  0 35                     
G 3  23877555.525   125477426.4811       1936.395           8.000                                                                  
G 4  23243198.875   122143637.8451      -2456.568          30.000    23243452.724    91212291.9391      -1798.695          11.000  
G16  20891004.226   109782970.9561       -789.991          25.000                                                                  
G26  20328494.433   106826955.2771       1467.788          25.000    20328787.039    79774512.4921       1096.491          17.000  
G27  23180996.667   121816969.9011      -3202.907          42.000    23181301.505    90968396.5511      -2394.679          21.000  
G29  23989200.395   126064075.3541       3171.984          29.000                                                                  
G31  21390637.831   112408541.9511       1701.417          25.000                                                                  
G32  23086893.837   121322475.2521       4073.271          17.000                                                                  
R 5  20755510.824                1                         41.000  
R 6  20717730.178                1                         23.000  
R 7  24110262.206                1                         12.000  
R 9  23728066.926                1                          8.000  
R15  21239376.814                1                         32.000  
R17  21787781.822                1                         28.000  
R18  22431781.951                1                         15.000  
R24  24022805.449                1                         33.000  
E 1  24594707.176   129245988.8621       2069.215          26.000    24594701.330    96514891.3801       1546.907          23.000  
E 4  23946562.184   125840078.7471       1817.422          27.000    23946563.319    93971525.1731       1361.036          17.000  
E 9  23439895.147   123177504.508        -957.434          32.000    23439847.892    91983701.8351       -719.139           9.000  
E21  28295788.405   148694997.3411       2771.528          18.000                                                                  
E26  27806524.976   146123975.1121      -1141.990          11.000                                                                  
E31  24270851.988   127544287.7561         60.763          28.000    24270840.645    95244000.9581         44.402          16.000  
J 1  36610600.810   192389932.9371        775.696          24.000                                                                  
J 2  39228749.847   206148497.0781        964.398          28.000    39229047.827   153943210.1451        723.723          18.000  
J 3  37252527.783   195763353.1591        432.187          15.000                                                                  
C 6  35771732.494   186272845.3091        385.528          26.000                                                                                                                                  
C 9  36419875.060   189647753.4751         21.623          17.000                                                                                                                                  
C10  37525617.129   195405624.3151        168.034          26.000                                                                                                                                  
C16  35783841.794   186335857.9471        420.585          29.000                                                                                                                                  
C21  24069068.786   125333937.4591        581.343          26.000    24068666.837   126481598.8151        589.005          22.000    24069057.478    94452360.6211        434.612          11.000  
C22  23948370.847   124705447.0371       3088.828          30.000    23947934.539   125847241.847        3117.506          36.000    38236877.691                1        633.983          24.000  
C26  26093641.250   135876215.5911      -1411.320          15.000                                                                                                                                  
C29  23742328.483   123632578.9851      -1945.518          15.000                                                                                                                                  
C30  23821287.420   124043669.3291        536.652          28.000    23820865.928   125179412.1601        540.875          29.000    23821291.730    93479851.6251        401.753          18.000  
C36  23170033.463   120652444.6971       1711.985          33.000    23169592.182   121757044.0871       1728.857          32.000    23170040.617    90924216.5221       1288.265          24.000  
> 2022  1 20  5 33 44.0000000  0 35                     
G 3  23877923.795   125479366.8881       1942.154           8.000                                                                  
G 4  23242737.003   122141181.5351      -2456.069          29.000    23242995.842    91212291.9391      -1788.503           8.000  
G16  20890852.305   109782181.2701       -789.506          25.000                                                                  
G26  20328773.864   106828423.0861       1468.328          25.000    20329068.039    79775610.4221       1098.854          17.000  
G27  23180386.642   121813766.821       -3203.017          41.000    23180691.532    90966001.6621      -2394.603          19.000  
G29  23989804.714   126067247.5751       3172.495          29.000                                                                  
G31  21390961.672   112410243.4641       1701.746          23.000                                                                  
G32  23087665.765   121326547.2211       4071.531          18.000                                                                  
R 5  20756254.518                1                         40.000  
R 6  20717648.720                1                         17.000  
R 7  24109689.804                1                         12.000  
R 9  23727771.738                1                          8.000  
R15  21239813.523                1                         32.000  
R17  21787716.000                1                         28.000  
R18  22431243.280                1                         17.000  
R24  24023309.429                1                         31.000  
E 1  24595101.324   129248058.6471       2069.980          26.000    24595095.600    96516438.1171       1546.884          20.000  
E 4  23946907.664   125841896.3481       1817.867          31.000    23946909.793    93972885.6251       1359.917          19.000  
E 9  23439701.956   123176547.112        -957.010          30.000    23439664.543    91983701.8351       -717.284           8.000  
E21  28296310.864   148697768.6431       2771.567          18.000                                                                  
E26  27806313.270   146122831.7871      -1143.790          14.000                                                                  
E31  24270860.242   127544351.0591         63.813          28.000    24270853.017    95244046.9351         45.117          16.000  
J 1  36610746.414   192390709.7681        777.968          22.000                                                                  
J 2  39228934.209   206149462.0521        965.929          28.000    39229232.765   153943935.0541        725.636          17.000  
J 3  37252611.910   195763783.0601        430.625          15.000                                                                  
C 6  35771807.164   186273231.1201        386.215          25.000                                                                                                                                  
C 9  36419879.632   189647774.7761         20.799          19.000                                                                                                                                  
C10  37525650.791   195405789.7891        165.178          22.000                                                                                                                                  
C16  35783921.873   186336278.2361        420.286          29.000                                                                                                                                  
C21  24069184.044   125334520.1951        583.122          26.000    24068779.443   126482188.7311        589.092          19.000    24069166.751    94452793.5651        429.437           9.000  
C22  23948966.039   124708536.2001       3089.788          31.000    23948528.248   125850359.562        3118.072          33.000    38236756.203                1        631.764          23.000  
C26  26093371.854   135874801.7901      -1415.144          15.000                                                                                                                                  
C29  23741953.513   123630634.7441      -1943.799          15.000                                                                                                                                  
C30  23821392.977   124044205.8371        536.549          28.000    23820974.922   125179954.6381        542.905          28.000    23821394.198    93480254.8811        403.966          19.000  
C36  23170355.035   120654157.194        1713.047          31.000    23169921.223   121758771.9491       1727.672          29.000    23170369.083    90925505.8881       1290.012          27.000  
> 2022  1 20  5 33 45.0000000  0 35                     
G 3  23878293.983   125481307.0891       1940.440           8.000                                                                  
G 4  23242273.002   122138725.4911      -2456.022          30.000    23242542.660    91212291.9391      -1780.663           8.000  
G16  20890702.477   109781391.9531       -789.216          26.000                                                                  
G26  20329053.521   106829891.6161       1468.780          24.000    20329347.243    79776711.4781       1100.774          17.000  
G27  23179776.914   121810563.921       -3202.616          41.000    23180082.310    90963608.3081      -2392.315          24.000  
G29  23990412.645   126070420.2241       3172.923          31.000                                                                  
G31  21391284.362   112411945.3951       1702.186          29.000                                                                  
G32  23088438.269   121330617.7991       4070.404          18.000                                                                  
R 5  20756998.246                1                         39.000  
R 6  20717587.924                1                         15.000  
R 7  24109117.053                1                         12.000  
R 9  23727480.093                1                         11.000  
R15  21240247.283                1                         32.000  
R17  21787651.644                1                         30.000  
R18  22430699.427                1                         16.000  
R24  24023817.073                1                         29.000  
E 1  24595495.018   129250128.6101       2070.430          28.000    24595488.754    96517983.8131       1545.026          25.000  
E 4  23947253.108   125843714.6051       1819.663          35.000    23947255.813    93974244.9131       1359.029          22.000  
E 9  23439513.825   123175590.088        -956.788          31.000    23439482.380    91983701.8351       -711.283           9.000  
E21  28296836.133   148700540.5711       2772.156          17.000                                                                  
E26  27806100.377   146121687.5041      -1144.442          16.000                                                                  
E31  24270868.949   127544414.7611         64.281          31.000    24270863.854    95244089.8951         42.527          16.000  
J 1  36610894.165   192391487.3971        776.881          24.000                                                                  
J 2  39229116.110   206150427.8221        965.409          23.000    39229416.481   153944658.4151        723.151          19.000  
J 3  37252706.072   195764214.4161        431.774          15.000                                                                  
C 6  35771881.345   186273617.8081        386.626          26.000                                                                                                                                  
C 9  36419884.204   189647795.8241         21.507          20.000                                                                                                                                  
C10  37525680.805   195405955.2101        165.508          19.000                                                                                                                                  
C16  35784001.830   186336698.6731        420.625          28.000                                                                                                                                  
C21  24069300.524   125335103.6301        583.530          23.000    24068889.851   126482777.8571        589.567          23.000    24069275.047    94453224.6221        432.061           8.000  
C22  23949559.887   124711626.4431       3090.374          25.000    23949121.608   125853477.575        3118.557          31.000                                1                         27.000  
C26  26093103.103   135873388.6271      -1412.342          14.000                                                                                                                                  
C29  23741580.916   123628693.0231      -1941.074          16.000    23741104.158   124760344.0441      -1959.559          22.000                                                                  
C30  23821498.987   124044742.1891        536.384          29.000    23821085.416   125180497.6461        543.576          27.000    23821499.074    93480660.7111        403.854          24.000  
C36  23170682.053   120655869.927        1712.949          32.000    23170250.003   121760500.8361       1729.301          30.000    23170697.601    90926795.9911       1289.868          28.000  
> 2022  1 20  5 33 46.0000000  0 34                     
G 4  23241808.128   122136269.4881      -2455.758          30.000    23242089.181    91212291.9391      -1772.260           8.000  
G16  20890552.196   109780603.0811       -788.743          25.000                                                                  
G26  20329330.264   106831360.4771       1469.264          24.000    20329624.981    79777808.3541       1096.411          17.000  
G27  23179166.156   121807361.292       -3202.791          42.000    23179473.036    90961216.5651      -2395.121          23.000  
G29  23991018.254   126073593.3991       3173.058          31.000                                                                  
G31  21391607.697   112413647.6141       1702.623          25.000                                                                  
G32  23089211.889   121334687.7081       4069.949          17.000                                                                  
R 5  20757747.227                1                         39.000  
R 6  20717524.353                1                         13.000  
R 7  24108535.140                1                         13.000  
R 9  23727189.477                1                         13.000  
R15  21240685.458                1                         29.000  
R17  21787589.434                1                         32.000  
R18  22430157.161                1                         17.000  
R24  24024324.176                1                         29.000  
E 1  24595889.620   129252198.5901       2069.241          27.000    24595882.937    96519527.9191       1543.978          25.000  
E 4  23947599.216   125845534.2661       1819.754          34.000    23947601.903    93975603.9071       1359.139          20.000  
E 9  23439336.775   123174633.557        -955.899          33.000    23439300.915    91983701.8351       -711.265           9.000  
E21  28297233.928   148703312.7051       2772.442          17.000                                                                  
E26  27805891.009   146120542.6711      -1144.749          16.000                                                                  
E31  24270877.936   127544479.3351         64.121          31.000    24270876.017    95244133.1501         44.101          14.000  
J 1  36611041.812   192392262.6421        774.815          24.000                                                                  
J 2  39229301.868   206151392.9261        964.933          26.000    39229600.441   153945381.4821        720.772          22.000  
J 3  37252794.911   195764646.7881        432.753          15.000                                                                  
C 6  35771954.793   186274004.2911        386.263          25.000                                                                                                                                  
C 9  36419890.486   189647817.9311         22.541          20.000                                                                                                                                  
C10  37525712.983   195406120.4331        165.400          20.000                                                                                                                                  
C16  35784082.258   186337119.1421        420.968          29.000                                                                                                                                  
C21  24069417.458   125335687.6461        583.706          22.000    24069004.639   126483366.7221        589.175          20.000    24069383.326    94453658.5671        434.505           8.000  
C22  23950154.277   124714716.3931       3089.715          26.000    23949717.794   125856596.114        3118.303          31.000                                1                         27.000  
C26  26092833.043   135871971.8021      -1418.961          13.000                                                                                                                                  
C29  23741208.354   123626752.8311      -1940.072          16.000    23740732.364   124758388.7271      -1952.882          22.000                                                                  
C30  23821604.735   124045279.0091        536.724          30.000    23821190.816   125181040.7731        543.406          28.000    23821601.158    93481063.9091        403.729          22.000  
C36  23171012.507   120657582.775        1713.014          32.000    23170578.765   121762230.2211       1729.276          31.000    23171027.096    90928087.2481       1291.640          25.000  
> 2022  1 20  5 33 47.0000000  0 34                     
G 4  23241341.666   122133813.9481      -2455.250          30.000                                                                  
G16  20890402.229   109779814.6991       -788.059          24.000                                                                  
G26  20329608.665   106832829.5091       1468.985          20.000    20329904.428    79778904.4281       1095.523          17.000  
G27  23178557.563   121804158.804       -3201.699          41.000    23178862.645    90958820.6541      -2394.058          21.000  
G29  23991624.946   126076767.4061       3175.269          30.000                                                                  
G31  21391932.655   112415350.0221       1702.110          26.000                                                                  
G32  23089985.510   121338757.4241       4069.718          18.000                                                                  
R 5  20758486.819                1                         41.000  
R 6  20717451.515                1                         14.000  
R 7  24107964.571                1                         13.000  
R 9  23726903.712                1                         14.000  
R15  21241122.149                1                         32.000  
R17  21787528.812                1                         29.000  
R18  22429620.323                1                         18.000  
R24  24024830.163                1                         31.000  
E 1  24596285.496   129254265.8371       2066.708          26.000    24596275.863    96521073.3411       1547.075          24.000  
E 4  23947947.034   125847354.4881       1820.385          34.000    23947947.836    93976963.1261       1359.354          19.000  
E 9  23439165.239   123173677.350        -956.487          33.000    23439119.537    91983701.8351       -712.055           8.000  
E21  28297761.920   148706084.9671       2772.081          17.000                                                                  
E26  27805681.397   146119398.2741      -1144.644          17.000                                                                  
E31  24270889.907   127544542.8311         64.106          29.000    24270887.551    95244179.1941         47.216          15.000  
J 1  36611189.702   192393037.4041        775.421          23.000                                                                  
J 2  39229487.067   206152357.1281        964.306          26.000    39229782.778   153946101.9251        722.080          19.000  
J 3  37252881.900   195765079.6331        433.093          15.000                                                                  
C 6  35772027.874   186274390.1371        386.617          22.000                                                                                                                                  
C 9  36419899.351   189647841.4861         23.295          19.000                                                                                                                                  
C10  37525740.781   195406285.5321        165.533          16.000                                                                                                                                  
C16  35784164.954   186337540.3171        420.879          27.000                                                                                                                                  
C21  24069530.972   125336270.9471        583.249          24.000    24069115.587   126483957.8711        591.558          18.000                                                                  
C22  23950748.526   124717805.5281       3089.396          27.000    23950310.945   125859714.717        3119.217          33.000                                1                         25.000  
C26  26092564.083   135870551.5041      -1419.802          13.000    26092236.246   137115543.4771      -1405.649          18.000                                                                  
C29  23740836.734   123624814.4221      -1937.581          16.000    23740365.368   124756436.1181      -1953.916          22.000                                                                  
C30  23821707.203   124045815.7211        536.589          31.000    23821291.678   125181583.7361        542.121          30.000    23821703.905    93481468.3101        404.411          22.000  
C36  23171343.678   120659295.744        1712.154          34.000    23170908.190   121763959.0441       1727.752          32.000    23171355.858    90929377.6341       1290.315          24.000  
> 2022  1 20  5 33 48.0000000  0 35                     
G 4  23240876.408   122131358.8821      -2454.749          31.000                                                                  
G16  20890253.187   109779026.6941       -788.093          22.000                                                                  
G26  20329889.613   106834298.6111       1469.365          24.000    20330184.504    79780003.4411       1100.827          17.000  
G27  23177949.754   121800956.353       -3202.944          40.000    23178252.323    90956427.2011      -2393.084          18.000  
G29  23992229.177   126080015.5881       3174.468          31.000                                                                  
G31  21392256.042   112417052.1931       1702.414          29.000                                                                  
G32  23090758.398   121342827.6991       4071.000          18.000                                                                  
R 5  20759229.309                1                         31.000  
R 6  20717378.748                1                         15.000  
R 7  24107380.826                1                         14.000  
R 9  23726614.161                1                         16.000  
R15  21241557.410                1                         30.000  
R17  21787468.417                1                         27.000  
R18  22429080.169                1                         17.000  
R24  24025332.869                1                         25.000  
E 1  24596681.337   129256333.8021       2069.297          25.000    24596670.500    96522621.3561       1548.162          20.000  
E 4  23948294.398   125849135.8971       1819.677          33.000    23948294.188    93978322.3011       1358.864          15.000  
E 9  23438985.432   123172721.453        -956.422          34.000    23438938.771    91983701.8351       -710.659           9.000  
E19  26917053.193   141450069.0881       3623.793          15.000                                                                  
E21  28298290.103   148708856.4481       2771.123          16.000                                                                  
E26  27805465.311   146118253.4561      -1144.802          18.000                                                                  
E31  24270902.192   127544607.0531         64.787          30.000    24270899.173    95244225.9541         46.668          16.000  
J 1  36611335.272   192393813.5431        776.014          19.000                                                                  
J 2  39229670.050   206153322.2451        965.125          29.000    39229965.447   153946821.3371        717.621          15.000  
J 3  37252968.889   195765512.1871        431.956          15.000                                                                  
C 6  35772103.381   186274776.0441        385.069          20.000                                                                                                                                  
C 9  36419904.621   189647864.5951         23.535          20.000                                                                                                                                  
C10  37525770.866   195406451.3821        165.508          19.000                                                                                                                                  
C16  35784245.365   186337961.0451        421.400          23.000                                                                                                                                  
C21  24069645.986   125336854.4021        584.267          20.000    24069229.432   126484549.2701        590.748          23.000                                                                  
C22  23951342.253   124720895.7171       3090.448          28.000    23950903.205   125862833.559        3118.445          32.000                                1                         27.000  
C26  26092295.263   135869132.3381      -1418.256          13.000    26091951.685   137114131.7971      -1419.692          12.000                                                                  
C29  23740464.800   123622878.0961      -1935.224          16.000    23739995.057   124754482.2051      -1952.913          17.000                                                                  
C30  23821805.744   124046352.5661        537.083          25.000    23821384.635   125182126.5661        543.612          27.000    23821808.065    93481875.7811        406.807          17.000  
C36  23171669.857   120661008.866        1712.775          31.000    23171237.650   121765686.6651       1727.660          29.000    23171683.904    90930665.2681       1287.698          20.000  
> 2022  1 20  5 33 49.0000000  0 35                     
G 4  23240394.032   122129094.4821      -2453.986          34.000    23240689.342    91201457.8221      -1833.071          28.000  
G16  20890103.499   109778239.1441       -786.453          29.000                                                                  
G26  20330167.508   106835767.7341       1469.046          22.000    20330464.807    79781105.0911       1100.273          17.000  
G27  23177340.253   121797754.046       -3202.181          40.000    23177644.271    90954034.0581      -2393.562          23.000  
G29  23992834.176   126083190.2931       3174.383          27.000                                                                  
G31  21392580.930   112418754.6191       1702.505          25.000                                                                  
G32  23091530.605   121346900.5081       4073.328          18.000                                                                  
R 5  20759971.641                1                         39.000  
R 6  20717306.277                1                         17.000  
R 7  24106804.375                1                         15.000  
R 9  23726334.591                1                         17.000  
R15  21241996.440                1                         30.000  
R17  21787421.336                1                         27.000  
R18  22428533.785                1                         24.000  
R24  24025839.571                1                         30.000  
E 1  24597080.650   129258403.8771       2069.938          24.000    24597065.800    96524168.4891       1544.934          16.000  
E 4  23948641.535   125850956.385        1820.946          32.000    23948640.610    93979681.5701       1359.599          19.000  
E 9  23438806.306   123171766.015        -954.752          35.000    23438757.480                1       -711.315          12.000  
E19  26917755.477   141453691.8991       3622.343          15.000                                                                  
E21  28298821.951   148711627.8311       2771.378          16.000                                                                  
E26  27805250.953   146117108.1781      -1145.567          18.000                                                                  
E31  24270920.445   127544672.7351         66.501          30.000    24270911.249    95244273.9021         48.552          15.000  
J 1  36611485.082   192394590.7831        778.039          24.000                                                                  
J 2  39229853.015   206154287.5971        965.608          30.000    39230148.465   153947536.7821        716.893          14.000  
J 3  37253052.563   195765943.6321        430.726          14.000                                                                  
C 6  35772176.986   186275160.4711        384.508          26.000                                                                                                                                  
C 9  36419908.600   189647887.5401         23.340          20.000                                                                                                                                  
C10  37525804.841   195406618.3531        167.705          25.000                                                                                                                                  
C16  35784329.091   186338382.4111        421.409          27.000                                                                                                                                  
C21  24069766.916   125337439.4121        585.687          25.000    24069352.840   126485140.4721        591.614          26.000                                                                  
C22  23951934.583   124723986.2091       3090.729          29.000    23951496.966   125865952.692        3119.175          36.000                                1                         26.000  
C26  26092023.633   135867715.1561      -1415.816          14.000    26091675.012   137112702.7551      -1433.629          13.000                                                                  
C29  23740090.754   123620943.1541      -1933.792          15.000    23739628.533   124752530.1131      -1951.375          19.000                                                                  
C30  23821901.057   124046890.3931        538.480          24.000    23821484.189   125182671.6971        545.626          25.000    23821910.934    93482282.9121        408.970          17.000  
C36  23172017.047   120662721.990        1714.063          27.000    23171569.169   121767415.2531       1729.010          24.000    23172012.579    90931951.9221       1286.211          19.000  
> 2022  1 20  5 33 50.0000000  0 36                     
G 3  23880202.182                1       1941.392          16.000                                                                  
G 4  23239926.279   122126639.934       -2454.453          37.000    23240221.851    91199625.1371      -1832.459          29.000  
G16  20889955.276   109777453.1071       -786.122          29.000                                                                  
G26  20330447.270   106837236.8671       1469.405          22.000    20330744.220    79782205.1281       1099.809          18.000  
G27  23176730.071   121794552.536       -3201.371          43.000    23177035.677    90951642.0811      -2391.315          21.000  
G29  23993432.509   126086364.8771       3174.859          22.000                                                                  
G31  21392903.916   112420457.3671       1703.042          29.000                                                                  
G32  23092302.707   121350974.6261       4074.945          18.000                                                                  
R 5  20760715.561                1                         41.000  
R 6  20717234.627                1                         19.000  
R 7  24106227.419                1                         15.000  
R 9  23726055.021                1                         17.000  
R15  21242435.994                1                         27.000  
R17  21787375.250                1                         25.000  
R18  22427984.906                1                         21.000  
R24  24026347.965                1                         29.000  
E 1  24597475.810   129260473.2601       2069.083          27.000    24597459.197    96525711.6851       1543.364          19.000  
E 4  23948989.440   125852778.128        1821.693          33.000    23948987.538    93981041.3041       1360.093          22.000  
E 9  23438630.111   123170811.270        -954.825          34.000    23438575.405    91978004.1421       -709.976          13.000  
E19  26918460.029   141457313.9091       3619.671          15.000                                                                  
E21  28299352.664   148714400.4181       2772.749          16.000                                                                  
E26  27805040.381   146115963.1281      -1145.324          17.000                                                                  
E31  24270942.519   127544739.6831         67.307          27.000    24270924.650    95244322.9741         49.032          15.000  
J 1  36611634.404   192395368.5011        778.029          25.000                                                                  
J 2  39230038.145   206155252.7351        965.207          27.000    39230331.867   153948255.6261        720.092          17.000  
J 3  37253134.544   195766372.8091        428.916          12.000                                                                  
C 6  35772249.911   186275544.4551        384.226          22.000                                                                                                                                  
C 9  36419914.760   189647911.3861         22.600          19.000                                                                                                                                  
C10  37525837.857   195406786.0951        167.765          28.000                                                                                                                                  
C16  35784411.980   186338804.1751        421.790          25.000                                                                                                                                  
C21  24069884.356   125338025.7311        586.633          30.000    24069475.096   126485732.3491        592.308          27.000                                                                  
C22  23952527.262   124727077.6341       3091.594          34.000    23952090.518   125869072.577        3119.435          40.000                                1                         26.000  
C26  26091753.538   135866302.7711      -1410.231          15.000    26091399.368   137111270.2091      -1431.100          12.000                                                                  
C29  23739719.536   123619010.3641      -1933.790          15.000    23739260.264   124750578.0571      -1951.997          18.000                                                                  
C30  23821997.347   124047429.4021        538.881          22.000    23821587.913   125183216.0301        543.834          15.000    23822015.932    93482691.6081        409.069          17.000  
C36  23172360.223   120664435.2191       1712.493          28.000    23171899.327   121769144.2001       1729.259          21.000    23172342.423    90933241.5611       1291.882          22.000  
> 2022  1 20  5 33 51.0000000  0 36                     
G 3  23880567.363   125493228.4961       1940.755          15.000                                                                  
G 4  23239457.741   122124185.622       -2453.682          35.000    23239754.342    91197791.2251      -1833.600          25.000  
G16  20889806.810   109776666.4521       -785.894          25.000                                                                  
G26  20330725.217   106838707.4921       1472.128          25.000    20331021.679    79783302.8211       1096.844          19.000  
G27  23176121.285   121791350.639       -3200.675          41.000    23176428.305    90949253.9681      -2387.166          13.000  
G29  23994037.561   126089540.7271       3176.335          23.000                                                                  
G31  21393228.997   112422161.1131       1704.087          28.000                                                                  
G32  23093075.001   121355048.9251       4074.373          19.000                                                                  
R 5  20761462.483                1                         33.000  
R 6  20717164.006                1                         24.000  
R 7  24105647.880                1                         16.000  
R 9  23725773.810                1                         17.000  
R15  21242871.900                1                         30.000  
R17  21787321.974                1                         25.000  
R18  22427436.986                1                         22.000  
R24  24026850.479                1                         26.000  
E 1  24597871.686   129262542.2991       2069.216          25.000    24597852.962    96527258.2401       1547.860          19.000  
E 4  23949336.594   125854600.486        1822.543          27.000    23949334.553    93982401.8561       1361.313          21.000  
E 9  23438441.684   123169856.559        -954.030          34.000    23438394.516    91977295.2811       -706.269          12.000  
E19  26919153.065   141460932.6271       3618.897          14.000                                                                  
E21  28299879.486   148717172.3151       2771.835          14.000    28299920.861                1       2069.814           8.000  
E26  27804825.202   146114818.9221      -1142.988          17.000                                                                  
E31  24270957.841   127544806.4201         65.957          26.000    24270936.220    95244369.3681         46.303          16.000  
J 1  36611782.992   192396147.0521        778.111          20.000                                                                  
J 2  39230222.471   206156218.2381        965.589          30.000    39230515.844   153948976.8711        721.507          18.000  
J 3  37253219.405   195766800.1771        427.208          11.000                                                                  
C 6  35772325.086   186275928.8791        385.080          25.000                                                                                                                                  
C 9  36419917.342   189647934.0881         23.031          19.000                                                                                                                                  
C10  37525870.210   195406953.4551        167.172          25.000                                                                                                                                  
C16  35784493.908   186339225.3691        420.915          27.000                                                                                                                                  
C21  24069997.800   125338612.8011        587.222          29.000    24069598.382   126486324.3141        592.093          27.000                                                                  
C22  23953120.063   124730169.0181       3091.538          29.000    23952683.075   125872193.2281       3121.005          30.000                                1                         26.000  
C26  26091482.135   135864893.7221      -1407.682          17.000    26091124.388   137109839.6011      -1432.108          13.000                                                                  
C29  23739349.103   123617077.1461      -1931.770          15.000    23738889.132   124748626.7571      -1950.149          18.000                                                                  
C30  23822100.234   124047969.5621        541.569          25.000    23821686.297   125183760.0801        544.399          22.000    23822120.651    93483102.1831        410.736          17.000  
C36  23172680.713   120666147.3161       1712.249          24.000    23172230.847   121770872.8981       1728.278          25.000    23172672.250    90934533.9241       1291.743          18.000  
> 2022  1 20  5 33 52.0000000  0 36                     
G 3  23880940.885   125495169.5201       1941.398          13.000                                                                  
G 4  23238987.981   122121731.903       -2452.878          37.000    23239287.322    91195957.1301      -1834.188          22.000  
G16  20889658.867   109775881.6941       -784.342          29.000                                                                  
G26  20331003.443   106840179.7821       1471.842          23.000    20331298.422    79784396.1441       1093.811          19.000  
G27  23175511.610   121788149.366       -3200.562          35.000    23175818.664    90946865.1321      -2389.860          19.000  
G29  23994640.920   126092717.0881       3176.346          17.000                                                                  
G31  21393554.112   112423864.8661       1703.701          29.000                                                                  
G32  23093848.726   121359123.5361       4074.299          19.000                                                                  
R 5  20762209.387                1                         31.000  
R 6  20717095.322                1                         28.000  
R 7  24105066.316                1                         17.000  
R 9  23725486.283                1                         16.000  
R15  21243299.780                1                         23.000  
R17  21787258.892                1                         27.000  
R18  22426890.481                1                         20.000  
R24  24027348.037                1                         27.000  
E 1  24598271.645   129264612.7601       2071.673          27.000    24598245.609    96528806.6241       1545.651          19.000  
E 4  23949679.561   125856422.929        1822.765          31.000    23949681.219    93983763.7361       1363.032          21.000  
E 9  23438264.058   123168902.641        -952.583          34.000    23438214.744    91976588.5021       -707.712          13.000  
E19  26919844.093   141464552.4521       3620.870          14.000                                                                  
E21  28300405.854   148719943.9821       2771.659          13.000    28300447.194                1       2068.387          10.000  
E26  27804608.157   146113676.6251      -1142.296          17.000                                                                  
E31  24270973.738   127544872.1461         65.935          27.000    24270948.924    95244417.1671         48.746          15.000  
J 1  36611931.563   192396924.5561        777.055          24.000                                                                  
J 2  39230406.938   206157183.7571        965.221          29.000    39230699.647   153949697.6411        720.166          18.000  
J 3  37253304.649   195767229.2791        430.053          12.000                                                                  
C 6  35772399.529   186276314.2711        384.753          24.000                                                                                                                                  
C 9  36419918.476   189647956.8601         23.573          20.000                                                                                                                                  
C10  37525903.487   195407121.1921        169.327          22.000                                                                                                                                  
C16  35784574.738   186339646.4861        421.980          28.000                                                                                                                                  
C21  24070110.895   125339199.2161        586.175          32.000    24069716.991   126486916.4841        592.457          27.000                                                                  
C22  23953714.331   124733260.7951       3092.005          28.000    23953279.558   125875314.4671       3120.880          28.000    24069383.326                1        434.505          26.000  
C26  26091213.000   135863488.0941      -1403.723          17.000    26090846.912   137108398.6331      -1447.703          12.000                                                                  
C29  23738976.645   123615145.1941      -1933.314          14.000    23738517.425   124746676.9511      -1949.528          17.000                                                                  
C30  23822206.436   124048512.6841        543.066          21.000    23821784.437   125184304.3441        543.750          21.000    23822225.893    93483513.9401        409.989          16.000  
C36  23173003.176   120667860.1331       1713.509          23.000    23172557.567   121772601.5181       1730.235          21.000    23173000.855    90935825.0251       1290.952          18.000  
> 2022  1 20  5 33 53.0000000  0 36                     
G 3  23881307.845   125497110.8951       1941.781          12.000                                                                  
G 4  23238523.316   122119278.258       -2454.041          38.000    23238820.982    91194124.7711      -1831.849          27.000  
G16  20889514.746   109775097.7381       -784.384          26.000                                                                  
G26  20331285.159   106841651.4791       1472.095          27.000    20331579.021    79785490.6951       1095.876          19.000  
G27  23174902.300   121784947.940       -3202.162          41.000    23175208.587    90944473.8631      -2391.804          22.000  
G29  23995246.599   126095894.2211       3177.442          24.000                                                                  
G31  21393879.698   112425568.6221       1703.930          33.000                                                                  
G32  23094625.348   121363198.8521       4076.016          18.000                                                                  
R 5  20762956.291                1                         38.000  
R 6  20717026.428                1                         23.000  
R 7  24104477.057                1                         17.000  
R 9  23725201.897                1                         16.000  
R15  21243736.506                1                         25.000  
R17  21787207.100                1                         31.000  
R18  22426350.536                1                         21.000  
R24  24027847.427                1                         31.000  
E 1  24598679.177   129266683.4301       2070.682          19.000    24598637.733    96530350.9141       1543.652          18.000  
E 4  23950027.379   125858245.580        1822.925          30.000    23950027.972    93985126.5821       1363.289          22.000  
E 9  23438087.462   123167948.768        -955.357          32.000    23438034.448    91975881.2081       -705.449          12.000  
E19  26920536.902   141468174.2301       3621.719          14.000                                                                  
E21  28300934.038   148722713.6631       2769.255          13.000    28300973.126                1       2066.327          13.000  
E26  27804390.622   146112534.3121      -1141.937          16.000                                                                  
E31  24270995.498   127544937.2841         64.857          28.000    24270962.221    95244466.2781         49.216          15.000  
J 1  36612079.943   192397701.1611        776.733          27.000                                                                  
J 2  39230592.590   206158149.1651        965.160          26.000    39230882.735   153950417.5631        719.597          18.000  
J 3  37253392.249   195767660.3321        431.969          14.000                                                                  
C 6  35772472.959   186276699.8641        385.970          25.000                                                                                                                                  
C 9  36419922.019   189647982.8221         27.172          19.000                                                                                                                                  
C10  37525938.004   195407292.3001        171.162          18.000                                                                                                                                  
C16  35784656.021   186340069.3681        423.297          27.000                                                                                                                                  
C21  24070224.705   125339785.6691        586.757          28.000    24069829.004   126487508.9351        592.728          28.000                                                                  
C22  23954307.830   124736352.7991       3091.905          27.000    23953880.230   125878435.3801       3119.935          34.000    24270899.173                1         46.668          25.000  
C26  26090942.504   135862086.3391      -1400.673          17.000    26090566.557   137106934.9641      -1471.456          11.000                                                                  
C29  23738605.165   123613210.2691      -1937.662          14.000    23738144.322   124744727.5101      -1949.413          17.000                                                                  
C30  23822310.038   124049056.9531        544.147          22.000    23821882.909   125184847.4831        544.109          19.000    23822328.064    93483920.7281        405.931          18.000  
C36  23173331.013   120669573.0561       1712.459          26.000    23172885.300   121774332.9591       1730.822          18.000    23173330.524    90937115.5321       1289.846          19.000  
> 2022  1 20  5 33 54.0000000  0 36                     
G 3  23881673.288   125499055.4311       1946.839          11.000                                                                  
G 4  23238060.432   122116825.066       -2453.450          38.000    23238354.887    91192293.5241      -1830.783          28.000  
G16  20889367.745   109774313.5611       -784.353          26.000                                                                  
G26  20331567.347   106843122.8361       1471.364          26.000    20331861.069    79786590.4031       1101.400          20.000  
G27  23174292.869   121781746.820       -3200.955          41.000    23174598.684    90942083.0471      -2391.107          23.000  
G29  23995850.795   126099071.2211       3176.930          22.000                                                                  
G31  21394206.052   112427272.8721       1704.586          27.000                                                                  
G32  23095397.817   121367274.1251       4074.775          18.000                                                                  
R 5  20763703.213                1                         37.000  
R 6  20716957.657                1                         23.000  
R 7  24103899.682                1                         17.000  
R 9  23724914.597                1                         17.000  
R15  21244173.198                1                         27.000  
R17  21787148.763                1                         29.000  
R18  22425805.164                1                         17.000  
R24  24028346.818                1                         31.000  
E 1  24599083.970   129268754.7071       2071.389          23.000    24599029.420    96531892.4911       1541.229          18.000  
E 4  23950378.756   125860068.656        1823.097          31.000    23950374.760    93986488.0361       1359.816          17.000  
E 9  23437905.281   123166995.504        -953.426          34.000    23437854.519    91975881.2081       -706.864           9.000  
E19  26921231.071   141471795.9081       3622.253          14.000                                                                  
E21  28301460.615   148725482.9771       2769.886          12.000    28301499.756   111061163.9011       2066.746          14.000  
E26  27804174.082   146111392.2081      -1142.207          17.000                                                                  
E31  24271008.359   127545002.5801         66.243          29.000    24270975.047    95244515.7891         49.552          17.000  
J 1  36612228.008   192398477.8761        776.977          27.000                                                                  
J 2  39230776.446   206159114.4491        965.555          28.000    39231066.294   153951137.7821        720.540          18.000  
J 3  37253478.191   195768093.2051        433.889          15.000                                                                  
C 6  35772546.338   186277084.4651        385.362          24.000                                                                                                                                  
C 9  36419927.341   189648012.2071         30.021          18.000                                                                                                                                  
C10  37525972.782   195407464.2601        172.526          22.000                                                                                                                                  
C16  35784737.862   186340491.9081        422.812          27.000                                                                                                                                  
C21  24070338.289   125340372.5111        587.297          29.000    24069940.529   126488102.1921        593.857          29.000                                                                  
C22  23954901.190   124739444.4091       3091.319          26.000    23954474.200   125881610.6191       3121.506          34.000    24270899.173                1         46.668          23.000  
C26  26090673.893   135860686.5921      -1399.483          17.000    26090282.328   137106934.9641      -1484.667           8.000                                                                  
C29  23738231.922   123611270.4151      -1939.677          14.000    23737771.655   124742778.9021      -1948.514          15.000                                                                  
C30  23822416.676   124049600.5601        543.555          23.000    23821988.308   125185392.9031        546.380          24.000    23822431.160    93484327.3801        407.512          24.000  
C36  23173657.978   120671285.7931       1713.161          20.000    23173216.383   121776062.7811       1730.542          20.000    23173659.531    90938406.4251       1291.854          24.000  
> 2022  1 20  5 33 55.0000000  0 36                     
G 3  23882045.292   125501001.4061       1945.910          10.000                                                                  
G 4  23237596.309   122114372.264       -2452.397          38.000    23237888.111    91190461.6891      -1831.869          27.000  
G16  20889224.618   109773529.3171       -784.197          20.000                                                                  
G26  20331848.313   106844594.6171       1472.561          26.000    20332142.960    79787694.2021       1105.617          19.000  
G27  23173683.420   121778546.033       -3200.677          43.000    23173988.886    90939691.3811      -2392.159          22.000  
G29  23996454.172   126102247.5071       3176.079          24.000                                                                  
G31  21394529.474   112428976.8901       1703.755          27.000                                                                  
G32  23096169.553   121371349.3191       4075.983          23.000                                                                  
R 5  20764448.512                1                         36.000  
R 6  20716889.688                1                         21.000  
R 7  24103329.705                1                         18.000  
R 9  23724635.062                1                         16.000  
R15  21244609.907                1                         30.000  
R17  21787094.162                1                         31.000  
R18  22425258.240                1                         17.000  
R24  24028850.239                1                         34.000  
E 1  24599482.585   129270826.3991       2071.816          24.000    24599421.265    96533430.3661       1537.924          16.000  
E 4  23950723.817   125861892.320        1823.423          32.000    23950721.828    93987850.5981       1364.603          15.000  
E 9  23437725.928   123166042.714        -952.409          36.000    23437672.653    91975881.2081       -710.159          10.000  
E19  26921923.880   141475419.1241       3623.663          15.000                                                                  
E21  28301982.394   148728253.2991       2771.040          14.000    28302027.782   111063233.4621       2070.167          14.000  
E26  27803957.054   146110250.0951      -1141.296          16.000                                                                  
E31  24271021.342   127545069.7361         67.373          29.000    24270988.064    95244565.5991         49.583          17.000  
J 1  36612378.411   192399254.7191        776.593          28.000                                                                  
J 2  39230960.144   206160080.0541        965.696          29.000    39231249.975   153951858.5051        720.806          18.000  
J 3  37253567.886   195768527.3101        433.976          17.000                                                                  
C 6  35772618.442   186277470.8551        387.092          21.000                                                                                                                                  
C 9  36419929.941   189648043.2091         31.520          18.000                                                                                                                                  
C10  37526003.669   195407635.8911        170.956          22.000                                                                                                                                  
C16  35784817.872   186340915.2121        423.490          24.000                                                                                                                                  
C21  24070453.862   125340960.4871        588.615          31.000    24070053.554   126488695.6591        593.662          28.000                                                                  
C22  23955495.631   124742536.1471       3092.618          28.000    23955071.748   125884731.966        3121.810          33.000    22443265.713                1       -164.161          26.000  
C26  26090405.212   135859286.5651      -1400.219          16.000    26089997.540   137106934.9641      -1484.667           8.000                                                                  
C29  23737859.325   123609331.8211      -1937.954          15.000    23737399.163   124740829.8031      -1949.377          17.000                                                                  
C30  23822523.559   124050143.2471        542.151          28.000    23822095.261   125185940.5541        548.271          28.000    23822534.849    93484734.9551        408.300          23.000  
C36  23173985.204   120672999.5971       1714.325          29.000    23173549.629   121777793.6611       1730.771          23.000    23173989.200    90939696.8611       1288.980          23.000  
> 2022  1 20  5 33 56.0000000  0 38                     
G 3  23882411.205   125502951.7441       1953.538           9.000                                                                  
G 4  23237126.653   122111919.911       -2452.053          37.000    23237421.108    91188629.7941      -1831.674          27.000  
G16  20889079.223   109772746.3171       -782.852          25.000                                                                  
G26  20332130.535   106846067.8991       1473.531          23.000    20332423.664    79788800.5961       1106.888          19.000  
G27  23173075.071   121775345.528       -3200.572          42.000    23173378.914    90937299.0141      -2392.952          24.000  
G29  23997065.418   126105424.4291       3177.264          24.000                                                                  
G31  21394854.362   112430680.8401       1704.544          28.000                                                                  
G32  23096941.760   121375425.6451       4076.489          23.000                                                                  
R 5  20765189.081                1                         37.000  
R 6  20716826.902                1                         21.000  
R 7  24102759.345                1                         22.000  
R 9  23724359.872                1                         16.000  
R15  21245049.548                1                         27.000  
R17  21787041.043                1                         33.000  
R18  22424711.664                1                         19.000  
R24  24029354.219                1                         33.000  
E 1  24599885.057   129272898.7041       2071.664          22.000    24599813.424    96534967.9761       1538.467          13.000  
E 4  23951069.890   125863716.599        1825.025          31.000    23951069.820    93989214.6161       1363.910          15.000  
E 9  23437541.828   123165090.448        -952.294          35.000    23437492.078                1       -703.189          11.000  
E19  26922617.962   141479043.2011       3624.487          16.000                                                                  
E21  28302502.114   148731024.6241       2771.468          15.000    28302556.611   111065305.3581       2073.565          13.000  
E26  27803741.090   146109107.8651      -1142.533          16.000                                                                  
E31  24271034.849   127545136.6241         66.688          29.000    24271000.716    95244615.2191         49.873          18.000  
J 1  36612526.668   192400031.2301        777.194          28.000                                                                  
J 2  39231143.092   206161045.5421        965.664          29.000    39231433.499   153952578.3891        718.731          17.000  
J 3  37253658.470   195768962.4201        434.825          18.000                                                                  
C 3  36911071.258   192205634.3871        609.562          24.000                                                                                                                                  
C 4  38240265.476   199127096.6491        588.667          25.000                                                                                                                                  
C 6  35772690.738   186277858.4311        387.368          20.000                                                                                                                                  
C 9  36419933.239   189648073.8201         29.903          16.000                                                                                                                                  
C10  37526035.655   195407806.0041        169.556          24.000                                                                                                                                  
C16  35784900.080   186341338.4801        422.733          27.000                                                                                                                                  
C21  24070568.510   125341549.2921        588.930          30.000    24070167.835   126489289.2911        593.779          28.000                                                                  
C22  23956089.497   124745629.0031       3092.856          27.000    23955666.975   125887853.741        3121.924          33.000    22443265.713                1       -164.161          25.000  
C26  26090136.706   135857887.6821      -1399.177          15.000    26089712.735   137106934.9641      -1477.257           8.000                                                                  
C29  23737486.327   123607393.5901      -1938.432          16.000    23737026.828   124738880.0071      -1950.137          17.000                                                                  
C30  23822629.848   124050685.1161        542.419          28.000    23822205.843   125186489.3701        549.504          28.000    23822639.254    93485143.6791        407.945          21.000  
C36  23174314.280   120674714.7461       1715.623          26.000    23173884.708   121779523.2511       1728.758          18.000    23174317.683    90940985.7061       1289.801          21.000  
> 2022  1 20  5 33 57.0000000  0 38                     
G 3  23882782.808   125504905.5541       1953.988           8.000                                                                  
G 4  23236661.413   122109467.856       -2452.261          37.000    23236955.135    91186797.7261      -1832.124          24.000  
G16  20888933.165   109771963.8371       -782.919          26.000                                                                  
G26  20332409.617   106847541.6231       1473.918          23.000    20332703.234    79789903.5931       1101.616          18.000  
G27  23172465.674   121772145.229       -3199.693          42.000    23172770.407    90934906.2481      -2392.218          24.000  
G29  23997671.743   126108602.7671       3179.278          26.000                                                                  
G31  21395177.418   112432385.7841       1704.986          27.000                                                                  
G32  23097717.248   121379501.7861       4076.216          23.000                                                                  
R 5  20765938.132                1                         37.000  
R 6  20716762.092                1                         21.000  
R 7  24102188.217                1                         21.000  
R 9  23724082.919                1                         16.000  
R15  21245486.257                1                         25.000  
R17  21786990.001                1                         33.000  
R18  22424162.191                1                         24.000  
R24  24029858.199                1                         33.000  
E 1  24600284.492   129274969.4121       2070.292          23.000    24600205.879    96536507.1481       1540.474          13.000  
E 4  23951418.423   125865541.367        1825.615          32.000    23951416.992    93990577.9881       1362.982          15.000  
E 9  23437361.271   123164138.555        -951.647          35.000    23437312.881                1       -702.259          10.000  
E19  26923310.928   141482668.0291       3625.177          17.000                                                                  
E21  28303019.059   148733795.9181       2771.959          16.000    28303084.637   111067377.9511       2071.785          14.000  
E26  27803526.400   146107966.2901      -1141.702          15.000                                                                  
E31  24271049.053   127545203.6671         67.621          28.000    24271013.664    95244665.3341         50.298          18.000  
J 1  36612676.705   192400809.7431        779.043          27.000                                                                  
J 2  39231326.006   206162011.0591        965.985          29.000    39231616.901   153953296.3761        716.942          16.000  
J 3  37253753.434   195769396.3391        433.394          18.000                                                                  
C 3  36911188.838   192206245.8741        610.649          23.000                                                                                                                                  
C 4  38240380.299   199127690.2371        603.111          24.000                                                                                                                                  
C 6  35772764.238   186278245.5771        387.285          20.000                                                                                                                                  
C 9  36419937.933   189648103.2241         28.469          14.000                                                                                                                                  
C10  37526067.048   195407974.0231        167.103          23.000                                                                                                                                  
C16  35784981.956   186341760.4391        422.437          27.000                                                                                                                                  
C21  24070675.881   125342325.2041        589.268          31.000    24070280.267   126489883.1611        593.938          28.000                                                                  
C22  23956684.881   124748722.4371       3093.889          27.000    23956262.411   125890975.855        3122.268          34.000    22443265.713                1       -164.161          25.000  
C26  26089869.944   135856488.6461      -1399.320          15.000    26089430.007   137106934.9641      -1457.246           8.000                                                                  
C29  23737113.712   123605454.2021      -1939.419          17.000    23736654.859   124736928.7911      -1950.977          17.000                                                                  
C30  23822734.846   124051227.9831        543.539          29.000    23822316.023   125187038.9921        549.570          26.000    23822743.693    93485552.3061        409.022          22.000  
C36  23174641.193   120676430.6541       1716.223          25.000    23174218.636   121781251.2811       1728.284          22.000    23174647.423    90942279.1821       1294.388          21.000  
> 2022  1 20  5 33 58.0000000  0 38                     
G 3  23883155.649   125506864.7141       1961.765           8.000                                                                  
G 4  23236189.891   122107015.770       -2451.674          35.000    23236489.005    91184966.5611      -1830.768          26.000  
G16  20888784.349   109771180.4711       -783.220          28.000                                                                  
G26  20332691.071   106849014.5451       1472.557          22.000    20332981.966    79791001.9441       1098.324          18.000  
G27  23171857.482   121768944.803       -3200.197          42.000    23172161.918    90932514.7521      -2390.626          22.000  
G29  23998274.945   126111782.2241       3178.998          24.000                                                                  
G31  21395501.050   112434090.6591       1705.337          30.000                                                                  
G32  23098491.688   121383579.6061       4078.184          21.000                                                                  
R 5  20766684.862                1                         30.000  
R 6  20716696.061                1                         20.000  
R 7  24101613.808                1                         21.000  
R 9  23723806.368                1                         15.000  
R15  21245925.898                1                         26.000  
R17  21786925.313                1                         27.000  
R18  22423616.017                1                         20.000  
R24  24030361.986                1                         31.000  
E 1  24600677.035   129277037.6571       2066.413          20.000    24600599.923    96538052.1031       1546.366          14.000  
E 4  23951765.141   125867366.373        1825.390          31.000    23951762.454    93991937.9551       1359.947          15.000  
E 9  23437182.598   123163186.801        -952.026          34.000    23437134.593                1       -697.862          11.000  
E19  26924001.887   141486294.7561       3627.907          16.000                                                                  
E21  28303540.856   148736567.8711       2771.853          18.000    28303612.855   111069449.2321       2070.961          13.000  
E26  27803308.674   146106823.9461      -1141.948          15.000                                                                  
E31  24271056.208   127545272.0961         68.314          26.000    24271026.769    95244715.9121         50.691          18.000  
J 1  36612824.578   192401587.9041        777.724          23.000                                                                  
J 2  39231509.215   206162977.0291        965.923          31.000    39231800.442   153954015.3231        719.624          16.000  
J 3  37253843.023   195769830.5821        434.793          18.000                                                                  
C 3  36911308.005   192206867.0791        621.228          22.000                                                                                                                                  
C 4  38240495.051   199128288.1841        592.011          20.000                                                                                                                                  
C 6  35772837.809   186278632.5341        388.167          19.000                                                                                                                                  
C 9  36419940.534   189648130.4291         26.630          15.000                                                                                                                                  
C10  37526096.871   195408142.2671        167.834          20.000                                                                                                                                  
C16  35785064.304   186342183.2211        422.775          26.000                                                                                                                                  
C21  24070790.459   125342915.122         590.330          31.000    24070395.683   126490478.4041        595.352          26.000                                                                  
C22  23957279.864   124751816.3341       3094.363          27.000    23956855.370   125894098.1411       3123.803          29.000    38236756.203                1        631.764          24.000  
C26  26089602.293   135855086.0651      -1406.410          14.000    26089151.030   137106934.9641      -1440.014           9.000                                                                  
C29  23736740.784   123603515.3061      -1938.146          17.000    23736283.152   124734978.3951      -1949.741          17.000                                                                  
C30  23822842.339   124051772.1171        544.505          30.000    23822423.778   125187589.2371        550.464          28.000    23822847.470    93485961.0711        409.184          22.000  
C36  23174969.100   120678146.6471       1715.422          28.000    23174544.431   121782980.3511       1728.742          25.000    23174977.668    90943573.9701       1295.197          24.000  
> 2022  1 20  5 33 59.0000000  0 37                     
G 3  23883529.363   125508824.1491       1959.001           8.000                                                                  
G 4  23235725.593   122104564.154       -2450.639          37.000    23236022.979    91183135.9361      -1830.813          28.000  
G16  20888629.182   109770398.0361       -782.376          28.000                                                                  
G26  20332972.456   106850487.7461       1473.898          29.000    20333262.234    79792100.6981       1098.991          24.000  
G27  23171247.963   121765744.235       -3199.430          41.000    23171554.145    90930125.4091      -2388.049          25.000  
G29  23998881.340   126114962.0881       3180.273          24.000                                                                  
G31  21395825.327   112435796.8421       1706.619          24.000                                                                  
G32  23099267.019   121387658.0531       4079.225          22.000                                                                  
R 5  20767431.766                1                         34.000  
R 6  20716625.666                1                         24.000  
R 7  24101037.253                1                         24.000  
R 9  23723511.809                1                         15.000  
R15  21246366.847                1                         19.000  
R17  21786859.334                1                         23.000  
R18  22423066.545                1                         16.000  
R24  24030861.377                1                         32.000  
E 1  24601065.791   129279105.3861       2069.206          24.000    24600995.955    96539599.9031       1548.739          13.000  
E 4  23952111.388   125869191.507        1825.295          32.000    23952109.085    93993298.7061       1361.460          15.000  
E 9  23436998.882   123162235.474        -950.335          36.000    23436957.263                1       -693.150          10.000  
E19  26924693.613   141489921.7591       3630.839          16.000                                                                  
E21  28304064.694   148739339.4131       2771.394          19.000    28304140.882   111071519.2211       2067.865          13.000  
E26  27803093.007   146105681.8281      -1142.354          12.000                                                                  
E31  24271061.949   127545338.8241         66.654          31.000    24271039.839    95244766.5301         50.763          18.000  
J 1  36612973.080   192402365.6921        777.888          21.000                                                                  
J 2  39231693.368   206163943.0581        965.979          32.000    39231984.716   153954736.1451        721.585          15.000  
J 3  37253931.792   195770266.4801        435.809          18.000                                                                  
C 3  36911426.736   192207485.9981        617.337          24.000                                                                                                                                  
C 6  35772913.665   186279020.9941        388.292          22.000                                                                                                                                  
C 9  36419942.697   189648155.9671         24.273          16.000                                                                                                                                  
C10  37526129.066   195408309.8171        167.592          23.000                                                                                                                                  
C16  35785143.615   186342606.5441        423.555          26.000                                                                                                                                  
C21  24070904.374   125343505.737         591.478          27.000    24070496.039   126491074.0511        596.120          27.000                                                                  
C22  23957874.515   124754910.7521       3094.487          28.000    23957443.826   125897221.4161       3122.577          28.000    22443265.713                1       -164.161          28.000  
C26  26089335.217   135853678.5231      -1408.444          14.000    26088878.388                1      -1410.874          15.000                                                                  
C29  23736366.599   123601577.8841      -1936.758          17.000    23735911.235   124733028.8211      -1949.590          18.000                                                                  
C30  23822946.604   124052316.9191        545.403          32.000    23822521.011   125188140.2781        551.182          30.000    23822952.398    93486372.4041        412.240          22.000  
C36  23175294.320   120679861.5211       1714.595          29.000    23174869.302   121784708.6641       1728.932          20.000    23175306.552    90944866.9541       1292.467          24.000  
