     3.04           OBSERVATION DATA    M: Mixed            RINEX VERSION / TYPE
Higeo_Hi1105        Huawei CBG          20220209 105537 UTC PGM / RUN BY / DATE 
************************************************************COMMENT             
* If you have any problem,                                 *COMMENT             
*     please contact with LBS Technology Group, thanks.    *COMMENT             
*                                                          *COMMENT             
* Version Higeo2RinexV1.1 2020.07.21                       *COMMENT             
* Fuction:  Convert Higeo Log to Rinex file                *COMMENT             
*                                                          *COMMENT             
* Note that the verision support B1C B2A signal            *COMMENT             
*     BDS: C1D L1D D1D S1D indicate BDS B1C                *COMMENT             
*     BDS: C5D L5D D5D S5D indicate BDS B2A                *COMMENT             
*     Reference: RINEX V3.04                               *COMMENT             
*                                                          *COMMENT             
* Copyright(C) Huawei Technologies Co., Ltd. 2019 - 2020   *COMMENT             
*     All rights reserved.                                 *COMMENT             
************************************************************COMMENT             
                                                            MARKER NAME         
                                                            MARKER NUMBER       
                                                            MARKER TYPE         
                                                            OBSERVER / AGENCY   
                                                            REC # / TYPE / VERS 
                                                            ANT # / TYPE        
        0.0000        0.0000        0.0000                  APPROX POSITION XYZ 
        0.0000        0.0000        0.0000                  ANTENNA: DELTA H/E/N
G    8 C1C L1C D1C S1C C5I L5I D5I S5I                      SYS / # / OBS TYPES 
R    4 C1C L1C D1C S1C                                      SYS / # / OBS TYPES 
E    8 C1C L1C D1C S1C C5I L5I D5I S5I                      SYS / # / OBS TYPES 
J    8 C1C L1C D1C S1C C5I L5I D5I S5I                      SYS / # / OBS TYPES 
C   12 C2I L2I D2I S2I C1D L1D D1D S1D C5D L5D D5D S5D      SYS / # / OBS TYPES 
  2022     1    25     6    53   56.0000000     GPS         TIME OF FIRST OBS   
  2022     1    25     7    16   20.0000000     GPS         TIME OF LAST OBS    
G                                                           SYS / PHASE SHIFT   
R                                                           SYS / PHASE SHIFT   
E                                                           SYS / PHASE SHIFT   
J                                                           SYS / PHASE SHIFT   
C                                                           SYS / PHASE SHIFT   
  0                                                         GLONASS SLOT / FRQ #
 C1C    0.000 C1P    0.000 C2C    0.000 C2P    0.000        GLONASS COD/PHS/BIS 
                                                            END OF HEADER       
> 2022  1 25  6 53 56.0000000  0  2                     
G 8  21659464.159      -17453.912       -2102.221          29.000                                                                  
G27  20041100.850        -280.912        -302.674          27.000                                                                  
> 2022  1 25  6 53 58.0000000  0  7                     
G 4  21213868.580        4596.321         897.155          33.000                                                                  
G 8  21659063.370      -28512.901       -2105.438          22.000                                                                  
G 9  22955370.470       -3563.583       -1049.528          30.000                                                                  
G16  20563440.068       10847.451        1665.818          29.000                                                                  
G18  24283620.356        5286.627        1168.789          19.000                                                                  
G26  22139779.069       13166.975        2751.254          26.000                                                                  
G27  20041057.603       -1850.982        -296.963          20.000                                                                  
> 2022  1 25  6 53 59.0000000  0  9                     
G 4  21214037.646        9309.762         894.998          37.000                                                                  
G 8  21658663.540      -39581.952       -2107.715          34.000                                                                  
G 9  22955174.355       -9073.915       -1046.845          32.000                                                                  
G16  20563759.843       19614.257        1669.296          29.000                                                                  
G18  24360021.824       11424.398        1163.899          32.000                                                                  
G26  22140304.809       27614.908        2747.279          29.000                                                                  
G27  20041000.400       -3404.717        -294.615          29.000                                                                  
G31  23442542.546       15126.780        3326.806          19.000                                                                  
R 3  22264078.716                                          33.000  
> 2022  1 25  6 54  0.0000000  0 11                     
G 4  21214207.969       14012.431         895.180          33.000                                                                  
G 8  21658264.051      -50654.520       -2109.611          32.000                                                                  
G 9  22954974.175      -14586.158       -1048.811          29.000                                                                  
G16  20564078.493       28379.187        1664.829          32.000                                                                  
G18  24360242.055       17539.871        1161.524          32.000                                                                  
G26  22140826.470       42066.136        2750.586          27.000                                                                  
G27  20040938.303       -4946.529        -293.934          32.000                                                                  
G31  23394708.289       32607.926        3324.668          24.000                                                                  
R 3  22264870.964                                          29.000  
R24  20881118.532                                          20.000  
C11  23717183.214      -11058.083       -2198.405          27.000                                                                                                                                  
> 2022  1 25  6 54  1.0000000  0 11                     
G 4  21214378.353       18713.151         893.348          31.000                                                                  
G 8  21657863.602      -61737.073       -2108.628          32.000                                                                  
G 9  22954776.874      -20098.994       -1049.517          30.000                                                                  
G16  20564396.610       37123.328        1664.393          34.000                                                                  
G18  24360460.881       23640.124        1163.087          31.000                                                                  
G26  22141345.727       56511.365        2746.536          30.000                                                                  
G27  20040877.772       -6512.508        -297.574          36.000                                                                  
G31  23395333.430       50077.348        3324.522          24.000                                                                  
R 3  22265652.551                                          33.000  
R24  20880649.516                                          18.000  
C11  23716756.764      -22586.673       -2221.665          23.000                                                                                                                                  
> 2022  1 25  6 54  2.0000000  0 12                     
G 4  21214547.384       23405.417         893.687          30.000                                                                  
G 8  21657461.278      -72820.758       -2110.937          28.000                                                                  
G 9  22954576.703      -25625.059       -1051.303          27.000                                                                  
G16  20564713.855       45869.343        1662.427          24.000                                                                  
G18  24360682.743       29746.775        1160.989          22.000                                                                  
G26  22141866.922       70936.997        2745.156          28.000                                                                  
G27  20040818.881       -8077.024        -298.848          26.000                                                                  
G31  23395966.271       67538.429        3320.737          21.000                                                                  
R 3  22266432.767                                          30.000  
R24  20880159.095                                          20.000  
C11  23716327.620      -34235.528       -2241.858          25.000                                                                                                                                  
C25  22963493.356       -5935.674        -896.948          32.000                                                                                                                                  
> 2022  1 25  6 54  3.0000000  0 12                     
G 4  21214713.066       28079.665         886.481          30.000                                                                  
G 8  21657059.756      -83907.974       -2108.091          29.000                                                                  
G 9  22954376.566      -31167.339       -1059.754          29.000                                                                  
G16  20565030.393       54599.553        1658.194          32.000                                                                  
G18  24360904.135       35832.234        1154.575          27.000                                                                  
G26  22142389.809       85348.802        2739.905          30.000                                                                  
G27  20040761.335       -9644.678        -300.002          28.000                                                                  
G31  23396601.328       84992.889        3321.073          20.000                                                                  
R 3  22267209.991                                          26.000  
R24  20879642.316                                          20.000  
C11  23715906.318      -45967.841       -2252.417          15.000                                                                                                                                  
C25  22963320.738      -10615.446        -901.260          30.000                                                                                                                                  
> 2022  1 25  6 54  4.0000000  0 11                     
G 4  21214882.581       32742.581         889.397          31.000                                                                  
G 8  21656658.260      -94993.532       -2109.413          23.000                                                                  
G 9  22954174.711      -36734.090       -1057.470          27.000                                                                  
G16  20565344.621       63320.742        1660.490          30.000                                                                  
G18  24361122.987       41898.449        1153.098          19.000                                                                  
G26  22142911.888       99744.673        2738.107          30.000                                                                  
G27  20040704.132      -11208.834        -295.499          29.000                                                                  
G31  23397233.802      102448.093        3321.045          19.000                                                                  
R 3  22267986.910                                          21.000  
C11  23715473.351      -57685.501       -2248.978          18.000                                                                                                                                  
C25  22963148.278      -15299.285        -897.473          29.000                                                                                                                                  
> 2022  1 25  6 54  5.0000000  0 11                     
G 4  21215052.441       37418.353         894.592          26.000                                                                  
G 8  21656257.253     -106082.447       -2111.610          23.000                                                                  
G 9  22953974.601      -42295.287       -1056.537          25.000                                                                  
G16  20565661.404       72043.121        1662.292          27.000                                                                  
G18  24361341.995       47963.696        1152.824          25.000                                                                  
G26  22143433.746      114126.259           0.005          25.000                                                                  
G27  20040648.199      -12762.614        -294.374          24.000                                                                  
G31  23397865.928      119904.553        3320.100          21.000                                                                  
R 3  22268764.108                                          20.000  
C11  23715028.910      -69400.986       -2249.536          21.000                                                                                                                                  
C25  22962976.044      -19987.471        -903.442          25.000                                                                                                                                  
> 2022  1 25  6 54  6.0000000  0 12                     
G 4  21215221.150       42105.915         891.153          22.000                                                                  
G 8  21655855.670     -117176.620       -2110.510          19.000                                                                  
G 9  22953775.712      -47861.683       -1058.301          28.000                                                                  
G16  20565978.666       80753.629        1655.775          35.000                                                                  
G18  24361554.897       54033.048        1155.107          24.000                                                                  
G26  22143951.328      128531.217        2744.091          28.000                                                                  
G27  20040592.938      -14322.440        -297.422          22.000                                                                  
G31  23398501.159      137370.195        3324.447          21.000                                                                  
R 3  22269540.809                                          17.000  
R12  23281742.221                                          21.000  
C11  23714596.973      -81119.881       -2251.312          19.000                                                                                                                                  
C25  22962802.563      -24695.241        -905.240          23.000                                                                                                                                  
> 2022  1 25  6 54  7.0000000  0 12                     
G 4  21215390.679       46769.342         886.049          29.000                                                                  
G 8  21655455.099     -128273.544       -2113.751          27.000                                                                  
G 9  22953573.970      -53446.035       -1062.927          27.000                                                                  
G16  20566293.267       89443.325        1655.302          29.000                                                                  
G18  24361774.003       60107.837        1155.663          22.000                                                                  
G26  22144471.100      142943.202        2741.913          29.000                                                                  
G27  20040535.954      -15892.871        -298.469          22.000                                                                  
G31  23399133.904      154836.402        3322.385          20.000                                                                  
R 3  22270317.073                                          17.000  
R12  23282265.370                                          20.000  
C11  23714165.237      -92858.891       -2256.242          18.000                                                                                                                                  
C25  22962629.291      -29407.626        -904.738          22.000                                                                                                                                  
> 2022  1 25  6 54  8.0000000  0 12                     
G 4  21215559.920       51416.594         885.280          27.000                                                                  
G 8  21655051.824     -139373.182       -2111.573          27.000                                                                  
G 9  22953370.544      -59015.293       -1057.301          33.000                                                                  
G16  20566609.788       98146.394        1659.926          29.000                                                                  
G18  24361990.412       66181.714        1155.566          23.000                                                                  
G26  22144988.058      157349.215        2735.228          34.000                                                                  
G27  20040478.948      -17463.503        -298.851          23.000                                                                  
G31  23399769.109      172276.601           0.002          25.000                                                                  
R 3  22271108.389                                          14.000  
R12  23282792.026                                          22.000  
C11  23713732.671     -104599.822       -2254.560          18.000                                                                                                                                  
C25  22962455.670      -34113.377        -903.359          25.000                                                                                                                                  
> 2022  1 25  6 54 10.0000000  0 12                     
G 4  21215859.427       59661.736         891.909          27.000                                                                  
G 8  21654342.157     -158962.232       -2109.745          30.000                                                                  
G 9  22953013.547      -68843.879       -1059.701          30.000                                                                  
G16  20567166.441      113507.951        1657.761          29.000                                                                  
G18  24362380.738       76872.998        1152.624          24.000                                                                  
G26  22145914.202      182703.246        2738.577          27.000                                                                  
G27  20040376.758      -20246.064        -302.964          23.000                                                                  
G31  23400882.564      203012.527        3316.470          31.000                                                                  
R 3  22272477.419                                          15.000  
R12  23283718.249                                          19.000  
R24  20876314.572                                          20.000  
C11  23712965.889     -125306.883       -2253.515          22.000                                                                                                                                  
> 2022  1 25  6 54 11.0000000  0 18                     
G 4  21216029.854       64349.797         890.736          27.000                                                                  
G 8  21653940.548     -170051.655       -2111.083          23.000                                                                  
G 9  22952811.125      -74407.196       -1064.161          31.000                                                                  
G16  20567481.934      122221.483        1652.994          24.000                                                                  
G18  24362600.132       82931.536        1152.606          19.000                                                                  
G26  22146429.585      197094.451        2741.145          30.000                                                                  
G27  20040320.051      -21835.905        -302.359          23.000                                                                  
G31  23401514.533      220458.601        3321.273          22.000                                                                  
R 3  22273253.491                                          15.000  
R12  23284245.403                                          18.000  
R24  20875827.955                                          17.000  
E36  26815946.069        5975.856        1418.272          21.000                                                                  
C 7  36420332.768        6010.427         763.685          21.000                                                                                                                                  
C 9  35871944.084        4950.728         779.456          20.000                                                                                                                                  
C11  23712532.984     -137043.566       -2254.634          21.000                                                                                                                                  
C24  22686935.388        9897.688        1406.927          32.000                                                                                                                                  
C26  25470269.702       37162.806        2775.187          20.000                                                                                                                                  
C34  22444358.415       -9473.219       -1315.602          20.000                                                                                                                                  
> 2022  1 25  6 54 12.0000000  0 24                     
G 4  21216197.743       69009.005         884.949          30.000                                                                  
G 8  21653536.086     -181165.451       -2117.549          28.000                                                                  
G 9  22952610.630      -79996.091       -1064.865          27.000                                                                  
G16  20567796.902      130922.690        1656.196          29.000                                                                  
G18  24362818.862       88991.304        1153.625          20.000                                                                  
G26  22146946.321      211505.539        2739.698          28.000                                                                  
G27  20040263.603      -23421.426        -302.960          26.000                                                                  
G31  23402144.306      237895.740        3317.495          19.000                                                                  
R 3  22274029.633                                          13.000  
R12  23284770.663                                          19.000  
R24  20875334.812                                          21.000  
E 8  26107120.576       47367.535        3590.129          30.000                                                                  
E36  26816222.166       13418.215        1414.493          22.000                                                                  
J 1  37012595.674       93103.843        1298.352          26.000                                                                  
J 2  39287393.883        5675.416         544.192          26.000                                                                  
J 3  37236011.588       66203.030         967.324          27.000                                                                  
C 7  36420494.168        9989.387         763.268          23.000                                                                                                                                  
C 9  35872086.750        9001.817         776.590          22.000                                                                                                                                  
C10  37265149.125        5403.239         697.742          25.000                                                                                                                                  
C11  23712100.497     -148774.273       -2257.164          20.000                                                                                                                                  
C24  22687206.285       17231.709        1409.600          30.000                                                                                                                                  
C25  22961812.261      -11800.138        -901.887          17.000                                                                                                                                  
C26  25470801.401       51601.018        2773.767          21.000                                                                                                                                  
C34  22444103.651      -16323.113       -1315.958          24.000                                                                                                                                  
> 2022  1 25  6 54 13.0000000  0 25                     
G 4  21216365.614       73660.114         886.565          24.000                                                                  
G 8  21653134.214     -192282.694       -2116.712          22.000                                                                  
G 9  22952407.815      -85579.585       -1056.415          32.000                                                                  
G16  20568112.891      139632.125        1655.711          27.000                                                                  
G18  24363035.201       95061.116        1156.232          24.000                                                                  
G26  22147460.199      225898.194        2737.549          32.000                                                                  
G27  20040205.212      -24999.796        -300.128          21.000                                                                  
G31  23402778.264      255331.165        3316.497          23.000                                                                  
R 3  22274805.697                                          14.000  
R12  23285296.351                                          17.000  
R24  20874838.754                                          20.000  
E 2  26100258.991       14169.086        2222.997          27.000                                                                  
E 8  26107804.127       66244.044        3590.513          20.000                                                                  
E36  26816506.081       20846.627        1414.086          25.000                                                                  
J 1  37012842.865       99931.401        1298.497          21.000                                                                  
J 2  39287499.086        8532.472         542.212          30.000                                                                  
J 3  37236196.299       71268.480         963.352          25.000                                                                  
C 7  36420640.151       13968.589         764.620          21.000                                                                                                                                  
C 9  35872234.521       13047.672         776.857          23.000                                                                                                                                  
C10  37265283.478        9041.326         699.565          21.000                                                                                                                                  
C11  23711667.215     -160526.248       -2256.593          23.000                                                                                                                                  
C24  22687476.859       24549.274        1402.125          28.000                                                                                                                                  
C25  22961639.417      -16503.153        -904.291          17.000                                                                                                                                  
C26  25471333.371       66036.594        2769.489          20.000                                                                                                                                  
C34  22443861.372      -23184.581       -1319.720          22.000                                                                                                                                  
> 2022  1 25  6 54 14.0000000  0 26                     
G 4  21216532.163       78316.761         886.923          25.000                                                                  
G 8  21652729.237     -203400.207       -2116.093          27.000                                                                  
G 9  22952206.335      -91121.964       -1055.778          26.000                                                                  
G16  20568427.858      148341.869        1659.520          26.000                                                                  
G18  24363253.817      101143.166        1158.805          23.000                                                                  
G26  22147980.713      240286.976        2734.468          25.000                                                                  
G27  20040147.002      -26582.206        -301.150          24.000                                                                  
G31  23403410.433      272768.968        3319.033          24.000                                                                  
R 3  22275581.830                                          15.000  
R12  23285823.215                                          18.000  
R24  20874353.193                                          26.000  
E 2  26100681.967       25880.194        2231.366          29.000                                                                  
E 8  26108489.449       85117.900        3590.543          24.000                                                                  
E36  26816777.407       28292.794        1417.412          20.000                                                                  
J 1  37013091.146      106759.164        1301.151          23.000                                                                  
J 2  39287603.373       11376.976         538.023          24.000                                                                  
J 3  37236380.259       76342.398         965.099          21.000                                                                  
C 7  36420785.533       17941.359         761.387          24.000                                                                                                                                  
C 9  35872384.409       17097.349         778.797          20.000                                                                                                                                  
C10  37265420.192       12696.565         701.500          22.000                                                                                                                                  
C11  23711234.109     -172272.914       -2257.275          20.000                                                                                                                                  
C12  22174315.801        1513.717         232.336          22.000                                                                                                                                  
C24  22687746.299       31853.036        1403.771          25.000                                                                                                                                  
C25  22961466.031      -21204.921        -901.810          17.000                                                                                                                                  
C26  25471864.861       80460.146        2769.214          22.000                                                                                                                                  
C34  22443606.642      -30046.672       -1315.057          26.000                                                                                                                                  
> 2022  1 25  6 54 15.0000000  0 26                     
G 4  21216701.840       82981.856         888.404          26.000                                                                  
G 8  21652327.768     -214522.800       -2117.813          23.000                                                                  
G 9  22952003.040      -96653.450       -1052.418          33.000                                                                  
G16  20568742.233      157052.707        1660.041          27.000                                                                  
G18  24363474.475      107235.677        1157.942          19.000                                                                  
G26  22148501.462      254671.643        2735.442          24.000                                                                  
G27  20040089.082      -28164.746        -301.676          22.000                                                                  
G31  23404043.919      290211.810        3316.797          25.000                                                                  
R 3  22276357.972                                          15.000  
R12  23286346.129                                          18.000  
R24  20873859.886                                          20.000  
E 2  26101106.496       37599.446        2230.320          22.000                                                                  
E 8  26109174.501      103984.219        3589.782          20.000                                                                  
E36  26817047.877       35760.169        1422.432          20.000                                                                  
J 1  37013337.003      113585.682        1295.430          24.000                                                                  
J 2  39287706.491       14204.318         537.516          25.000                                                                  
J 3  37236564.507       81420.873         966.644          20.000                                                                  
C 7  36420931.176       21905.221         761.395          21.000                                                                                                                                  
C 9  35872533.567       21154.409         778.396          22.000                                                                                                                                  
C10  37265556.740       16347.572         701.348          20.000                                                                                                                                  
C11  23710801.011     -184023.261       -2257.928          20.000                                                                                                                                  
C12  22174361.730        2739.277         237.773          24.000                                                                                                                                  
C24  22688017.441       39168.496        1403.682          24.000                                                                                                                                  
C25  22961291.965      -25903.555        -901.096          16.000                                                                                                                                  
C26  25472397.067       94892.705        2773.193          22.000                                                                                                                                  
C34  22443353.422      -36895.346       -1315.537          23.000                                                                                                                                  
> 2022  1 25  6 54 16.0000000  0 27                     
G 4  21216869.850       87645.997         888.626          23.000                                                                  
G 8  21651930.391     -225647.305       -2116.295          29.000                                                                  
G 9  22951803.828     -102197.089       -1056.976          23.000                                                                  
G16  20569056.555      165752.841        1653.500          30.000                                                                  
G18  24363695.161      113333.671        1161.583          20.000                                                                  
G26  22149020.476      269057.351        2738.935          32.000                                                                  
G27  20040032.610      -29749.337        -300.674          22.000                                                                  
G31  23404676.010      307646.693        3317.584          28.000                                                                  
R 3  22277134.255                                          14.000  
R12  23286871.118                                          19.000  
R24  20873369.055                                          21.000  
E 2  26101531.487       49314.902        2228.942          26.000                                                                  
E 8  26109859.126      122854.968        3591.708          24.000                                                                  
E15  26970824.539       -5285.149       -2166.183          29.000                                                                  
E30  23903255.173        6462.448         964.305          28.000                                                                  
E36  26817318.879       43216.180        1418.650          24.000                                                                  
J 1  37013585.485      120400.828        1296.383          26.000                                                                  
J 2  39287808.920       17035.372         539.924          23.000                                                                  
J 3  37236749.854       86502.311         966.833          21.000                                                                  
C 9  35872682.653       25201.446         775.755          22.000                                                                                                                                  
C10  37265691.482       19999.848         702.842          22.000                                                                                                                                  
C11  23710368.254     -195783.408       -2257.560          24.000                                                                                                                                  
C12  22174405.417        3969.524         234.668          22.000                                                                                                                                  
C24  22688287.701       46496.927        1407.987          30.000                                                                                                                                  
C25  22961118.798      -30599.868        -902.212          16.000                                                                                                                                  
C26  25472928.923      109336.110        2774.866          29.000                                                                                                                                  
C34  22443100.942      -43748.185       -1315.500          23.000                                                                                                                                  
> 2022  1 25  6 54 17.0000000  0 29                     
G 4  21217038.123       92313.708         889.158          23.000                                                                  
G 8  21651525.806     -236772.054       -2119.210          25.000                                                                  
G 9  22951602.767     -107751.006       -1055.708          23.000                                                                  
G16  20569370.964      174462.560        1653.734          32.000                                                                  
G18  24363914.589      119436.673        1160.179          21.000                                                                  
G26  22149540.505      283458.502        2739.424          30.000                                                                  
G27  20039976.197      -31324.086        -299.013          25.000                                                                  
G31  23405309.008      325098.071        3320.767          23.000                                                                  
R 3  22277910.258                                          15.000  
R12  23287392.784                                          18.000  
R24  20872879.237                                          20.000  
E 2  26101954.742       61022.251        2228.070          28.000                                                                  
E 7  24685097.456        6134.286        1840.031          24.000                                                                  
E 8  26110544.012      141721.789        3589.029          22.000                                                                  
E15  26970399.819      -16661.709       -2166.320          27.000                                                                  
E30  23903438.750       11528.495         963.837          29.000    23903438.980        2306.813         722.488          19.000  
E36  26817588.031       50653.581        1416.041          24.000                                                                  
J 1  37013834.639      127205.556        1294.777          27.000                                                                  
J 2  39287912.291       19868.272         536.981          30.000                                                                  
J 3  37236934.696       91589.016         967.546          20.000                                                                  
C 7  36421226.239        6516.325         759.544          19.000                                                                                                                                  
C 9  35872831.801       29242.150         776.893          21.000                                                                                                                                  
C10  37265826.128       23656.067         700.901          20.000                                                                                                                                  
C11  23709936.221     -207541.377       -2257.205          25.000                                                                                                                                  
C12  22174450.919        5181.691         232.226          21.000                                                                                                                                  
C24  22688558.974       53840.966        1407.748          31.000                                                                                                                                  
C25  22960945.596      -35296.758        -900.288          16.000                                                                                                                                  
C26  25473462.263      123798.777        2777.947          23.000                                                                                                                                  
C34  22442848.245      -50602.638       -1316.640          27.000                                                                                                                                  
> 2022  1 25  6 54 18.0000000  0 29                     
G 4  21217206.474       96988.573         889.851          21.000                                                                  
G 8  21651122.871     -247891.926       -2114.727          25.000                                                                  
G 9  22951401.496     -113302.953       -1057.222          17.000                                                                  
G16  20569685.646      183149.740        1654.634          34.000                                                                  
G18  24364131.818      125533.597        1159.761          26.000                                                                  
G26  22150059.649      297848.266        2735.925          36.000                                                                  
G27  20039917.734      -32901.987        -300.013          23.000                                                                  
G31  23405943.777      342541.688        3318.577          25.000                                                                  
R 3  22278685.736                                          16.000  
R12  23287915.715                                          17.000  
R24  20872388.746                                          23.000  
E 2  26102379.201       72729.135        2225.283          22.000                                                                  
E 7  24685447.062       15787.177        1836.997          22.000                                                                  
E 8  26111226.533      160578.060        3584.133          22.000                                                                  
E15  26969988.142      -28037.586       -2165.128          26.000                                                                  
E30  23903622.537       16600.503         965.327          33.000    23903624.389        5128.226         716.573          20.000  
E36  26817856.476       58096.523        1418.391          24.000                                                                  
J 1  37014081.708      134009.805        1294.312          25.000                                                                  
J 2  39288014.545       22680.007         536.641          26.000    39288020.411        3242.441         402.380          20.000  
J 3  37237120.698       96684.800         969.928          22.000                                                                  
C 7  36421368.942        3912.485         757.487          24.000                                                                                                                                  
C 9  35872980.879       33288.243         775.982          24.000                                                                                                                                  
C10  37265960.468       27296.575         698.485          18.000                                                                                                                                  
C11  23709503.070     -219297.985       -2259.907          23.000                                                                                                                                  
C12  22174498.156        6392.547         232.995          25.000                                                                                                                                  
C24  22688828.571       61146.824        1403.196          28.000                                                                                                                                  
C25  22960772.115      -39991.033        -901.853          17.000                                                                                                                                  
C26  25473995.812      138264.985        2777.424          18.000                                                                                                                                  
C34  22442594.842      -57451.615       -1314.393          27.000                                                                                                                                  
> 2022  1 25  6 54 19.0000000  0 29                     
G 4  21217375.287      101653.911         888.468          19.000                                                                  
G 8  21650719.805     -259014.662       -2116.218          23.000                                                                  
G 9  22951200.068     -118866.366       -1060.361          18.000                                                                  
G16  20569999.174      191847.194        1651.025          29.000                                                                  
G18  24364351.804      131617.999        1158.405          28.000                                                                  
G26  22150580.145      312247.794        2736.706          33.000                                                                  
G27  20039861.762      -34476.251        -298.745          24.000                                                                  
G31  23406575.545      359969.739        3315.781          22.000                                                                  
R 3  22279461.425                                          16.000  
R12  23288439.492                                          16.000  
R24  20871897.454                                          21.000  
E 2  26102812.883        7864.980        2225.764          23.000                                                                  
E 7  24685797.088       25446.476        1839.099          24.000                                                                  
E 8  26111909.456      179429.939        3588.567          20.000                                                                  
E15  26969577.634      -39414.070       -2165.246          25.000                                                                  
E30  23903806.960       21677.936         966.864          28.000    23903808.577        7967.101         722.436          19.000  
E36  26818126.291       65560.603        1419.497          24.000                                                                  
J 1  37014331.237      140826.761        1297.366          21.000                                                                  
J 2  39288118.867       25528.358         540.731          27.000    39288122.831        4828.190         401.345          23.000  
J 3  37237306.333      101784.517         969.612          21.000                                                                  
C 7  36421504.351        7850.441         756.528          19.000                                                                                                                                  
C 9  35873129.792       37330.699         774.401          21.000                                                                                                                                  
C10  37266094.783       30929.933         698.760          17.000                                                                                                                                  
C11  23709069.580     -231055.918       -2258.883          20.000                                                                                                                                  
C12  22174542.611        7617.730         233.417          21.000                                                                                                                                  
C24  22689098.700       68461.591        1405.883          29.000                                                                                                                                  
C25  22960597.988      -44687.580        -901.610          17.000                                                                                                                                  
C26  25474529.562      152732.267        2776.344          19.000                                                                                                                                  
C34  22442342.459      -64297.811       -1318.672          20.000                                                                                                                                  
> 2022  1 25  6 54 20.0000000  0 29                     
G 4  21217544.467      106324.871         890.850          18.000                                                                  
G 8  21650317.446     -270134.700       -2116.156          19.000                                                                  
G 9  22951002.558     -124436.816       -1059.181          17.000                                                                  
G16  20570311.611      200525.262        1657.375          30.000                                                                  
G18  24364570.517      137718.159        1162.833          28.000                                                                  
G26  22151099.385      326639.613        2742.590          33.000                                                                  
G27  20039803.796      -36047.130        -301.355          24.000                                                                  
G31  23407206.091      377391.338        3314.964          23.000                                                                  
R 3  22280237.113                                          17.000  
R12  23288963.993                                          19.000  
R24  20871407.941                                          25.000  
E 2  26103234.410       19550.096        2226.405          27.000                                                                  
E 7  24686146.511       35092.978        1834.827          20.000                                                                  
E 8  26112592.807      198290.186        3588.390          19.000                                                                  
E15  26969165.634      -50790.581       -2164.874          24.000                                                                  
E30  23903990.983       26761.172         966.353          29.000    23903991.824       10795.419         720.073          20.000  
E36  26818395.174       73017.156        1424.426          23.000                                                                  
J 1  37014578.429      147640.576        1295.293          24.000                                                                  
J 2  39288221.627       28361.563         540.571          27.000    39288225.652        6399.026         400.440          18.000  
J 3  37237490.642      106874.920         968.390          22.000                                                                  
C 7  36421649.593       11796.084         756.599          20.000                                                                                                                                  
C 9  35873278.505       41374.401         777.085          20.000                                                                                                                                  
C10  37266228.791       34562.674         699.201          17.000                                                                                                                                  
C11  23708636.020     -242824.545       -2262.128          20.000                                                                                                                                  
C12  22174587.868        8838.456         236.135          25.000                                                                                                                                  
C24  22689370.234       75777.935        1405.680          30.000                                                                    22689364.097        5234.407        1062.509          25.000  
C25  22960424.471      -49393.433        -904.854          17.000                                                                                                                                  
C26  25475061.994      167185.999        2776.262          27.000                                                                                                                                  
C34  22442089.501      -71158.303       -1317.487          21.000                                                                                                                                  
> 2022  1 25  6 54 21.0000000  0 30                     
G 4  21217713.734      110998.596         889.445          17.000                                                                  
G 8  21649915.165     -281251.211       -2117.888          22.000                                                                  
G 9  22950801.113     -129999.827       -1058.283          14.000                                                                  
G16  20570627.741      209223.701        1658.805          27.000                                                                  
G18  24364791.646      143830.693        1160.152          21.000                                                                  
G26  22151619.095      341019.175        2735.368          30.000                                                                  
G27  20039746.851      -37621.025        -298.468          23.000                                                                  
G31  23407838.879      394803.544        3314.734          23.000                                                                  
R 3  22280995.639                                          23.000  
R12  23289486.784                                          18.000  
R24  20870917.223                                          23.000  
E 2  26103657.831       31244.913        2227.438          25.000    26103648.184       13951.505        1663.205          20.000  
E 7  24686496.335       44732.729        1833.079          24.000    24686503.877       17886.826        1375.486          18.000  
E 8  26113276.428      217149.991        3590.831          19.000                                                                  
E15  26968752.788      -62170.167       -2166.013          22.000                                                                  
E30  23904174.342       31826.541         965.282          27.000    23904175.078       13615.787         718.156          20.000  
E36  26818663.332       80493.045        1425.548          24.000                                                                  
J 1  37014825.838      154456.632        1296.112          24.000                                                                  
J 2  39288324.247       31193.730         542.420          25.000    39288322.671        7969.859         400.537          19.000  
J 3  37237674.733      111964.440         969.171          22.000                                                                  
C 6  35872939.233       20274.936        1325.705          17.000                                                                                                                                  
C 7  36421795.978       15738.072         758.676          18.000                                                                                                                                  
C 9  35873427.636       45416.543         776.221          24.000                                                                                                                                  
C10  37266363.214       38207.289         700.913          15.000                                                                                                                                  
C11  23708202.050     -254596.614       -2259.951          21.000                                                                                                                                  
C12  22174633.928       10065.116         237.733          22.000                                                                                                                                  
C24  22689640.381       83099.518        1409.682          28.000                                                                    22689633.999        9387.839        1061.295          22.000  
C25  22960250.737      -54104.997        -904.534          16.000                                                                                                                                  
C26  25475595.168      181645.943        2781.539          25.000                                                                                                                                  
C34  22441837.747      -78016.251       -1316.453          24.000                                                                                                                                  
> 2022  1 25  6 54 22.0000000  0 30                     
G 4  21217883.019      115675.013         889.634          14.000                                                                  
G 8  21649510.859     -292372.410       -2115.859          24.000                                                                  
G 9  22950599.772     -135561.284       -1059.225          15.000                                                                  
G16  20570944.244      217925.215        1653.645          25.000                                                                  
G18  24365012.767      149920.035        1156.115          23.000                                                                  
G26  22152139.635      355401.768        2748.628          29.000                                                                  
G27  20039689.653      -39186.480        -294.690          23.000                                                                  
G31  23408472.448      412226.697        3315.465          22.000                                                                  
R 3  22281770.900                                          18.000  
R12  23290010.220                                          18.000  
R24  20870425.337                                          22.000  
E 2  26104079.865       42938.894        2223.543          23.000                                                                  
E 7  24686844.748       54374.427        1830.435          27.000    24686853.869       23279.056        1374.450          17.000  
E 8  26113959.220      236007.646        3588.846          20.000                                                                  
E15  26968339.009      -73575.805       -2171.919          23.000                                                                  
E30  23904358.103       36895.330         964.458          24.000    23904357.739       16419.436         717.458          19.000  
E36  26818932.972       87952.704        1418.700          23.000    26818926.161       12838.620        1073.840          19.000  
J 1  37015070.455      161259.675        1294.367          22.000                                                                  
J 2  39288425.629       34028.090         542.888          26.000    39288427.386        9556.895         410.272          19.000  
J 3  37237857.961      117047.273         967.245          22.000                                                                  
C 6  35873191.328       27166.592        1323.624          17.000                                                                                                                                  
C 7  36421941.735       19675.106         756.028          17.000                                                                                                                                  
C 9  35873576.094       49450.728         774.334          22.000                                                                                                                                  
C10  37266498.925       41857.369         701.013          14.000                                                                                                                                  
C11  23707768.019     -266363.140       -2258.748          21.000                                                                                                                                  
C12  22174680.677       11296.735         235.894          24.000                                                                                                                                  
C24  22689910.894       90425.884        1405.414          27.000                                                                    22689904.364       13547.925        1060.104          23.000  
C25  22960078.336      -58818.078        -906.496          17.000                                                                                                                                  
C26  25476127.899      196103.733        2777.296          24.000                                                                                                                                  
C34  22441585.713      -84875.009       -1318.712          23.000                                                                                                                                  
> 2022  1 25  6 54 23.0000000  0 31                     
G 4  21218067.721      120349.863         891.118          14.000                                                                  
G 8  21649107.845     -303488.867       -2116.128          31.000                                                                  
G 9  22950404.059     -141118.523           0.001          16.000                                                                  
G16  20571259.788      226623.099        1657.234          29.000                                                                  
G18  24365230.083      155989.108        1150.854          27.000                                                                  
G26  22152660.838      369808.557        2740.836          29.000                                                                  
G27  20039633.314      -40735.605        -294.951          22.000                                                                  
G31  23409104.896      429651.977        3315.717          24.000                                                                  
R 3  22282545.716                                          15.000  
R12  23290536.702                                          18.000  
R13  20539508.222                                          20.000  
R24  20869934.567                                          23.000  
E 2  26104504.497       54613.486        2221.115          27.000                                                                  
E 7  24687194.442       64020.009        1836.603          29.000    24687204.034       28668.258        1373.162          15.000  
E 8  26114641.524      254869.224        3588.559          25.000                                                                  
E15  26967926.207      -84982.921       -2165.217          24.000    26967932.448      -28779.540       -1617.794          15.000  
E30  23904542.456       41964.776         962.588          26.000    23904541.988       19232.552         719.812          19.000  
E36  26819203.137       95410.742        1421.089          21.000    26819199.074       17037.308        1068.000          17.000  
J 1  37015317.140      168052.656        1292.407          25.000                                                                  
J 2  39288528.180       36868.949         540.758          24.000    39288533.880       11152.318         404.385          19.000  
J 3  37238042.322      122122.988         966.101          19.000                                                                  
C 6  35873444.995       34050.473        1324.070          18.000                                                                                                                                  
C 7  36422086.680       23604.833         755.303          16.000                                                                                                                                  
C 9  35873724.091       53477.547         771.947          20.000                                                                                                                                  
C10  37266633.640       45509.079         700.391          15.000                                                                                                                                  
C11  23707334.764     -278117.496       -2257.393          22.000                                                                                                                                  
C12  22174726.623       12525.989         233.964          22.000                                                                                                                                  
C24  22690181.154       97744.837        1403.968          26.000                                                                    22690175.348       17713.495        1064.011          21.000  
C25  22959881.960      -63549.586        -910.097          25.000                                                                                                                                  
C26  25476659.851      210560.641        2776.536          23.000                                                                                                                                  
C34  22441333.250      -91742.332       -1322.943          24.000                                                                                                                                  
> 2022  1 25  6 54 24.0000000  0 31                     
G 4  21218237.061      125027.389         889.723          15.000                                                                  
G 8  21648706.445     -314599.622       -2119.127          29.000                                                                  
G 9  22950203.277     -146665.597           0.001          16.000                                                                  
G16  20571575.218      235314.461        1651.828          33.000                                                                  
G18  24365448.151      162047.670        1153.226          27.000                                                                  
G26  22153182.015      384194.679        2739.209          30.000                                                                  
G27  20039578.525      -42296.931        -302.706          28.000                                                                  
G31  23409737.301      447076.961        3316.595          20.000                                                                  
R 3  22283320.777                                          13.000  
R12  23291060.435                                          16.000  
R13  20539727.126                                          18.000  
R24  20869442.902                                          25.000  
E 2  26104929.174       66290.415        2226.512          24.000    26104920.112       33513.299        1663.886          19.000  
E 7                                                                  24877028.685       34054.286        1373.173          17.000  
E 8  26115323.155      273716.685        3585.621          24.000                                                                  
E15  26967514.678      -96373.005       -2169.033          23.000    26967520.195      -35132.324       -1617.263          15.000  
E30  23904725.650       47033.686         960.821          30.000    23904726.028       22053.931         717.677          21.000  
E36  26819473.292      102866.646        1417.972          22.000    26819471.035       21221.137        1065.746          17.000  
J 1  37015564.593      174850.192        1293.523          24.000                                                                  
J 2  39288632.737       39691.443         534.037          30.000    39288632.566       12730.490         399.431          18.000  
J 3  37238224.468      127197.056         965.633          20.000                                                                  
C 6  35873699.622       40912.697        1319.915          19.000                                                                                                                                  
C 7  36422231.747       27537.451         753.558          17.000                                                                                                                                  
C 9  35873872.330       57501.543         772.945          26.000                                                                                                                                  
C10  37266766.559       49153.273           0.003          13.000                                                                                                                                  
C11  23706902.389     -289873.528       -2258.126          25.000                                                                                                                                  
C12  22174771.540       13750.729         235.962          23.000                                                                                                                                  
C24  22690451.240      105056.593        1402.235          30.000                                                                    22690445.923       21875.833        1062.684          18.000  
C25  22959708.208      -68289.907        -912.506          28.000                                                                                                                                  
C26  25477193.261      225016.094        2773.127          22.000                                                                                                                                  
C34  22441080.318      -98611.142       -1322.077          28.000                                                                                                                                  
> 2022  1 25  6 54 25.0000000  0 31                     
G 4  21218406.390      129703.875         890.505          14.000                                                                  
G 8  21648303.048     -325726.744       -2116.544          26.000                                                                  
G 9  22950005.426     -152218.293       -1054.113          15.000                                                                  
G16  20571890.517      243998.670        1654.207          28.000                                                                  
G18  24365668.992      168109.677        1153.376          25.000                                                                  
G26  22153701.093      398587.031        2740.560          31.000                                                                  
G27  20039520.323      -43865.756        -296.186          33.000                                                                  
G31  23410369.470      464506.557        3314.832          25.000                                                                  
R 3  22284095.776                                          11.000  
R12  23291585.180                                          17.000  
R13  20539944.250                                          18.000  
R24  20868955.081                                          28.000  
E 2  26105352.429       77972.858        2219.350          22.000    26105344.039       40037.277        1663.164          19.000  
E 7  24687894.553       83341.319        1838.523          27.000    24687898.439       39443.530        1373.109          25.000  
E 8  26116005.860      292564.415        3584.931          20.000                                                                  
E15  26967101.719     -107786.157       -2171.897          24.000    26967108.676      -41491.229       -1621.573          17.000  
E30  23904908.416       52097.664         964.510          25.000    23904910.958       24881.840         719.026          20.000  
E36  26819742.314      110322.409        1417.620          21.000    26819739.892       25408.010        1068.603          15.000  
J 1  37015810.745      181636.288        1289.545          20.000                                                                  
J 2  39288732.697       42492.423         534.996          29.000    39288733.459       14298.555         400.408          24.000  
J 3  37238409.562      132279.625         968.225          32.000                                                                  
C 6  35873938.097       47781.278        1319.729          25.000                                                                                                                                  
C 7  36422379.318       31457.908         751.152          14.000                                                                                                                                  
C 9  35874018.966       61528.580         774.412          28.000                                                                                                                                  
C10  37266900.699       52789.737           0.003          14.000                                                                                                                                  
C11  23706468.742     -301630.969       -2257.386          27.000                                                                                                                                  
C12  22174816.144       14990.388         237.001          27.000                                                                                                                                  
C24  22690721.666      112354.733        1402.188          35.000                                                                    22690715.328       26036.773        1061.169          27.000  
C25  22959535.782      -73020.753        -907.296          22.000                                                                                                                                  
C26  25477725.649      239438.844        2768.935          24.000                                                                                                                                  
C34  22440826.435     -105476.683       -1313.636          33.000                                                                                                                                  
> 2022  1 25  6 54 26.0000000  0 30                     
G 4  21218580.613      134386.322           0.002          15.000                                                                  
G 8  21647902.058     -336846.625       -2116.299          29.000                                                                  
G 9  22949804.723     -157761.783       -1055.288          17.000                                                                  
G16  20572205.860      252688.554        1654.627          25.000                                                                  
G18  24365890.086      174184.072        1154.988          28.000                                                                  
G26  22154222.925      412961.331        2733.470          31.000                                                                  
G27  20039466.602      -45402.533        -294.603          24.000                                                                  
G31  23411001.787      481939.251        3314.641          21.000                                                                  
R 3  22284870.950                                          13.000  
R12  23292109.167                                          20.000  
R13  20540163.311                                          18.000  
R24  20868464.154                                          23.000  
E 2  26105775.222       89638.327        2223.181          24.000    26105768.132       46565.190        1665.040          18.000  
E 7  24688244.884       93003.832        1838.244          24.000    24688248.368       44828.945        1374.490          20.000  
E 8  26116688.225      311415.596        3588.329          24.000                                                                  
E15  26966689.100     -119224.432       -2173.928          27.000    26966702.618      -47863.260       -1623.569          16.000  
E30  23905092.142       57165.308         964.105          26.000    23905094.640       27704.665         719.904          20.000  
E36  26820012.732      117773.690        1418.966          28.000    26820006.025       29592.641        1065.480          19.000  
J 1  37016058.286      188421.244        1292.506          23.000                                                                  
J 2  39288834.672       45310.020         532.427          26.000    39288835.102       15862.520         398.140          21.000  
J 3  37238593.182      137371.370         965.922          24.000                                                                  
C 6  35874190.595       54654.681        1319.868          22.000                                                                                                                                  
C 7  36422523.714       35373.204         751.106          13.000                                                                                                                                  
C 9  35874167.075       65562.897         774.895          25.000                                                                                                                                  
C11  23706035.662     -313378.615       -2253.977          23.000                                                                                                                                  
C12  22174860.790       16204.603         232.523          19.000                                                                                                                                  
C24  22690991.429      119630.513        1398.950          27.000                                                                    22690985.763       30196.682        1063.741          22.000  
C25  22959361.455      -77747.236        -908.688          21.000                                                                                                                                  
C26  25478257.890      253858.349        2768.288          22.000                                                                                                                                  
C34  22440574.358     -112308.665       -1313.642          23.000                                                                                                                                  
> 2022  1 25  6 54 27.0000000  0 31                     
G 4  21218750.107      139067.557           0.002          16.000                                                                  
G 8  21647502.918     -347960.667       -2115.750          23.000                                                                  
G 9  22949603.967     -163307.121       -1054.023          17.000                                                                  
G16  20572519.964      261376.990        1655.357          26.000                                                                  
G18  24366111.067      180266.785        1159.896          29.000                                                                  
G26  22154742.871      427342.886        2734.463          31.000                                                                  
G27  20039412.850      -46955.172        -295.537          24.000    20039409.329       -1809.856        -221.148          15.000  
G31  23411633.032      499365.637        3313.068          26.000                                                                  
R 3  22285646.394                                          17.000  
R12  23292632.342                                          18.000  
R13  20540379.676                                          20.000  
R22  23588451.843                                          20.000  
R24  20867973.323                                          24.000  
E 2  26106198.023      101337.580        2228.927          23.000    26106191.709       53087.253        1661.088          17.000  
E 7  24688595.720      102675.414        1839.757          22.000    24688598.995       50223.554        1375.753          18.000  
E 8  26117371.305      330270.040        3588.376          25.000                                                                  
E15  26966276.323     -130646.183       -2170.084          22.000    26966289.231      -54233.705       -1623.200          14.000  
E30  23905275.676       62229.964         964.651          26.000    23905278.296       30532.447         722.133          22.000  
E36  26820283.699      125232.205        1415.439          26.000    26820280.552       33768.800        1063.714          24.000  
J 1  37016304.944      195217.070        1293.255          23.000                                                                  
J 2  39288935.390       48118.464         533.677          26.000    39288937.400       17428.167         399.915          22.000  
J 3  37238776.261      142444.224         966.002          22.000                                                                  
C 6  35874444.541       61519.956        1317.313          19.000                                                                                                                                  
C 7  36422670.779       39291.625          -0.072          15.000                                                                                                                                  
C 9  35874316.128       69594.000         774.669          21.000                                                                                                                                  
C11  23705602.983     -325123.058       -2254.995          19.000                                                                                                                                  
C12  22174907.068       17430.890         236.199          23.000                                                                                                                                  
C24  22691261.087      126952.223        1405.527          27.000                                                                    22691256.320       34360.031        1061.502          23.000  
C25  22959187.144      -82474.425        -907.385          17.000                                                                                                                                  
C26  25478789.685      268277.258        2769.021          20.000                                                                                                                                  
C34  22440324.759     -119168.569       -1320.732          28.000                                                                                                                                  
> 2022  1 25  6 54 28.0000000  0 30                     
G 4  21218920.857      143756.333         892.750          15.000                                                                  
G 8  21647100.882     -359078.660       -2115.183          23.000                                                                  
G 9  22949404.074     -168844.242       -1051.817          17.000                                                                  
G16  20572834.628      270071.849        1655.194          33.000                                                                  
G18  24366332.424      186359.893        1160.050          29.000    24366326.293       12225.091         883.107          18.000  
G26  22155262.766      441723.059        2737.170          30.000                                                                  
G27  20039356.822      -48499.362        -293.792          20.000    20039352.558       -2685.284        -223.024          14.000  
G31  23412264.450      516789.143        3315.630          27.000                                                                  
R 3  22286421.960                                          15.000  
R12  23293154.217                                          18.000  
R13  20540598.677                                          20.000  
R24  20867481.927                                          25.000  
E 2  26106621.976      113035.881        2224.790          28.000                                                                  
E 7  24688945.693      112343.301        1838.587          19.000    24688951.847       55624.317        1376.052          16.000  
E 8  26118053.975      349127.416        3586.563          20.000                                                                  
E15  26965863.547     -142050.528       -2172.870          21.000                                                                  
E30  23905460.753       67300.918         964.522          30.000    23905461.655       33356.533         719.905          23.000  
E36  26820554.273      132682.260        1419.282          26.000    26820553.534       37949.283        1064.036          24.000  
J 1  37016554.526      202020.337        1294.752          25.000                                                                  
J 2  39289037.225       50923.474         535.462          25.000    39289039.401       19000.928         398.044          22.000  
J 3  37238960.553      147523.084         967.014          23.000                                                                  
C 6  35874697.674       68382.365        1318.735          18.000                                                                                                                                  
C 7  36422815.462       43213.900          -0.072          14.000                                                                                                                                  
C 9  35874464.858       73623.540         772.110          17.000                                                                                                                                  
C11  23705170.173     -336867.580       -2255.721          21.000                                                                                                                                  
C12  22174952.683       18664.320         237.299          21.000                                                                                                                                  
C24  22691531.574      134273.690        1406.140          29.000                                                                    22691526.719       38521.210        1061.179          24.000  
C25  22959012.825      -87201.595        -908.266          15.000                                                                                                                                  
C26  25479321.428      282691.130        2768.604          25.000                                                                                                                                  
C34  22440071.469     -126035.708       -1318.743          24.000                                                                                                                                  
> 2022  1 25  6 54 29.0000000  0 30                     
G 4  21219090.813      148447.802         892.922          14.000                                                                  
G 8  21646706.000     -370187.479       -2109.188          32.000    21646745.981       -3839.668       -1577.847          24.000  
G 9  22949203.877     -174374.125       -1053.111          16.000                                                                  
G16  20573149.919      278783.191        1657.472          30.000                                                                  
G18  24366553.117      192453.732        1159.732          29.000    24366550.860       15670.940         874.909          19.000  
G26  22155783.314      456081.660        2737.151          31.000                                                                  
G27  20039303.053      -50044.789        -292.249          23.000    20039300.796       -3565.020        -224.393          18.000  
G31  23412895.441      534231.961        3322.672          25.000                                                                  
R 3  22287197.701                                          14.000  
R12  23293673.910                                          19.000  
R13  20540823.068                                          18.000  
R24  20866989.639                                          26.000  
E 2  26107045.083      124698.695        2217.536          25.000    26107039.406       66131.409        1663.451          17.000  
E 7  24689296.068      122006.931        1840.882          23.000    24689301.794       61012.924        1369.982          17.000  
E 8  26118736.269      367968.228        3584.208          20.000                                                                  
E15  26965449.750     -153476.799       -2177.073          26.000                                                                  
E30  23905644.025       72378.870         967.331          30.000    23905645.389       36186.930         719.487          27.000  
E36  26820825.606      140131.376        1418.799          27.000    26820823.175       42108.861        1058.275          19.000  
J 1  37016801.255      208830.887        1294.043          25.000                                                                  
J 2  39289138.939       53739.811         535.318          24.000    39289141.280       20564.342         397.027          22.000  
J 3  37239145.534      152600.378         964.782          22.000                                                                  
C 6  35874950.940       75244.210        1317.806          17.000                                                                                                                                  
C 7  36422960.677       47150.986          -0.072          12.000                                                                                                                                  
C 9  35874612.995       77634.537         768.962          17.000                                                                                                                                  
C11  23704736.744     -348613.769       -2254.893          21.000                                                                                                                                  
C12  22174998.568       19902.615         237.609          23.000                                                                                                                                  
C24  22691800.980      141590.152        1401.592          28.000                                                                    22691796.901       42680.802        1058.437          22.000  
C25  22958838.079      -91924.808        -906.225          15.000                                                                                                                                  
C26  25479853.206      297103.986        2767.288          22.000                                                                                                                                  
C34  22439818.092     -132898.266       -1317.981          28.000                                                                                                                                  
> 2022  1 25  6 54 30.0000000  0 29                     
G 4  21219260.674      153135.988         893.440          15.000                                                                  
G 8  21646306.511     -381273.752       -2111.502          23.000    21646342.130      -10026.195       -1576.634          23.000  
G 9  22949006.000     -179900.840       -1051.745          14.000                                                                  
G16  20573462.513      287473.766        1654.006          28.000                                                                  
G18  24366774.228      198551.809        1159.188          24.000    24366773.132       19105.481         877.974          23.000  
G26  22156304.862      470486.327        2739.656          27.000                                                                  
G27  20039244.376      -51587.759        -294.484          23.000    20039241.386       -4439.736        -221.169          17.000  
G31  23413526.773      551672.181        3317.260          28.000                                                                  
R 3  22287973.912                                          11.000  
R12  23294194.624                                          19.000  
R13  20541040.175                                          19.000  
R24  20866496.042                                          22.000  
E 2  26107467.248      136362.164        2219.878          21.000    26107463.385       72663.867        1664.710          17.000  
E 7  24689646.407      131669.316        1839.763          27.000    24689647.884       66390.397        1369.741          18.000  
E 8  26119418.573      386803.812        3584.689          16.000                                                                  
E15  26965036.119     -164899.986       -2172.913          23.000    26965049.995      -73332.193       -1623.061          17.000  
E30  23905827.777       77451.665         965.748          28.000    23905829.158       39017.019         721.677          23.000  
E36  26821094.898      147587.709        1419.088          29.000    26821094.264       46268.225        1063.877          23.000  
J 1  37017044.362      215613.233        1290.730          23.000                                                                  
J 2  39289240.442       56545.105         533.035          26.000    39289242.975       22134.157         397.329          19.000  
C 6  35875203.987       82111.119        1319.211          19.000                                                                                                                                  
C 7  36423107.350       51106.254          -0.072          13.000                                                                                                                                  
C 9  35874761.051       81649.227         773.894          18.000                                                                                                                                  
C11  23704303.375     -360360.600       -2257.475          23.000                                                                                                                                  
C12  22175044.305       21135.135         236.664          21.000                                                                                                                                  
C24  22692070.586      148890.033        1403.599          27.000                                                                    22692067.659       46841.673        1055.405          25.000  
C25  22958664.266      -96638.515        -904.697          15.000                                                                                                                                  
C26  25480384.722      311517.428        2769.182          30.000                                                                                                                                  
C34  22439565.140     -139763.874       -1317.969          25.000                                                                                                                                  
> 2022  1 25  6 54 31.0000000  0 28                     
G 4  21219438.465      157830.122           0.002          17.000                                                                  
G 8  21645904.727     -392374.877       -2111.529          28.000    21645940.319      -16212.978       -1578.007          19.000  
G 9  22948805.776     -185431.288       -1053.217          15.000                                                                  
G16  20573776.870      296165.297        1652.866          28.000                                                                  
G18  24366995.235      204654.775        1160.519          27.000    24366995.762       22533.208         871.242          20.000  
G26  22156824.075      484868.043        2733.181          28.000                                                                  
G27  20039187.326      -53138.716        -296.003          28.000    20039186.038       -5304.117        -219.841          20.000  
G31  23414157.502      569102.015        3319.984          27.000                                                                  
R 3  22288749.889                                          14.000  
R13  20541257.631                                          18.000  
R24  20866004.888                                          25.000  
E 2  26107889.508      148034.459        2222.018          20.000    26107886.632       79181.210        1656.028          19.000  
E 7  24689996.380      141333.100        1839.591          23.000    24689997.648       71776.368        1377.092          21.000  
E 8  26120100.868      405640.760        3584.820          16.000                                                                  
E15  26964622.226     -176325.527       -2172.395          22.000    26964634.653      -79700.353       -1621.217          20.000  
E30  23906011.058       82522.304         963.719          28.000    23906013.695       41853.575         720.257          24.000  
E36  26821364.845      155061.522        1422.659          22.000    26821367.344       50465.399        1066.502          20.000  
J 1  37017287.906      222381.574        1285.161          22.000                                                                  
J 2  39289341.401       59334.816         530.760          25.000    39289344.239       23697.065         398.491          20.000  
C 6  35875457.611       88982.339        1319.016          22.000                                                                                                                                  
C 7  36423253.247       55061.918          -0.072          17.000                                                                                                                                  
C 9  35874909.842       85676.059         773.726          23.000                                                                                                                                  
C11  23703868.734     -372126.967       -2262.319          22.000                                                                                                                                  
C12  22175090.383       22372.697         237.082          20.000                                                                                                                                  
C24  22692339.406      156195.319        1403.070          28.000                                                                    22692336.811       50985.548        1055.573          23.000  
C25  22958490.811     -101342.104        -902.184          15.000                                                                                                                                  
C26  25480917.504      325951.032        2769.885          35.000                                                                                                                                  
C34  22439312.287     -146620.792       -1315.327          32.000                                                                                                                                  
> 2022  1 25  6 54 32.0000000  0 29                     
G 4  21219608.535      162524.815           0.002          18.000                                                                  
G 8  21645505.945     -403467.368       -2109.606          25.000    21645538.780      -22397.609       -1576.268          16.000  
G 9  22948605.151     -190973.565       -1055.421          16.000                                                                  
G16  20574093.295      304859.715        1656.757          28.000                                                                  
G18  24367215.214      210774.900        1165.460          27.000    24367217.511       25969.190         872.714          20.000  
G26  22157344.205      499250.745        2735.995          31.000                                                                  
G27  20039130.364      -54698.699        -296.006          27.000    20039130.227       -6164.183        -220.335          18.000  
G31  23414789.475      586564.975        3323.305          25.000                                                                  
R 3  22289525.254                                          15.000  
R12  23295244.961                                          20.000  
R13  20541470.680                                          17.000  
R24  20865513.204                                          26.000  
E 2  26108312.798      159715.611        2221.448          25.000    26108310.724       85689.530        1659.041          18.000  
E 7  24690345.707      150998.170        1840.959          25.000    24690345.561       77166.376        1372.108          20.000  
E 8  26120783.625      424493.565        3587.089          16.000                                                                  
E15  26964207.373     -187747.009       -2169.750          24.000    26964218.195      -86052.940       -1621.422          17.000  
E30  23906195.072       87587.509         963.709          26.000    23906197.684       44685.314         719.121          23.000  
E36  26821635.707      162535.775        1424.856          25.000    26821639.488       54651.746        1064.829          20.000  
J 1  37017530.621      229147.176        1288.234          22.000                                                                  
J 2  39289441.980       62120.140         531.061          25.000    39289446.363       25263.114         397.628          20.000  
C 6  35875710.962       95845.913        1318.276          20.000                                                                                                                                  
C 7  36423399.265       59020.882          -0.072          13.000                                                                                                                                  
C 9  35875058.553       89704.256         773.381          24.000                                                                                                                                  
C11  23703433.560     -383899.713       -2258.682          25.000                                                                                                                                  
C12  22175135.945       23607.910         237.015          20.000                                                                                                                                  
C24  22692609.387      163509.633        1404.203          27.000                                                                    22692607.708       55155.787        1060.002          24.000  
C25  22958318.811     -106047.592        -904.497          15.000                                                                                                                                  
C26  25481450.363      340397.880        2772.642          28.000                                                                                                                                  
C34  22439059.180     -153497.314       -1317.965          25.000                                                                                                                                  
> 2022  1 25  6 54 33.0000000  0 30                     
G 4  21219775.464      167212.873         893.524          17.000                                                                  
G 8  21645108.820     -414550.440       -2110.386          23.000                                                                  
G 9  22948410.424     -196511.362           0.001          16.000                                                                  
G16  20574409.292      313574.737        1656.276          35.000                                                                  
G18  24367436.387      216899.961        1165.782          23.000    24367440.202       29401.569         871.552          20.000  
G26  22157866.124      513624.553        2734.086          25.000                                                                  
G27  20039075.883      -56248.284        -294.697          21.000    20039074.071       -7029.989        -219.743          20.000  
G31  23415422.019      603999.304        3311.583          33.000                                                                  
R 3  22290300.515                                          14.000  
R12  23295771.801                                          20.000  
R13  20541682.962                                          18.000  
R24  20865020.977                                          21.000  
E 2  26108735.599      171380.465        2219.844          23.000    26108734.058       92207.395        1660.555          17.000  
E 7  24690695.750      160671.588        1843.279          22.000    24690699.208       82533.933        1371.688          23.000  
E 8  26121448.487      443347.384        3587.910          12.000                                                                  
E15  26963793.786     -199153.419       -2172.314          24.000    26963800.542      -92411.606       -1619.967          18.000  
E30  23906378.422       92658.092         964.044          32.000    23906381.095       47508.358         718.605          23.000  
E36  26821906.744      170016.162        1424.316          24.000    26821911.258       58834.614        1063.130          17.000  
J 1  37017774.916      235917.992        1290.289          23.000                                                                  
J 2  39289543.867       64917.083         532.002          25.000    39289547.613       26817.535         395.842          20.000  
J 3  37239882.168      172849.828         963.185          26.000                                                                  
C 6  35875964.603      102713.165        1316.492          18.000                                                                                                                                  
C 7  36423546.077       62987.183          -0.072          15.000                                                                                                                                  
C 9  35875207.684       93737.442         773.639          20.000                                                                                                                                  
C11  23702999.729     -395659.942       -2257.223          22.000                                                                                                                                  
C12  22175181.813       24846.214         238.793          19.000                                                                                                                                  
C24  22692879.499      170827.567        1403.632          23.000                                                                    22692878.239       59330.844        1062.678          23.000  
C25  22958144.658     -110770.928        -907.636          15.000                                                                                                                                  
C26  25481982.841      354829.140        2775.807          25.000                                                                                                                                  
C34  22438806.316     -160354.251       -1315.941          24.000                                                                                                                                  
> 2022  1 25  6 54 34.0000000  0 30                     
G 4  21219945.512      171908.670         894.300          17.000                                                                  
G 8  21644705.204     -425651.289       -2113.143          24.000                                                                  
G 9  22948210.392     -202036.875           0.001          16.000                                                                  
G16  20574725.342      322284.510        1657.925          33.000                                                                  
G18  24367658.650      223033.552        1167.633          24.000    24367663.251       32848.667         873.898          17.000  
G26  22158388.081      528008.821        2736.050          23.000                                                                  
G27  20039020.526      -57799.745        -295.501          24.000    20039018.330       -7907.974        -224.128          23.000  
G31  23416054.493      621399.539        3311.213          29.000                                                                  
R 3  22291076.100                                          13.000  
R12  23296296.956                                          20.000  
R13  20541898.620                                          19.000  
R24  20864530.504                                          20.000  
E 2  26109158.558      183056.974        2224.463          23.000    26109157.060       98726.345        1662.400          17.000  
E 7  24691045.251      170346.149        1839.426          23.000    24691048.814       87909.352        1370.557          23.000  
E 8  26122131.410      462206.001        3589.008          12.000                                                                  
E15  26963378.531     -210578.213       -2176.554          24.000    26963381.963      -98769.243       -1620.553          18.000  
E30  23906562.654       97729.289         964.421          32.000    23906564.882       50342.801         718.549          20.000  
E36  26822177.275      177485.751        1423.876          22.000    26822180.751       63014.021        1065.595          17.000  
J 1  37018017.936      242697.262        1288.153          21.000                                                                  
J 2  39289643.783       67712.036         531.630          22.000    39289647.878       28370.236         393.533          19.000  
J 3  37240065.710      177909.020         960.345          35.000                                                                  
C 6  35876217.171      109565.920        1315.961          19.000                                                                                                                                  
C 7  36423692.243       66949.664          -0.072          13.000                                                                                                                                  
C 9  35875356.290       97762.198         772.915          26.000                                                                                                                                  
C11  23702565.566     -407418.697       -2257.602          21.000                                                                                                                                  
C12  22175228.056       26083.734         236.808          22.000                                                                                                                                  
C24  22693150.274      178141.818        1403.402          23.000                                                                    22693149.101       63503.780        1062.377          20.000  
C25  22957974.021     -115498.985           0.009          17.000                                                                                                                                  
C26  25482515.954      369262.787        2769.803          30.000                                                                                                                                  
C34  22438553.750     -167202.882       -1314.626          22.000                                                                                                                                  
> 2022  1 25  6 54 35.0000000  0 30                     
G 4  21220115.939      176613.442         895.799          17.000                                                                  
G 8  21644302.243     -436750.509       -2112.331          24.000                                                                  
G 9  22948010.483     -207558.310           0.001          13.000                                                                  
G16  20575043.453      331008.605        1659.653          29.000                                                                  
G18  24367880.704      229164.130        1168.803          25.000    24367884.066       36278.682         873.587          18.000  
G26  22158908.708      542379.094        2734.584          29.000                                                                  
G27  20038963.651      -59354.475        -296.046          20.000    20038960.897       -8767.067        -218.905          27.000  
G31  23416686.453      638818.872        3317.156          25.000                                                                  
R 3  22291851.343                                          12.000  
R12  23296818.875                                          19.000  
R13  20542120.421                                          18.000  
R24  20864039.420                                          18.000  
E 2  26109582.169      194755.119        2225.755          27.000    26109582.286      105250.859        1661.717          18.000  
E 7  24691395.547      180016.709        1839.513          27.000    24691397.600       93292.129        1368.748          23.000  
E 8  26122814.254      481062.555        3587.925          12.000                                                                  
E15  26962963.373     -222014.511       -2175.234          23.000                                                                  
E30  23906745.167      102795.146         964.489          29.000    23906747.726       53161.837         716.045          22.000  
E36  26822448.704      184969.303        1423.461          23.000    26822452.983       67204.401        1070.169          21.000  
J 1  37018262.876      249462.398        1288.730          21.000                                                                  
J 2  39289744.283       70502.750         531.066          21.000    39289748.344       29913.877         399.389          21.000  
J 3  37240248.344      182968.573         960.951          26.000                                                                  
C 6  35876470.095      116416.480        1315.618          20.000                                                                                                                                  
C 7  36423839.457       70906.692          -0.072          12.000                                                                                                                                  
C 9  35875504.715      101794.919         774.358          24.000                                                                                                                                  
C11  23702130.758     -419182.338       -2261.770          25.000                                                                                                                                  
C12  22175273.636       27319.642         237.925          25.000                                                                                                                                  
C24  22693420.587      185454.410        1406.009          28.000                                                                    22693418.053       67668.656        1062.153          22.000  
C25  22957799.772     -120224.580           0.009          17.000                                                                                                                                  
C26  25483049.259      383693.285        2765.580          29.000                                                                                                                                  
C34  22438301.228     -174050.631       -1313.995          27.000                                                                                                                                  
> 2022  1 25  6 54 36.0000000  0 30                     
G 4  21220270.216      181318.477         895.200          18.000                                                                  
G 8  21643896.577     -447843.430       -2112.811          28.000                                                                  
G 9  22947818.940     -213078.410           0.001          16.000                                                                  
G16  20575358.054      339720.031        1658.486          34.000                                                                  
G18  24368103.989      235298.109        1166.074          23.000    24368107.151       39712.741         875.378          21.000  
G26  22159429.789      556751.923        2737.950          29.000                                                                  
G27  20038907.937      -60899.815        -294.564          28.000    20038904.109       -9626.327        -216.314          23.000  
G31  23417318.666      656241.965        3315.190          31.000                                                                  
R 3  22292626.595                                          13.000  
R12  23297338.952                                          19.000  
R13  20542341.882                                          19.000  
R24  20863545.875                                          22.000  
E 2  26110004.421      206428.412        2215.113          31.000    26110005.314      111764.865        1658.641          20.000  
E 7  24691745.214      189675.349        1838.127          24.000    24691746.927       98674.706        1371.188          22.000  
E 8  26123497.055      499918.445        3588.368          13.000                                                                  
E15  26962548.111     -233441.912       -2173.622          21.000    26962554.177     -111493.548       -1620.688          19.000  
E30  23906928.378      107869.803         965.854          32.000    23906931.400       55983.573         721.993          21.000  
E36  26822720.065      192455.503        1425.974          24.000    26822725.722       71414.036        1071.074          18.000  
J 1  37018506.124      256243.259        1294.700          23.000                                                                  
J 2  39289845.517       73291.454         529.800          24.000    39289849.690       31472.855         394.506          20.000  
J 3  37240431.362      188022.649         963.949          23.000                                                                  
C 6  35876723.003      123266.219        1316.398          22.000                                                                                                                                  
C 7  36423985.397       74863.141          -0.072          13.000                                                                                                                                  
C 9  35875652.756      105809.504         770.744          24.000                                                                                                                                  
C11  23701696.125     -430949.923       -2257.381          25.000                                                                                                                                  
C12  22175320.167       28555.572         238.023          25.000                                                                                                                                  
C24  22693690.227      192765.937        1402.755          25.000                                                                    22693687.292       71836.465        1063.388          24.000  
C25  22957625.653     -124947.218           0.009          17.000                                                                                                                                  
C26  25483580.836      398100.072        2767.363          24.000                                                                                                                                  
C34  22438047.833     -180896.463       -1314.579          26.000                                                                                                                                  
> 2022  1 25  6 54 37.0000000  0 30                     
G 4  21220424.721      186021.003         893.376          20.000                                                                  
G 8  21643490.937     -458953.603       -2113.164          30.000                                                                  
G 9  22947618.638     -218611.328           0.001          17.000                                                                  
G16  20575672.132      348446.605        1659.677          26.000                                                                  
G18  24368325.939      241435.796        1169.323          20.000    24368325.331       43149.069         881.777          21.000  
G26  22159949.701      571118.262        2729.522          30.000                                                                  
G27  20038853.674      -62434.341        -290.070          26.000    20038848.713      -10479.017        -222.977          22.000  
G31  23417949.063      673669.825        3318.193          29.000                                                                  
R 3  22293401.629                                          16.000  
R12  23297864.116                                          19.000  
R13  20542560.340                                          17.000  
R24  20863056.939                                          23.000  
E 2  26110426.036      218068.169        2218.179          27.000    26110433.996      118280.339        1659.479          19.000  
E 7  24692094.177      199330.063        1837.044          27.000    24692096.379      104044.369        1369.027          21.000  
E 8  26124197.010      518778.291        3589.188          12.000                                                                  
E15  26962132.856     -244866.644       -2179.323          21.000                                                                  
E30  23907112.505      112942.232         964.853          22.000    23907115.440       58817.980         721.459          18.000  
E36  26822992.061      199954.832        1427.660          21.000    26822999.202       75624.111        1071.103          16.000  
J 1  37018751.788      263035.831        1292.977          23.000                                                                  
J 2  39289947.029       76080.655         531.038          26.000    39289950.653       33025.644         402.184          21.000  
J 3  37240613.682      193080.891         961.408          25.000                                                                  
C 6  35876976.050      130124.345        1318.356          19.000                                                                                                                                  
C 7  36424131.319       78819.837          -0.072          16.000                                                                                                                                  
C 9  35875800.980      109829.755         774.057          22.000                                                                                                                                  
C11  23701261.849     -442716.753       -2261.353          20.000                                                                                                                                  
C12  22175366.497       29798.145         239.173          28.000                                                                                                                                  
C24  22693960.017      200080.699        1407.992          27.000                                                                    22693957.980       75999.749        1062.089          22.000  
C25  22957453.289     -129683.240        -912.238          16.000                                                                                                                                  
C26  25484113.347      412511.626        2767.069          26.000                                                                                                                                  
C34  22437794.395     -187756.802       -1319.284          24.000                                                                                                                                  
> 2022  1 25  6 54 38.0000000  0 30                     
G 4  21220590.498      190717.524         893.069          24.000                                                                  
G 8  21643085.288     -470062.265       -2111.537          29.000                                                                  
G 9  22947416.713     -224144.780       -1051.331          18.000                                                                  
G16  20575987.064      357169.383        1658.526          19.000                                                                  
G18  24368551.980      247568.759        1164.693          21.000    24368551.843       46598.343         879.636          20.000  
G26  22160470.263      585442.870        2726.215          29.000                                                                  
G27  20038797.567      -63971.157        -291.586          30.000    20038793.382      -11354.368        -220.636          22.000  
G31  23418580.569      691098.647        3316.419          26.000                                                                  
R 3  22294176.873                                          14.000  
R12  23298388.530                                          21.000  
R13  20542776.680                                          20.000  
R24  20862565.882                                          26.000  
E 2  26110849.465      229737.072        2221.986          23.000    26110856.082      124796.356        1660.517          16.000  
E 7  24692444.307      208994.631        1837.795          25.000    24692445.898      109422.049        1365.020          21.000  
E 8  26124879.994      537637.907        3589.312          14.000                                                                  
E15  26961718.117     -256306.405       -2176.119          25.000    26961728.843     -124209.241       -1622.167          17.000  
E30  23907295.864      118004.744         965.493          18.000    23907297.848       61641.645         717.573          15.000  
E36  26823264.154      207461.582        1427.165          23.000    26823270.465       79830.873        1071.608          17.000  
J 1  37018999.040      269816.581        1289.771          24.000                                                                  
J 2  39290047.425       78857.633         531.571          25.000    39290053.745       34611.675         400.665          19.000  
J 3  37240797.746      198142.912         961.142          25.000                                                                  
C 6  35877230.239      136993.378        1320.234          22.000                                                                                                                                  
C 7  36424278.262       82776.735          -0.072          14.000                                                                                                                                  
C 9  35875949.167      113853.172         771.452          21.000                                                                                                                                  
C11  23700827.853     -454480.084       -2256.565          20.000                                                                                                                                  
C12  22175413.508       31036.325         238.277          23.000                                                                                                                                  
C24  22694230.652      207404.152        1406.633          28.000                                                                    22694228.415       80167.286        1061.658          23.000  
C25  22957281.875     -134433.353        -911.567          20.000                                                                                                                                  
C26  25484645.369      426924.956        2769.437          25.000                                                                                                                                  
C34  22437541.594     -194608.471       -1314.804          26.000                                                                                                                                  
> 2022  1 25  6 54 39.0000000  0 31                     
G 4  21220760.376      195422.583         894.986          24.000                                                                  
G 8  21642682.867     -481150.519       -2110.584          23.000                                                                  
G 9  22947207.659     -229671.237       -1051.836          17.000                                                                  
G16  20576302.259      365873.763        1656.245          17.000                                                                  
G18  24368774.557      253694.816        1166.605          23.000    24368772.301       50051.642         882.189          23.000  
G26  22160989.895      599790.954        2738.512          28.000                                                                  
G27  20038742.341      -65498.524        -286.287          28.000    20038738.880      -12213.604        -220.491          26.000  
G31  23419211.081      708527.408        3317.448          27.000                                                                  
R 3  22294952.116                                          16.000  
R12  23298914.837                                          20.000  
R13  20542997.442                                          20.000  
R24  20862077.101                                          25.000  
E 2  26111271.970      241412.855        2223.618          21.000    26111278.779      131315.216        1661.456          17.000  
E 7  24692794.166      218667.718        1839.747          26.000    24692795.234      114792.918        1369.543          20.000  
E 8  26125546.932      556508.323        3591.028          11.000                                                                  
E15  26961303.859     -267741.118       -2172.966          25.000    26961315.763     -130571.515       -1622.676          18.000  
E27  25901487.511      -18279.102        -560.007          20.000                                                                  
E30  23907480.122      123082.317         964.187          16.000    23907480.945       64459.784         720.143          13.000  
E36  26823536.290      214956.850        1424.624          21.000    26823541.266       84031.932        1066.585          20.000  
J 1  37019244.268      276597.535        1292.911          21.000                                                                  
J 2  39290149.234       81653.580         532.430          22.000    39290155.947       36181.721         397.752          19.000  
J 3  37240978.819      203193.326         961.675          23.000                                                                  
C 6  35877483.714      143858.095        1314.590          24.000                                                                                                                                  
C 7  36424424.246       86733.699          -0.072          14.000                                                                                                                                  
C 9  35876097.609      117875.303         772.653          24.000                                                                                                                                  
C11  23700394.816     -466230.122       -2256.533          17.000                                                                                                                                  
C12  22175459.210       32268.221         235.485          20.000                                                                                                                                  
C24  22694500.877      214727.349        1406.270          28.000                                                                    22694497.558       84317.856        1057.817          23.000  
C25  22957106.893     -139179.630        -911.429          18.000                                                                                                                                  
C26  25485177.252      441347.643        2770.045          23.000                                                                                                                                  
C34  22437289.290     -201445.523       -1312.889          23.000                                                                                                                                  
> 2022  1 25  6 54 40.0000000  0 31                     
G 4  21220932.243      200128.809         891.203          25.000                                                                  
G 8  21642279.295     -492251.076       -2116.164          24.000                                                                  
G 9  22947018.734     -235199.491       -1051.056          17.000                                                                  
G16  20576617.759      374586.545        1658.390          15.000                                                                  
G18  24368995.740      259830.339        1167.100          20.000    24368995.664       53492.820         884.099          21.000  
G26  22161512.250      614173.452        2740.683          27.000                                                                  
G27  20038685.372      -67037.752        -289.507          27.000    20038683.499      -13070.099        -219.304          23.000  
G31  23419842.752      725962.538        3321.691          28.000                                                                  
R 3  22295729.488                                          12.000  
R12  23299443.081                                          20.000  
R13  20543222.227                                          20.000  
R24  20861587.212                                          24.000  
E 2  26111695.591      253083.764        2221.948          25.000    26111701.589      137824.948        1657.716          17.000  
E 7  24693144.061      228347.054        1842.375          26.000    24693145.660      120177.054        1372.383          20.000  
E 8  26126230.335      575381.150        3591.986          10.000                                                                  
E15  26960890.970     -279163.998       -2170.890          29.000    26960902.438     -136929.146       -1618.468          18.000  
E27  25901381.169      -21216.509        -557.704          18.000                                                                  
E30  23907663.970      128159.342         968.201          14.000    23907664.758       67288.846         721.067          13.000  
E36  26823807.388      222440.103        1425.899          18.000    26823811.396       88220.221        1066.129          19.000  
J 1  37019490.045      283379.959        1292.208          18.000                                                                  
J 2  39290251.558       84447.844         532.245          21.000    39290256.107       37733.239         394.293          19.000  
J 3  37241163.573      208249.202         963.953          23.000                                                                  
C 6  35877736.291      150706.158        1315.755          20.000                                                                                                                                  
C 7  36424570.002       90688.602          -0.072          17.000                                                                                                                                  
C 9  35876245.919      121898.641         772.357          24.000                                                                                                                                  
C11  23699961.299     -477986.600       -2257.786          16.000                                                                                                                                  
C12  22175505.619       33516.426         242.778          19.000                                                                                                                                  
C24  22694771.635      222053.805        1407.748          26.000                                                                    22694767.984       88482.408        1061.781          20.000  
C25  22956931.536     -143923.817        -910.998          18.000                                                                                                                                  
C26  25485708.934      455766.320        2767.473          25.000                                                                                                                                  
C34  22437037.307     -208276.541       -1309.011          31.000                                                                    22437032.321       -9703.652        -991.753          19.000  
> 2022  1 25  6 54 41.0000000  0 31                     
G 4  21221103.115      204837.474         896.693          23.000                                                                  
G 8  21641875.138     -503362.607       -2111.658          24.000                                                                  
G 9  22946818.955     -240717.558       -1050.468          16.000                                                                  
G16  20576936.051      383297.170        1657.944          14.000                                                                  
G18  24369219.260      265962.049        1167.077          21.000    24369219.690       56944.725         876.119          21.000  
G26  22162032.947      628562.779        2735.395          24.000                                                                  
G27  20038629.825      -68568.893        -286.928          30.000    20038628.615      -13922.306        -217.352          22.000  
G31  23420474.642      743413.861        3320.893          25.000                                                                  
R 3  22296504.287                                          17.000  
R12  23299964.415                                          19.000  
R13  20543446.226                                          19.000  
R24  20861095.764                                          25.000  
E 2  26112118.995      264759.155        2223.412          27.000    26112127.924      144349.903        1664.867          21.000  
E 7  24693494.827      238033.408        1843.965          28.000    24693496.558      125563.266        1369.801          22.000  
E 8  26126913.869      594257.174        3592.675          13.000                                                                  
E15  26960477.871     -290589.055       -2176.231          26.000    26960493.884     -143285.931       -1617.135          20.000  
E27  25901275.277      -24139.415        -555.602          17.000                                                                  
E30  23907843.734      133244.860         967.945          11.000    23907848.754       70120.806         722.704          13.000  
E36  26824078.721      229921.435        1425.706          20.000    26824084.361       92403.342        1065.056          20.000  
J 1  37019735.736      290163.476        1291.121          17.000                                                                  
J 2  39290353.315       87246.457         532.744          22.000    39290356.555       39284.394         395.648          20.000  
J 3  37241347.332      213314.000         960.832          21.000                                                                  
C 6  35877989.284      157555.297        1315.199          23.000                                                                                                                                  
C 7  36424715.662       94638.312          -0.072          17.000                                                                                                                                  
C 9  35876394.378      125924.400         774.501          23.000                                                                                                                                  
C11  23699528.220     -489755.721       -2258.634          17.000                                                                                                                                  
C12  22175552.674       34777.893         241.611          19.000                                                                                                                                  
C24  22695041.503      229373.511        1404.959          23.000                                                                    22695037.162       92639.436        1063.404          20.000  
C25  22956756.613     -148667.715        -912.142          19.000                                                                                                                                  
C26  25486241.270      470176.692        2770.164          24.000                                                                                                                                  
C34  22436784.401     -215116.383       -1314.892          28.000                                                                    22436781.858      -13576.185        -986.850          20.000  
> 2022  1 25  6 54 42.0000000  0 31                     
G 4  21221273.464      209547.310         895.304          26.000                                                                  
G 8  21641472.552     -514458.361       -2110.254          29.000                                                                  
G 9  22946619.281     -246232.465       -1049.113          15.000                                                                  
G16  20577251.579      392010.028        1657.014          14.000                                                                  
G18  24369441.069      272090.896        1166.750          21.000    24369442.582       60376.289         879.213          20.000  
G26  22162554.154      642944.291        2745.819          25.000                                                                  
G27  20038573.150      -70081.035        -285.374          29.000    20038574.139      -14771.958        -216.481          24.000  
G31  23421104.551      760863.759        3319.393          23.000                                                                  
R 3  22297279.373                                          19.000  
R12  23300486.578                                          19.000  
R13  20543665.698                                          18.000  
R24  20860604.488                                          27.000  
E 2  26112541.665      276434.339        2222.650          24.000    26112547.697      150883.364        1662.860          20.000  
E 7  24693845.385      247710.317        1838.427          26.000    24693846.443      130953.368        1369.858          21.000  
E 8  26127597.333      613131.330        3591.457          11.000                                                                  
E15  26960064.196     -302011.003       -2169.592          30.000    26960089.257     -149642.342       -1619.612          30.000  
E27  25901169.377      -27063.846        -556.564          18.000                                                                  
E30  23908027.853      138328.978         967.323          11.000                                                                  
E36  26824349.811      237407.388        1429.375          20.000    26824355.477       96592.542        1068.467          19.000  
J 1  37019981.365      296945.729        1290.982          15.000                                                                  
J 2  39290454.190        3024.276         527.072          20.000    39290458.338       40840.291         393.396          21.000  
J 3  37241530.673      218373.404         963.036          22.000                                                                  
C 6  35878242.786      164417.666        1321.269          23.000                                                                                                                                  
C 7  36424861.689       98597.273          -0.072          17.000                                                                                                                                  
C 9  35876542.696      129961.536         774.835          24.000                                                                                                                                  
C11  23699095.925     -501517.496       -2258.800          18.000                                                                                                                                  
C12  22175599.597       36041.860         242.998          20.000                                                                                                                                  
C24  22695311.108      236689.227        1404.225          24.000                                                                    22695307.972       96811.196        1066.011          20.000  
C25  22956580.951     -153420.579        -912.392          19.000                                                                                                                                  
C26  25486773.554      484607.900        2770.069          24.000                                                                                                                                  
C34  22436531.713     -221953.607       -1309.527          27.000                                                                    22436530.130      -17441.700        -986.337          19.000  
> 2022  1 25  6 54 43.0000000  0 31                     
G 4  21221445.410      214267.825         897.601          29.000    21221457.253       12505.802         678.608          28.000  
G 8  21641069.040     -525545.082       -2110.747          27.000                                                                  
G 9  22946416.754     -251737.648       -1048.088          17.000                                                                  
G16  20577572.532      400715.835          -0.013          15.000                                                                  
G18  24369663.534      278226.096        1169.753          21.000    24369666.119       63824.812         879.222          19.000  
G26  22163074.406      657345.557        2736.646          23.000                                                                  
G27  20038517.759      -71591.198        -288.780          30.000    20038519.550      -15613.160        -215.317          21.000  
G31  23421736.991      778307.600        3319.849          24.000                                                                  
R 3  22298051.502                                          18.000  
R12  23301009.116                                          17.000  
R13  20543884.942                                          18.000  
R22  23599556.007                                          20.000  
R24  20860115.262                                          30.000  
E 2  26112964.205      288099.426        2218.941          19.000    26112971.022      157412.792        1662.586          17.000  
E 7  24694194.825      257393.321        1841.885          29.000    24694195.849      136331.736        1368.042          20.000  
E 8  26128252.027      632003.742        3591.849           9.000                                                                  
E15  26959652.310     -313428.743       -2174.839          27.000    26959672.311     -156006.782       -1618.410          22.000  
E30  23908211.858      143410.374         967.326          11.000                                                                  
E36  26824621.878      244912.638        1428.169          20.000    26824627.718      100782.453        1068.026          18.000  
J 1  37020226.759      303721.175        1288.714          14.000                                                                  
J 2  39290546.576        5798.784         535.857          20.000    39290559.658       42396.954         397.709          18.000  
J 3  37241713.141      223427.662         961.481          26.000                                                                  
C 6  35878496.933      171294.240        1317.775          24.000                                                                                                                                  
C 7  36425000.518      102539.895         754.459          19.000                                                                                                                                  
C 9  35876691.271      133992.740         772.933          25.000                                                                                                                                  
C11  23698662.129     -513280.460       -2258.479          17.000                                                                                                                                  
C12  22175646.547       37314.186         244.770          19.000                                                                                                                                  
C24  22695581.133      244003.114        1405.851          20.000                                                                    22695578.067      100978.972        1057.002          19.000  
C25  22956407.879     -158174.213        -913.353          19.000                                                                                                                                  
C26  25487305.690      499018.429        2764.835          26.000                                                                                                                                  
C34  22436280.421     -228782.391       -1312.432          27.000                                                                    22436279.527      -21319.320        -987.853          19.000  
> 2022  1 25  6 54 44.0000000  0 31                     
G 4  21221616.915      218981.110         897.039          24.000    21221617.895       14980.145         621.826          12.000  
G 8  21640667.013     -536643.840       -2111.798          19.000                                                                  
G 9  22946217.228     -257247.332       -1049.087          15.000                                                                  
G16  20577887.875      409424.381          -0.013          16.000                                                                  
G18  24369885.815      284373.207        1170.725          18.000    24369890.416       67277.196         880.575          13.000  
G26  22163594.955      671719.646        2733.097          19.000                                                                  
G27  20038459.751      -73120.473        -291.219          35.000    20038463.820      -16461.171        -216.149          22.000  
G31  23422368.658      795749.035        3318.722          23.000                                                                  
R 3  22298826.397                                          13.000  
R12  23301533.224                                          18.000  
R13  20544107.005                                          16.000  
R24  20859623.978                                          21.000  
E 2  26113386.736      299766.438        2222.314          18.000    26113395.185      163942.638        1664.720          15.000  
E 7                                                                  24884024.442      141720.879        1375.106          25.000  
E 8  24370217.018      650878.991        3592.234           7.000                                                                  
E15                                                                  26729231.031     -162384.224       -1627.239          15.000  
E30  23908395.767      148488.716         966.106          11.000                                                                  
E36  26824893.970      252410.113        1426.425          15.000    26824900.343      104978.845        1069.167          12.000  
J 1  37020471.917      310490.067        1289.250          12.000                                                                  
J 2  39290654.074        8588.318         529.199          34.000    39290659.705       43950.211         392.637          20.000  
J 3  37241891.831      228479.724         962.898          26.000                                                                  
C 6  35878749.788      178150.328        1316.032          26.000                                                                                                                                  
C 7  36425135.072      106460.285         750.733          28.000                                                                                                                                  
C 9  35876839.284      138014.172         772.316          29.000                                                                                                                                  
C10  37269433.915        5836.306         687.688          20.000                                                                                                                                  
C11  23698228.350     -525043.877       -2260.485          15.000                                                                                                                                  
C12  22175692.398       38578.753         241.533          27.000                                                                                                                                  
C24  22695851.402      251324.522        1406.617          29.000                                                                    22695847.751      105132.105        1061.002          19.000  
C25  22956232.348     -162934.669        -914.208          17.000                                                                                                                                  
C26  25487836.962      513410.300        2764.296          24.000                                                                                                                                  
C34  22436027.977     -235622.270       -1309.255          19.000                                                                    22436027.153      -25199.288        -990.703          17.000  
> 2022  1 25  6 54 45.0000000  0 31                     
G 4  21221788.128      223695.127         904.212          29.000    21221778.577       17451.603         636.650          11.000  
G 8  21640264.034     -547744.688       -2112.104          24.000                                                                  
G 9  22946016.095     -262761.383       -1049.515          16.000                                                                  
G16  20578203.340      418135.898          -0.013          15.000                                                                  
G18  24370109.143      290532.520        1173.077          20.000                                                                  
G26  22164114.701      686077.015        2732.477          19.000                                                                  
G27  20038403.908      -74638.689        -289.888          27.000    20038408.596      -17307.452        -216.749          22.000  
G31  23423000.295      813192.082        3318.827          22.000                                                                  
R 3  22299594.355                                          13.000  
R12  23302055.945                                          17.000  
R13  20544327.322                                          16.000  
R24  20859132.771                                          28.000  
E 2  26113809.746      311434.723        2221.845          17.000    26113819.548      170475.987        1662.669          13.000  
E 7  24694895.120      276742.581        1843.522          30.000    24694897.679      147115.742        1374.157          22.000  
E 8  24370900.656      669758.200        3593.100           6.000                                                                  
E15  26958825.501     -336270.825       -2172.814          20.000                                                                  
E30  23908572.241      153563.763         965.927          11.000                                                                  
E36  26825165.051      259894.073        1423.891          18.000                                                                  
J 1  37020717.075      317258.513        1285.565          13.000                                                                  
J 2  39290756.660       11368.852         526.044          24.000    39290759.655       45499.995         394.312          20.000  
J 3  37242073.349      233534.665         964.316          29.000                                                                  
C 6  35879002.729      185004.739        1317.226          25.000                                                                                                                                  
C 7  36425278.927      110384.436         755.511          27.000                                                                                                                                  
C 9  35876987.822      142047.178         778.367          26.000                                                                                                                                  
C10  37269566.458        9429.607         693.009          25.000                                                                                                                                  
C11  23697795.976     -536815.137       -2260.940          16.000                                                                                                                                  
C12  22175739.391       39845.637         242.456          21.000                                                                                                                                  
C24  22696121.174      258647.008        1403.932          22.000                                                                    22696118.256      109300.547        1064.219          17.000  
C25  22956056.240     -167690.477        -915.322          18.000                                                                                                                                  
C26  25488368.820      527791.280          -0.008          24.000                                                                                                                                  
C34  22435776.965     -242445.709       -1310.368          26.000                                                                    22435774.945      -29085.237        -987.183          15.000  
> 2022  1 25  6 54 46.0000000  0 31                     
G 4  21221961.347      228449.995         903.060          26.000    21221942.329       19970.821         643.549          13.000  
G 8  21639858.900     -558845.781       -2114.103          23.000                                                                  
G 9  22945816.264     -268281.101       -1051.202          16.000                                                                  
G16  20578517.810      426846.419          -0.013          16.000                                                                  
G18  24370331.956      296692.723        1172.024          23.000    24370337.857       74175.117         878.011          18.000  
G26  22164635.690      700452.700        2735.354          27.000                                                                  
G27  20038348.516      -76157.562        -288.425          25.000    20038353.422      -18155.540        -219.812          19.000  
G31  23423633.100      830631.545        3318.986          26.000                                                                  
R 3  22300369.397                                          11.000  
R12  23302580.508                                          17.000  
R13  20544546.619                                          18.000  
R24  20858644.987                                          24.000  
E 2  26114232.843      323113.941        2222.875          18.000    26114243.656      177004.766        1663.371          16.000  
E 7  24695244.953      286424.307        1842.689          27.000    24695248.219      152507.995        1372.874          19.000  
E 8  24371584.382      688639.696        3592.756           7.000                                                                  
E15  26958411.905     -347697.390       -2172.130          18.000                                                                  
E30  23908755.993      158637.755         964.445          12.000                                                                  
E36  26825438.862      267395.836        1429.065          22.000    26825445.147      113371.867        1065.075          21.000  
J 1  37020961.744      324013.575        1284.029          16.000                                                                  
J 2  39290857.492       14145.941         530.252          24.000    39290859.868       47041.600         391.119          18.000  
J 3  37242259.106      238591.901         963.657          23.000                                                                  
C 6  35879255.707      191866.036        1316.777          20.000                                                                                                                                  
C 7  36425423.836      114314.772         754.978          20.000                                                                                                                                  
C 9  35877137.100      146092.570         776.315          23.000                                                                                                                                  
C10  37269698.443       13047.891         693.846          20.000                                                                                                                                  
C11  23697366.299     -548586.357       -2262.125          17.000                                                                                                                                  
C12  22175786.210       41104.672         241.217          20.000                                                                                                                                  
C24  22696391.321      265963.998        1405.960          20.000                                                                    22696388.525      113466.829        1059.998          19.000  
C25  22955880.804     -172449.185        -913.908          19.000                                                                                                                                  
C26  25488899.472      542180.517        2763.159          22.000                                                                                                                                  
C34  22435525.202     -249273.427       -1312.109          24.000                                                                    22435523.226      -32966.250        -990.086          18.000  
> 2022  1 25  6 54 47.0000000  0 30                     
G 4  21222133.563      233199.942         902.251          25.000    21222113.542       22505.534         646.637          13.000  
G 8  21639456.183     -569947.566       -2113.696          24.000                                                                  
G 9  22945616.197     -273806.586       -1050.690          17.000                                                                  
G16  20578832.996      435549.939          -0.013          15.000                                                                  
G18  24370554.098      302856.845        1174.318          22.000    24370560.356       77628.106         881.562          20.000  
G26  22165156.544      714834.136        2740.475          23.000                                                                  
G27  20038293.187      -77675.770        -291.150          26.000    20038297.710      -19005.542        -215.442          17.000  
G31  23424263.917      848061.723        3318.392          24.000                                                                  
R 3  22301144.109                                          13.000  
R12  23303104.250                                          17.000  
R13  20544769.624                                          18.000  
R24  20858155.404                                          23.000  
E 2  26114655.923      334800.692        2223.092          20.000    26114663.081      183535.086        1664.294          16.000  
E 7  24695595.807      296113.839        1844.094          26.000    24695598.297      157890.537        1368.728          19.000  
E 8  26130986.642      707521.996        3593.444           9.000                                                                  
E15  26957998.081     -359125.874       -2176.029          15.000                                                                  
E30  23908939.466      163704.105         963.583          10.000                                                                  
E36  26825712.596      274899.229        1427.045          22.000    26825717.433      117571.861        1072.940          19.000  
J 1  37021206.431      330769.930        1287.127          16.000                                                                  
J 2  39290958.961       16920.822         528.102          20.000    39290963.544       48588.009         398.195          20.000  
J 3  37242442.848      243650.566         962.425          24.000                                                                  
C 6  35879508.853      198729.606        1318.759          19.000                                                                                                                                  
C 7  36425568.642      118238.313         752.444          20.000                                                                                                                                  
C 9  35877286.283      150133.176         776.438          21.000                                                                                                                                  
C11  23696932.067     -560361.325       -2260.734          16.000                                                                                                                                  
C12  22175832.750       42365.082         242.186          18.000                                                                                                                                  
C24  22696661.528      273284.583        1406.809          20.000                                                                    22696658.794      117635.701        1063.775          17.000  
C25  22955704.575     -177208.904        -914.881          20.000                                                                                                                                  
C26  25489431.242      556575.549        2765.118          21.000                                                                                                                                  
C34  22435273.760     -256100.257       -1311.232          29.000                                                                    22435271.339      -36847.799        -987.866          20.000  
> 2022  1 25  6 54 48.0000000  0 31                     
G 4  21222305.404      237926.437         898.820          25.000    21222283.088       25042.016         646.523          11.000  
G 8  21639052.941     -581054.395       -2112.616          28.000                                                                  
G 9  22945415.930     -279328.285       -1050.426          16.000                                                                  
G16  20579154.684      444255.681        1655.588          15.000                                                                  
G18  24370776.755      309027.448        1175.369          20.000    24370783.502       81070.386         872.557          20.000  
G26  22165679.867      729225.612        2738.810          25.000                                                                  
G27  20038238.781      -79199.031        -288.900          23.000    20038242.894      -19854.464        -217.090          19.000  
G31  23424895.938      865473.082        3310.376          22.000                                                                  
R 3  22301918.218                                          16.000  
R12  23303625.994                                          17.000  
R13  20544994.984                                          18.000  
R24  20857667.670                                          27.000  
E 2  26115078.838      346478.627        2218.932          20.000    26115086.519      190066.595        1663.198          16.000  
E 7  24695946.295      305799.189        1841.320          26.000    24695948.322      163273.019        1377.143          19.000  
E 8  24372951.851      726402.703        3592.538           8.000                                                                  
E15  26957587.661     -370564.979       -2176.723          15.000                                                                  
E30  23909122.808      168767.265         963.252          10.000                                                                  
E36  26825988.842      282408.819        1428.641          19.000    26825989.665      121770.172        1061.851          20.000  
J 1  37021451.546      337537.962        1289.365          14.000                                                                  
J 2  39291059.539       19697.331         525.395          21.000    39291063.111       50141.458         397.503          19.000  
J 3  37242627.061      248701.648         960.217          34.000                                                                  
C 6  35879762.010      205587.702        1317.300          21.000                                                                                                                                  
C 7  36425712.985      122149.493         752.730          20.000                                                                                                                                  
C 9  35877435.090      154167.304         772.807          23.000                                                                                                                                  
C10  37269958.686        6496.763         693.674          19.000                                                                                                                                  
C11  23696498.219     -572126.143       -2257.410          17.000                                                                                                                                  
C12  22175880.014       43638.904         245.931          20.000                                                                                                                                  
C24  22696931.492      280605.099        1408.917          20.000                                                                    22696929.307      121800.572        1059.353          18.000  
C25  22955530.928     -181970.373        -915.100          19.000                                                                                                                                  
C26  25489963.761      570982.055          -0.008          20.000                                                                                                                                  
C34  22435021.587     -262944.911       -1315.971          25.000                                                                    22435021.731      -40733.794        -986.793          20.000  
> 2022  1 25  6 54 49.0000000  0 32                     
G 4  21222476.277      242648.752         899.949          25.000                                                                  
G 8  21638650.233     -592168.129       -2112.535          26.000                                                                  
G 9  22945215.977     -284851.723       -1050.368          17.000                                                                  
G16  20579469.687      452955.122        1654.068          14.000                                                                  
G18  24371000.240      315201.579        1173.830          21.000    24371007.083       84522.293         878.518          21.000  
G26  22166201.428      743620.835        2739.780          29.000                                                                  
G27  20038185.712      -80721.571        -289.007          27.000    20038187.827      -20702.827        -217.437          17.000  
G31  23425527.592      882896.450        3314.637          28.000                                                                  
R 3  22302692.231                                          17.000  
R12  23304151.210                                          18.000  
R13  20545218.975                                          18.000  
R24  20857176.464                                          25.000  
E 2  26115501.561      358155.149        2222.054          20.000    26115506.502      196579.007        1656.762          17.000  
E 7  24696296.713      315476.199        1839.306          24.000    24696300.258      168686.046        1380.614          18.000  
E 8  24373635.480      745281.360        3592.614           8.000                                                                  
E15  26957173.829     -381993.858       -2171.932          15.000                                                                  
E27  25900428.412      -19169.185        -559.239          13.000                                                                  
E30  23909306.028      173826.902         962.347           9.000                                                                  
E36  26826254.539      289924.497        1429.614          23.000    26826261.757      125969.771        1068.306          22.000  
J 1  37021703.745      344316.589        1288.022          14.000                                                                  
J 2  39291159.316       22456.295         524.973          22.000    39291164.370       51702.720         397.830          18.000  
J 3  37242811.196      253753.804         959.327          32.000                                                                  
C 6  35880015.252      212458.071        1317.462          20.000                                                                                                                                  
C 7  36425856.761      126059.754         749.944          21.000                                                                                                                                  
C 9  35877583.620      158195.344         773.810          23.000                                                                                                                                  
C10  37270094.353       10100.723         691.691          22.000                                                                                                                                  
C11  23696063.760     -583888.988       -2260.006          18.000                                                                                                                                  
C12  22175927.897       44927.411         248.592          18.000                                                                                                                                  
C24  22697201.595      287941.610        1408.596          22.000                                                                    22697198.450      125947.736        1055.707          19.000  
C25  22955355.527     -186728.105        -911.837          19.000                                                                                                                                  
C26  25490495.391      585392.217        2765.551          18.000                                                                                                                                  
C34  22434768.907     -269792.992       -1314.278          35.000                                                                    22434768.965      -44611.606        -989.116          20.000  
> 2022  1 25  6 54 50.0000000  0 32                     
G 4  21222648.362      247382.050         902.011          26.000                                                                  
G 8  21638250.238     -603259.162       -2111.049          26.000                                                                  
G 9  22945031.031     -290368.061       -1050.269          14.000                                                                  
G16  20579784.558      461650.163        1654.132          17.000                                                                  
G18  24371224.030      321380.639        1175.867          18.000    24371230.175       87982.051         882.210          23.000  
G26  22166718.709      758007.997        2736.048          31.000                                                                  
G27  20038130.626      -82244.607        -289.507          24.000    20038133.368      -21549.474        -215.065          18.000  
G31  23426158.068      900326.791        3317.704          34.000                                                                  
R 3  22303462.283                                          18.000  
R12  23304676.183                                          20.000  
R13  20545440.575                                          17.000  
R24  20856683.916                                          30.000  
E 2  26115924.824      369829.281        2219.715          22.000    26115925.089      203084.166        1656.585          17.000  
E 7  24696646.764      325143.867        1841.481          27.000    24696651.461      174097.593        1377.061          19.000  
E 8  24374319.145      764161.096        3592.585           7.000                                                                  
E15  26956770.118     -393414.847       -2174.873          14.000                                                                  
E27  25900321.643      -22117.796        -562.293          13.000                                                                  
E30  23909489.151      178883.894         962.036           9.000                                                                  
E36  26826524.363      297436.340        1428.550          20.000    26826534.583      130165.037        1071.161          20.000  
J 1  37021948.956      351086.929        1288.462          14.000                                                                  
J 2  39291259.022       25219.564         525.844          21.000    39291264.286       53259.126         396.240          17.000  
J 3  37242994.240      258804.042         959.372          27.000                                                                  
C 6  35880268.212      219316.023        1317.610          21.000                                                                                                                                  
C 7  36426000.597      129963.812         750.193          20.000                                                                                                                                  
C 9  35877732.306      162226.229         773.807          20.000                                                                                                                                  
C10  37270227.036       13697.830         691.296          20.000                                                                                                                                  
C11  23695630.339     -595664.109       -2261.660          21.000                                                                                                                                  
C12  22175975.048       46212.615         244.648          20.000                                                                                                                                  
C24  22697472.632      295281.973        1408.499          21.000                                                                    22697468.082      130109.339        1059.463          19.000  
C25  22955181.103     -191478.557        -912.453          19.000                                                                                                                                  
C26  25491030.074      599793.728        2766.468          25.000                                                                                                                                  
C34  22434517.808     -276618.143       -1312.579          28.000                                                                    22434517.917      -48476.455        -980.734          18.000  
> 2022  1 25  6 54 51.0000000  0 32                     
G 4  21222818.153      252112.501         901.488          23.000                                                                  
G 8  21637848.315     -614354.713       -2111.541          28.000                                                                  
G 9  22944831.112     -295890.125       -1050.242          17.000                                                                  
G16  20580100.529      470339.611        1653.821          17.000                                                                  
G18  24371447.846      327553.844        1172.828          28.000    24371453.486       91433.058         874.975          28.000  
G26  22167239.126      772378.431        2732.299          32.000                                                                  
G27  20038075.838      -83771.040        -288.953          24.000    20038078.999      -22389.038        -214.706          17.000  
G31  23426790.787      917777.633        3321.412          25.000                                                                  
R 3  22304237.195                                          19.000  
R12  23305201.337                                          19.000  
R13  20545662.995                                          15.000  
R24  20856195.197                                          22.000  
E 2  26116347.538      381495.560        2218.363          24.000    26116347.550      209587.616        1657.244          18.000  
E 7  24696996.501      334806.759        1841.825          22.000    24697002.656      179500.866        1377.417          18.000  
E 8  24375002.740      783038.453        3591.575           8.000                                                                  
E15  26956356.269     -404843.367       -2174.668          14.000                                                                  
E27  25900214.530      -25076.263        -563.272          14.000                                                                  
E30  23909672.170      183937.308         961.165          11.000                                                                  
E36  26826796.691      304939.348        1427.011          22.000    26826807.199      134362.039        1064.826          22.000  
J 1  37022194.384      357863.275        1289.637          16.000                                                                  
J 2  39291359.714       27984.678         526.448          21.000    39291366.776       54816.517         395.874          18.000  
J 3  37243178.384      263858.561         961.649          24.000                                                                  
C 6  35880521.518      226179.144        1318.423          18.000                                                                                                                                  
C 7  36426144.801      133877.948         752.115          20.000                                                                                                                                  
C 9  35877880.495      166252.164         773.154          20.000                                                                                                                                  
C10  37270356.927       17293.976         691.679          19.000                                                                                                                                  
C11  23695195.959     -607442.873       -2262.589          19.000                                                                                                                                  
C12  22176022.268       47494.648         245.753          23.000                                                                                                                                  
C24  22697742.613      302612.718        1405.776          23.000                                                                    22697737.871      134273.697        1057.664          22.000  
C25  22955005.726     -196235.858        -914.822          18.000                                                                                                                                  
C26  25491562.899      614216.146        2770.523          22.000                                                                                                                                  
C34  22434265.887     -283457.480       -1314.469          23.000                                                                    22434268.684      -52332.840        -985.774          18.000  
> 2022  1 25  6 54 52.0000000  0 32                     
G 4  21222986.818      256846.782         901.176          25.000                                                                  
G 8  21637445.921     -625460.746       -2113.084          22.000                                                                  
G 9  22944631.394     -301406.056       -1048.412          18.000                                                                  
G16  20580415.324      479032.803        1653.295          16.000                                                                  
G18  24371671.471      333724.888        1169.534          26.000    24371677.014       94874.702         875.796          24.000  
G26  22167761.333      786754.847        2731.724          35.000                                                                  
G27  20038020.928      -85274.651        -286.474          23.000    20038026.637      -23231.001        -215.524          19.000  
G31  23427422.764      935224.237        3316.502          22.000                                                                  
R 3  22305021.383                                          16.000  
R12  23305729.704                                          21.000  
R13  20545881.637                                          16.000  
R24  20855707.385                                          25.000  
E 2  26116769.729      393165.035        2219.419          24.000    26116774.958      216091.408        1655.444          20.000  
E 7  24697347.096      344489.330        1843.919          21.000    24697353.607      184906.738        1378.559          18.000  
E 8  24375686.082      801909.396        3590.552           7.000                                                                  
E15  26955942.463     -416271.412       -2174.345          14.000                                                                  
E27  25900107.298      -28038.388        -563.691          15.000                                                                  
E30  23909855.111      188989.678         961.492          12.000                                                                  
E36  26827067.928      312445.192        1427.608          25.000    26827079.858      138568.823        1069.829          22.000  
J 1  37022444.865      364622.985        1285.738          14.000                                                                  
J 2  39291457.021       30754.906         528.344          25.000    39291466.212       56368.032         395.749          17.000  
J 3  37243361.576      268922.112         962.384          30.000                                                                  
C 6  35880774.716      233043.081        1319.228          17.000                                                                                                                                  
C 7  36426289.040      137787.253         748.835          22.000                                                                                                                                  
C 9  35878029.319      170276.486         771.630          21.000                                                                                                                                  
C10  37270487.685       20894.013         691.650          19.000                                                                                                                                  
C11  23694762.774     -619225.469       -2262.024          19.000                                                                                                                                  
C12  22176069.479       48773.848         246.873          20.000                                                                                                                                  
C24  22698012.079      309936.293        1406.351          27.000                                                                    22698007.224      138430.344        1057.917          22.000  
C25  22954830.963     -200999.332        -915.216          17.000                                                                                                                                  
C26  25492095.183      628642.891        2770.351          22.000                                                                                                                                  
C34  22434013.679     -290297.069       -1313.284          24.000                                                                    22434017.968      -56200.631        -987.888          20.000  
> 2022  1 25  6 54 53.0000000  0 32                     
G 4  21223158.005      261576.981         900.382          24.000                                                                  
G 8  21637042.078     -636563.344       -2111.393          24.000                                                                  
G 9  22944426.119     -306909.333       -1045.866          16.000                                                                  
G16  20580729.873      487717.876        1652.536          16.000                                                                  
G18  24371894.434      339880.620        1170.680          21.000    24371901.583       98336.189         876.740          22.000  
G26  22168280.494      801129.647        2732.515          37.000                                                                  
G27  20037968.555      -86770.681        -285.949          24.000    20037969.073      -24074.771        -214.203          18.000  
G31  23428053.607      952666.146        3319.475          26.000                                                                  
R 3  22305796.600                                          15.000  
R12  23306253.167                                          20.000  
R13  20546099.102                                          17.000  
R24  20855217.348                                          21.000  
E 2  26117192.583      404832.452        2217.619          22.000    26117198.929      222616.299        1659.040          18.000  
E 7  24697698.246      354166.420        1841.031          22.000    24697704.889      190314.063        1378.362          19.000  
E 8  24376369.284      820776.643        3589.507           8.000                                                                  
E15  26955528.754     -427696.475       -2173.893          13.000                                                                  
E27  25899996.625      -31000.932        -563.489          15.000                                                                  
E30  23910046.288      194041.596         961.261          11.000                                                                  
E36  26827341.042      319970.030        1429.543          24.000    26827352.231      142778.036        1067.225          25.000  
J 1  37022689.892      371387.914        1287.398          15.000                                                                  
J 2  39291558.368       33532.738         528.415          23.000    39291565.665       57916.577         393.872          17.000  
J 3  37243544.411      273978.362         959.022          36.000                                                                  
C 6  35881028.069      239911.969        1318.648          19.000                                                                                                                                  
C 7  36426432.650      141682.400         748.616          21.000                                                                                                                                  
C 9  35878177.709      174294.857         771.778          23.000                                                                                                                                  
C10  37270619.408       24480.390         690.012          20.000                                                                                                                                  
C11  23694328.568     -631000.166       -2260.804          17.000                                                                                                                                  
C12  22176117.538       50051.030         245.314          24.000                                                                                                                                  
C24  22698282.767      317273.626        1409.602          25.000                                                                    22698277.406      142595.393        1059.433          22.000  
C25  22954656.146     -205753.157        -911.586          18.000                                                                                                                                  
C26  25492628.471      643067.960        2770.665          23.000                                                                                                                                  
C34  22433762.344     -297129.847       -1312.087          35.000                                                                    22433765.638      -60079.343        -990.461          19.000  
> 2022  1 25  6 54 54.0000000  0 32                     
G 4  21223331.507      266310.221         901.567          22.000                                                                  
G 8  21636640.312     -647651.529       -2110.768          30.000                                                                  
G 9  22944226.959     -312410.550       -1046.443          16.000                                                                  
G16  20581047.999      496405.412        1653.788          17.000                                                                  
G18  24372117.221      346037.234        1172.139          21.000    24372124.911      101783.738         876.263          23.000  
G26  22168797.927      815486.146        2733.128          33.000                                                                  
G27  20037914.701      -88250.435        -281.120          21.000    20037917.033      -24918.855        -216.300          19.000  
G31  23428684.716      970108.765        3317.905          30.000                                                                  
R 3  22306565.082                                          12.000  
R12  23306780.512                                          18.000  
R13  20546313.582                                          17.000  
R24  20854727.217                                          27.000  
E 2  26117614.433      416491.574        2220.009          23.000    26117620.727      229129.576        1658.356          20.000  
E 7  24698048.673      363856.745        1844.559          22.000    24698055.281      195715.186        1374.942          21.000  
E 8  26135770.811      839638.643        3589.000          10.000                                                                  
E15  26955120.523     -439117.255       -2173.074          15.000                                                                  
E27  25899889.267      -33966.456        -564.304          16.000                                                                  
E30  23910229.071      199089.078         959.966          14.000                                                                  
E36  26827614.479      327498.703        1431.776          20.000    26827624.629      146975.419        1071.109          23.000  
J 1  37022935.757      378150.179        1285.507          14.000                                                                  
J 2  39291659.086       36308.871         527.805          22.000    39291666.471       59466.505         394.587          18.000  
J 3  37243728.694      279015.981         956.429          28.000                                                                  
C 6  35881281.727      246775.615        1318.986          19.000                                                                                                                                  
C 7  36426576.470      145583.473         751.130          21.000                                                                                                                                  
C 9  35878325.983      178313.370         772.850          21.000                                                                                                                                  
C10  37270751.995       28066.836         688.789          19.000                                                                                                                                  
C11  23693894.362     -642774.376       -2261.103          16.000                                                                                                                                  
C12  22176164.750       51332.644         247.940          20.000                                                                                                                                  
C24  22698553.446      324612.185        1407.834          23.000                                                                    22698547.631      146769.418        1060.701          22.000  
C25  22954480.108     -210507.999        -912.219          17.000                                                                                                                                  
C26  25493160.632      657494.490        2769.954          22.000                                                                                                                                  
C34  22433510.466     -303960.216       -1311.147          27.000                                                                    22433512.512      -63954.886        -983.660          20.000  
> 2022  1 25  6 54 55.0000000  0 32                     
G 4  21223503.418      271052.562         903.695          24.000                                                                  
G 8  21636239.130     -658741.235       -2110.380          24.000                                                                  
G 9  22944031.238     -317905.884       -1044.281          16.000                                                                  
G16  20581362.601      505092.945        1652.344          17.000                                                                  
G18  24372341.805      352189.693        1171.495          20.000    24372348.972      105233.098         877.471          25.000  
G26  22169317.891      829871.284        2734.328          31.000                                                                  
G27  20037863.855      -89732.159        -282.731          23.000    20037860.996      -25777.435        -216.844          19.000  
G31  23429317.391      987554.487        3320.781          27.000                                                                  
R 3  22307339.287                                          11.000  
R12  23307303.207                                          18.000  
R13  20546525.620                                          17.000  
R24  20854236.176                                          25.000  
E 2  26118036.990      428159.678        2220.457          22.000    26118042.595      235646.176        1661.803          19.000  
E 7  24698398.951      373535.649        1841.001          20.000    24698402.427      201096.292        1373.929          19.000  
E 8  24377735.287      858499.140        3588.652           8.000                                                                  
E15  26954707.075     -450534.493       -2172.534          14.000                                                                  
E27  25899781.949      -36930.739        -564.174          15.000                                                                  
E30  23910411.715      204132.558         959.621          14.000                                                                  
E36  26827887.749      335023.424        1431.479          19.000    26827896.913      151173.457        1075.070          20.000  
J 1  37023179.641      384885.046        1283.234          15.000                                                                  
J 2  39291760.372       39084.618         528.202          22.000    39291764.938       61010.356         393.342          18.000  
J 3  37243910.830      284042.760         958.106          27.000                                                                  
C 6  35881534.799      253644.736        1319.677          18.000                                                                                                                                  
C 7  36426720.725      149493.040         748.535          21.000                                                                                                                                  
C 9  35878473.693      182331.701         771.354          22.000                                                                                                                                  
C10  37270883.648       31646.399         687.055          21.000                                                                                                                                  
C11  23693469.222     -654553.053       -2260.592          19.000                                                                                                                                  
C12  22176212.188       52620.041         247.092          22.000                                                                                                                                  
C24  22698823.305      331940.116        1408.505          23.000                                                                    22698817.604      150938.786        1061.489          22.000  
C25  22954305.057     -215255.352        -911.398          18.000                                                                                                                                  
C26  25493692.559      671920.649        2767.881          21.000                                                                                                                                  
C34  22433258.764     -310787.418       -1310.424          29.000                                                                    22433260.863      -67825.626        -991.996          20.000  
> 2022  1 25  6 54 56.0000000  0 31                     
G 4  21223676.245      275806.123         903.694          25.000                                                                  
G 8  21635836.500     -669844.603       -2114.861          28.000                                                                  
G 9  22943832.619     -323391.217       -1044.416          17.000                                                                  
G16  20581669.602      513778.250        1654.977          17.000                                                                  
G18  24372564.077      358345.971        1172.741          24.000    24372573.041      108682.625         875.347          29.000  
G26  22169838.161      844251.556        2733.700          28.000                                                                  
G27  20037810.507      -91220.426        -281.123          25.000    20037807.246      -26624.324        -215.589          19.000  
G31  23429949.979     1004987.831        3316.829          26.000                                                                  
R 3  22308113.631                                          12.000  
R12  23307817.971                                          17.000  
R24  20853746.593                                          25.000  
E 2  26118459.948      439827.020        2219.900          22.000    26118465.143      242156.107        1656.277          18.000  
E 7  24698749.317      383216.100        1842.400          22.000    24698754.389      206488.326        1373.971          19.000  
E 8  26137136.623      877355.821        3587.738           9.000                                                                  
E15  26954293.679     -461950.132       -2172.433          10.000                                                                  
E27  25899674.731      -39892.796        -563.547          14.000                                                                  
E30  23910594.289      209174.038         959.395          14.000                                                                  
E36  26828160.478      342554.172        1433.091          18.000    26828170.079      155380.577        1071.210          19.000  
J 1  37023424.267      391639.453        1286.312          13.000                                                                  
J 2  39291861.762       41861.222         527.775          24.000    39291864.749       62552.861         394.828          20.000  
J 3  37244093.342      289083.269         959.790          29.000                                                                  
C 6  35881788.213      260516.681        1319.731          17.000                                                                                                                                  
C 7  36426864.781      153391.902         748.932          24.000                                                                                                                                  
C 9  35878621.400      186343.374         770.164          21.000                                                                                                                                  
C10  37271016.217       35229.069         687.783          20.000                                                                                                                                  
C11  23693033.560     -666325.923       -2260.753          17.000                                                                                                                                  
C12  22176259.557       53903.062         246.558          20.000                                                                                                                                  
C24  22699094.036      339274.604        1408.048          23.000                                                                    22699087.201      155096.372        1062.364          21.000  
C25  22954130.336     -220002.551        -910.755          17.000                                                                                                                                  
C26  25494224.888      686328.455        2766.312          24.000                                                                                                                                  
C34  22433006.730     -317615.624       -1309.201          25.000                                                                    22433007.992      -71721.172        -989.775          20.000  
> 2022  1 25  6 54 57.0000000  0 31                     
G 4  21223847.641      280565.971         909.353          25.000                                                                  
G 8  21635434.280     -680944.734       -2108.751          24.000                                                                  
G 9  22943633.731     -328883.315       -1045.406          16.000                                                                  
G16  20581984.692      522478.512        1656.262          15.000                                                                  
G18  24372786.438      364511.842        1174.999          24.000    24372797.260      112131.135         884.870          27.000  
G26  22170357.846      858621.408        2734.800          25.000                                                                  
G27  20037757.848      -92694.927        -280.980          24.000    20037753.898      -27457.074        -207.145          20.000  
G31  23430581.991     1022415.679        3316.428          20.000                                                                  
R 3  22308887.985                                          11.000  
R12  23308341.600                                          18.000  
R24  20853257.882                                          24.000  
E 2  26118882.478      451488.560        2218.661          23.000    26118887.271      248655.823        1657.841          18.000  
E 7  24699100.520      392905.193        1841.928          22.000    24699105.156      211884.499        1376.669          17.000  
E 8  26137819.240      896206.379        3586.441          10.000                                                                  
E15  26953880.362     -473364.340       -2171.805          11.000                                                                  
E27  25899565.152      -42852.088        -563.208          14.000                                                                  
E30  23910776.828      214214.554         959.236          14.000                                                                  
E36  26828433.592      350090.928        1431.223          18.000    26828442.861      159579.041        1069.977          18.000  
J 1  37023683.481      398402.243        1282.980          15.000                                                                  
J 2  39291962.952       44630.533         523.580          23.000    39291966.864       64103.674         393.318          17.000  
J 3  37244276.578      294130.478         961.598          30.000                                                                  
C 6  35882040.449      267388.890        1319.313          17.000                                                                                                                                  
C 7  36427009.053      157296.190         751.005          21.000                                                                                                                                  
C 9  35878769.240      190354.657         770.494          23.000                                                                                                                                  
C10  37271148.856       38822.561         692.177          19.000                                                                                                                                  
C11  23692602.520     -678104.852       -2261.023          18.000                                                                                                                                  
C12  22176307.065       55186.332         247.538          19.000                                                                                                                                  
C24  22699364.140      346608.684        1409.629          25.000                                                                    22699356.615      159254.562        1059.282          23.000  
C25  22953955.424     -224751.413        -910.911          20.000                                                                                                                                  
C26  25494756.797      700739.028        2768.480          20.000                                                                                                                                  
C34  22432755.849     -324438.891       -1309.026          35.000                                                                    22432756.569      -75598.588        -989.854          17.000  
> 2022  1 25  6 54 58.0000000  0 31                     
G 4  21224019.927      285339.789         906.970          24.000                                                                  
G 8  21635033.831     -692033.167       -2110.705          23.000                                                                  
G 9  22943431.849     -334371.354       -1043.945          17.000                                                                  
G16  20582299.721      531178.871        1653.467          17.000                                                                  
G18  24373010.638      370683.124        1174.783          22.000    24373022.560      115599.446         883.622          20.000  
G26  22170878.046      872983.449        2732.465          23.000                                                                  
G27  20037702.657      -94176.426        -281.994          24.000    20037699.824      -28289.484        -211.600          19.000  
G31  23431215.494     1039853.064        3319.538          25.000                                                                  
R 3  22309662.181                                          11.000  
R12  23308866.319                                          19.000  
R24  20852768.735                                          28.000  
E 2  26119305.437      463152.365        2221.953          22.000    26119309.279      255149.928        1651.099          18.000  
E 7  24699451.766      402600.114        1843.312          24.000    24699454.814      217288.692        1376.661          19.000  
E 8  26138501.622      915050.423        3585.934           9.000                                                                  
E15  26723459.648     -484779.095       -2171.494           8.000                                                                  
E27  25899457.995      -45812.258        -563.563          15.000                                                                  
E30  23910959.340      219254.536         959.207          14.000                                                                  
E36  26828706.079      357614.814        1432.307          16.000    26828715.514      163781.291        1071.725          15.000  
J 1  37023927.313      405135.362        1281.022          14.000                                                                  
J 2  39292063.854       47383.115         522.711          22.000    39292066.422       65648.916         394.162          19.000  
J 3  37244460.626      299176.013         961.744          29.000                                                                  
C 6  35882293.068      274253.383        1317.124          18.000                                                                                                                                  
C 7  36427153.589      161215.173         751.711          19.000                                                                                                                                  
C 9  35878916.775      194362.692         768.876          23.000                                                                                                                                  
C10  37271280.981       42412.748         688.458          19.000                                                                                                                                  
C11  23692168.750     -689874.264       -2260.787          19.000                                                                                                                                  
C12  22176355.079       56479.434         249.025          22.000                                                                                                                                  
C24  22699633.780      353940.379        1409.923          26.000                                                                    22699626.212      163410.177        1056.518          21.000  
C25  22953780.922     -229498.014        -911.433          19.000                                                                                                                                  
C26  25495288.662      715144.901        2766.638          22.000                                                                                                                                  
C34  22432504.921     -331249.400       -1310.328          25.000                                                                                                                                  
> 2022  1 25  6 54 59.0000000  0 29                     
G 4  21224191.175      290103.576         906.484          24.000                                                                  
G 8  21634632.152     -703123.153       -2110.711          26.000                                                                  
G 9  22943233.126     -339859.367       -1044.942          16.000                                                                  
G16  20582623.738      539871.362        1656.273          17.000                                                                  
G18  24373234.926      376861.505        1177.728          23.000    24373246.664      119048.958         878.434          21.000  
G26  22171398.476      887334.379        2730.526          22.000                                                                  
G27  20037647.876      -95661.897        -279.302          23.000    20037646.160      -29119.054        -210.884          18.000  
G31  23431849.792     1057291.838        3319.174          27.000                                                                  
R12  23309390.558                                          18.000  
R24  20852280.402                                          25.000  
E 2  26119727.837      474819.652        2223.606          22.000    26119730.693      261631.064        1652.441          16.000  
E 7  24699802.952      412288.082        1840.192          25.000    24699806.105      222695.477        1379.055          18.000  
E 8  26139183.900      933891.556        3584.926          11.000                                                                  
E15  26723046.383     -496191.454       -2171.604           8.000                                                                  
E27  25899350.860      -48771.591        -563.110          15.000                                                                  
E30  23911141.836      224294.249         958.716          13.000                                                                  
E36  26828978.642      365140.749        1428.984          16.000    26828989.194      167993.102        1073.041          13.000  
J 1  37024163.502      411865.300        1282.858          13.000                                                                  
J 2  39292163.560       50130.640         523.622          23.000    39292167.376       67193.859         393.230          18.000  
C 6  35882545.819      281110.652        1316.337          18.000                                                                                                                                  
C 7  36427297.627      165121.707         748.554          22.000                                                                                                                                  
C 9  35879064.850      198363.947         769.160          20.000                                                                                                                                  
C10  37271413.454       46002.742         688.837          19.000                                                                                                                                  
C11  23691735.059     -701635.201       -2255.927          17.000                                                                                                                                  
C12  22176402.876       57775.304         248.367          21.000                                                                                                                                  
C24  22699904.643      361272.428        1411.149          26.000                                                                    22699895.425      167552.602        1060.981          19.000  
C25  22953606.149     -234241.511        -913.288          19.000                                                                                                                                  
C26  25495820.711      729545.179        2764.413          24.000                                                                                                                                  
C34  22432252.975     -338075.735       -1309.333          24.000                                                                    22432255.030      -83370.277        -988.792          17.000  
> 2022  1 25  6 55  0.0000000  0 20                     
G 4  21224364.281      294862.105         904.468          26.000                                                                  
G 8  21634229.287     -714210.269       -2111.153          27.000                                                                  
G 9  22943034.202     -345353.393       -1046.454          16.000                                                                  
G16  20582936.935      548568.015        1653.364          18.000                                                                  
G18  24373458.812      383043.439        1176.292          21.000    24373470.760      122504.168         880.472          21.000  
G26  22171918.056      901676.281        2728.647          19.000                                                                  
G27  20037594.431      -97134.715        -279.972          26.000    20037592.367      -29947.402        -210.875          17.000  
G31  23432483.611     1074735.187        3318.824          24.000                                                                  
R12  23309914.169                                          20.000  
R24  20851791.132                                          25.000  
E 2  26120156.929       10650.092        2219.004          20.000    26120153.721      268118.090        1654.058          18.000  
E 7                                                                  24889634.190      228092.746        1368.661          19.000  
E 8  26139874.474      952727.676        3583.916          11.000                                                                  
E27  25899243.690      -51732.070        -563.566          15.000                                                                  
E36  26829245.090      372651.425        1429.593          12.000                                                                  
J 1  37024407.909      418614.321        1284.082          16.000                                                                  
J 2  39292262.848       52879.754         523.219          22.000    39292266.594       68730.869         391.312          20.000  
C25  22953431.350     -238989.019        -911.338          22.000                                                                                                                                  
C26  25496352.794      743949.348        2768.780          23.000                                                                                                                                  
C34  22432001.709     -344890.022       -1307.809          26.000                                                                    22432005.920      -87243.968        -987.949          18.000  
> 2022  1 25  6 55  1.0000000  0 21                     
G 4  21224535.633      299626.198         906.872          28.000                                                                  
G 8  21633827.233     -725305.000       -2111.238          24.000                                                                  
G 9  22942821.371     -350850.501       -1046.179          16.000                                                                  
G16  20583253.002      557256.254        1651.720          17.000                                                                  
G18  24373685.718      389224.519        1176.034          21.000    24373695.659      125965.896         886.003          19.000  
G26  22172438.439      916027.028        2732.042          18.000                                                                  
G27  20037543.264      -98598.804        -276.673          24.000    20037538.416      -30782.275        -215.948          19.000  
G31  23433117.420     1092177.044        3321.891          26.000                                                                  
R12  23310436.751                                          19.000  
R24  20851300.563                                          23.000  
E 2  26120574.172       22315.721        2224.406          23.000    26120577.718      274615.243        1656.877          18.000  
E 7                                                                  24889987.339      233476.597        1374.004          20.000  
E 8  26140556.368      971558.500        3582.944          12.000                                                                  
E27  25899133.235      -54692.718        -563.466          15.000                                                                  
E36  26829517.243      380166.793        1430.885          14.000                                                                  
J 1  37024652.736      425373.471        1286.976          15.000                                                                  
J 2  39292362.039       55628.034         522.952          22.000    39292365.768       70254.530         389.221          18.000  
J 3  37245008.955      314299.291         957.878          24.000                                                                  
C25  22953256.244     -243738.265        -913.687          18.000                                                                                                                                  
C26  25496886.404      758382.322        2773.573          26.000                                                                                                                                  
C34  22431749.990     -351711.433       -1311.195          27.000                                                                    22431754.427      -91119.637        -986.948          20.000  
> 2022  1 25  6 55  2.0000000  0 21                     
G 4  21224708.774      304387.982         905.580          25.000    21224704.537       10667.883         651.806          16.000  
G 8  21633426.968     -736390.468       -2106.916          22.000                                                                  
G 9  22942622.421     -356345.219       -1045.999          17.000                                                                  
G16  20583567.551      565943.139        1654.325          18.000                                                                  
G18  24373910.189      395404.085        1177.024          19.000    24373920.680      129430.458         881.531          17.000  
G26  22172958.412      930383.845        2732.068          17.000                                                                  
G27  20037489.469     -100061.741        -280.515          23.000    20037483.810      -31626.246        -213.917          17.000  
G31  23433749.685     1109636.670        3322.999          30.000                                                                  
R12  23310961.435                                          17.000  
R24  20850811.058                                          23.000  
E 2  26120995.167       33984.422        2220.620          21.000    26120999.655      281119.795        1658.129          19.000  
E 7  24700855.959        8118.116        1841.478          27.000    24700859.662      238902.155        1382.954          18.000  
E 8  26141238.087      990384.415        3582.077          12.000                                                                  
E27  25899026.038      -57654.463        -563.273          15.000                                                                  
E36  26829789.746      387691.256        1432.210          13.000                                                                  
J 1  37024886.525      432143.790        1289.581          14.000                                                                  
J 2  39292461.798       58374.621         522.634          22.000    39292464.637       71782.454         386.943          20.000  
J 3  37245191.310      319341.412         960.403          24.000                                                                  
C25  22953080.896     -248491.003        -912.760          18.000                                                                                                                                  
C26  25497419.116      772807.146        2768.027          23.000                                                                                                                                  
C34  22431498.489     -358528.655       -1307.124          29.000                                                                    22431499.497      -94989.035        -985.310          20.000  
> 2022  1 25  6 55  3.0000000  0 21                     
G 4  21224881.579      309146.070         905.990          21.000    21224881.922       13253.914         663.702          19.000  
G 8  21633026.187     -747453.887       -2104.061          23.000                                                                  
G 9  22942425.294     -361838.544       -1046.176          16.000                                                                  
G16  20583875.870      574644.250        1656.579          18.000                                                                  
G18  24374134.477      401597.633        1180.543          18.000    24374145.072      132891.658         883.219          17.000  
G26  22173478.284      944739.076        2730.269          18.000                                                                  
G27  20037435.919     -101530.549        -278.101          22.000    20037430.460      -32456.481        -207.912          19.000  
G31  23434380.938     1127067.156        3315.400          26.000                                                                  
R12  23311484.951                                          17.000  
R24  20850321.592                                          27.000  
E 2  26121417.000       45642.479        2218.386          27.000    26121420.903      287625.828        1654.816          20.000  
E 7  24701209.108       17802.101        1842.035          22.000    24701211.301      244310.744        1375.291          18.000  
E 8  26141919.579     1009203.893        3580.664          12.000                                                                  
E27  25898918.855      -60615.718        -563.430          15.000                                                                  
E36  26830062.222      395215.058        1431.504          13.000                                                                  
J 1  37025131.552      438908.460        1283.705          14.000                                                                  
J 2  39292561.504       61119.827         523.525          20.000    39292563.697       73310.247         390.723          19.000  
J 3  37245374.633      324377.666         957.928          28.000                                                                  
C25  22952905.251     -253252.605        -913.672          18.000                                                                                                                                  
C26  25497951.967      787228.698        2769.765          24.000                                                                                                                                  
C34  22431247.467     -365337.903       -1307.399          25.000                                                                    22431248.345      -98852.449        -984.752          24.000  
> 2022  1 25  6 55  4.0000000  0 21                     
G 4  21225054.162      313914.697         909.226          26.000    21225050.046       15875.283         666.409          20.000  
G 8  21632626.507     -758516.621       -2104.520          31.000                                                                  
G 9  22942216.686     -367332.625       -1044.517          17.000                                                                  
G16  20584192.993      583346.910        1655.793          17.000                                                                  
G18  24374359.253      407803.988          -0.011          17.000    24374370.206      136355.604         883.680          18.000  
G26  22174001.878      959077.684        2728.356          17.000                                                                  
G27  20037384.535     -102997.711        -280.972          27.000    20037375.665      -33268.141        -207.108          19.000  
G31  23435014.118     1144513.051        3321.994          25.000                                                                  
R12  23312016.406                                          17.000  
R24  20849831.869                                          21.000  
E 2  26121839.854       57299.385        2217.711          27.000    26121843.600      294119.181        1658.228          21.000  
E 7  24701558.898       27483.408        1842.193          24.000    24701561.675      249703.731        1371.503          20.000  
E 8  26142600.862     1028017.531        3579.833          12.000                                                                  
E27  25898811.794      -63572.628        -562.427          15.000                                                                  
E36  26830341.191      402743.564        1433.504          12.000                                                                  
J 1  37025376.405      445669.620        1287.055          14.000                                                                  
J 2  39292661.830       63875.086         525.567          22.000    39292664.599       74856.984         395.329          21.000  
J 3  37245557.738      329414.551         961.866          23.000                                                                  
C25  22952729.701     -258010.134        -913.816          22.000                                                                                                                                  
C26  25498484.827      801655.139        2770.416          24.000                                                                                                                                  
C34  22430996.331     -372151.771       -1305.387          30.000                                                                    22430997.941     -102721.299        -987.417          20.000  
> 2022  1 25  6 55  5.0000000  0 21                     
G 4  21225224.397      318691.728         912.088          29.000    21225224.330       18508.099         673.904          19.000  
G 8  21632224.923     -769596.847       -2108.642          27.000                                                                  
G 9  22942017.893     -372822.803       -1044.220          17.000                                                                  
G16  20584515.839      592045.672        1655.353          19.000                                                                  
G18  24374583.559      413995.809          -0.011          17.000    24374592.043      139823.855         883.522          17.000  
G26  22174521.188      973418.154        2729.804          16.000                                                                  
G27  20037332.215     -104460.077        -276.940          27.000    20037327.820      -34086.027        -207.702          20.000  
G31  23435647.439     1161970.116        3321.545          21.000                                                                  
R12  23312543.315                                          17.000  
R24  20849345.924                                          30.000  
E 2  26122261.181       68953.587        2216.737          26.000    26122267.640      300628.571        1659.167          20.000  
E 7  24701910.746       37181.541        1846.733          25.000    24701911.657      255089.918        1375.030          17.000  
E 8  26143282.048     1046828.590        3579.450          12.000                                                                  
E27  25898702.058      -66528.861        -562.052          14.000                                                                  
E36  26830614.270      410284.879        1435.905          12.000                                                                  
J 1  37025631.484      452427.185        1286.826          14.000                                                                  
J 2  39292761.554       66632.776         523.928          24.000    39292764.166       76392.795         395.534          21.000  
J 3  37245738.845      334463.554         958.962          33.000                                                                  
C25  22952554.336     -262767.005        -913.796          18.000                                                                                                                                  
C26  25499017.137      816076.343        2768.133          22.000                                                                                                                                  
C34  22430745.013     -378959.924       -1310.626          31.000                                                                    22430746.920     -106593.887        -980.142          20.000  
> 2022  1 25  6 55  6.0000000  0 21                     
G 4  21225396.648      323470.482         908.613          26.000    21225401.459       21152.871         678.774          23.000  
G 8  21631823.209     -780670.186       -2105.482          27.000    21631833.674      -26281.017       -1574.439          23.000  
G 9  22941819.292     -378308.236       -1043.791          17.000                                                                  
G16  20584834.517      600743.703        1654.389          17.000                                                                  
G18  24374810.342      420187.038        1178.743          17.000    24374814.699      143290.032         882.630          17.000  
G26  22175049.013      987761.036        2729.010          17.000                                                                  
G27  20037280.130     -105912.914        -276.137          24.000    20037275.718      -34901.143        -206.250          21.000  
G31  23436281.824     1179424.128        3321.026          24.000                                                                  
R12  23313067.012                                          18.000  
R24  20848854.945                                          27.000  
E 2  26122683.328       80612.413        2217.002          24.000    26122689.691      307135.189        1656.639          18.000  
E 7  24702261.182       46883.046        1846.798          25.000    24702262.432      260488.268        1377.792          20.000  
E 8  26143963.095     1065636.218        3578.899          12.000                                                                  
E27  25898594.971      -69486.889        -563.063          15.000                                                                  
E36  26830887.592      417832.530        1436.469          12.000                                                                  
J 1  37025876.083      459180.835        1284.421          13.000                                                                  
J 2  39292861.130       69381.778         522.906          21.000    39292863.148       77910.442         387.330          20.000  
J 3  37245921.776      339495.851         957.540          23.000                                                                  
C25  22952379.127     -267527.757        -913.269          19.000                                                                                                                                  
C26  25499550.005      830493.445        2767.692          24.000                                                                                                                                  
C34  22430494.907     -385760.585       -1306.814          34.000                                                                    22430495.724     -110459.740        -986.556          22.000  
> 2022  1 25  6 55  7.0000000  0 22                     
G 4  21225570.444      328249.512         912.274          26.000    21225573.850       23807.158         677.810          23.000  
G 8  21631423.302     -791748.736       -2105.782          35.000    21631420.879      -32457.693       -1573.451          17.000  
G 9  22941622.767     -383791.073       -1043.452          17.000                                                                  
G16  20585149.389      609438.099        1654.503          17.000                                                                  
G18  24375048.180      426386.067        1179.979          17.000    24375039.772      146760.068         884.724          16.000  
G26  22175568.213     1002098.989        2729.726          16.000                                                                  
G27  20037225.571     -107366.019        -276.180          25.000    20037219.981      -35723.949        -211.465          21.000  
G31  23436913.347     1196879.776        3320.957          21.000                                                                  
R12  23313604.653                                          18.000  
R24  20848365.196                                          24.000  
E 2  26123105.422       92258.322        2215.007          25.000    26123111.969      313636.052        1654.677          19.000  
E 7  24702611.837       56580.495        1848.671          23.000    24702615.653      265886.386        1375.378          17.000  
E 8  26144644.116     1084442.528        3578.469          13.000                                                                  
E27  25898487.896      -72444.187        -562.705          15.000                                                                  
E36  26831161.151      425386.159        1438.203          11.000                                                                  
J 1  37026120.788      465937.537        1285.753          14.000                                                                  
J 2  39292960.609       72130.144         522.267          27.000    39292961.711       79425.593         386.684          18.000  
J 3  37246104.366      344535.259         958.999          25.000                                                                  
C25  22952203.761     -272283.924        -914.432          19.000                                                                                                                                  
C26  25500083.354      844909.416        2767.629          23.000                                                                                                                                  
C33  25589509.026       88344.827        3199.194          15.000                                                                                                                                  
C34  22430243.345     -392584.345       -1309.537          31.000                                                                    22430245.121     -114327.393        -987.397          25.000  
> 2022  1 25  6 55  8.0000000  0 23                     
G 4  21225744.658      333047.728         916.334          23.000    21225747.043       26461.535         680.877          25.000  
G 8  21631021.492     -802815.702       -2106.211          25.000    21631019.654      -38639.235       -1575.412          16.000  
G 9  22941424.289     -389272.468       -1042.849          14.000                                                                  
G16  20585471.145      618125.392        1652.687          16.000                                                                  
G18  24375272.677      432584.247        1177.793          16.000    24375265.586      150234.222         885.376          13.000  
G26  22176087.427     1016437.725        2726.799          18.000                                                                  
G27  20037171.750     -108809.223        -276.308          23.000    20037167.015      -36545.489        -209.030          20.000  
G31  23437546.371     1214333.828        3321.030          21.000                                                                  
R12  23314131.850                                          17.000  
R24  20847877.098                                          20.000  
E 2  26123527.744      103909.893        2215.178          23.000    26123533.043      320124.299        1652.994          17.000  
E 7  24702963.328       66286.631        1848.832          27.000    24702966.803      271299.559        1383.725          20.000  
E 8  26145330.617     1103246.705        3578.126          12.000                                                                  
E27  25898380.905      -75399.173        -561.914          15.000                                                                  
E30  23912822.765       45070.814         957.501          17.000                                                                  
E36  26928226.899      432946.549        1439.118           8.000                                                                  
J 1  37026365.597      472696.821        1288.075          15.000                                                                  
J 2  39293060.403       74882.919         523.110          27.000    39293059.856       80935.855         386.686          20.000  
J 3  37246287.541      349582.285         961.397          24.000                                                                  
C25  22952028.063     -277050.963        -915.277          21.000                                                                                                                                  
C26  25500615.491      859328.906        2770.367          24.000                                                                                                                                  
C33  25590123.056      104993.996        3196.960          15.000                                                                                                                                  
C34  22429992.838     -399392.808       -1306.280          30.000                                                                    22429995.077     -118179.795        -978.829          18.000  
> 2022  1 25  6 55  9.0000000  0 23                     
G 4  21225917.311      337842.714         909.985          24.000    21225920.865       29131.271         682.663          23.000  
G 8  21630618.845     -813887.763       -2106.171          24.000    21630623.201      -44819.657       -1572.657          18.000  
G 9  22941225.915     -394750.353       -1042.143          14.000                                                                  
G16  20585777.317      626814.808        1653.901          18.000                                                                  
G18  24375502.061      438774.555        1177.417          18.000    24375491.332      153707.545         884.295          13.000  
G26  22176597.035     1030777.341        2729.837          16.000                                                                  
G27  20037118.844     -110265.019           0.026          23.000    20037113.778      -37367.005        -209.602          18.000  
G31  23438176.691     1231775.357        3319.240          26.000                                                                  
R12  23314655.505                                          17.000  
R24  20847388.021                                          22.000  
E 2  26123949.209      115538.455        2214.338          24.000    26123953.994      326603.460        1650.399          16.000  
E 7  24703314.723       75989.580        1846.534          23.000    24703318.111      276711.117        1380.089          18.000  
E 8  26146011.498     1122049.131        3577.951          12.000                                                                  
E27  25898273.831      -78350.739        -561.322          13.000                                                                  
E30  23913004.850       50098.924         956.128          16.000                                                                  
E36  26928500.788      440509.903        1439.168           8.000                                                                  
J 1  37026610.074      479447.402        1283.317          13.000                                                                  
J 2  39293157.806       77647.157         524.170          30.000    39293159.362       82458.527         390.446          18.000  
J 3  37246470.638      354633.640         958.049          26.000                                                                  
C25  22951852.627     -281809.341        -914.631          18.000                                                                                                                                  
C26  25501148.857      873757.739        2769.161          26.000                                                                                                                                  
C33  25590737.294      121649.059        3198.998          14.000                                                                                                                                  
C34  22429741.869     -406193.209       -1307.988          36.000                                                                    22429745.574     -122025.204        -978.994          15.000  
> 2022  1 25  6 55 10.0000000  0 23                     
G 4  21226091.490      342624.503         910.106          24.000    21226093.918       31792.367         679.858          22.000  
G 8  21630217.811     -824964.356       -2105.733          28.000    21630224.707      -50987.225       -1570.447          17.000  
G 9  22941027.776     -400222.321           0.001          15.000                                                                  
G16  20586102.921      635512.980        1655.061          20.000                                                                  
G18  24375726.296      444965.173        1177.803          16.000    24375716.562      157172.711         882.872          14.000  
G26  22177116.903     1045132.958        2731.948          16.000                                                                  
G27  20037066.131     -111720.474        -275.505          25.000    20037060.943      -38184.752        -207.563          17.000  
G31  23438807.952     1249228.996        3321.513          25.000                                                                  
R12  23315179.561                                          17.000  
R24  20846898.568                                          23.000  
E 2  26124370.318      127170.028        2213.092          18.000    26124376.481      333083.837        1651.218          14.000  
E 7  24703666.284       85694.483        1848.234          21.000    24703667.307      282104.972        1375.951          18.000  
E 8  26146692.379     1140852.217        3578.401          12.000                                                                  
E27  25898167.066      -81299.760        -560.980          13.000                                                                  
E30  23913186.796       55123.129         956.077          15.000                                                                  
E36  26831979.994      448074.416        1439.555           9.000                                                                  
J 1  37026856.925      486180.993        1282.252          16.000                                                                  
J 2  39293257.320       80392.947         520.111          23.000    39293259.443       83992.553         390.847          19.000  
J 3  37246650.741      359674.831         959.116          29.000                                                                  
C25  22951676.937     -286567.134        -913.876          20.000                                                                                                                                  
C26  25501680.216      888168.063        2765.748          20.000                                                                    25501687.733       38103.355        2090.781          14.000  
C33  25591349.204      138312.223        3205.464          14.000                                                                                                                                  
C34  22429491.101     -412986.821       -1306.128          28.000                                                                    22429492.450     -125872.794        -979.484          19.000  
> 2022  1 25  6 55 11.0000000  0 23                     
G 4  21226263.776      347401.760         908.300          25.000    21226267.295       34452.990         680.077          22.000  
G 8  21629818.209     -836022.219       -2105.410          30.000    21629822.121      -57151.012       -1571.098          17.000  
G 9  22940829.454     -405699.722           0.001          15.000                                                                  
G16  20586417.871      644210.936        1655.778          16.000                                                                  
G18  24375950.470      451153.523        1177.566          16.000                                                                  
G26  22177644.279     1059489.208        2732.140          17.000                                                                  
G27  20037014.068     -113167.085        -274.536          22.000    20037008.138      -39001.333        -208.543          18.000  
G31  23439439.266     1266685.126        3321.086          25.000                                                                  
R12  23315711.592                                          17.000  
R24  20846408.313                                          25.000  
E 2  26124792.386      138814.141        2217.020          18.000    26124798.767      339554.055        1647.702          14.000  
E 7  24704017.513       95400.611        1848.268          23.000    24704019.113      287507.685        1377.718          18.000  
E 8  26147373.330     1159657.006        3578.277          11.000                                                                  
E27  25898060.381      -84245.846        -560.359          15.000                                                                  
E30  23913368.532       60141.193         954.209          15.000                                                                  
E36  26929048.673      455640.002        1439.591           7.000                                                                  
J 1  37027101.097      492923.924        1282.006          16.000                                                                  
J 2  39293356.643       83130.690         519.261          26.000    39293359.944       85524.669         389.496          20.000  
J 3  37246833.000      364719.866         960.204          30.000                                                                  
C25  22951501.257     -291332.176        -915.720          17.000                                                                                                                                  
C26  25502211.689      902578.815        2768.426          24.000                                                                    25502220.593       46305.791        2089.455          15.000  
C33  25591965.319      155017.782        3206.808          13.000                                                                                                                                  
C34  22429240.706     -419782.163       -1298.952          29.000                                                                    22429240.807     -129735.683        -985.979          21.000  
> 2022  1 25  6 55 12.0000000  0 23                     
G 4  21226435.294      352185.135         911.391          26.000    21226441.178       37126.197         681.259          21.000  
G 8  21629416.653     -847086.089       -2107.245          28.000    21629419.256      -63318.988       -1572.079          17.000  
G 9  22940628.524     -411177.671       -1043.766          15.000                                                                  
G16  20586733.092      652916.310        1657.052          18.000                                                                  
G18  24376184.007      457344.965        1178.813          15.000                                                                  
G26  22178164.382     1073850.317        2733.206          16.000                                                                  
G27  20036962.000     -114612.160        -274.875          22.000    20036955.424      -39822.810        -208.607          19.000  
G31  23440070.947     1284134.279        3316.211          19.000                                                                  
R12  23316248.483                                          17.000  
R24  20845919.927                                          27.000  
E 2  26125214.620      150465.141        2216.866          18.000    26125219.239      346025.325        1650.589          14.000  
E 7  24704369.178      105111.543        1848.865          21.000    24704370.394      292907.127        1377.072          17.000  
E 8  26148054.194     1178459.204        3577.902          11.000                                                                  
E27  25897953.716      -87192.381        -560.884          15.000                                                                  
E30  23913546.359       65150.032         953.157          15.000                                                                  
E36  26929322.598      463204.738        1439.643           8.000                                                                  
J 1  37027344.205      499657.584        1280.194          14.000                                                                  
J 2  39293455.280       85866.919         521.628          28.000    39293459.218       87054.672         389.548          22.000  
J 3  37247015.119      369750.792         957.942          30.000                                                                  
C25  22951325.393     -296101.450        -914.900          19.000                                                                                                                                  
C26  25502746.224      916992.018        2766.152          23.000                                                                    25502753.793       54504.998        2089.360          14.000  
C33  25592581.495      171725.246          -0.000          13.000                                                                                                                                  
C34  22428991.569     -426558.489       -1302.736          27.000                                                                    22428990.771     -133596.507        -981.376          21.000  
> 2022  1 25  6 55 13.0000000  0 23                     
G 4  21226611.165      356973.070         910.725          24.000    21226613.925       39783.951         676.927          21.000  
G 8  21629015.269     -858152.305       -2102.190          24.000    21629014.094      -69493.159       -1575.459          21.000  
G 9  22940430.193     -416654.925       -1042.846          15.000                                                                  
G16  20587050.880      661626.117        1657.947          19.000                                                                  
G18  24376408.339      463537.658        1178.368          16.000                                                                  
G26  22178684.556     1088213.636        2733.040          17.000                                                                  
G27  20036909.749     -116050.394        -272.999          24.000    20036906.123      -40628.743        -205.511          19.000  
G31  23440703.788     1301585.545        3321.558          21.000                                                                  
R12  23316772.173                                          18.000  
R24  20845430.736                                          27.000  
E 2  26125636.759      162113.702        2216.358          17.000    26125640.051      352502.228        1649.889          13.000  
E 7  24704720.870      114823.804        1848.035          23.000    24704722.522      298305.925        1375.095          17.000  
E 8  26148735.032     1197260.760        3577.557          10.000                                                                  
E27  25897846.922      -90142.006        -561.708          16.000                                                                  
E30  23913727.799       70160.806         954.006          15.000                                                                  
E36  26929596.584      470770.329        1439.546           8.000                                                                  
J 1  37027588.159      506394.522        1283.567          16.000                                                                  
J 2  39293556.767       88604.931         522.446          25.000    39293559.152       88585.078         388.866          20.000  
J 3  37247199.036      374792.040         959.421          30.000                                                                  
C25  22951149.216     -300865.884        -915.706          20.000                                                                                                                                  
C26  25503277.539      931399.274        2765.058          19.000                                                                    25503286.994       62712.292        2092.815          14.000  
C33  25593197.967      188440.501          -0.000          12.000                                                                                                                                  
C34  22428740.330     -433352.307       -1307.887          29.000                                                                    22428741.434     -137456.149        -983.317          17.000  
> 2022  1 25  6 55 14.0000000  0 23                     
G 4  21226784.236      361755.186         909.977          26.000    21226788.227       42457.434         678.324          23.000  
G 8  21628619.244     -869199.733       -2102.548          23.000    21628616.944      -75674.064       -1576.585          20.000  
G 9  22940231.723     -422135.434       -1043.144          14.000                                                                  
G16  20587371.135      670343.696        1659.164          17.000                                                                  
G18  24376633.874      469728.402        1177.894          15.000                                                                  
G26  22179204.520     1102568.768        2730.874          16.000                                                                  
G27  20036857.954     -117483.268        -272.047          22.000    20036852.740      -41432.853        -205.790          20.000  
G31  23441335.311     1319040.276        3321.771          19.000                                                                  
R12  23317311.366                                          19.000  
R24  20844943.090                                          26.000  
E 2  26126059.211      173765.373        2216.491          16.000    26126060.715      358976.550        1650.609          11.000  
E 7  24705072.222      124529.943        1846.213          22.000    24705073.577      303707.993        1379.766          17.000  
E 8  26149415.852     1216061.917        3577.747          10.000                                                                  
E27  25897739.516      -93091.679        -561.204          15.000                                                                  
E30  23913909.326       75174.697         953.910          16.000                                                                  
E36  26833075.737      478333.467        1438.897           9.000                                                                  
J 1  37027832.296      513136.844        1285.272          15.000                                                                  
J 2  39293657.485       91347.072         520.841          24.000    39293658.727       90113.498         387.587          20.000  
J 3  37247381.522      379837.256         957.948          28.000                                                                  
C25  22950972.777     -305624.407        -911.561          18.000                                                                                                                                  
C26  25503809.588      945815.977        2766.797          22.000                                                                    25503819.845       70920.512        2092.501          15.000  
C33  25593814.754      205164.904          -0.000          12.000                                                                                                                                  
C34  22428489.858     -440154.427       -1309.097          31.000                                                                    22428490.797     -141318.241        -985.826          20.000  
> 2022  1 25  6 55 15.0000000  0 23                     
G 4  21226958.032      366534.200         911.709          24.000    21226960.722       45105.512         678.653          24.000  
G 8  21628219.721     -880247.814       -2104.289          25.000    21628217.211      -81863.415       -1576.972          19.000  
G 9  22940034.998     -427615.133           0.001          16.000                                                                  
G16  20587675.606      679057.089        1656.323          20.000                                                                  
G18  24376858.223      475921.384        1180.353          17.000                                                                  
G26  22179724.087     1116914.528        2728.083          16.000                                                                  
G27  20036805.574     -118913.966        -272.572          22.000    20036801.817      -42232.421        -203.604          19.000  
G31  23441966.481     1336497.873        3323.517          21.000                                                                  
R12  23317841.216                                          18.000  
R24  20844452.407                                          24.000  
E 2  26126481.332      185421.264        2219.864          15.000    26126481.326      365450.152        1649.518          14.000  
E 7  24705423.486      134233.323        1846.011          23.000    24705427.467      309119.509        1377.815          19.000  
E 8  26150096.655     1234862.799        3577.503          12.000                                                                  
E27  25897632.725      -96041.488        -562.264          18.000                                                                  
E30  23914090.983       80191.698         955.610          17.000                                                                  
E36  26833349.488      485893.111        1438.537          10.000                                                                  
J 1  37028076.460      519878.615        1280.198          16.000                                                                  
J 2  39293758.038       94083.917         519.651          23.000    39293758.468       91633.602         385.139          20.000  
J 3  37247565.011      384879.148         960.972          29.000                                                                  
C25  22950802.306     -310373.277        -912.388          21.000                                                                                                                                  
C26  25504341.008      960225.259        2769.673          18.000                                                                    25504350.392       79130.082        2093.822          14.000  
C33  25594431.706      221895.366          -0.000          10.000                                                                                                                                  
C34  22428239.500     -446956.337       -1299.367          30.000                                                                    22428240.046     -145178.350        -982.167          22.000  
> 2022  1 25  6 55 16.0000000  0 23                     
G 4  21227131.190      371330.281         913.315          23.000    21227134.745       47773.141         676.529          21.000  
G 8  21627821.523     -891303.230       -2102.259          25.000    21627816.614      -88052.745       -1576.922          18.000  
G 9  22939836.685     -433091.628           0.001          15.000                                                                  
G16  20587995.759      687761.611        1656.491          20.000                                                                  
G18  24377082.633      482115.938        1178.143          15.000                                                                  
G26  22180254.224     1131250.815        2727.700          14.000                                                                  
G27  20036753.821     -120347.350        -273.350          22.000    20036749.200      -43029.997        -203.828          18.000  
G31  23442600.447     1353957.143        3320.995          20.000                                                                  
R12  23318365.054                                          17.000  
R24  20843963.557                                          22.000  
E 2  26126904.569      197107.813        2223.106          17.000                                                                  
E 7  24705775.500      143944.055        1845.719          24.000    24705779.011      314529.361        1379.588          16.000  
E 8  26150789.682     1253663.161        3577.582          12.000                                                                  
E27  25897525.769      -98996.352        -562.924          18.000                                                                  
E30  23914272.310       85215.124         956.458          19.000                                                                  
E36  26833632.583      493452.770        1438.341          10.000                                                                  
J 1  37028320.309      526612.008        1282.601          12.000                                                                  
J 2  39293857.133       96820.320         522.884          24.000    39293857.512       93151.787         387.636          19.000  
J 3  37247749.756      389923.285         957.564          27.000                                                                  
C25  22950626.573     -315128.592        -912.680          19.000                                                                                                                                  
C26  25504873.754      974641.264        2766.525          18.000                                                                    25504886.768       87341.052        2092.596          15.000  
C33  25595047.987      238606.036          -0.000          13.000                                                                                                                                  
C34  22427989.482     -453732.544       -1305.633          28.000                                                                    22427990.141     -149029.280        -981.305          20.000  
> 2022  1 25  6 55 17.0000000  0 23                     
G 4  21227305.012      376125.570         912.213          24.000    21227307.929       50432.518         683.564          20.000  
G 8  21627419.992     -902346.429       -2103.246          26.000    21627415.048      -94240.272       -1576.006          17.000  
G 9  22939645.989     -438559.770       -1040.958          17.000                                                                  
G16  20588311.293      696475.837        1658.336          19.000                                                                  
G18  24377317.191      488302.829        1179.532          14.000                                                                  
G26  22180773.447     1145588.461        2728.354          16.000                                                                  
G27  20036700.680     -121774.305        -267.258          23.000    20036697.830      -43833.040        -207.381          20.000  
G31  23443233.113     1371408.412        3322.658          19.000                                                                  
R12  23318887.967                                          18.000  
R24  20843477.091                                          20.000  
E 2  26127319.405      208785.069        2222.294          14.000                                                                  
E 7  24706127.183      153656.984        1847.601          23.000    24706127.692      319934.316        1376.763          17.000  
E 8  26151470.519     1272464.525        3577.814          12.000                                                                  
E27  25897418.677     -101953.537        -562.279          17.000                                                                  
E30  23914454.701       90251.264         956.010          17.000                                                                  
E36  26833906.334      501012.272        1438.360          12.000                                                                  
J 1  37028564.813      533363.760        1287.088          13.000                                                                  
J 2  39293955.871       99569.507         523.738          22.000    39293957.209       94682.676         388.035          19.000  
J 3  37247932.983      394960.022         959.132          30.000                                                                  
C25  22950451.286     -319879.178        -912.956          21.000                                                                                                                                  
C26  25505405.367      989044.781        2768.386          18.000                                                                    25505416.897       95543.848        2090.605          17.000  
C33  25595664.119      255312.079          -0.000          14.000                                                                                                                                  
C34  22427738.818     -460541.102       -1305.899          26.000                                                                    22427740.010     -152883.112        -982.226          18.000  
> 2022  1 25  6 55 18.0000000  0 23                     
G 4  21227476.478      380929.209         913.931          28.000    21227482.920       53107.685         680.415          20.000  
G 8  21627020.634     -913390.435       -2104.661          26.000    21627019.485     -100409.860       -1564.885          21.000  
G 9  22939448.261     -444021.136       -1038.313          16.000                                                                  
G16  20588624.691      705189.581        1657.783          17.000                                                                  
G18  24377541.731      494501.757        1178.254          16.000                                                                  
G26  22181292.617     1159924.783        2727.252          18.000                                                                  
G27  20036650.231     -123193.967        -272.660          21.000                                                                  
G31  23443864.550     1388868.701        3321.687          18.000                                                                  
R12  23319433.496                                          18.000  
R22  23631120.697                                          19.000  
R24  20842989.854                                          20.000  
E 2  26127742.171      220459.705        2221.449          13.000                                                                  
E 7  24706478.761      163372.828        1848.898          21.000    24706478.607      325334.519        1375.713          17.000  
E 8  26152151.409     1291267.986        3578.625          12.000                                                                  
E27  25897309.199     -104904.060        -560.544          18.000                                                                  
E30  23914637.292       95292.444         958.704          16.000                                                                  
E36  26834180.075      508571.709        1438.340          10.000                                                                  
J 1  37028809.448      540118.508        1284.632          15.000                                                                  
J 2  39294055.709      102299.588         520.946          20.000    39294056.340       96208.314         386.473          20.000  
J 3  37248115.556      400005.565         961.588          27.000                                                                  
C25  22950275.658     -324639.189        -917.007          19.000                                                                                                                                  
C26  25505937.293     1003459.187        2768.892          20.000                                                                    25505949.522      103742.244        2088.861          17.000  
C34  22427488.947     -467332.180       -1302.024          26.000                                                                    22427489.746     -156736.278        -981.726          21.000  
> 2022  1 25  6 55 19.0000000  0 22                     
G 4  21227651.687      385738.735         913.655          29.000    21227657.413       55782.750         681.214          20.000  
G 8  21626619.801     -924435.105       -2097.147          23.000    21626617.239     -106561.187       -1568.487          20.000  
G 9  22939250.515     -449481.946       -1039.496          15.000                                                                  
G16  20588942.616      713904.113        1657.261          19.000                                                                  
G18  24377766.324      500702.479        1180.092          17.000                                                                  
G26  22181821.554     1174252.497        2724.504          17.000                                                                  
G27  20036598.120     -124628.584        -274.156          23.000    20036593.638      -45436.654        -205.150          17.000  
G31  23444498.455     1406310.006        3316.431          18.000                                                                  
R12  23319950.223                                          19.000  
R24  20842501.841                                          19.000  
E 2  26128164.746      232129.173        2219.809          12.000                                                                  
E 7  24706830.549      173092.095        1850.792          20.000    24706830.334      330740.037        1377.797          15.000  
E 8  26152832.456     1310075.199        3579.052          12.000                                                                  
E27  25897202.421     -107854.458        -563.257          17.000                                                                  
E30  23914815.599      100327.336         955.880          17.000                                                                  
E36  26834453.721      516128.366        1438.002          11.000                                                                  
J 1  37029053.864      546867.619        1281.635          15.000                                                                  
J 2  39294154.316      105039.416         521.109          28.000    39294155.217       97732.148         387.761          20.000  
J 3  37248297.815      405050.219         962.282          25.000                                                                  
C25  22950099.742     -329409.429        -915.897          18.000                                                                                                                                  
C26  25506470.915     1017881.103        2770.236          23.000                                                                    25506485.134      111940.726        2090.049          15.000  
C34  22427238.684     -474119.552       -1307.576          25.000                                                                    22427240.173     -160591.466        -981.162          18.000  
