     3.03           OBSERVATION DATA    M: Mixed            RINEX VERSION / TYPE
Geo++ RINEX Logger  Geo++               20210912 103229 UTC PGM / RUN BY / DATE
************************************************************COMMENT
This file was generated by the Geo++ RINEX Logger App       COMMENT
for Android devices (Version 2.1.6). If you encounter       COMMENT
any issues, please send an email to android@geopp.de        COMMENT
Filtering Mode: BEST                                        COMMENT
************************************************************COMMENT
Geo++                                                       MARKER NAME
GEODETIC                                                    MARKER TYPE
Geo++               Geo++                                   OBSERVER / AGENCY
unknown             HUAWEI              ELS-AN00            REC # / TYPE / VERS
unknown             ELS-AN00                                ANT # / TYPE
 -2417118.4222  5385886.7706  2406605.1688                  APPROX POSITION XYZ
        0.0000        0.0000        0.0000                  ANTENNA: DELTA H/E/N
G    8 C1C L1C D1C S1C C5Q L5Q D5Q S5Q                      SYS / # / OBS TYPES
R    4 C1C L1C D1C S1C                                      SYS / # / OBS TYPES
E   12 C1B L1B D1B S1B C1C L1C D1C S1C C5Q L5Q D5Q S5Q      SYS / # / OBS TYPES
C    4 C2I L2I D2I S2I                                      SYS / # / OBS TYPES
J    8 C1C L1C D1C S1C C5Q L5Q D5Q S5Q                      SYS / # / OBS TYPES
  2021     9    12    10    32   47.9998602     GPS         TIME OF FIRST OBS
 24 R01  1 R02 -4 R03  5 R04  6 R05  1 R06 -4 R07  5 R08  6 GLONASS SLOT / FRQ #
    R09 -2 R10 -5 R11  0 R12 -1 R13 -2 R14 -7 R15  0 R16 -1 GLONASS SLOT / FRQ #
    R17  4 R18 -3 R19  3 R20  2 R21  4 R22 -3 R23  3 R24  2 GLONASS SLOT / FRQ #
G L1C                                                       SYS / PHASE SHIFT
G L5Q -0.25000                                              SYS / PHASE SHIFT
R L1C                                                       SYS / PHASE SHIFT
E L1B                                                       SYS / PHASE SHIFT
E L1C +0.50000                                              SYS / PHASE SHIFT
E L5Q -0.25000                                              SYS / PHASE SHIFT
C L2I                                                       SYS / PHASE SHIFT
J L1C                                                       SYS / PHASE SHIFT
J L5Q -0.25000                                              SYS / PHASE SHIFT
 C1C    0.000 C1P    0.000 C2C    0.000 C2P    0.000        GLONASS COD/PHS/BIS
                                                            END OF HEADER
> 2021  9 12 10 32 47.9998602  3  1
Geo++                                                       MARKER NAME
> 2021  9 12 10 32 47.9998602  0 15
C06  36695192.247   191081494.6571       -391.758          36.000  
C08  37871668.989   197207718.1261      -2043.702          30.000  
C09  37683092.338   196225750.5531       -493.864          26.000  
C13  36958219.057   192451144.3641      -1812.047          31.000  
C16  37341481.530   194446892.7971       -366.211          19.000  
C23  23926732.568   124592774.4351       2018.016          33.000  
C25  21807294.924   113556307.0461       -495.476          24.000  
C33  22250473.318                        -577.240          31.000  
G10  20151131.662   105894911.2791       -184.133          41.000    20151136.159    79077386.2121       -137.117          23.000  
G12  22426072.853   117849807.3371      -1807.700          21.000  
G25  20787162.647   109237276.7621        -83.941          29.000  
G31  21807452.914   114598938.0311       1430.286          35.000  
G32                                                                  21817474.077    85616454.0231        682.533          24.000  
J01  38045300.686   199929403.5721        841.015          33.000  
R12  19086458.320   101956433.7371       -784.213          38.000  
> 2021  9 12 10 32 48.9998600  0 13
C06  36695206.937   191081573.375        -391.535          36.000  
C08  37872001.159   197209449.638       -2043.873          32.000  
C09  37683130.412   196225932.470        -494.106          26.000  
C13  36958509.556   192452644.803       -1813.709          32.000  
C23  23926287.376   124590444.845        2018.248          33.000  
C33  22250525.182   115864316.4951       -576.194          32.000  
G10  20151110.377   105894781.658        -185.968          40.000  
G12  22426356.157   117851299.096       -1806.389          21.000  
G23  21196731.308   111389574.4671      -2573.277          25.000  
G31  21807122.543   114597194.508        1426.981          35.000  
G32  21817218.054   114650254.3701        913.546          31.000    21817240.239    85615536.913         681.367          23.000  
J01  38045081.838   199928247.808         840.438          35.000  
R12  19086553.354   101956941.758        -785.565          37.000  
> 2021  9 12 10 32 49.9998597  0 16
C06  36695192.547   191081496.015        -391.710          35.000  
C08  37872303.050   197211025.101       -2042.996          33.000  
C09  37683137.906   196225958.218        -493.879          25.000  
C13  36958767.678   192453990.141       -1813.742          31.000  
C16  37341471.038   194446840.5811       -362.427          19.000  
C23  23925810.706   124587959.464        2016.977          33.000  
C24  24470178.348   127422639.5361      -2996.581          20.000  
C25  21807336.895   113556517.3651       -496.072          27.000  
C33  22250551.863   115864424.704        -577.446          34.000  
G10  20151054.016   105894495.241        -185.891          40.000  
G12  22426611.880   117852634.975       -1810.208          23.000  
G23  21197128.833   111391675.333       -2572.980          24.000  
G31  21806760.394   114595293.916        1427.559          35.000  
G32  21816953.937   114648870.777         910.692          33.000    21816976.721    85614502.792         681.219          26.000  
J01  38044827.314                         841.261          34.000  
R12  19086605.218   101957218.672        -785.911          36.000  
> 2021  9 12 10 32 50.9998597  0 14
C06  36695265.696   191081886.633        -390.054          35.000  
C08  37872697.277   197213069.416       -2045.317          32.000  
C13  36959116.336   192455803.212       -1812.634          30.000  
C16  37341544.487   194447203.298        -363.044          19.000  
C23  23925420.076   124585942.482        2019.018          36.000  
C24  24470752.750   127425635.907       -2996.292          21.000  
C25  21807434.327   113557013.934        -496.538          29.000  
C33  22250660.089   115865000.921        -576.542          34.000  
E21                                                                                                                                  24179645.280    94886121.5121       -587.471          32.000  
G10  20151087.892   105894681.643        -185.492          39.000  
G12  22426953.343   117854445.743       -1810.051          21.000  
G31  21806483.386   114593866.120        1430.372          33.000  
G32                                                                  21816803.741    85613821.572         679.895          25.000  
R12  19086752.716   101958006.176        -786.591          36.000  
> 2021  9 12 10 32 51.9998595  0 16
C06  36695281.585   191081964.616        -390.990          33.000  
C08  37873027.948   197214802.595       -2045.779          25.000  
C09  37683263.520   196226632.0901       -492.729          26.000  
C13  36959405.936   192457303.781       -1813.095          25.000  
C16  37341553.181   194447255.443        -365.589          24.000  
C23  23924971.587   124583613.328        2016.701          33.000  
C24  24471267.194   127428320.884       -2998.665          24.000  
C25  21807470.602   113557198.686        -497.632          34.000  
C33  22250712.852   115865265.711        -576.662          32.000  
E21                                                                                                                                  24179734.918    94886474.924        -589.595          34.000  
G10  20151062.710   105894553.599        -186.610          38.000  
G25  20787014.849   109236516.8171        -87.940          28.000  
G31  21806153.014   114592123.337        1425.932          30.000  
G32                                                                  21816571.102    85612905.694         679.356          28.000  
J01  38044450.475   199924919.2961        841.492          34.000  
R12  19086843.253   101958490.657        -787.493          37.000  
> 2021  9 12 10 32 52.9998595  0 17
C06  36695356.833   191082355.000        -389.019          34.000  
C08  37873419.777   197216847.120       -2043.248          31.000  
C09  37683357.954   196227124.362        -491.703          23.000  
C13  36959752.496   192459116.919       -1813.062          28.000  
C16  37341624.831   194447621.102        -365.913          24.000  
C23  23924582.456   124581597.011        2016.631          34.000  
C24  24471839.498   127431320.006       -3000.138          24.000  
C25  21807566.236   113557696.108        -498.057          34.000  
C33  22250820.777   115865843.024        -578.437          33.000  
E21                                                                                                                                  24179884.814    94887063.687        -589.846          33.000  
G10  20151092.389   105894741.377        -189.209          39.000  
G12  22427584.406   117857755.3321      -1812.990          22.000  
G25  20787032.537   109236606.201         -89.476          23.000  
G31  21805874.207   114590696.228        1427.798          31.000  
G32  21816382.832   114645821.3731        911.342          36.000    21816397.822    85612226.211         680.293          26.000  
J01  38044291.885   199924077.827         839.938          31.000  
R12  19086989.552   101959271.454        -788.185          37.000  
> 2021  9 12 10 32 53.9998592  0 18
C05  39289603.673   204591276.2801       -323.306          30.000  
C06  36695342.743   191082276.701        -391.137          33.000  
C08  37873722.268   197218422.121       -2042.975          26.000  
C09  37683360.952   196227148.044        -492.489          26.000  
C13  36960009.718   192460461.264       -1812.596          26.000  
C16  37341606.844   194447517.799        -364.394          24.000  
C23  23924103.388   124579112.631        2014.075          35.000  
C24  24472326.661   127433850.872       -2999.287          25.000  
C25  21807573.431   113557726.015        -497.366          34.000  
C33  22250842.362   115865951.770        -575.510          32.000  
E21                                                                                                                                  24179944.473    94887299.777        -589.141          34.000  
G10  20151042.024   105894456.797        -189.786          37.000  
G12  22427838.930   117859096.689       -1813.509          23.000  
G25  20786960.886   109236222.309         -88.514          27.000  
G31  21805509.960   114588797.290        1424.587          29.000  
G32  21816118.415   114644436.983         911.602          36.000    21816135.204    85611193.873         679.027          27.000  
J01  38044043.657   199922764.801         840.714          33.000  
R12  19087047.712   101959582.420        -788.687          38.000  
> 2021  9 12 10 32 54.9998592  0 17
C06  36695419.190   191082665.177        -389.900          32.000  
C08  37874112.597   197220465.573       -2044.049          28.000  
C09  37683453.588   196227641.024        -493.497          27.000  
C13  36960356.578   192462273.686       -1812.878          29.000  
C16  37341676.695   194447881.968        -364.174          26.000  
C23  23923714.857   124577096.952        2016.772          35.000  
C24  24472904.960   127436850.375       -2999.601          26.000  
C25  21807672.662   113558224.358        -498.886          32.000  
C33  22250956.883   115866529.712        -578.210          32.000  
E21                                                                                                                                  24180092.270    94887886.243        -588.759          32.000  
G10  20151079.198   105894645.695        -188.931          40.000  
G12  22428185.490   117860909.907       -1812.918          23.000  
G25  20786981.872   109236310.777         -89.431          31.000  
G31  21805241.645   114587371.140        1425.584          33.000  
G32  21815952.630   114643525.679         911.715          36.000    21815961.024    85610514.217         679.643          26.000  
J01  38043884.767   199921923.833         841.013          34.000  
R12  19087194.310   101960365.004        -790.880          39.000  
> 2021  9 12 10 33  0.9998579  0 14
C06  36695486.643   191083028.041        -391.683          29.000  
C08  37876081.934   197230705.204       -2045.352          31.000  
C09  37683630.465   196228573.851        -492.710          28.000  
C13  36962060.598   192471122.781       -1814.975          30.000  
C23  23921002.634   124562981.410        2012.590          32.000  
C24  24475978.133   127452815.373       -3001.954          22.000  
C25  21807858.833   113559243.180        -503.048          42.000  
C33  22251234.791   115867978.103        -584.285          31.000  
G10  20150908.616   105893746.444        -194.832          43.000    20150913.113                        -142.842          32.000  
G25  20786706.363   109234878.303         -96.542          31.000  
G31  21803221.644   114576776.311        1422.591          38.000  
G32  21814526.218   114636011.390         910.846          39.000    21814529.515    85604902.443         679.321          31.000  
J01  38042530.904   199914848.882         837.482          30.000    38042537.799   149287089.4511        627.488          30.000  
R12  19087694.964   101963039.440        -796.499          39.000  
> 2021  9 12 10 33  1.9998577  0 16
C06  36695503.432   191083106.771        -390.797          30.000  
C08  37876415.004   197232438.277       -2045.038          27.000  
C09  37683663.742   196228754.336        -493.419          28.000  
C13  36962350.497   192472625.976       -1815.506          30.000  
C23  23920555.944   124560657.004        2010.989          33.000  
C24  24476493.776   127455506.419       -3001.022          21.000  
C25  21807896.907   113559433.893        -502.769          42.000  
C33  22251292.651   115868248.114        -583.013          32.000  
G10  20150888.530   105893626.142        -195.036          40.000    20150890.629    79076421.2461       -145.166          34.000  
G23  21202433.361   111419437.8671      -2574.373          19.000  
G25  20786662.893   109234658.579         -94.829          29.000  
G31  21802892.771   114575039.189        1421.262          36.000  
G32  21814295.977   114634786.421         909.281          38.000    21814295.977    85603987.766         679.152          32.000  
J01  38042312.955   199913694.443         839.174          25.000    38042318.051   149286226.725         627.110          32.000  
J02  37896455.830   199147218.7731       -976.685          24.000  
R12  19087787.000   101963531.203        -797.599          39.000  
> 2021  9 12 10 33  2.9998574  0 12
C06  36695489.941   191083029.486        -390.122          28.000  
C13  36962611.616   192473973.165       -1815.179          30.000  
C23  23920078.974   124558176.650        2012.008          34.000  
C25  21807903.503   113559468.688        -503.429          41.000  
C33  22251313.336   115868362.020        -581.880          35.000  
G10  20150833.968   105893348.753        -195.729          40.000    20150838.465    79076214.143        -145.345          35.000  
G25  20786590.343   109234280.737         -95.016          28.000  
G31  21802531.821   114573144.810        1422.068          37.000  
G32  21814031.860   114633403.684         910.072          38.000    21814032.759                         680.710          31.000  
J01  38042065.326   199912382.532         838.677          23.000    38042068.624   149285247.086         626.589          32.000  
J02  37896549.365   199147723.393        -977.387          21.000  
R12  19087845.460   101963843.674        -798.313          40.000  
> 2021  9 12 10 33  3.9998572  0 14
C06  36695502.532   191083106.795        -390.161          26.000  
C08  37877055.060   197235750.3351      -2045.797          19.000  
C09  37683700.017   196228962.2311       -494.559          21.000  
C13  36962902.415   192475475.623       -1814.542          28.000  
C23  23919634.681   124555852.281        2011.703          35.000  
C25  21807942.176   113559659.596        -503.445          40.000  
C33  22251365.500   115868632.041        -582.637          35.000  
G10  20150807.286   105893229.077        -196.239          40.000    20150815.381    79076124.742        -147.136          35.000  
G23  21203264.386   111423802.4271      -2577.783          19.000  
G25  20786546.873   109234060.691         -95.202          30.000  
G31  21802202.349   114571408.036        1420.928          38.000  
G32  21813799.821   114632178.056         910.119          36.000    21813800.420    85602033.9371        679.878          32.000  
J01  38041847.977   199911228.306         839.792          27.000    38041848.876   149284384.815         627.130          31.000  
R12  19087932.399   101964308.472        -798.066          40.000  
> 2021  9 12 10 33  4.9998572  0 16
C06  36695575.382   191083496.640        -389.843          28.000  
C08  37877447.189   197237797.994       -2047.416          17.000  
C09  37683794.752   196229457.209        -495.235          21.000  
C13  36963250.174   192477289.903       -1814.347          27.000  
C16  37341766.333   194448431.6931       -366.171          25.000  
C23  23919246.750   124553840.610        2010.898          34.000  
C25  21808038.709   113560163.334        -504.303          38.000  
C33  22251477.023   115869214.735        -583.465          36.000  
G10  20150845.060   105893425.274        -196.877          39.000    20150852.855    79076271.284        -147.486          34.000  
G12  22431053.905   117875907.8241      -1818.541          22.000  
G25  20786563.961   109234156.007         -95.709          29.000  
G31  21801931.637   114569986.912        1420.132          37.000  
G32  21813628.939   114631267.694         909.909          36.000    21813627.740    85601354.151         679.510          31.000  
J01  38041689.686   199910388.383         839.742          28.000    38041689.087   149283758.114         626.266          30.000  
J02  37896851.256   199149367.0451       -980.206          17.000  
R12  19088085.593   101965126.098        -799.119          39.000  
> 2021  9 12 10 33  5.9998569  0 15
C06  36695558.294   191083417.745        -389.456          26.000  
C09  37683800.148   196229485.135        -496.492          21.000  
C13  36963508.595   192478636.037       -1814.332          29.000  
C16  37341746.247   194448328.747        -366.001          26.000  
C23  23918772.179   124551361.310        2011.627          34.000  
C25  21808045.005   113560199.519        -504.555          38.000  
C33  22251501.306   115869329.833        -583.613          36.000  
G10  20150792.597   105893149.772        -197.785          40.000    20150800.091    79076065.567        -146.968          35.000  
G12  22431310.227   117877254.028       -1818.868          21.000  
G23  21204150.872   111428487.2401      -2579.890          24.000  
G25  20786489.912   109233779.633         -96.743          29.000  
G31  21801569.488   114568093.964        1420.641          37.000  
G32  21813362.423   114629885.067         911.340          36.000    21813364.222    85600321.673         679.665          31.000  
J01  38041441.758   199909075.157         840.604          24.000    38041439.959   149282779.103         625.815          30.000  
R12  19088143.453   101965435.815        -801.246          39.000  
> 2021  9 12 10 33  6.9998566  0 15
C06  36695542.405   191083339.081        -389.653          29.000  
C08  37878054.568   197240956.9231      -2047.166          25.000  
C09  37683804.945   196229512.268        -494.648          24.000  
C13  36963768.516   192479982.258       -1814.679          29.000  
C16  37341726.461   194448227.138        -368.419          27.000  
C23  23918293.110   124548882.469        2010.572          35.000  
C25  21808051.600   113560236.297        -505.657          40.000  
C33  22251523.491   115869445.421        -583.387          36.000  
G10  20150741.632   105892875.036        -198.724          41.000    20150747.628    79075860.410        -147.740          35.000  
G23  21204550.795   111430594.856       -2580.895          24.000  
G25  20786418.862   109233404.678         -98.436          28.000  
G31  21801207.938   114566201.465        1419.142          37.000  
G32  21813097.407   114628502.593         909.862          38.000    21813100.405    85599289.266         678.582          31.000  
J01                                                                  38041190.232   149281799.538         626.960          32.000  
R12  19088200.114   101965738.689        -801.437          40.000  
> 2021  9 12 10 33  7.9998564  0 15
C06  36695556.795   191083416.891        -390.397          29.000  
C08  37878388.837   197242692.571       -2048.342          22.000  
C09  37683839.121   196229693.682        -493.859          26.000  
C13  36964059.014   192481486.602       -1817.774          28.000  
C16  37341738.153   194448282.100        -366.331          26.000  
C23  23917847.918   124546560.096        2009.525          34.000  
C25  21808086.976   113560429.713        -505.480          40.000  
C33  22251575.955   115869717.605        -583.746          36.000  
G10  20150719.447   105892758.602        -198.778          41.000    20150725.443    79075773.436        -147.883          35.000  
G23  21204982.796   111432860.800       -2581.407          26.000  
G25  20786377.790   109233188.359         -99.583          28.000  
G31  21800879.065   114564467.113        1419.587          37.000  
G32  21812867.166   114627277.704         910.162          37.000    21812867.466    85598374.592         679.977          32.000  
J01  38040977.679   199906612.9131        834.198          17.000    38040969.885   149280937.221         627.286          32.000  
R12  19088293.050   101966235.048        -801.990          40.000  
> 2021  9 12 10 33  8.9998561  0 15
C06  36695541.805   191083339.100        -391.277          30.000  
C09  37683844.517   196229719.281        -494.351          25.000  
C13  36964318.934   192482835.747       -1817.503          30.000  
C16  37341719.565   194448179.451        -365.721          26.000  
C23  23917371.848   124544082.654        2007.894          34.000  
C25  21808095.370   113560468.182        -506.781          41.000  
C33  22251598.739   115869834.791        -585.866          36.000  
G10  20150668.782   105892485.997        -200.596          41.000    20150673.579    79075569.862        -149.271          36.000  
G12  22432109.774   117881452.8821      -1821.658          21.000  
G23  21205387.516   111434969.796       -2582.167          24.000  
G25  20786306.439   109232815.652        -100.698          27.000  
G31  21800519.315   114562576.267        1417.916          37.000  
G32  21812603.349   114625896.040         908.956          37.000    21812604.548    85597342.874         676.767          33.000  
J01                                                                  38040721.057                         628.222          32.000  
R12  19088355.706   101966569.009        -804.986          40.000  
> 2021  9 12 10 33  9.9998561  0 14
C06  36695615.554   191083730.682        -392.296          29.000  
C09  37683939.252   196230213.626        -493.811          24.000  
C13  36964667.893   192484653.227       -1817.772          30.000  
C16  37341791.815   194448546.321        -367.717          24.000  
C23  23916986.615   124542074.198        2006.830          34.000  
C25  21808192.502   113560975.727        -508.553          40.000  
C33  22251710.561   115870421.010        -588.035          36.000  
G10  20150707.156   105892686.931        -201.929          41.000    20150712.252    79075719.903        -151.617          36.000  
G12  22432456.633   117883275.395       -1823.592          24.000  
G23  21205878.876   111437552.544       -2583.006          25.000  
G31  21800247.703   114561158.821        1417.729          36.000  
G32  21812430.369   114624987.304         908.168          37.000    21812431.268    85596664.252         677.885          32.000  
J01                                                                  38040560.968   149279333.6881        626.918          32.000  
R12  19088504.104   101967361.819        -805.221          40.000  
> 2021  9 12 10 33 10.9998559  0 17
C06  36695631.143   191083810.213        -391.123          29.000  
C08  37879420.723   197248060.9181      -2049.437          21.000  
C09  37683973.728   196230394.520        -492.565          26.000  
C13  36964956.293   192486159.031       -1818.051          30.000  
C16  37341802.008   194448601.256        -366.866          26.000  
C23  23916544.121   124539753.553        2009.300          34.000  
C25  21808231.775   113561171.200        -507.313          40.000  
C33  22251759.727   115870695.051        -584.557          36.000  
E01                                                                                                                                  24343683.918                        1277.847          28.000  
G10  20150685.271   105892573.102        -200.401          41.000    20150690.667    79075634.891        -150.582          36.000  
G12  22432744.734   117884784.061       -1823.781          23.000  
G23  21206308.478   111439820.575       -2583.115          26.000  
G25  20786292.649   109232703.9351       -102.031          24.000  
G31  21799919.730   114559426.397        1417.271          36.000  
G32  21812200.128   114623763.182         909.697          38.000    21812198.629    85595750.105         678.544          31.000  
J01                                                                  38040341.220   149278471.852         627.298          32.000  
R12  19088595.240   101967848.834        -805.419          40.000  
> 2021  9 12 10 33 11.9998559  0 16
C06  36695706.391   191084200.849        -390.606          30.000  
C08  37879815.549   197250110.508       -2051.111          24.000  
C09  37684067.863   196230886.884        -492.872          25.000  
C13  36965305.851   192487976.981       -1818.151          29.000  
C16  37341871.260   194448967.384        -365.345          26.000  
C23  23916156.190   124537745.273        2007.240          34.000  
C25  21808328.308   113561679.220        -508.631          39.000  
C33  22251874.248   115871281.578        -586.895          35.000  
E01                                                                                                                                  24343358.344                        1277.357          25.000  
G10  20150723.644   105892774.871        -202.709          41.000    20150728.741    79075785.582        -151.326          36.000  
G12  22433090.395   117886608.175       -1824.714          21.000  
G25  20786310.337   109232806.444        -103.255          22.000  
G31  21799646.918   114558009.355        1415.573          36.000  
G32  21812028.047   114622854.105         908.140          39.000    21812025.349    85595071.289         677.560          31.000  
J01                                                                  38040181.730   149277845.291         626.902          32.000  
R12  19088747.235   101968660.658        -806.604          40.000  
> 2021  9 12 10 33 12.9998556  0 16
C06  36695691.102   191084123.231        -390.448          30.000  
C09  37684071.760   196230912.549        -494.481          25.000  
C13  36965565.771   192489326.726       -1818.321          31.000  
C16  37341852.673   194448863.068        -363.561          23.000  
C23  23915680.719   124535269.150        2007.701          35.000  
C25  21808333.405   113561719.565        -508.661          40.000  
C33  22251900.030   115871400.374        -587.074          36.000  
E01                                                                                                                                  24342942.232    95526935.3881       1276.676          27.000  
G10  20150670.881   105892504.840        -203.788          41.000    20150677.776    79075583.904        -150.407          36.000  
G12  22433345.818   117887960.355       -1825.168          21.000  
G23  21207201.860   111444515.0501      -2583.631          23.000  
G25  20786238.087   109232437.316        -103.724          23.000  
G31  21799289.566   114556120.204        1415.403          36.000  
G32  21811768.427   114621472.467         908.403          39.000    21811762.131    85594039.563         680.943          32.000  
J01  38039949.091   199901167.0991        838.385          26.000    38039932.902   149276865.798         627.418          32.000  
R12  19088808.993   101968991.260        -808.328          40.000  
> 2021  9 12 10 33 13.9998554  0 13
C06  36695706.991   191084201.435        -390.329          30.000  
C09  37684107.135   196231094.591        -493.982          21.000  
C13  36965855.970   192490832.403       -1818.220          29.000  
C16  37341863.766   194448915.729        -366.435          25.000  
C23  23915237.326   124532949.643        2006.321          35.000  
C25  21808369.080   113561916.550        -510.765          37.000  
C33  22251951.894   115871675.773        -588.074          35.000  
E01                                                                                                                                  24342556.998    95525422.948        1276.143          26.000  
G10  20150649.296   105892393.049        -204.169          40.000    20150656.791    79075500.468        -152.621          36.000  
G12  22433636.617   117889470.576       -1825.766          24.000  
G32  21811536.088   114620248.522         907.510          38.000    21811528.293    85593125.617         678.362          30.000  
J01                                                                  38039713.454   149276004.233         627.560          31.000  
R12  19088904.626   101969501.240        -808.957          39.000  
> 2021  9 12 10 33 14.9998554  0 14
C06  36695782.838   191084591.542        -390.060          29.000  
C08  37880845.636   197255478.5091      -2048.015          18.000  
C13  36966205.528   192492650.095       -1817.725          28.000  
C16  37341935.116   194449281.585        -366.046          25.000  
C23  23914853.591   124530942.803        2008.900          34.000  
C25  21808466.513   113562426.351        -509.502          36.000  
C33  22252067.314   115872263.837        -589.290          35.000  
E01                                                                                                                                  24342230.824    95524146.213        1277.586          27.000  
G10  20150688.868   105892597.188        -204.789          39.000    20150695.464    79075652.884        -152.612          37.000  
G12  22433984.376   117891296.870       -1826.722          24.000  
G31  21798694.178   114552973.7731       1415.372          33.000  
G32  21811359.810   114619339.853         907.012          37.000    21811355.913    85592446.980         680.614          29.000  
J01  38039570.154   199899173.5271        839.329          29.000    38039554.864   149275377.894         625.484          31.000  
R12  19089051.824   101970288.134        -809.432          38.000  
> 2021  9 12 10 33 15.9998551  0 13
C06  36695768.148   191084514.224        -390.830          27.000  
C13  36966465.748   192493999.811       -1817.506          30.000  
C16  37341918.628   194449180.039        -367.559          27.000  
C23  23914376.622   124528468.090        2006.150          34.000  
C25  21808472.808   113562468.406        -512.246          36.000  
C33  22252089.499   115872384.163        -589.919          35.000  
E01                                                                                                                                  24341815.312    95522515.676        1278.403          25.000  
G10  20150639.702   105892329.444        -206.531          39.000    20150643.900    79075452.954        -153.988          37.000  
G12  22434242.197   117892651.351       -1827.435          25.000  
G31  21798330.230   114551086.375        1412.964          33.000  
G32  21811098.391   114617958.762         908.067          37.000    21811093.294    85591415.691         679.073          30.000  
J01  38039321.026   199897861.574         838.627          29.000    38039305.737   149274398.752         625.861          30.000  
R12  19089109.385   101970595.621        -810.215          38.000  
> 2021  9 12 10 33 16.9998548  0 15
C06  36695753.758   191084436.522        -390.873          28.000  
C09  37684216.560   196231644.5351       -496.008          20.000  
C13  36966725.069   192495349.482       -1818.728          29.000  
C16  37341899.741   194449079.284        -368.473          28.000  
C23  23913903.549   124525993.930        2006.212          35.000  
C25  21808481.802   113562511.121        -509.814          35.000  
C33  22252114.682   115872505.095        -589.015          35.000  
E01                                                                                                                                  24341398.900    95520885.069        1277.347          25.000  
G10  20150589.037   105892062.542        -205.858          40.000    20150593.834    79075253.692        -154.325          37.000  
G12  22434503.616   117894006.755       -1828.302          24.000  
G23  21208926.266   111453602.5311      -2588.387          16.000  
G31  21797971.978   114549199.693        1412.972          33.000  
G32  21810835.473   114616577.852         908.143          36.000    21810831.875    85590384.398         679.016          29.000  
J01  38039071.299   199896550.267         838.845          31.000    38039056.009   149273419.775         627.820          30.000  
R12  19089170.242   101970920.189        -812.074          37.000  
> 2021  9 12 10 33 17.9998546  0 17
C05  39289704.104   204591875.6201       -325.437          28.000  
C06  36695769.048   191084514.973        -390.432          28.000  
C09  37684254.034   196231828.605        -495.905          22.000  
C13  36967014.968   192496855.696       -1818.901          30.000  
C16  37341911.433   194449134.944        -367.985          26.000  
C23  23913458.357   124523676.197        2006.580          35.000  
C25  21808519.576   113562710.506        -512.469          34.000  
C33  22252166.246   115872782.582        -589.454          35.000  
E01                                                                                                                                  24341013.967    95519373.187        1276.602          25.000  
G10  20150566.253   105891953.875        -206.350          39.000    20150573.148    79075172.515        -155.234          37.000  
G12  22434792.316   117895519.832       -1828.370          24.000  
G23  21209359.766   111455875.248       -2587.444          17.000  
G25  20786055.813   109231392.9441       -107.421          16.000  
G31  21797645.204   114547470.805        1413.756          35.000  
G32  21810603.134   114615354.555         906.995          35.000    21810600.735    85589470.837         677.375          31.000  
J01  38038851.851   199895396.599         838.544          30.000    38038835.962   149272558.590         626.190          30.000  
R12  19089267.675   101971440.896        -813.202          37.000  
> 2021  9 12 10 33 18.9998543  0 17
C06  36695754.058   191084437.329        -392.549          26.000  
C08  37882078.383   197261957.1171      -2048.880          23.000  
C09  37684263.927   196231856.131        -495.614          24.000  
C13  36967275.488   192498206.654       -1819.807          30.000  
C16  37341893.445   194449034.338        -368.550          26.000  
C23  23912978.989   124521203.372        2002.793          33.000  
C25  21808528.870   113562754.937        -513.266          35.000  
C33  22252185.732   115872905.101        -591.206          34.000  
E01                                                                                                                                  24340599.354    95517743.930        1276.084          23.000  
G10  20150515.289   105891689.086        -207.065          38.000    20150522.484    79074974.819        -154.500          36.000  
G12  22435049.538   117896876.177       -1830.228          25.000  
G23  21209764.186   111457990.313       -2588.226          24.000  
G25  20785989.559   109231027.596        -107.648          17.000  
G31  21797286.353   114545585.631        1412.466          35.000  
G32  21810342.014   114613974.488         907.391          36.000    21810339.616    85588440.359         676.067          29.000  
J01                                                                  38038585.635   149271580.179         625.184          29.000  
R12  19089337.527   101971814.108        -814.116          37.000  
> 2021  9 12 10 33 19.9998543  0 15
C06  36695828.407   191084829.368        -392.363          27.000  
C08  37882471.711   197264006.086       -2049.680          29.000  
C09  37684361.659   196232351.907        -495.783          23.000  
C13  36967624.146   192500026.550       -1820.066          32.000  
C16  37341965.695   194449402.845        -367.983          25.000  
C23  23912596.454   124519199.757        2004.349          30.000  
C25  21808626.902   113563268.546        -511.685          34.000  
C33  22252295.756   115873496.635        -590.892          33.000  
E01                                                                                                                                  24340274.978    95516466.869        1277.909          25.000  
G10  20150556.660   105891897.908        -209.178          39.000    20150562.056    79075130.742        -156.025          36.000  
G25  20786008.746   109231135.841        -109.089          23.000  
G31  21797014.741   114544173.935        1411.404          35.000  
G32  21810169.034   114613067.474         906.812          37.000    21810167.535    85587763.049         677.575          29.000  
J01                                                                  38038425.846   149270954.951         626.767          28.000  
R12  19089491.020   101972633.755        -815.575          37.000  
> 2021  9 12 10 33 20.9998541  0 15
C06  36695844.895   191084909.193        -391.657          27.000  
C08  37882804.780   197265744.042       -2050.388          27.000  
C09  37684396.135   196232535.803        -495.108          21.000  
C13  36967911.348   192501534.652       -1819.623          32.000  
C16  37341977.987   194449458.768        -368.043          26.000  
C23  23912153.361   124516884.056        2005.254          31.000  
C25  21808663.776   113563470.065        -512.402          33.000  
C33  22252347.920   115873776.030        -589.383          34.000  
E01                                                                                                                                  24339891.544    95514955.570        1274.474          24.000  
G10  20150536.274   105891791.971        -209.033          38.000    20150542.570    79075051.648        -154.988          36.000  
G25  20785972.171   109230932.606        -114.249          20.000  
G31  21796686.468   114542447.490        1412.205          35.000  
G32  21809932.198   114611845.078         910.537          36.000    21809933.397    85586850.236         679.147          30.000  
J01  38038212.993   199892093.6401        838.252          30.000    38038208.196   149270094.157         626.342          28.000  
R12  19089577.361   101973095.036        -816.023          36.000  
> 2021  9 12 10 33 21.9998538  0 16
C06  36695830.505   191084831.872        -391.162          30.000  
C08  37883109.369   197267326.270       -2051.264          26.000  
C09  37684401.831   196232562.615        -494.613          26.000  
C13  36968169.769   192502886.411       -1819.654          30.000  
C16  37341958.800   194449357.125        -365.504          26.000  
C23  23911679.988   124514412.024        2005.213          34.000  
C25  21808673.969   113563515.663        -512.883          35.000  
C33  22252374.901   115873899.460        -590.834          32.000  
E01                                                                                                                                  24339477.830    95513328.711        1272.627          24.000  
G10  20150486.808   105891528.844        -209.486          36.000    20150492.205    79074855.172        -156.304          37.000  
G12  22435954.012   117901583.5641      -1834.422          22.000  
G23  21211085.671   111464967.6581      -2587.279          18.000  
G31  21796324.918   114540563.284        1411.558          33.000  
G32  21809667.481   114610464.795         908.197          32.000    21809670.479    85585819.516         677.023          31.000  
J01  38037961.167   199890783.062         837.459          31.000    38037959.069   149269115.584         627.059          30.000  
R12  19089636.719   101973412.490        -815.698          36.000  
> 2021  9 12 10 33 22.9998536  0 17
C05  39289719.093   204591940.3081       -324.098          31.000  
C06  36695843.696   191084910.407        -390.398          26.000  
C08  37883444.237   197269064.603       -2049.906          28.000  
C09  37684435.108   196232745.140        -494.596          24.000  
C13  36968458.769   192504393.778       -1819.881          30.000  
C16  37341969.293   194449410.167        -365.963          27.000  
C23  23911233.897   124512096.722        2002.675          32.000  
C25  21808710.844   113563718.000        -514.624          36.000  
C33  22252429.164   115874179.651        -591.754          32.000  
E01                                                                                                                                  24339093.796    95511820.783        1274.368          23.000  
G10  20150468.821   105891424.118        -210.188          38.000    20150472.718    79074776.984        -156.491          38.000  
G12  22436249.608   117903103.110       -1834.714          22.000  
G23  21211514.674   111467240.032       -2587.973          23.000  
G31  21795997.245   114538837.289        1409.320          31.000  
G32  21809437.840   114609242.346         907.910          35.000    21809438.440    85584906.632         675.800          30.000  
J01  38037739.921   199889630.686         837.522          29.000    38037740.220   149268254.806         626.934          29.000  
R12  19089731.754   101973919.556        -817.456          36.000  
> 2021  9 12 10 33 23.9998533  0 14
C06  36695827.807   191084832.785        -392.552          25.000  
C08  37883749.426   197270646.066       -2049.453          30.000  
C13  36968718.089   192505745.763       -1820.569          32.000  
C16  37341952.204   194449308.051        -367.778          27.000  
C23  23910758.726   124509625.625        2000.041          32.000  
C25  21808719.837   113563764.795        -516.617          35.000  
C33  22252451.948   115874304.117        -591.844          33.000  
E01                                                                                                                                  24338681.282    95510195.361        1270.214          24.000  
G10  20150416.957   105891162.597        -211.391          39.000    20150422.952    79074581.669        -157.294          38.000  
G23  21211915.197   111469356.621       -2590.655          24.000  
G31  21795639.293   114536954.327        1409.482          33.000  
G32  21809175.822   114607862.418         905.740          36.000    21809176.421    85583876.107         678.075          30.000  
J01  38037483.598   199888320.595         837.583          29.000    38037490.793   149267276.441         624.766          29.000  
R12  19089799.507   101974282.206        -817.725          37.000  
> 2021  9 12 10 33 24.9998533  0 14
C06  36695902.156   191085225.148        -392.547          26.000  
C08  37884142.754   197272695.838       -2050.321          30.000  
C09  37684530.442   196233262.5971       -492.880          21.000  
C13  36969069.446   192507566.100       -1819.730          31.000  
C16  37342025.654   194449676.206        -368.019          26.000  
C23  23910379.789   124507623.484        2002.794          32.000  
C25  21808819.369   113564280.532        -514.622          34.000  
C33  22252570.366   115874897.452        -593.460          33.000  
E01                                                                                                                                  24338356.906    95508924.375        1270.452          23.000  
G10  20150455.930   105891374.484        -211.808          39.000    20150463.125    79074739.899        -158.415          38.000  
G23  21212408.655   111471947.035       -2589.781          23.000  
G31  21795376.075   114535544.613        1410.218          32.000  
G32  21809005.839   114606955.314         907.715          36.000    21809004.041    85583198.811         675.510          30.000  
J01  38037319.911   199887482.933         837.445          30.000    38037331.903   149266651.089         626.348          27.000  
> 2021  9 12 10 33 25.9998531  0 15
C06  36695917.145   191085305.094        -391.178          29.000  
C08  37884477.622   197274434.257       -2050.187          31.000  
C09  37684565.818   196233442.586        -492.212          20.000  
C13  36969358.446   192509074.095       -1820.712          30.000  
C16  37342036.746   194449732.350        -368.442          23.000  
C23  23909937.295   124505309.399        2001.790          30.000  
C25  21808856.843   113564484.464        -516.117          33.000  
C33  22252627.926   115875178.919        -594.267          34.000  
E01                                                                                                                                  24337971.973    95507417.612        1272.275          24.000  
G10  20150438.242   105891271.827        -212.729          40.000    20150443.938    79074663.280        -158.545          38.000  
G12  22437148.385   117907816.4801      -1832.082          21.000  
G31  21795044.505   114533820.193        1406.410          32.000  
G32  21808773.200   114605733.155         907.332          36.000    21808771.702    85582286.062         676.842          29.000  
J01  38037098.964   199886330.311         837.837          30.000    38037111.855   149265790.369         623.390          27.000  
R12  19090049.534   101975617.5121       -818.902          34.000  
> 2021  9 12 10 33 26.9998528  0 14
C06  36695901.856   191085227.451        -390.514          29.000  
C08  37884782.211   197276016.310       -2050.419          30.000  
C09  37684570.315   196233468.103        -494.213          21.000  
C13  36969617.167   192510426.951       -1821.776          30.000  
C16  37342017.259   194449631.299        -367.194          24.000  
C25  21808868.534   113564532.691        -516.854          34.000  
C33  22252648.312   115875304.640        -592.714          34.000  
E01                                                                                                                                  24337556.460    95505792.240        1272.347          25.000  
G10  20150385.179   105891012.282        -214.802          40.000    20150394.772    79074469.422        -161.045          38.000  
G12  22437409.804   117909176.987       -1832.177          20.000  
G31  21794685.653   114531939.680        1407.246          31.000  
G32  21808514.180   114604353.327         906.815          35.000    21808508.184    85581257.003         672.233          31.000  
J01                                                                  38036862.428   149264812.025         625.239          28.000  
R12  19090110.092   101975941.294        -819.782          35.000  
> 2021  9 12 10 33 27.9998525  0 16
C06  36695885.367   191085148.829        -389.720          29.000  
C08  37885087.100   197277599.045       -2051.522          31.000  
C09  37684573.912   196233493.666        -494.027          23.000  
C13  36969875.887   192511779.937       -1821.405          28.000  
C16  37341998.672   194449529.448        -367.044          22.000  
C23  23908988.752   124500367.0441       2005.167          25.000  
C24  24489938.568   127525466.2051      -3006.434          25.000  
C25  21808879.927   113564581.500        -516.562          36.000  
C33  22252669.298   115875430.924        -594.597          34.000  
E01                                                                                                                                  24337140.648    95504167.657        1272.311          24.000  
G10  20150335.713   105890753.565        -214.079          40.000    20150345.306    79074276.209        -159.905          38.000  
G25  20785663.684   109229208.3341       -113.763          18.000  
G31  21794327.401   114530058.900        1407.853          23.000  
G32  21808246.765   114602973.838         909.092          35.000    21808244.367    85580225.162         677.030          27.000  
J01  38036598.311   199883709.8671        837.646          31.000    38036613.001   149263834.145         624.281          27.000  
R12  19090169.750   101976260.052        -820.943          32.000  
> 2021  9 12 10 33 28.9998525  0 14
C06  36695960.016   191085539.023        -390.809          29.000  
C08  37885482.826   197279650.498       -2051.407          31.000  
C09  37684668.947   196233988.058        -495.062          22.000  
C13  36970225.146   192513601.050       -1821.404          30.000  
C23  23908604.118   124498362.410        2003.770          17.000  
C24  24490515.369   127528472.669       -3007.553          25.000  
C25  21808977.059   113565099.126        -516.504          37.000  
C33  22252783.818   115876025.939        -594.489          35.000  
E01                                                                                                                                  24336816.273    95502896.613        1270.411          23.000  
G10  20150377.084   105890968.094        -214.097          41.000    20150386.078    79074436.383        -160.697          37.000  
G31  21794059.986   114528651.201        1407.274          27.000  
G32  21808066.590   114602066.774         909.432          34.000    21808071.087    85579547.706         677.850          29.000  
J01  38036439.421   199882872.615         837.391          29.000    38036453.811   149263209.180         626.248          28.000  
R12  19090319.347   101977058.611        -822.069          29.000  
> 2021  9 12 10 33 29.9998525  0 16
C05  39289824.321   204592490.9461       -323.891          28.000  
C06  36696034.964   191085929.497        -390.284          29.000  
C08  37885879.451   197281701.986       -2051.551          31.000  
C09  37684762.482   196234483.265        -494.666          23.000  
C13  36970574.404   192515422.403       -1821.741          32.000  
C23  23908220.383   124496359.493        2001.795          26.000  
C24  24491090.971   127531480.416       -3008.053          25.000  
C25  21809079.289   113565617.075        -519.686          36.000  
C33  22252900.138   115876621.237        -596.185          35.000  
E01                                                                                                                                  24336491.597    95501625.271        1271.035          22.000  
G10  20150419.955   105891183.094        -215.338          42.000    20150427.150    79074596.952        -161.301          37.000  
G23  21214631.616   111483651.2951      -2597.461          19.000  
G31  21793793.471   114527243.736        1406.953          25.000  
G32  21807891.211   114601159.731         904.144          34.000    21807898.706    85578871.452         675.863          28.000  
J01                                                                  38036294.022   149262583.056         626.944          28.000  
R12  19090472.241   101977875.508        -823.598          30.000  
> 2021  9 12 10 33 30.9998523  0 15
C06  36696050.253   191086007.517        -390.141          31.000  
C08  37886214.619   197283441.402       -2051.966          31.000  
C13  36970864.603   192516931.926       -1822.303          31.000  
C16  37342161.759   194450312.6411       -367.419          19.000  
C24  24491607.213   127534176.203       -3006.970          24.000  
C25  21809114.664   113565823.302        -517.252          36.000  
C33  22252954.700   115876904.627        -597.061          36.000  
E21                                                                                                                                  24183507.506    94901277.3301       -605.243          38.000  
G10  20150399.868   105891083.768        -215.473          41.000    20150408.263    79074522.761        -162.031          36.000  
G12  22438644.350   117915717.3421      -1837.111          23.000  
G25  20785657.689   109229240.2491       -118.622          26.000  
G31  21793468.196   114525521.863        1406.544          24.000  
G32                                                                  21807667.566    85577959.512         677.463          28.000  
J01  38036059.284   199880882.0341        838.151          29.000    38036073.674   149261720.965         625.561          26.000  
R12  19090565.776   101978374.943        -824.359          27.000  
> 2021  9 12 10 33 31.9998520  0 15
C06  36696037.062   191085929.480        -390.062          28.000  
C08  37886518.009   197285024.932       -2051.973          33.000  
C13  36971125.123   192518285.668       -1822.260          29.000  
C23  23907310.813   124491578.7031       1999.672          24.000  
C24  24492094.975   127536715.105       -3007.442          20.000  
C25  21809125.157   113565873.926        -519.578          36.000  
C33  22252979.883   115877031.136        -598.716          33.000  
E21                                                                                                                                  24183571.062    94901529.202        -605.255          38.000  
G10  20150354.600   105890827.490        -216.639          41.000    20150359.396    79074331.381        -163.780          36.000  
G23  21215471.335   111488058.7041      -2597.406          25.000  
G25  20785589.636   109228886.202        -118.928          27.000  
G31  21793112.942   114523642.618        1406.174          28.000  
G32                                                                  21807405.247    85576929.277         676.856          30.000  
J01  38035811.056   199879571.294         837.364          29.000    38035824.247   149260742.190         625.433          27.000  
R12  19090627.534   101978704.878        -825.077          29.000  
> 2021  9 12 10 33 32.9998518  0 16
C06  36696054.750   191086007.619        -390.685          29.000  
C08  37886851.079   197286764.893       -2052.183          29.000  
C09  37684841.927   196234867.2701       -490.742          18.000  
C13  36971417.720   192519795.711       -1821.606          27.000  
C16  37342149.168   194450265.9041       -367.154          27.000  
C23  23906864.722   124489266.780        1999.044          24.000  
C24  24492613.317   127539411.095       -3008.985          22.000  
C25  21809171.325   113566081.162        -518.932          36.000  
E21                                                                                                                                  24183665.197    94901899.336        -605.718          36.000  
G10  20150336.912   105890729.526        -216.915          42.000    20150340.210    79074258.288        -159.992          35.000  
G12  22439192.370   117918606.6201      -1838.288          14.000  
G23  21215902.137   111490335.187       -2584.700          18.000  
G25  20785550.063   109228690.119        -119.270          33.000  
G32                                                                  21807172.009    85576017.156         676.531          33.000  
J01  38035593.407   199878418.987         837.108          31.000    38035605.099   149259882.619         624.014          28.000  
R12  19090719.570   101979196.897        -825.919          31.000  
> 2021  9 12 10 33 33.9998515  0 15
C06  36696041.259   191085929.840        -390.860          26.000  
C08  37887156.268   197288348.764       -2052.263          32.000  
C09  37684846.424   196234891.073        -493.762          19.000  
C13  36971679.139   192521150.391       -1823.285          21.000  
C23  23906390.150   124486799.889        1998.553          27.000  
C24  24493100.779   127541951.343       -3007.886          19.000  
C25  21809180.618   113566132.755        -520.971          37.000  
E21                                                                                                                                  24183729.652    94902152.187        -606.407          38.000  
G10  20150290.744   105890474.736        -218.511          43.000    20150292.543    79074068.013        -163.201          31.000  
G23  21216299.661   111492450.832       -2593.222          17.000  
G25  20785482.010   109228336.895        -119.938          32.000  
G31  21792428.516   114520043.5571       1404.854          28.000  
G32                                                                  21806909.691    85574988.031         676.054          31.000  
J01  38035345.478   199877109.014         837.711          31.000    38035355.671   149258904.122         626.264          26.000  
R12  19090783.126   101979536.683        -826.853          31.000  
> 2021  9 12 10 33 34.9998515  0 16
C06  36696117.107   191086320.780        -391.451          31.000  
C08  37887549.895   197290400.968       -2051.812          30.000  
C09  37684941.758   196235385.965        -495.420          25.000  
C13  36972027.498   192522972.847       -1822.021          24.000  
C23  23906004.318   124484800.699        1998.430          30.000  
C24  24493677.880   127544959.199       -3007.833          20.000  
C25  21809272.655   113566653.344        -523.819          37.000  
C33  22253177.146   115878049.7831       -598.780          24.000  
E21                                                                                                                                  24183884.345    94902758.442        -606.247          38.000  
G10  20150327.918   105890693.344        -219.545          41.000    20150334.214    79074231.261        -163.451          33.000  
G12  22439792.555   117921812.3521      -1839.996          19.000  
G25  20785505.694   109228458.331        -121.616          31.000  
G31  21792164.099   114518638.113        1405.406          30.000  
G32  21806733.113   114595046.7111        906.667          28.000    21806737.010    85574311.923         675.870          31.000  
J01  38035185.089   199876271.323         837.238          29.000    38035195.882   149258278.579         624.970          29.000  
R12  19090936.020   101980352.864        -827.801          32.000  
> 2021  9 12 10 33 35.9998513  0 15
C06  36696132.996   191086399.252        -390.421          31.000  
C08  37887884.164   197292140.713       -2052.072          30.000  
C09  37684978.332   196235569.828        -495.886          28.000  
C13  36972315.299   192524483.032       -1822.685          30.000  
C23  23905559.426   124482490.781        1997.328          29.000  
C24  24494192.923   127547655.600       -3009.713          23.000  
C25  21809314.925   113566862.221        -521.134          32.000  
C33  22253227.811   115878335.558        -597.582          28.000  
E21                                                                                                                                  24183980.279    94903129.806        -606.767          37.000  
G10  20150309.631   105890597.494        -219.468          39.000    20150315.927    79074159.705        -163.230          38.000  
G25  20785467.920   109228263.066        -114.606          24.000  
G31  21791838.224   114516917.983        1404.806          30.000  
G32  21806501.073   114593825.505         905.816          29.000    21806504.371    85573399.566         677.778          29.000  
J01  38034966.541   199875119.371         836.373          27.000    38034977.033   149257417.747         625.482          28.000  
R12  19091031.354   101980862.743        -828.816          32.000  
> 2021  9 12 10 33 36.9998510  0 16
C06  36696117.407   191086321.388        -391.026          30.000  
C08  37888188.753   197293724.408       -2052.335          29.000  
C09  37684982.829   196235596.658        -495.078          29.000  
C13  36972574.619   192525837.196       -1822.297          30.000  
C23  23905086.353   124480025.294        1996.351          28.000  
C24  24494680.685   127550195.149       -3007.099          24.000  
C25  21809323.320   113566915.506        -522.195          33.000  
C33  22253252.094   115878465.281        -598.602          29.000  
E21                                                                                                                                  24184044.434    94903383.876        -606.632          37.000  
G10  20150260.165   105890344.864        -220.220          40.000    20150267.660    79073971.134        -165.007          39.000  
G12  22440337.578   117924711.6141      -1843.037          20.000  
G25  20785407.062   109227907.293        -118.059          22.000  
G31  21791483.270   114515040.840        1404.035          32.000  
G32  21806238.755   114592447.044         905.933          28.000    21806240.854    85572367.694         678.051          29.000  
J01  38034716.813   199873810.833         835.868          23.000    38034728.805   149256439.587         624.706          28.000  
R12  19091097.009   101981212.541        -829.729          32.000  
> 2021  9 12 10 33 37.9998508  0 15
C06  36696131.797   191086400.427        -391.425          30.000  
C08  37888521.822   197295465.655       -2054.285          29.000  
C09  37685016.706   196235779.041        -494.445          29.000  
C13  36972865.418   192527346.688       -1821.809          29.000  
C16  37342180.346   194450539.0821       -366.499          19.000  
C23  23904642.061   124477716.508        1996.921          29.000  
C24  24495197.827   127552889.665       -3007.513          25.000  
C25  21809364.391   113567125.495        -521.033          33.000  
C33  22253306.057   115878751.898        -599.653          30.000  
E21                                                                                                                                  24184139.169    94903755.936        -607.722          38.000  
G10  20150240.978   105890250.534        -221.371          40.000    20150249.373    79073900.673        -164.041          38.000  
G31  21791159.794   114513322.036        1403.151          27.000  
G32  21806004.617   114591225.996         905.947          30.000    21806008.814    85571455.533         675.055          28.000  
J01  38034501.263   199872660.233         835.153          25.000    38034509.957   149255580.403         622.778          29.000  
R12  19091191.143   101981716.336        -830.791          32.000  
> 2021  9 12 10 33 38.9998505  0 12
C06  36696115.008   191086323.785        -391.856          30.000  
C09  37685023.001   196235805.575        -496.140          28.000  
C13  36973126.837   192528700.727       -1822.527          28.000  
C23  23904169.888   124475250.948        1997.115          27.000  
C25  21809379.381   113567179.936        -523.381          32.000  
C33  22253329.441   115878883.051        -599.491          30.000  
E21                                                                                                                                  24184204.524    94904010.884        -607.963          37.000  
G10  20150192.712   105889999.372        -222.582          39.000    20150202.305    79073713.140        -165.481          38.000  
G23  21218507.333   111503864.4361      -2600.123          23.000  
G32                                                                  21805746.496    85570427.440         674.479          27.000  
J01  38034254.833   199871352.500         835.236          31.000    38034260.529   149254603.873         624.026          28.000  
R12  19091257.398   101982069.922        -831.752          31.000  
> 2021  9 12 10 33 39.9998505  0 14
C06  36696189.956   191086715.475        -391.693          32.000  
C09  37685118.635   196236301.360        -495.511          26.000  
C13  36973477.294   192530522.528       -1822.268          26.000  
C23  23903788.252   124473253.885        1996.949          28.000  
C25  21809476.813   113567703.156        -521.367          32.000  
C33  22253443.362   115879482.504        -600.104          27.000  
E21                                                                                                                                  24184359.516    94904619.015        -609.173          37.000  
G10  20150237.081   105890221.531        -222.721          39.000    20150244.576    79073879.011        -165.908          36.000  
G12  22441244.150   117929451.5301      -1843.167          20.000  
G23  21219008.286   111506464.608       -2600.410          27.000  
G25  20785316.225   109227484.4701       -124.517          27.000  
G32  21805570.817   114588941.2381        906.857          32.000    21805574.115    85569751.514         678.277          25.000  
J01                                                                  38034100.140   149253979.219         625.394          29.000  
R12  19091413.589   101982903.861        -832.550          33.000  
> 2021  9 12 10 33 40.9998502  0 11
C06  36696173.168   191086638.254        -391.481          31.000  
C09  37685123.732   196236328.086        -494.720          26.000  
C13  36973736.915   192531876.693       -1822.912          28.000  
C23  23903318.177   124470788.918        1996.439          28.000  
C24  24496736.362   127560977.1971      -3007.786          18.000  
C25  21809492.403   113567758.590        -525.326          31.000  
C33  22253465.546   115879614.696        -601.402          28.000  
E21                                                                                                                                  24184424.571    94904874.675        -609.434          38.000  
G10  20150191.812   105889971.758        -223.221          39.000    20150196.609    79073692.514        -166.778          37.000  
G32  21805305.801   114587562.269         906.590          33.000    21805310.298    85568720.185         678.886          25.000  
J01                                                                  38033850.113   149253001.052         624.817          29.000  
> 2021  9 12 10 33 41.9998500  0 14
C06  36696188.757                        -391.823          32.000  
C09  37685159.107   196236509.970        -494.044          27.000  
C13  36974026.814   192533387.447       -1822.817          28.000  
C23  23902877.182   124468481.013        1995.086          28.000  
C25  21809530.176   113567970.418        -525.438          30.000  
C33  22253519.209   115879902.922        -599.773          26.000  
E21                                                                                                                                  24184519.605    94905248.285        -609.011          38.000  
G10  20150171.427   105889880.148        -224.781          39.000    20150179.221    79073624.155        -167.653          34.000  
G12  22441793.969   117932346.3291      -1836.299          18.000  
G23  21219855.800   111510878.1821      -2601.070          24.000  
G31  21789852.699   114506459.9351       1401.370          24.000  
G32  21805071.663   114586340.458         907.204          31.000    21805077.659    85567806.208         677.937          26.000  
J01  38033634.263                         837.440          33.000    38033629.766   149252140.069         625.824          29.000  
R12  19091583.272   101983810.7041       -834.156          32.000  
> 2021  9 12 10 33 42.9998497  0 15
C06  36696173.468   191086605.7951       -389.192          32.000  
C08  37890141.001   197304012.8081      -2052.622          24.000  
C09  37685163.904   196236535.132        -492.686          26.000  
C13  36974286.134   192534741.799       -1822.908          28.000  
C23  23902406.808   124466017.020        1995.637          28.000  
C25  21809542.768   113568026.712        -525.429          29.000  
C33  22253544.092   115880034.801        -601.009          25.000  
E21                                                                                                                                  24184585.260    94905504.411        -609.290          38.000  
G10  20150118.663   105889631.558        -225.462          38.000    20150131.854    79073438.469        -167.599          33.000  
G12  22442054.489   117933712.684       -1841.178          17.000  
G23  21220257.222   111513006.494       -2600.576          25.000  
G31  21789495.046   114504585.745        1401.486          28.000  
G32  21804809.644   114584960.725         906.887          29.000    21804814.741    85566774.844         677.511          29.000  
J01                                                                  38033380.039   149251160.457         626.299          28.000  
R12  19091655.222   101984194.684        -834.806          31.000  
> 2021  9 12 10 33 43.9998495  0 15
C06  36696190.556   191086683.791        -389.319          33.000  
C08  37890477.668   197305753.490       -2053.588          26.000  
C09  37685200.179   196236715.662        -493.002          27.000  
C23  23901967.312   124463710.363        1993.967          27.000  
C25  21809583.839   113568239.458        -522.640          29.000  
C33  22253599.554   115880323.218        -600.951          25.000  
E21                                                                                                                                  24184680.594    94905878.608        -608.463          37.000  
G10  20150099.476   105889541.120        -223.367          32.000    20150114.166    79073370.961        -167.723          35.000  
G12  22442340.791   117935241.053       -1845.525          17.000  
G23  21220687.724   111515292.266       -2601.179          28.000  
G25  20785094.978   109226412.5651       -127.231          26.000  
G31  21789173.069   114502869.254        1401.281          28.000  
G32  21804577.905   114583739.086         906.223          34.000    21804583.301    85565861.814         677.676          28.000  
J01  38033173.482   199865634.8701        838.276          28.000    38033160.891   149250298.831         626.693          28.000  
R12  19091754.453   101984725.405        -835.437          30.000  
> 2021  9 12 10 33 44.9998495  0 15
C06  36696266.703   191087074.025        -391.821          35.000  
C09  37685296.712   196237208.328        -493.153          29.000  
C13  36974934.885   192538074.2821      -1822.993          24.000  
C23  23901586.876   124461715.145        1995.807          25.000  
C24  24498831.612   127571912.0601      -3010.016          19.000  
C25  21809683.970   113568765.094        -527.054          31.000  
C33  22253715.873   115880923.483        -599.886          25.000  
E21                                                                                                                                  24184835.887    94906488.530        -609.940          38.000  
G10  20150140.548   105889766.553        -224.539          32.000    20150156.737    79073539.331        -168.530          39.000  
G23  21221180.582   111517893.926       -2602.126          27.000  
G25  20785116.863   109226539.911        -127.473          27.000  
G31  21788911.650   114501468.023        1400.675          27.000  
G32  21804404.625   114582833.228         905.955          36.000    21804411.220    85565185.582         675.343          28.000  
J01  38033015.191   199864798.584         835.814          29.000    38032999.902   149249671.818         626.838          27.000  
R12  19091911.545   101985564.152        -836.210          29.000  
> 2021  9 12 10 33 45.9998492  0 17
C06  36696252.913   191086995.869        -391.384          36.000  
C08  37891174.086   197309390.4871      -2051.775          20.000  
C09  37685303.907   196237233.398        -493.779          30.000  
C13  36975196.904   192539430.194       -1825.415          25.000  
C14  23113039.176   120355660.0901      -1867.359          22.000  
C23  23901115.002   124459250.751        1995.845          27.000  
C25  21809692.964   113568822.805        -525.725          30.000  
C33  22253741.955   115881055.793        -600.647          24.000  
E21                                                                                                                                  24184901.241    94906745.854        -611.097          37.000  
G10  20150097.378   105889519.898        -228.563          30.000    20150109.969    79073355.223        -170.057          38.000  
G12  22442947.571   117938459.7331      -1845.487          17.000  
G23  21221583.803   111520023.488       -2602.555          22.000  
G25  20785047.911   109226195.180        -128.308          26.000  
G31  21788557.595   114499595.109        1399.775          29.000  
G32  21804140.208   114581454.743         905.664          35.000    21804150.401    85564156.843         675.375          27.000  
J01  38032766.364   199863489.735         836.402          30.000    38032750.775   149248693.699         624.866          25.000  
R12  19091980.497   101985932.477        -837.501          29.000  
> 2021  9 12 10 33 46.9998490  0 17
C06  36696264.005   191087073.887        -390.073          34.000  
C08  37891507.755   197311130.887       -2053.594          22.000  
C09  37685339.282   196237414.770        -494.402          30.000  
C13  36975487.403   192540942.143       -1825.233          28.000  
C14  23113336.270   120357214.429       -1865.493          22.000  
C23  23900674.907   124456943.320        1994.324          27.000  
C25  21809738.532   113569037.119        -527.384          31.000  
C33  22253795.018   115881345.356        -604.222          25.000  
E21                                                                                                                                  24184996.875    94907121.216        -610.836          37.000  
G10                                                                  20150093.780    79073289.333        -169.049          38.000  
G12  22443231.474   117939991.111       -1846.821          18.000  
G23  21222015.504   111522311.408       -2603.306          24.000  
G25  20785010.137   109226008.750        -129.137          26.000  
G31  21788233.220   114497880.597        1398.786          27.000  
G32  21803910.267   114580233.780         906.209          35.000    21803918.961    85563246.262         674.659          26.000  
J01  38032548.115   199862338.417         835.941          30.000    38032531.626   149247833.758         624.595          25.000  
R12  19092080.328   101986465.848        -838.357          29.000  
> 2021  9 12 10 33 47.9998490  0 17
C06  36696339.553   191087463.834        -389.554          34.000  
C08  37891901.982   197313184.355       -2053.648          25.000  
C09  37685432.818   196237909.161        -494.283          29.000  
C13  36975837.560   192542767.211       -1824.171          26.000  
C14  23113691.225   120359080.285       -1866.339          23.000  
C23  23900294.171   124454948.592        1994.785          25.000  
C25  21809836.564   113569564.092        -528.056          31.000  
C33  22253909.839   115881950.013        -605.514          25.000  
E21                                                                                                                                  24185152.168    94907732.135        -611.280          37.000  
G10  20150121.661   105889658.2341       -227.351          28.000    20150137.250    79073459.120        -169.629          39.000  
G12  22443584.929   117941838.308       -1847.523          20.000  
G23  21222507.764   111524914.806       -2603.805          23.000  
G25  20785032.621   109226138.641        -130.402          25.000  
G31  21787971.501   114496481.890        1398.302          26.000  
G32  21803739.385                         906.281          35.000    21803746.281    85562571.047         674.649          27.000  
J01  38032387.426   199861502.470         835.838          27.000    38032373.036   149247208.991         625.625          26.000  
R12  19092235.920   101987296.433        -839.206          28.000  
> 2021  9 12 10 33 48.9998487  0 12
C06  36696326.961   191087385.831        -390.567          35.000  
C08  37892206.871   197314770.574       -2055.789          24.000  
C09  37685437.614   196237935.329        -494.875          29.000  
C13  36976096.281   192544122.678       -1824.325          25.000  
C16  37342318.251   194451278.0181       -368.426          25.000  
C25  21809845.858   113569623.562        -528.272          31.000  
E21                                                                                                                                  24185218.422    94907990.887        -612.066          36.000  
G10  20150072.495   105889413.495        -228.273          27.000    20150090.483    79073276.811        -170.621          39.000  
G31  21787616.547   114494610.962        1397.912          28.000  
G32  21803474.968   114578045.1081        905.617          36.000    21803482.463    85561541.195         676.424          25.000  
J01  38032138.898   199860193.710         836.174          30.000    38032124.508   149246231.519         624.220          26.000  
R12  19092301.575   101987647.480        -839.816          28.000  
> 2021  9 12 10 33 49.9998487  0 15
C06  36696401.010   191087776.452        -390.730          36.000  
C08  37892601.998   197316826.540       -2056.713          24.000  
C09  37685533.848   196238430.396        -495.798          29.000  
C13  36976444.040   192545946.831       -1824.467          25.000  
C14  23114320.189   120362348.5151      -1871.667          22.000  
C16  37342388.103   194451646.130        -367.799          25.000  
C25  21809945.389   113570152.130        -529.624          31.000  
C33  22254054.639   115882693.5261       -605.785          25.000  
E21                                                                                                                                  24185374.314    94908603.023        -611.810          37.000  
G10  20150114.166   105889642.199        -229.162          28.000    20150134.252    79073448.063        -171.879          39.000  
G23  21223405.942   111529648.6791      -2603.155          25.000  
G31  21787350.931   114493213.529        1396.561          28.000  
G32  21803304.686   114577140.057         906.158          37.000    21803307.984    85560864.699         675.404          26.000  
J01  38031980.608   199859357.464         836.925          29.000    38031965.318   149245608.258         622.447          27.000  
R12  19092453.569   101988459.926        -841.316          26.000  
> 2021  9 12 10 33 50.9998484  0 13
C06  36696382.723   191087698.215        -390.377          35.000  
C09  37685539.844   196238457.274        -495.095          29.000  
C13  36976703.361   192547303.782       -1825.816          28.000  
C14  23114587.904   120363751.457       -1871.214          23.000  
C23  23898978.382   124448038.4661       1989.119          22.000  
C25  21809954.982   113570212.517        -528.667          33.000  
C33  22254081.920   115882830.795        -604.994          24.000  
E21                                                                                                                                  24185440.568    94908862.352        -612.510          37.000  
G10  20150065.600   105889398.795        -230.261          29.000    20150087.784    79073266.651        -172.226          39.000  
G31  21786996.576   114491344.120        1396.989          28.000  
G32  21803040.869   114575762.011         906.137          37.000    21803045.066    85559837.855         673.485          26.000  
J01                                                                  38031716.790   149244632.033         625.022          25.000  
R12  19092519.824   101988813.201        -842.193          28.000  
> 2021  9 12 10 33 51.9998482  0 15
C06  36696395.314   191087775.792        -389.652          34.000  
C08  37893247.750   197320161.6581      -2057.726          20.000  
C09  37685574.320   196238639.402        -493.592          30.000  
C13  36976993.860   192548817.689       -1826.102          27.000  
C14  23114887.996   120365309.609       -1869.515          23.000  
C23  23898536.188   124445737.114        1989.932          26.000  
C25  21810001.450   113570429.174        -528.572          31.000  
C33  22254135.882   115883122.262        -603.864          26.000  
E21                                                                                                                                  24185536.202    94909239.450        -613.065          37.000  
G10  20150047.313   105889314.743        -231.317          25.000    20150071.596    79073203.191        -172.434          39.000  
G23  21224242.962   111534069.6241      -2604.124          22.000  
G31  21786670.702   114489632.115        1397.174          29.000  
G32  21802813.626   114574541.125         907.308          33.000    21802813.027    85558926.996         676.430          27.000  
J01                                                                  38031497.342   149243771.888         624.635          26.000  
R12  19092615.457   101989324.205        -842.672          27.000  
> 2021  9 12 10 33 52.9998479  0 14
C06  36696381.524   191087697.142        -389.839          34.000  
C08  37893551.740   197321749.725       -2055.499          25.000  
C09  37685577.917   196238665.160        -493.937          29.000  
C13  36977253.180   192550175.687       -1826.065          26.000  
C14  23115161.107   120366709.891       -1869.348          23.000  
C23  23898062.516   124443278.039        1991.355          27.000  
C25  21810011.643   113570490.168        -528.936          32.000  
C33  22254161.365   115883258.369        -605.205          25.000  
E21                                                                                                                                  24185602.756    94909499.280        -612.324          37.000  
G10  20150001.144   105889073.201        -231.129          27.000    20150025.128    79073022.527        -172.700          40.000  
G31  21786315.148   114487762.706        1396.051          29.000  
G32  21802548.010   114573162.832         907.382          37.000    21802550.109    85557896.732         677.637          28.000  
J01  38031253.611   199855585.4101        837.214          28.000    38031248.515   149242794.687         624.054          26.000  
R12  19092682.911   101989684.691        -843.271          25.000  
> 2021  9 12 10 33 53.9998477  0 14
C06  36696395.014   191087775.196        -389.499          34.000  
C08  37893885.709   197323492.982       -2055.817          23.000  
C09  37685613.892   196238846.640        -493.684          29.000  
C13  36977543.379   192551689.359       -1825.131          26.000  
C14  23115460.899   120368267.650       -1870.883          23.000  
C23  23897618.523   124440974.323        1991.256          30.000  
C25  21810051.216   113570708.425        -531.939          31.000  
C33  22254219.824   115883551.636        -605.996          27.000  
E21                                                                                                                                  24185699.289    94909877.481        -614.209          37.000  
G10  20149986.455   105888989.614        -232.562          26.000    20150009.239    79072960.470        -174.909          39.000  
G31  21785989.273   114486051.493        1396.056          28.000  
G32  21802313.572   114571942.787         905.190          35.000    21802317.470    85556983.971         676.506          27.000  
J01  38031033.563   199854433.231         836.610          29.000    38031029.066   149241935.517         624.840          25.000  
R12  19092780.043   101990203.034        -844.605          28.000  
> 2021  9 12 10 33 54.9998477  0 15
C06  36696473.560   191088165.629        -391.679          34.000  
C08  37894282.634   197325548.472       -2055.540          21.000  
C09  37685708.027   196239340.213        -493.414          29.000  
C13  36977892.638   192553514.902       -1826.409          27.000  
C14  23115818.852   120370138.987       -1872.222          21.000  
C23  23897233.889   124438982.415        1991.037          28.000  
C25  21810155.544   113571239.646        -533.593          31.000  
C33  22254335.244   115884157.552        -606.315          27.000  
E21                                                                                                                                  24185855.481    94910491.672        -614.617          37.000  
G10  20150033.822   105889222.808        -233.845          27.000    20150053.908    79073134.410        -174.708          39.000  
G23  21225576.439   111541101.1941      -2608.679          15.000  
G31  21785723.657   114484656.146        1394.574          30.000  
G32  21802143.290   114571038.101         904.164          36.000    21802145.988    85556307.092         676.142          27.000  
J01  38030873.474   199853596.931         835.484          28.000    38030869.277   149241311.813         623.630          25.000  
R12  19092937.434   101991043.988        -845.820          27.000  
> 2021  9 12 10 33 55.9998474  0 14
C06  36696459.470   191088087.337        -390.326          35.000  
C09  37685713.423   196239365.234        -493.837          29.000  
C13  36978151.059   192554873.110       -1826.736          29.000  
C23  23896760.217   124436523.761        1989.669          27.000  
C25  21810171.732   113571302.623        -534.204          32.000  
C33  22254362.226   115884296.446        -608.888          26.000  
E21                                                                                                                                  24185922.334    94910753.024        -615.540          36.000  
G10                                                                  20150008.339    79072955.694        -175.524          39.000  
G23  21225982.058   111543239.308       -2614.079          15.000  
G25  20784763.108   109224683.1911       -136.397          29.000  
G31  21785367.804   114482788.919        1394.352          30.000  
G32  21801877.075   114569660.468         902.218          35.000    21801884.270    85555277.684         677.053          26.000  
J01  38030619.550   199852289.582         834.799          26.000    38030619.850   149240335.516         623.630          24.000  
R12  19093007.586   101991418.514        -846.445          27.000  
> 2021  9 12 10 33 56.9998472  0 15
C06  36696473.860   191088164.682        -388.571          35.000  
C08  37894930.785   197328878.6371      -2054.506          27.000  
C09  37685749.399   196239546.574        -493.150          29.000  
C13  36978440.059   192556387.263       -1826.339          29.000  
C14  23116387.858   120373103.4571      -1873.547          19.000  
C23  23896314.126   124434221.341        1990.516          28.000  
C25  21810218.800   113571521.835        -528.551          31.000  
C33  22254420.985   115884593.389        -608.679          26.000  
E21                                                                                                                                  24186018.868    94911131.982        -615.095          37.000  
G10  20149978.360   105888900.7281       -232.864          27.000    20149992.450    79072894.732        -174.215          39.000  
G25  20784731.030   109224504.552        -136.586          30.000  
G31  21785041.929   114481079.917        1393.769          30.000  
G32  21801642.337   114568439.968         903.161          35.000    21801652.830    85554366.206         675.264          27.000  
J01  38030399.502   199851138.810         835.935          27.000    38030400.701   149239474.735         625.491          24.000  
R12  19093103.519   101991931.783        -846.977          27.000  
> 2021  9 12 10 33 57.9998469  0 14
C06  36696460.069   191088086.069        -390.449          35.000  
C08  37895235.974   197330465.591       -2055.416          27.000  
C09  37685752.996   196239571.694        -494.054          29.000  
C13  36978698.780   192557744.806       -1825.245          24.000  
C23  23895841.653   124431762.859        1990.295          28.000  
C25  21810223.896   113571585.418        -532.465          33.000  
C33  22254445.268   115884732.907        -607.497          25.000  
E21                                                                                                                                  24186085.721    94911393.721        -615.719          36.000  
G10  20149933.391   105888661.651        -234.260          29.000    20149947.182    79072716.774        -175.238          39.000  
G25  20784668.074   109224168.955        -137.585          29.000  
G31  21784685.476   114479213.287        1394.067          31.000  
G32  21801383.017   114567062.187         906.420          35.000    21801392.610    85553337.905         672.917          28.000  
J01  38030149.176   199849829.705         837.306          28.000    38030151.874   149238496.400         624.598          25.000  
R12  19093178.767   101992333.574        -847.802          29.000  
> 2021  9 12 10 33 58.9998467  0 14
C06  36696471.461   191088163.332        -389.347          33.000  
C08  37895573.241   197332208.769       -2056.295          29.000  
C09  37685787.172   196239753.048        -493.465          27.000  
C14  23116958.962   120376071.1971      -1874.856          19.000  
C23  23895398.560   124429460.800        1989.570          26.000  
C25  21810270.064   113571805.631        -532.607          32.000  
C33  22254503.728   115885028.595        -608.667          26.000  
E21                                                                                                                                  24186181.955    94911773.551        -614.307          36.000  
G10  20149916.603   105888581.327        -236.798          28.000    20149932.192    79072656.947        -175.452          38.000  
G12  22446773.222   117958555.5991      -1852.554          19.000  
G25  20784634.197   109223991.497        -137.302          30.000  
G32  21801153.376   114565841.891         903.950          36.000    21801160.571    85552427.818         674.931          28.000  
J01  38029929.128   199848677.369         837.152          29.000    38029932.725   149237635.796         625.772          25.000  
R12  19093278.898   101992868.367        -848.816          27.000  
> 2021  9 12 10 33 59.9998467  0 14
C06  36696551.206   191088552.821        -390.305          33.000  
C08  37895970.166   197334265.075       -2056.707          27.000  
C09  37685881.307   196240245.971        -492.879          28.000  
C13  36979338.836   192561083.1131      -1824.559          24.000  
C23  23895015.725   124427470.312        1990.719          26.000  
C25  21810368.396   113572338.536        -531.247          34.000  
C33  22254622.146   115885637.174        -608.765          29.000  
E21                                                                                                                                  24186339.046    94912388.927        -615.708          36.000  
G10  20149964.270   105888818.626        -238.073          22.000    20149976.861    79072832.819        -176.171          39.000  
G25  20784661.778   109224128.997        -138.272          30.000  
G31  21784090.388   114476110.5901       1393.533          26.000  
G32  21800980.395   114564936.681         905.236          35.000    21800988.790    85551752.744         674.485          29.000  
J01  38029769.039   199847840.440         836.736          28.000    38029774.135   149237009.750         625.976          24.000  
R12  19093434.790   101993701.250        -849.209          25.000  
> 2021  9 12 10 34  0.9998464  0 15
C06  36696536.816   191088473.711        -389.391          36.000  
C08  37896276.554   197335853.150       -2055.631          29.000  
C09  37685887.003   196240270.391        -492.309          28.000  
C13  36979601.455   192562439.594       -1824.804          27.000  
C14  23117592.124   120379351.0461      -1872.518          20.000  
C25  21810382.786   113572403.484        -533.105          33.000  
C33  22254649.427   115885778.280        -609.197          28.000  
E21                                                                                                                                  24186405.900    94912651.686        -615.827          37.000  
G10  20149917.502   105888584.111        -238.977          28.000    20149931.892    79072656.202        -176.810          39.000  
G12  22447395.591   117961792.5651      -1858.582          20.000  
G25  20784597.023   109223795.256        -139.644          30.000  
G31  21783734.834   114474244.950        1392.590          27.000  
G32  21800714.479   114563558.792         905.031          35.000    21800726.471    85550725.215         675.721          28.000  
J01  38029518.412   199846531.533         835.856          27.000    38029525.307   149236031.689         623.277          25.000  
R12  19093509.139   101994098.420        -850.157          29.000  
> 2021  9 12 10 34  1.9998461  0 15
C06  36696520.627   191088394.433        -389.085          35.000  
C08  37896583.541   197337439.231       -2054.469          28.000  
C09  37685890.301   196240294.387        -492.672          29.000  
C13  36979861.375   192563795.636       -1824.508          26.000  
C14  23117863.136   120380755.783       -1874.099          20.000  
C23  23894065.383   124422552.7181       1988.709          26.000  
C25  21810396.577   113572468.684        -534.556          31.000  
C33  22254677.008   115885919.129        -609.486          27.000  
E21                                                                                                                                  24186472.454    94912914.643        -616.319          37.000  
G10  20149870.135   105888349.839        -238.488          24.000    20149886.924    79072479.976        -177.077          38.000  
G23  21228592.651   111556883.5981      -2611.987          19.000  
G25  20784532.568   109223461.904        -139.466          30.000  
G32  21800457.857   114562180.814         905.543          35.000    21800463.253    85549696.217         676.751          28.000  
J01  38029269.584   199845222.730         836.214          29.000    38029275.281   149235054.503         623.610          25.000  
R12  19093583.787   101994497.424        -851.087          29.000  
> 2021  9 12 10 34  2.9998459  0 14
C06  36696534.418   191088471.186        -390.106          34.000  
C08  37896919.309   197339181.550       -2055.147          29.000  
C09  37685924.178   196240474.789        -492.808          29.000  
C13  36980152.773   192565308.884       -1825.733          24.000  
C25  21810442.445   113572690.507        -536.334          33.000  
C33  22254733.369   115886216.434        -609.634          28.000  
E21                                                                                                                                  24186569.886    94913295.589        -616.644          37.000  
G10  20149854.246   105888272.829        -238.106          26.000    20149871.934    79072421.865        -177.774          38.000  
G23  21229033.946   111559180.017       -2611.489          20.000  
G25  20784501.389   109223286.487        -139.948          31.000  
G31  21783047.710   114470672.9861       1391.983          29.000  
G32  21800226.417   114560960.379         904.649          35.000    21800231.214    85548784.238         676.809          28.000  
J01  38029050.436   199844071.887         835.543          29.000    38029057.331   149234195.099         623.968          25.000  
R12  19093679.721   101995009.324        -851.895          29.000  
> 2021  9 12 10 34  3.9998456  0 15
C06  36696517.330   191088391.719        -388.424          35.000  
C08  37897224.198   197340768.568       -2055.515          28.000  
C09  37685929.274   196240499.819        -493.194          29.000  
C13  36980413.293   192566665.940       -1825.307          24.000  
C14  23118428.845   120383724.3231      -1874.459          21.000  
C16  37342438.168   194451931.5791       -364.711          24.000  
C25  21810455.336   113572756.639        -535.807          34.000  
C33  22254759.750   115886357.811        -610.526          28.000  
E21                                                                                                                                  24186637.339    94913559.229        -617.300          37.000  
G10  20149808.378   105888038.291        -238.214          28.000    20149827.265    79072246.582        -177.912          38.000  
G25  20784439.332   109222954.236        -140.949          31.000  
G31  21782691.257   114468808.457        1391.679          29.000  
G32  21799964.399   114559582.387         905.721          37.000    21799969.195    85547754.957         676.007          28.000  
J01  38028801.309   199842762.565         836.361          29.000    38028808.803   149233215.937         626.848          25.000  
R12  19093749.872   101995383.979        -852.683          29.000  
> 2021  9 12 10 34  4.9998456  0 16
C06  36696592.278   191088780.417        -387.756          34.000  
C08  37897619.024   197342823.891       -2055.530          30.000  
C09  37686022.510   196240993.599        -493.943          28.000  
C13  36980763.150   192568491.925       -1827.234          22.000  
C14  23118790.095   120385598.843       -1875.680          21.000  
C16  37342508.619   194452295.789        -364.655          23.000  
C25  21810556.966   113573291.490        -535.380          34.000  
C33  22254878.468   115886968.601        -611.287          29.000  
E21                                                                                                                                  24186794.131    94914176.149        -615.979          37.000  
G10  20149849.749   105888276.558        -238.387          27.000    20149872.534    79072424.632        -177.947          38.000  
G12  22448600.457   117967966.6411      -1858.315          20.000  
G25  20784466.613   109223095.399        -141.697          31.000  
G31  21782425.341   114467416.818        1391.455          31.000  
G32  21799792.318   114558677.080         905.998          37.000    21799797.114    85547078.031         677.545          29.000  
J01  38028641.819   199841925.877         836.535          26.000    38028649.614   149232589.732         626.437          25.000  
R12  19093905.165   101996213.853        -853.599          28.000  
> 2021  9 12 10 34  5.9998456  0 14
C06  36696669.025   191089169.038        -389.169          35.000  
C08  37898014.451   197344879.395       -2055.565          29.000  
C09  37686115.745   196241486.752        -493.031          28.000  
C13  36981113.608   192570317.408       -1824.528          25.000  
C25  21810660.094   113573826.767        -538.506          34.000  
C33  22254998.085   115887579.560        -610.990          30.000  
E21                                                                                                                                  24186951.522    94914793.327        -617.579          37.000  
G10  20149895.018   105888514.964        -238.827          25.000    20149918.102    79072603.205        -179.911          39.000  
G23  21230458.559   111566812.1051      -2613.700          17.000  
G25  20784494.494   109223237.366        -142.305          31.000  
G31  21782160.624   114466025.494        1391.119          30.000  
G32  21799617.239   114557771.693         905.264          37.000    21799625.333    85546400.509         677.421          29.000  
J01  38028482.030   199841090.609         836.074          26.000    38028490.424   149231964.221         625.687          25.000  
R12  19094061.656   101997049.823        -854.612          28.000  
> 2021  9 12 10 34  6.9998454  0 14
C06  36696681.316   191089245.408        -388.163          34.000  
C08  37898348.719   197346622.768       -2055.919          31.000  
C09  37686149.022   196241667.126        -492.324          29.000  
C16  37342586.265   194452713.7541       -365.727          22.000  
C23  23891906.877   124411521.7421       1987.867          28.000  
C25  21810701.466   113574050.404        -535.525          33.000  
C33  22255056.845   115887878.065        -610.748          31.000  
E21                                                                                                                                  24187048.655    94915175.638        -616.741          37.000  
G10                                                                  20149904.012    79072546.992        -179.294          38.000  
G23  21230916.043   111569110.521       -2613.114          16.000  
G25  20784459.118   109223064.777        -142.558          31.000  
G31  21781835.049   114464319.438        1390.705          29.000  
G32  21799383.401   114556551.260         905.819          36.000    21799393.294    85545488.694         677.024          28.000  
J01  38028262.282   199839939.074         836.758          28.000  
> 2021  9 12 10 34  7.9998451  0 14
C06  36696668.725   191089165.572        -389.864          34.000  
C08  37898652.109   197348210.330       -2055.520          30.000  
C09  37686153.819   196241691.556        -493.171          28.000  
C16  37342565.280   194452610.083        -364.507          22.000  
C23  23891432.306   124409065.052        1987.525          30.000  
C25  21810714.057   113574118.242        -537.103          33.000  
C33  22255085.925   115888020.913        -610.823          30.000  
E21                                                                                                                                  24187116.708    94915440.619        -618.944          37.000  
G10  20149836.558   105888206.1671       -240.418          28.000    20149859.942    79072373.562        -180.606          38.000  
G25  20784394.063   109222734.839        -142.980          31.000  
G31  21781478.596   114462456.313        1390.287          30.000  
G32  21799125.579   114555173.294         905.058          37.000    21799131.275    85544458.312         676.283          28.000  
J01  38028013.754   199838629.834         835.953          28.000  
R12  19094236.435   101997983.3041       -855.780          29.000  
> 2021  9 12 10 34  8.9998449  0 14
C06  36696682.216   191089241.703        -388.203          34.000  
C08  37898985.478   197349953.575       -2055.561          30.000  
C09  37686187.096   196241871.718        -491.999          29.000  
C14  23120023.441   120392003.4221      -1874.812          19.000  
C16  37342575.773   194452661.606        -363.086          22.000  
C23  23890989.212   124406765.661        1987.207          31.000  
C25  21810758.126   113574342.719        -535.332          33.000  
C33  22255144.684   115888319.458        -610.542          30.000  
E21                                                                                                                                  24187213.840    94915823.539        -617.496          37.000  
G10  20149824.867   105888131.993        -241.349          29.000    20149845.552    79072318.250        -180.355          38.000  
G25  20784360.786   109222563.030        -143.517          31.000  
G31  21781153.321   114460751.208        1389.821          29.000  
G32  21798895.938   114553952.911         905.480          38.000    21798899.236    85543546.302         677.250          29.000  
J01  38027794.306   199837478.429         836.441          28.000  
> 2021  9 12 10 34  9.9998449  0 14
C06  36696756.264   191089630.007        -387.778          34.000  
C08  37899380.005   197352009.852       -2056.482          31.000  
C09  37686281.830   196242363.098        -491.968          28.000  
C16  37342644.125   194453023.933        -361.377          22.000  
C23  23890606.677   124404778.640        1986.307          31.000  
C25  21810859.456   113574879.831        -537.286          34.000  
C33  22255264.301   115888930.520        -611.336          31.000  
E21                                                                                                                                  24187371.531    94916442.133        -618.391          36.000  
G10  20149871.934   105888373.676        -242.112          29.000    20149891.420    79072498.738        -180.329          38.000  
G23  21232271.105   111576156.8501      -2612.858          13.000  
G25  20784386.569   109222707.090        -144.831          31.000  
G31  21780887.705   114459361.337        1389.676          30.000  
G32  21798723.258   114553047.662         904.468          38.000    21798727.455    85542870.207         675.883          29.000  
J01  38027634.516   199836642.409         836.191          28.000  
> 2021  9 12 10 34 10.9998446  0 17
C06  36696738.577   191089549.718        -388.995          33.000  
C08  37899684.894   197353598.314       -2056.448          31.000  
C09  37686285.427   196242386.684        -491.931          28.000  
C13  36982560.106   192577890.1031      -1827.490          24.000  
C14  23120650.607   120395282.5581      -1872.099          17.000  
C16  37342621.641   194452917.013        -362.203          21.000  
C23  23890134.504   124402324.278        1985.114          31.000  
C25  21810872.947   113574949.000        -537.408          34.000  
C33  22255292.781   115889074.074        -612.843          31.000  
E21                                                                                                                                  24187438.984    94916708.025        -619.222          37.000  
G10  20149832.062   105888143.494        -242.735          30.000    20149847.351    79072326.651        -181.573          38.000  
G23  21232686.917   111578292.430       -2606.319          13.000  
G25  20784323.912   109222379.504        -145.456          31.000  
G31  21780530.353   114457502.310        1386.171          30.000  
G32  21798461.839   114551669.678         905.121          38.000    21798466.036    85541841.164         675.896          29.000  
J01  38027385.988   199835333.343         836.078          28.000  
R12  19094577.599   101999805.7931       -858.583          30.000  
> 2021  9 12 10 34 11.9998444  0 14
C06  36696753.566   191089625.443        -388.532          33.000  
C08  37900019.462   197355341.770       -2055.542          30.000  
C09  37686319.604   196242566.162        -491.230          27.000  
C16  37342631.834   194452967.010        -363.338          23.000  
C23  23889698.006   124400027.236        1984.911          31.000  
C25  21810912.819   113575174.646        -538.022          34.000  
C33  22255350.941   115889375.089        -613.910          31.000  
E21                                                                                                                                  24187536.717    94917091.856        -619.958          36.000  
G10                                                                  20149834.160    79072272.660        -181.877          38.000  
G12  22450675.021   117979089.0281      -1865.569          15.000  
G25  20784294.233   109222210.092        -146.251          31.000  
G31  21780205.078   114455800.211        1387.526          29.000  
G32  21798227.701   114550449.175         904.363          38.000    21798233.997    85540930.004         675.310          29.000  
J01  38027168.039   199834180.085         838.738          28.000  
> 2021  9 12 10 34 12.9998441  0 13
C06  36696739.176   191089544.955        -387.906          34.000  
C08  37900324.951   197356929.675       -2056.573          30.000  
C09  37686322.902   196242589.054        -491.627          27.000  
C23  23889233.927                        1984.767          32.000  
C25  21810926.310   113575244.605        -538.467          33.000  
C33  22255378.522   115889520.410        -613.728          30.000  
E21                                                                                                                                  24187604.470    94917358.372        -619.292          37.000  
G10  20149778.099   105887841.7131       -243.480          30.000    20149790.390    79072101.519        -183.154          38.000  
G25  20784230.377   109221880.839        -144.006          30.000  
G31  21779851.622   114453939.645        1388.057          28.000  
G32                                                                  21797971.978    85539900.890         675.541          29.000  
J01  38026917.713   199832868.857         838.386          29.000    38026925.807   149225825.2281        624.506          27.000  
R12  19094767.368   102000819.3341       -860.206          30.000  
> 2021  9 12 10 34 13.9998438  0 14
C06  36696727.184   191089464.412        -388.259          33.000  
C08  37900629.240   197358518.001       -2057.024          30.000  
C09  37686327.998   196242611.937        -491.448          26.000  
C16  37342593.760   194452757.3541       -362.355          21.000  
C23  23888764.453   124395055.7201       1984.137          33.000  
C25  21810942.798   113575314.981        -538.958          33.000  
C33  22255406.703   115889665.579        -613.264          31.000  
E21                                                                                                                                  24187672.823    94917625.229        -619.275          36.000  
G10  20149736.728   105887613.037        -244.513          31.000    20149746.920    79071930.794        -183.006          38.000  
G12  22451202.056   117981880.3441      -1865.978          14.000  
G25  20784169.219   109221553.441        -146.493          28.000  
G32  21797706.662   114547693.1431        905.270          37.000    21797709.660    85538872.504         675.465          29.000  
J01  38026668.885   199831558.714         836.592          27.000    38026677.279   149224848.445         622.886          25.000  
R12  19094840.517   102001210.129        -860.703          29.000  
> 2021  9 12 10 34 14.9998436  0 13
C06  36696737.977   191089539.629        -387.619          33.000  
C08  37900963.509   197360263.402       -2058.825          30.000  
C09  37686362.774   196242791.622        -491.868          27.000  
C14  23121790.717   120401226.5911      -1881.727          14.000  
C16  37342603.354   194452808.627        -363.123          23.000  
C23  23888327.655   124392758.578        1984.333          32.000  
C25  21810984.470   113575541.776        -538.159          33.000  
C33  22255464.263   115889967.199        -614.088          31.000  
E21                                                                                                                                  24187770.555    94918009.914        -620.503          36.000  
G10                                                                  20149733.730    79071878.059        -183.148          38.000  
G25  20784137.741   109221385.779        -148.087          28.000  
G32  21797473.723   114546472.485         906.997          37.000    21797477.620    85537961.931         675.295          30.000  
J01                                                                  38026457.831   149223987.555         626.463          26.000  
> 2021  9 12 10 34 15.9998436  0 15
C06  36696811.426   191089926.875        -387.043          33.000  
C08  37901358.935   197362321.599       -2057.514          30.000  
C09  37686456.609   196243282.881        -491.264          26.000  
C13  36984021.894   192585472.1061      -1829.559          25.000  
C14  23122151.967   120403108.336       -1881.863          13.000  
C16  37342672.306   194453172.257        -363.937          24.000  
C23  23887950.516   124390773.875        1986.149          33.000  
C25  21811085.800   113576081.158        -540.110          33.000  
C33  22255580.882   115890580.861        -613.620          31.000  
E21                                                                                                                                  24187928.546    94918630.160        -620.804          36.000  
G10  20149768.206   105887787.8131       -245.492          26.000    20149780.797    79072061.047        -183.309          39.000  
G31  21778912.672   114448987.9151       1387.520          23.000  
G32  21797310.936   114545567.268         908.736          32.000    21797304.940    85537286.523         676.469          30.000  
J01  38026284.851   199829570.9051        836.154          27.000    38026298.042   149223360.060         627.941          25.000  
R12  19095101.037   102002602.0051       -861.809          29.000  
> 2021  9 12 10 34 16.9998433  0 13
C06  36696795.237   191089845.919        -388.746          32.000  
C08  37901663.225   197363910.180       -2056.633          30.000  
C09  37686459.607   196243306.666        -492.466          26.000  
C13  36984287.511   192586832.859       -1828.631          27.000  
C16  37342653.119   194453067.536        -364.337          25.000  
C23  23887474.146   124388321.303        1983.366          33.000  
C25  21811092.395   113576152.753        -540.915          30.000  
C33  22255607.264   115890726.374        -614.111          31.000  
E21                                                                                                                                  24187996.299    94918897.779        -618.907          34.000  
G10                                                                  20149737.627    79071891.632        -182.636          40.000  
G31  21778559.217   114447127.873        1386.946          30.000  
G32                                                                  21797041.722    85536257.060         676.758          31.000  
J01  38026034.524   199828261.693         836.253          29.000    38026048.015   149222379.838         626.884          23.000  
> 2021  9 12 10 34 17.9998431  0 15
C06  36696808.428   191089920.819        -385.553          30.000  
C08  37901996.594   197365654.783       -2056.825          29.000  
C09  37686493.483   196243486.546        -491.094          25.000  
C13  36984579.508   192588349.194       -1828.666          26.000  
C14  23122724.871   120406087.0061      -1878.257          16.000  
C16  37342663.012   194453117.298        -362.213          25.000  
C23  23887033.451   124386025.030        1982.815          33.000  
C25  21811140.062   113576380.833        -539.737          30.000  
C33  22255663.924   115891028.078        -614.105          31.000  
E21                                                                                                                                  24188094.631    94919283.514        -621.045          35.000  
G10  20149713.943   105887492.1081       -246.888          27.000    20149724.436    79071840.357        -184.401          41.000  
G31  21778235.441   114445425.958        1386.489          31.000  
G32                                                                  21796809.083    85535345.343         676.496          31.000  
J01  38025815.975   199827109.534         837.052          29.000    38025828.267   149221518.362         626.222          24.000  
R12  19095269.820   102003503.0271       -864.145          30.000  
> 2021  9 12 10 34 18.9998428  0 13
C06  36696794.338   191089840.279        -388.948          31.000  
C08  37902301.183   197367243.185       -2055.917          28.000  
C13  36984843.026   192589709.389       -1829.226          27.000  
C16  37342645.025   194453010.228        -360.709          24.000  
C23  23886559.779   124383573.642        1981.355          33.000  
C25  21811158.349   113576453.920        -541.946          32.000  
C33  22255690.906   115891173.758        -613.880          31.000  
E21                                                                                                                                  24188162.983    94919552.358        -622.204          34.000  
G10  20149672.572   105887266.562        -247.665          26.000    20149681.566    79071672.368        -185.193          40.000  
G25  20783998.637   109220722.3231       -155.058          14.000  
G32                                                                  21796546.765    85534315.695         676.587          31.000  
J01  38025567.747   199825800.746         835.865          30.000    38025579.139   149220539.086         624.569          24.000  
R12  19095336.673   102003860.905        -865.058          30.000  
> 2021  9 12 10 34 19.9998426  0 16
C06  36696814.724   191089915.745        -387.741          32.000  
C08  37902636.051   197368987.168       -2056.971          27.000  
C09  37686528.859   196243688.7951       -491.023          24.000  
C13  36985137.122   192591226.236       -1829.992          26.000  
C16  37342654.618   194453057.850        -358.760          25.000  
C23  23886122.681   124381278.712        1980.443          33.000  
C25  21811199.121   113576683.538        -542.312          32.000  
C33  22255748.766   115891476.154        -615.314          31.000  
E21                                                                                                                                  24188261.315    94919939.243        -621.735          35.000  
G10  20149658.182   105887199.083        -247.429          26.000    20149668.675    79071622.464        -186.823          40.000  
G25  20783969.257   109220562.460        -156.392          14.000  
G31  21777560.908   114441867.1371       1384.911          31.000  
G32                                                                  21796314.725    85533405.609         673.243          30.000  
J01  38025349.498   199824649.511         836.106          30.000    38025359.391   149219679.519         624.707          24.000  
J02  37906497.378   199200093.2561       -986.192          25.000  
R12  19095432.008   102004370.041        -866.283          31.000  
> 2021  9 12 10 34 20.9998426  0 14
C06  36696889.072   191090303.041        -386.807          32.000  
C09  37686622.994   196244180.022        -490.920          25.000  
C13  36985490.877   192593055.725       -1829.596          28.000  
C16  37342721.772   194453417.587        -360.252          23.000  
C23  23885741.645   124379296.164        1982.899          33.000  
C25  21811304.948   113577225.739        -541.804          31.000  
C33  22255865.085   115892092.180        -616.571          32.000  
E21                                                                                                                                  24188419.905    94920561.558        -621.998          35.000  
G10                                                                  20149716.042    79071808.237        -185.484          40.000  
G12  22453355.765   117993058.5681      -1866.825          22.000  
G32                                                                  21796142.345    85532730.862         674.915          31.000  
J01  38025191.508   199823813.081         836.692          31.000    38025199.902   149219053.247         628.480          25.000  
J02  37906683.249   199201079.375        -984.467          26.000  
R12  19095588.499   102005205.578        -866.850          28.000  
> 2021  9 12 10 34 21.9998423  0 14
C06  36696869.886   191090221.521        -386.509          31.000  
C08  37903334.867   197372634.4311      -2058.271          27.000  
C09  37686626.891   196244202.859        -491.411          26.000  
C13  36985751.997   192594416.869       -1828.894          29.000  
C16  37342702.585   194453310.110        -361.574          22.000  
C23  23885267.373   124376845.217        1982.514          32.000  
C25  21811322.036   113577299.599        -541.932          32.000  
C33  22255891.467                        -613.581          32.000  
E21                                                                                                                                  24188488.858    94920831.050        -624.170          35.000  
G10  20149662.679   105887225.5201       -251.001          24.000    20149673.172    79071641.246        -186.256          40.000  
G31  21776947.233   114438623.9031       1385.050          30.000  
G32                                                                  21795879.726    85531702.525         677.382          30.000  
J01  38024943.280   199822503.260         837.388          29.000    38024949.575   149218072.362         625.838          24.000  
R12  19095653.254   102005551.198        -867.597          28.000  
> 2021  9 12 10 34 22.9998420  0 15
C06  36696854.596   191090140.170        -386.424          31.000  
C08  37903641.255   197374223.736       -2057.635          27.000  
C09  37686631.088   196244225.734        -490.998          25.000  
C13  36986012.217   192595777.334       -1829.441          28.000  
C16  37342682.499   194453203.761        -361.973          24.000  
C23  23884793.701   124374394.703        1983.669          32.000  
C25  21811332.529   113577374.014        -542.697          32.000  
C33  22255926.243   115892414.9351       -615.777          30.000  
E21                                                                                                                                  24188557.210    94921100.904        -621.715          34.000  
G10  20149620.408   105887003.840        -250.770          26.000    20149631.201    79071474.836        -185.543          40.000  
G12  22453902.287   117995849.7861      -1869.601          22.000  
G31  21776593.778   114436766.354        1384.894          30.000  
G32  21795627.301   114536706.1311        905.077          28.000    21795618.008    85530672.655         676.793          30.000  
J01  38024693.552   199821193.061         837.609          29.000    38024700.747   149217093.714         624.933          23.000  
R12  19095720.108   102005908.485        -868.077          29.000  
> 2021  9 12 10 34 23.9998420  0 15
C06  36696927.446   191090526.914        -386.648          31.000  
C08  37904036.681   197376281.452       -2057.715          29.000  
C09  37686726.122   196244715.651        -489.928          26.000  
C13  36986366.571   192597605.934       -1828.811          23.000  
C16  37342753.849   194453565.779        -362.709          25.000  
C23  23884414.764   124372412.786        1977.741          32.000  
C25  21811437.156   113577917.202        -543.650          31.000  
C33  22256045.860   115893031.992        -618.605          31.000  
E21                                                                                                                                  24188715.801    94921723.985        -622.037          34.000  
G10  20149667.475   105887254.574        -250.673          28.000    20149678.868    79071661.800        -186.781          41.000  
G12  22454266.535   117997719.550       -1870.744          22.000  
G31  21776331.160   114435381.478        1384.708          30.000  
G32                                                                  21795445.627    85529995.867         676.320          31.000  
J01  38024534.063   199820355.301         836.787          29.000    38024542.157   149216468.252         626.868          24.000  
R12  19095879.598   102006760.721        -868.605          30.000  
> 2021  9 12 10 34 24.9998418  0 16
C06  36696938.838   191090601.271        -386.833          31.000  
C08  37904369.151   197378026.549       -2056.932          27.000  
C09  37686762.097   196244893.428        -490.654          25.000  
C16  37342765.242   194453616.290        -362.577          26.000  
C23  23883974.369   124370118.987        1982.609          30.000  
C25  21811486.622   113578148.469        -544.025          32.000  
C33  22256100.122   115893337.217        -616.826          31.000  
E21                                                                                                                                  24188814.432    94922112.108        -623.082          33.000  
G10  20149654.584   105887190.587        -251.945          29.000    20149666.576    79071613.890        -187.481          40.000  
G12  22454569.925   117999561.176       -1870.986          22.000  
G23  21238776.301   111610537.7511      -2619.283          14.000  
G31  21776010.382   114433682.128        1383.630          28.000  
G32                                                                  21795212.388    85529084.927         675.609          30.000  
J01  38024312.516   199819203.007         837.413          28.000    38024323.609   149215607.195         624.903          23.000  
J02  37907193.796   199203752.6821       -983.133          20.000  
R12  19095981.527   102007305.422        -869.447          32.000  
> 2021  9 12 10 34 25.9998418  0 14
C06  36697014.386   191090987.798        -385.798          31.000  
C08  37904763.678   197380084.077       -2057.571          27.000  
C09  37686855.333   196245384.848        -491.882          25.000  
C13  36987008.127   192600949.5541      -1827.337          27.000  
C16  37342836.292   194453978.574        -362.108          27.000  
C23  23883590.934   124368137.719        1977.250          29.000  
C25  21811593.048   113578692.538        -543.254          34.000  
C33  22256215.243   115893954.706        -618.457          30.000  
E21                                                                                                                                  24188973.922    94922735.814        -623.321          34.000  
G10  20149702.851   105887443.142        -253.233          29.000    20149714.243    79071801.730        -187.949          40.000  
G31  21775747.764   114432298.885        1382.849          30.000  
G32  21795034.612   114533679.0061        904.411          30.000    21795040.008    85528408.998         675.915          29.000  
J01  38024152.727   199818366.176         836.568          30.000    38024164.419   149214982.802         625.172          25.000  
R12  19096141.616   102008160.668        -870.135          32.000  
> 2021  9 12 10 34 26.9998415  0 14
C06  36697003.293   191090905.561        -385.341          30.000  
C08  37905067.068   197381673.844       -2058.039          25.000  
C09  37686858.331   196245407.870        -491.023          25.000  
C13  36987268.347   192602309.215       -1828.545          26.000  
C16  37342816.506   194453872.000        -361.263          27.000  
C23  23883127.755   124365688.077        1983.635          29.000  
C25  21811606.239   113578768.335        -544.122          33.000  
C33  22256239.826   115894104.280        -615.599          28.000  
E21                                                                                                                                  24189042.874    94923006.722        -624.489          34.000  
G10  20149663.278   105887224.138        -254.001          29.000    20149671.972    79071636.881        -188.069          40.000  
G25  20783902.704   109219918.7531       -156.560          25.000  
G32  21794769.895   114532301.502         905.358          32.000    21794777.090    85527380.360         675.380          30.000  
J01  38023903.599   199817056.857         836.903          31.000    38023915.591   149214002.813         626.721          24.000  
R12  19096213.566   102008544.487        -870.800          31.000  
> 2021  9 12 10 34 27.9998413  0 16
C06  36697013.486   191090979.335        -386.568          29.000  
C08  37905401.337   197383418.737       -2056.498          27.000  
C09  37686893.107   196245585.181        -489.217          25.000  
C13  36987560.045   192603825.334       -1828.552          27.000  
C16  37342826.399   194453920.973        -361.293          26.000  
C23  23882687.360   124363395.040        1981.362          28.000  
C25  21811650.309   113579000.596        -546.293          33.000  
C33  22256300.983                        -621.794          28.000  
E21                                                                                                                                  24189142.405    94923395.556        -626.076          33.000  
G10  20149650.687   105887162.268        -252.886          30.000    20149659.981    79071590.115        -189.435          40.000  
G23  21240091.790   111617610.0801      -2621.687          23.000  
G25  20783876.622   109219760.658        -157.523          26.000  
G31  21775077.128   114428745.4591       1382.437          29.000  
G32  21794535.757   114531080.358         906.673          33.000    21794544.151    85526468.739         675.571          29.000  
J01  38023684.751   199815903.801         838.628          29.000    38023696.443   149213140.927         625.283          25.000  
R12  19096316.095   102009092.146        -871.570          32.000  
> 2021  9 12 10 34 28.9998410  0 16
C06  36697001.495   191090896.847        -384.734          30.000  
C08  37905705.926   197385007.002       -2056.996          28.000  
C09  37686898.203   196245606.760        -490.070          26.000  
C13  36987822.064   192605185.276       -1828.369          27.000  
C16  37342806.013   194453813.692        -361.361          27.000  
C23  23882216.386   124360945.049        1981.378          26.000  
C25  21811664.999   113579077.197        -546.281          33.000  
C33  22256331.262   115894560.8711       -616.299          29.000  
E21                                                                                                                                  24189211.657    94923667.051        -623.941          34.000  
G10  20149609.316   105886942.480        -253.109          31.000    20149618.310    79071426.158        -189.139          40.000  
G23  21240495.911   111619759.170       -2622.280          24.000  
G25  20783818.162   109219445.533        -157.200          25.000  
G31  21774726.670   114426890.484        1382.181          29.000  
G32  21794271.340   114529701.729         902.502          32.000    21794281.833    85525440.130         676.082          28.000  
J01  38023435.024   199814592.549         838.884          29.000    38023448.215   149212163.150         625.165          26.000  
R12  19096389.844   102009486.435        -872.178          33.000  
> 2021  9 12 10 34 29.9998408  0 15
C06  36697018.583   191090970.444        -387.580          31.000  
C08  37906041.394   197386752.316       -2057.323          26.000  
C09  37686934.478   196245784.348        -489.168          26.000  
C13  36988113.162   192606700.877       -1827.774          27.000  
C16  37342816.806   194453862.345        -361.269          28.000  
C23  23881772.993   124358652.343        1981.101          28.000  
C25  21811708.468   113579310.556        -546.368          33.000  
C33  22256389.422   115894867.276        -615.753          30.000  
E21                                                                                                                                  24189310.589    94924056.457        -625.827          34.000  
G10  20149598.223   105886880.601        -253.701          30.000    20149606.917    79071380.379        -189.422          40.000  
G23  21240931.809   111622066.805       -2624.094          26.000  
G31  21774404.094   114425192.797        1383.217          29.000  
G32  21794039.301   114528483.075         904.964          31.000    21794050.393    85524528.277         676.514          28.000  
J01  38023215.576   199813439.327         837.919          29.000    38023229.666   149211302.582         625.561          24.000  
R12  19096492.373   102010033.745        -873.248          33.000  
> 2021  9 12 10 34 30.9998408  0 14
C06  36697089.034   191091356.099        -384.564          32.000  
C08  37906440.118   197388809.577       -2057.450          27.000  
C09  37687029.512   196246273.913        -490.227          25.000  
C13  36988464.519   192608528.960       -1828.502          27.000  
C16  37342886.058   194454223.210        -360.793          29.000  
C23  23881390.457   124356670.734        1980.736          26.000  
C25  21811816.394   113579856.470        -544.972          32.000  
E21                                                                                                                                  24189471.277    94924681.506        -625.460          34.000  
G10  20149648.289   105887134.138        -253.717          30.000    20149653.985    79071570.433        -189.614          39.000  
G23  21241425.567   111624691.619       -2624.159          22.000  
G32                                                                  21793878.312    85523852.076         676.101          30.000  
J01  38023057.285   199812601.687         837.092          31.000    38023070.776   149210677.059         626.905          25.000  
J02  37908029.917   199208085.3491       -980.816          22.000  
R12  19096658.758   102010922.414        -874.217          32.000  
> 2021  9 12 10 34 31.9998405  0 16
C06  36697068.048   191091272.865        -387.100          36.000  
C08  37906747.105   197390398.678       -2057.262          26.000  
C09  37687038.506   196246295.935        -489.739          28.000  
C13  36988725.038   192609889.052       -1828.913          30.000  
C16  37342861.775   194454116.040        -360.974          25.000  
C23  23880916.486   124354221.756        1981.082          23.000  
C25  21811832.882   113579933.984        -544.077          35.000  
C33  22256543.516   115895635.4491       -619.535          24.000  
E21                                                                                                                                  24189540.829    94924953.461        -623.733          34.000  
G10  20149608.716   105886916.064        -254.979          31.000    20149611.714    79071407.384        -190.806          36.000  
G12  22456668.172   118010608.9731      -1871.725          16.000  
G23  21241832.985   111626843.329       -2624.655          22.000  
G32                                                                  21793617.193    85522823.978         675.688          29.000  
J01  38022804.860   199811292.262         837.405          25.000    38022820.749   149209697.388         627.139          31.000  
J02  37908128.549   199208593.096        -980.102          22.000  
R12  19096737.903   102011345.566        -875.382          33.000  
> 2021  9 12 10 34 32.9998403  0 14
C06  36697084.837   191091345.907        -385.432          32.000  
C08  37907084.971   197392144.800       -2059.265          25.000  
C09  37687077.779   196246473.877        -490.378          24.000  
C13  36989014.638   192611405.863       -1829.332          31.000  
C16  37342872.867   194454163.866        -359.194          24.000  
C23  23880475.791   124351929.636        1979.724          25.000  
C25  21811877.551   113580166.978        -545.585          32.000  
C33  22256603.474   115895942.978        -619.782          29.000  
E21                                                                                                                                  24189640.660    94925343.822        -626.387          31.000  
G10  20149600.622   105886856.702        -256.237          28.000    20149601.521    79071362.801        -190.045          33.000  
G31  21773450.154   114420259.1571       1379.769          35.000  
G32  21793382.455   114524977.2991        905.434          38.000    21793385.153    85521912.364         676.368          23.000  
J01  38022583.014   199810139.425         837.986          23.000    38022600.102   149208835.036         627.098          26.000  
R12  19096847.328   102011930.546        -875.421          29.000  
> 2021  9 12 10 34 33.9998400  0 13
C06  36697074.944   191091262.798        -384.692          35.000  
C09  37687083.775   196246495.029        -489.452          28.000  
C13  36989275.158   192612766.707       -1829.299          30.000  
C23  23880004.217   124349481.357        1979.370          27.000  
C25  21811891.042   113580244.863        -547.592          34.000  
C33  22256634.952   115896094.303        -619.672          32.000  
E21                                                                                                                                  24189709.313    94925616.930        -628.260          32.000  
G10  20149558.951   105886640.431        -256.612          28.000    20149560.450    79071200.996        -191.257          36.000  
G12  22457230.583   118013568.7261      -1875.095          25.000  
G23  21242683.796   111631305.5921      -2625.093          26.000  
G31  21773089.204                        1380.527          36.000  
G32  21793126.433   114523600.523         905.344          37.000    21793123.435    85520883.143         676.398          24.000  
J01  38022337.783   199808828.705         837.222          25.000    38022349.475   149207857.041         624.949          25.000  
> 2021  9 12 10 34 34.9998397  0 15
C06  36697061.153   191091179.289        -385.310          35.000  
C08  37907707.040   197395325.2291      -2058.658          25.000  
C09  37687089.171   196246515.751        -488.390          31.000  
C13  36989538.375   192614128.001       -1830.045          30.000  
C23  23879534.143   124347034.096        1978.822          30.000  
C25  21811906.331   113580323.306        -546.925          37.000  
C33  22256665.831   115896244.661        -619.058          26.000  
E21                                                                                                                                  24189778.565    94925890.762        -626.862          28.000  
G10  20149517.579   105886423.804        -255.525          36.000    20149519.378    79071039.582        -192.792          37.000  
G23  21243095.111   111633458.096       -2625.288          28.000  
G25  20783579.827   109218349.3461       -160.823          23.000  
G32                                                                  21792860.816    85519853.875         675.501          29.000  
J01  38022089.555   199807518.966         837.080          27.000    38022098.549   149206879.001         626.383          26.000  
J02  37908440.633   199210283.9511       -986.161          21.000  
R12  19096989.429   102012689.2801       -876.279          23.000  
> 2021  9 12 10 34 35.9998397  0 14
C06  36697136.101   191091564.109        -384.451          34.000  
C08  37908105.465   197397383.331       -2057.466          26.000  
C09  37687184.205   196247004.087        -488.661          31.000  
C13  36989889.432   192615957.906       -1829.583          29.000  
C25  21812011.858                        -547.980          36.000  
C33  22256788.446   115896864.991        -621.233          28.000  
E21                                                                                                                                  24189938.354    94926517.651        -626.449          28.000  
G10  20149568.544   105886680.031        -256.718          26.000    20149567.944    79071231.673        -192.400          34.000  
G23  21243594.566   111636083.830       -2626.186          28.000  
G25  20783604.410   109218510.433        -161.687          29.000  
G32  21792675.245                         906.107          37.000    21792688.436    85519177.620         676.986          23.000  
J01  38021932.164   199806681.984         837.490          26.000    38021936.661   149206253.877         624.675          24.000  
J02  37908626.504   199211270.085        -985.985          27.000  
R12  19097151.617   102013555.915        -877.284          23.000  
> 2021  9 12 10 34 36.9998395  0 18
C06  36697147.194   191091636.671        -384.821          34.000  
C08  37908441.832   197399128.827       -2057.948          29.000  
C09  37687217.482   196247180.136        -488.058          30.000  
C13  36990180.531   192617475.529       -1830.660          31.000  
C16  37342919.335   194454362.2521       -363.601          17.000  
C23  23878718.107   124342761.9411       1979.247          18.000  
C25  21812052.630   113581105.4181       -549.711          36.000  
C33  22256852.002   115897174.723        -622.082          28.000  
E21                                                                                                                                  24190037.286    94926908.687        -626.914          26.000  
G10  20149556.552   105886622.287        -257.691          31.000    20149556.552    79071189.016        -192.915          35.000  
G12  22458162.937   118018408.8891      -1877.100          24.000  
G23  21244033.462   111638395.312       -2627.016          25.000  
G25  20783566.037   109218357.417        -162.562          28.000  
G31  21772141.260   114413429.0641       1380.537          37.000  
G32                                                                  21792456.696    85518266.303         677.501          25.000  
J01  38021714.815   199805528.672         838.747          28.000    38021717.513   149205392.808         627.853          25.000  
J02  37908751.218   199211941.296        -985.894          28.000  
R12  19097255.045   102014108.277        -878.450          26.000  
> 2021  9 12 10 34 37.9998392  0 14
C06  36697127.707   191091553.321        -386.841          34.000  
C08  37908746.721   197400718.942       -2058.254          32.000  
C09  37687219.581   196247200.102        -488.214          26.000  
C13  36990440.151   192618837.365       -1830.728          30.000  
C16  37342900.748   194454259.616        -367.206          16.000  
C25  21812070.318   113581185.911        -549.187          37.000  
C33  22256881.681   115897328.727        -622.445          34.000  
E21                                                                                                                                  24190107.437    94927182.679        -626.582          31.000  
G10                                                                  20149516.380    79071029.306        -192.741          34.000  
G23  21244443.278   111640549.695       -2627.014          26.000  
G25  20783503.680   109218047.717        -163.611          30.000  
G32  21792200.673   114518681.7201        906.155          36.000    21792194.678    85517237.107         676.026          28.000  
J01                                                                  38021469.285   149204413.474         625.866          25.000  
R12  19097328.495   102014500.768        -879.716          37.000  
> 2021  9 12 10 34 38.9998390  0 14
C06  36697139.399   191091625.807        -385.975          34.000  
C08  37909078.291   197402464.569       -2059.265          32.000  
C09  37687253.757   196247376.643        -489.125          27.000  
C13  36990728.252   192620355.586       -1830.298          31.000  
C25  21812117.685   113581422.810        -549.894          37.000  
C33  22256941.640   115897639.444        -623.095          35.000  
E21                                                                                                                                  24190208.167    94927574.473        -628.072          31.000  
G10  20149500.191   105886352.0071       -259.991          38.000    20149505.588    79070987.494        -195.162          33.000  
G12  22458731.943   118021376.0111      -1878.407          25.000  
G25  20783471.002   109217896.810        -164.599          25.000  
G32  21791967.135   114517460.831         905.103          39.000    21791962.338    85516325.366         676.438          27.000  
J01  38021252.235   199803062.5941        838.770          27.000    38021251.335   149203552.180         627.008          24.000  
J02  37908974.563   199213125.2791       -985.739          23.000  
R12  19097432.223   102015054.612        -880.760          33.000  
> 2021  9 12 10 34 39.9998387  0 16
C06  36697123.210   191091541.892        -383.619          34.000  
C08  37909381.082   197404054.122       -2056.894          32.000  
C09  37687257.055   196247397.369        -488.899          27.000  
C13  36990987.272   192621717.219       -1829.788          30.000  
C16  37342886.358   194454204.8801       -360.909          14.000  
C23  23877350.454   124335582.6611       1977.773          23.000  
C25  21812133.574   113581503.944        -549.206          36.000  
C33  22256971.020   115897793.261        -622.234          35.000  
E21                                                                                                                                  24190279.218    94927849.816        -627.936          32.000  
G10  20149455.222   105886139.440        -260.043          37.000    20149464.516    79070828.457        -192.033          31.000  
G12  22458999.058   118022782.183       -1878.844          25.000  
G25  20783407.446   109217588.860        -165.054          25.000  
G32  21791700.620   114516082.229         906.436          39.000    21791700.320    85515296.726         674.986          28.000  
J01  38021003.407   199801751.524         837.449          23.000    38021003.107   149202573.137         625.584          26.000  
J02  37909069.897   199213638.391        -985.239          23.000  
R12  19097508.070   102015460.191        -881.532          30.000  
> 2021  9 12 10 34 40.9998387  0 14
C06  36697198.458   191091925.972        -383.797          35.000  
C08  37909774.709   197406111.150       -2056.978          30.000  
C09  37687351.789   196247886.081        -488.633          29.000  
C13  36991338.629   192623547.507       -1830.907          31.000  
C23  23876973.016   124333605.138        1976.048          23.000  
C25  21812237.602   113582053.596        -547.876          36.000  
C33  22257093.035   115898415.534        -622.117          35.000  
E21                                                                                                                                  24190439.907    94928478.045        -627.979          31.000  
G10  20149502.590                        -260.975          36.000    20149514.282    79071022.411        -194.847          30.000  
G12  22459354.013   118024661.092       -1879.524          25.000  
G25  20783433.528   109217754.347        -165.871          23.000  
G32  21791526.140   114515175.983         906.278          41.000    21791527.939    85514620.466         676.556          27.000  
J01                                                                  38020843.917   149201947.591         625.514          25.000  
R12  19097672.956   102016340.803        -881.865          29.000  
> 2021  9 12 10 34 41.9998385  0 13
C06  36697212.548   191091997.634        -385.564          36.000  
C08  37910109.877   197407856.748       -2058.554          28.000  
C09  37687386.265   196248062.523        -488.184          29.000  
C13  36991630.927   192625065.916       -1830.980          30.000  
C16  37342964.903   194454610.2811       -354.885          15.000  
C25  21812278.374   113582291.448        -551.579          36.000  
C33  22257153.293                        -623.453          35.000  
E21                                                                                                                                  24190540.637    94928871.041        -628.916          31.000  
G10  20149497.193   105886295.7061       -261.329          36.000    20149504.388    79070982.497        -195.251          26.000  
G32  21791293.202   114513954.666         905.850          41.000    21791294.701    85513706.877         679.985          24.000  
J01  38020627.467   199799760.3981        838.883          28.000    38020624.769   149201086.399         625.668          23.000  
J02  37909381.082   199215293.2251       -984.794          23.000  
R12  19097779.382   102016908.622        -882.585          31.000  
> 2021  9 12 10 35 46.6109844  0  0
> 2021  9 12 10 35 48.4104197  0  0
> 2021  9 12 10 35 49.4104197  0  3
G25  20782021.506                        -216.996          26.000  
G31  21749213.133                        1342.533          27.000  
G32  21775838.900                         900.701          33.000  
> 2021  9 12 10 35 50.9999995  0  4
G10  20149242.670   105884985.0041       -311.448          40.000  
G25  20781942.361   109209844.7081       -218.760          29.000  
G31  21748666.312   114290013.1861       1342.801          32.000  
G32  21775425.487   114430633.2921        898.409          37.000  
> 2021  9 12 10 35 51.9999992  0 10
C06  36698258.824   191097464.1541       -383.368          29.000  
C08  37933739.818   197530938.5891      -2068.176          27.000  
C13  37012232.665   192732408.8511      -1844.770          35.000  
C23  23846048.824   124172634.0831       1949.781          26.000  
C25  21815832.114   113600762.7251       -587.878          35.000  
C33  22261642.086   115922213.1141       -655.429          35.000  
G10  20149209.992   105884823.457        -311.016          39.000  
G25  20781891.696   109209590.976        -219.235          30.000  
G31  21748321.550   114288197.688        1342.000          31.000  
G32  21775167.965   114429261.399         899.425          36.000  
> 2021  9 12 10 35 52.9999992  0  9
C06  36698332.873   191097847.090        -383.321          30.000  
C08  37934138.243   197533007.265       -2068.512          26.000  
C13  37012586.420   192734252.527       -1844.329          34.000  
C25  21815944.536   113601349.539        -587.763          37.000  
C33  22261765.600   115922868.585        -655.836          36.000  
G10  20149271.150   105885134.594        -311.471          39.000  
G25  20781931.568   109209810.423        -219.301          30.000  
G31  21748067.326   114286856.281        1341.043          31.000  
G32  21774999.182   114428361.580         900.923          35.000  
> 2021  9 12 10 35 53.9999990  0  8
C06  36698347.263   191097918.156        -383.337          32.000  
C08  37934476.408   197534763.553       -2068.396          28.000  
C13  37012884.114   192735783.925       -1840.355          33.000  
C25  21815993.402   113601624.446        -586.750          37.000  
C33  22261831.855   115923211.953        -654.804          36.000  
G25  20781909.983   109209714.696        -220.320          29.000  
G31  21747752.844   114285199.023        1342.521          31.000  
G32  21774765.344   114427146.402         901.303          36.000  
> 2021  9 12 10 35 54.9999987  0  9
C06  36698331.374   191097832.544        -382.834          33.000  
C08  37934784.295   197536363.483       -2068.197          27.000  
C13  37013147.631   192737159.661       -1843.745          33.000  
C23  23844778.004   124166011.3931       1944.987          19.000  
C25  21816016.486   113601743.950        -588.315          37.000  
C33  22261861.834   115923399.951        -657.680          35.000  
G25  20781858.719   109209461.982        -220.270          27.000  
G31  21747408.682   114283383.979        1341.912          31.000  
G32  21774503.025   114425774.109         900.139          37.000  
> 2021  9 12 10 35 55.9999985  0 11
C06  36698348.462   191097902.317        -382.514          32.000  
C08  37935120.363   197538119.861       -2067.810          23.000  
C13  37013443.226   192738691.500       -1844.494          31.000  
C23  23844351.399   124163754.819        1944.142          22.000  
C25  21816071.348   113602019.702        -586.461          36.000  
C33  22261926.289   115923744.227        -654.964          33.000  
G10  20149237.873   105884968.7331       -312.923          33.000  
G25  20781838.932   109209368.323        -221.976          26.000  
G31  21747093.301   114281728.233        1340.184          30.000  
G32  21774270.686   114424559.684         898.626          36.000  
J02  37919011.315   199265749.4471       -994.525          26.000  
> 2021  9 12 10 35 56.9999982  0 11
C06  36698332.273   191097814.417        -380.550          25.000  
C08  37935428.250   197539719.148       -2067.151          24.000  
C13  37013703.746   192740067.163       -1844.011          29.000  
C23  23843890.318   124161341.260        1946.354          28.000  
C25  21816097.130   113602140.498        -593.555          30.000  
C33  22261962.864   115923932.882        -656.678          26.000  
G10  20149204.596   105884809.857        -313.729          37.000  
G25  20781791.565   109209117.527        -221.430          26.000  
G31  21746746.441   114279915.036        1340.630          37.000  
G32  21774007.768   114423187.110         901.795          37.000  
J02  37919109.946   199266270.866        -993.502          25.000  
> 2021  9 12 10 35 57.9999982  0  9
C06  36698404.823   191098195.912        -382.103          28.000  
C08  37935827.873   197541787.021       -2068.413          26.000  
C23  23843516.777   124159394.186        1947.453          28.000  
C25  21816209.852   113602729.610        -587.755          30.000  
C33  22262091.475   115924589.307        -656.366          30.000  
G10  20149268.452   105885124.114        -314.347          40.000  
G25  20781832.337   109209340.008        -222.848          27.000  
G31  21746491.018   114278574.483        1340.276          39.000  
G32  21773846.480   114422287.517         899.545          35.000  
> 2021  9 12 10 35 58.9999982  0  9
C06  36698477.673   191098578.104        -382.306          31.000  
C08  37936225.398   197543856.093       -2069.026          26.000  
C16  37343846.893   194459211.1741       -356.880          21.000  
C23  23843141.137   124157447.310        1946.368          27.000  
C25  21816323.773   113603317.608        -588.553          33.000  
C33  22262221.285   115925245.769        -656.981          29.000  
G10  20149325.712   105885439.112        -315.874          40.000  
G25  20781873.408   109209562.852        -222.161          27.000  
G31  21746232.297   114277234.785        1339.148          35.000  
> 2021  9 12 10 35 59.9999980  0  9
C06  36698490.564   191098647.886        -381.743          31.000  
C08  37936563.264   197545613.173       -2069.560          31.000  
C13  37014693.661   192745276.7271      -1842.256          26.000  
C16  37343854.088   194459254.601        -356.400          17.000  
C23  23842706.138   124155188.595        1946.392          23.000  
C25  21816375.937   113603594.176        -589.186          31.000  
C33  22262292.336   115925592.139        -658.974          29.000  
G10  20149324.813   105885439.760        -316.406          40.000  
J02  37919616.596   199268937.2081       -994.134          21.000  
> 2021  9 12 10 36  0.9999977  0  9
C06  36698474.375   191098561.276        -382.216          32.000  
C08  37936870.851   197547214.941       -2069.995          29.000  
C13  37014957.478   192746651.695       -1844.719          28.000  
C23  23842242.659   124152775.132        1943.106          21.000  
C25  21816397.522   113603715.594        -590.334          40.000  
C33  22262327.411   115925783.013        -659.669          30.000  
G10  20149295.433   105885283.323        -317.092          44.000  
G25  20781807.754   109209221.6691       -224.098          25.000  
J02  37919714.928   199269458.705        -995.417          19.000  
> 2021  9 12 10 36  1.9999974  0 10
C06  36698458.786   191098476.948        -384.387          31.000  
C08  37937179.937   197548816.791       -2070.426          31.000  
C13  37015222.794   192748029.010       -1846.836          30.000  
C16  37343816.614   194459033.6781       -359.075          20.000  
C25  21816419.707   113603837.966        -591.087          40.000  
C33  22262364.286   115925973.869        -659.303          29.000  
G10  20149264.554   105885127.935        -317.154          44.000  
G31  21745221.097   114271957.7811       1338.710          30.000  
G32  21772908.429   114417429.1721        899.587          30.000  
J02  37919817.157   199269983.297        -996.553          19.000  
> 2021  9 12 10 36  2.9999974  0 11
C06  36698532.535   191098859.036        -380.057          22.000  
C08  37937581.359   197550886.296       -2070.089          26.000  
C13  37015578.049   192749877.008       -1849.405          25.000  
C16  37343888.264   194459392.313        -358.235          21.000  
C23  23841411.334   124148419.3381       1943.421          27.000  
C25  21816530.330   113604429.435        -591.540          36.000  
G10  20149325.412   105885446.089        -318.116          40.000  
G25  20781805.655   109209198.4921       -225.862          26.000  
G31  21744966.873   114270619.202        1338.411          37.000  
G32  21772742.344   114416529.804         899.092          31.000  
J02  37920008.125   199270979.437        -994.995          23.000  
> 2021  9 12 10 36  3.9999972  0 13
C06  36698545.126   191098926.530        -379.217          24.000  
C08  37937923.722   197552644.552       -2070.954          27.000  
C09  37690356.009   196263575.3841       -485.516          27.000  
C13  37015873.944   192751413.880       -1849.005          24.000  
C16  37343896.958   194459437.974        -356.574          21.000  
C23  23840977.834   124146163.739        1943.069          27.000  
C24  24571485.115   127950171.6741      -3033.333          24.000  
C25  21816579.496                        -591.956          35.000  
G10  20149329.609   105885449.597        -318.268          39.000  
G25  20781788.267   109209110.007        -227.707          26.000  
G31  21744652.690   114268965.991        1337.766          37.000  
G32  21772512.703   114415315.585         898.940          34.000  
J02  37920134.037   199271659.441        -995.559          24.000  
> 2021  9 12 10 36  4.9999969  0 14
C06  36698527.138   191098836.706        -378.770          30.000  
C08  37938231.909   197554247.493       -2071.444          24.000  
C09  37690359.307   196263591.912        -483.871          20.000  
C13  37016138.960   192752794.151       -1848.171          27.000  
C16  37343878.671   194459325.992        -356.448          21.000  
C23  23840512.557   124143751.279        1945.415          22.000  
C24  24571976.475   127952737.135       -3035.150          23.000  
C25  21816609.775   113604779.7421       -592.816          34.000  
C33  22262609.216   115927174.0511       -659.512          23.000  
G10  20149299.930   105885296.633        -319.969          41.000  
G25  20781742.099   109208865.502        -229.116          23.000  
G31  21744311.227   114267156.485        1336.783          34.000  
G32  21772253.083   114413943.632         899.225          32.000  
J02  37920232.369   199272183.168        -996.812          18.000  
> 2021  9 12 10 36  5.9999967  0  9
C06  36698540.329   191098904.802        -382.582          31.000  
C08  37938567.976   197556006.346       -2071.163          28.000  
C13  37016435.155   192754329.100       -1846.545          27.000  
C24  24572500.212   127955461.491       -3038.101          19.000  
C25  21816661.939   113605061.013        -594.516          32.000  
G10  20149299.330   105885302.038        -321.170          41.000  
G25  20781725.311   109208779.664        -229.715          25.000  
G31  21743994.946   114265503.926        1337.434          27.000  
G32  21772024.041   114412729.538         898.564          30.000  
> 2021  9 12 10 36  6.9999964  0 11
C06  36698524.140   191098819.464        -383.193          27.000  
C08  37938874.664   197557609.401       -2071.474          29.000  
C09  37690396.781   196263780.4631       -485.208          21.000  
C13  37016701.970   192755707.545       -1846.705          27.000  
C24  24572993.071   127958030.539       -3036.171          22.000  
C25  21816683.824   113605186.484        -594.936          35.000  
C33  22262710.546   115927709.6571       -657.456          23.000  
G10  20149267.253   105885150.275        -321.848          41.000  
G25  20781680.942   109208537.164        -230.444          26.000  
G31  21743648.685   114263694.236        1336.288          25.000  
J02  37920456.015   199273388.4891       -998.002          17.000  
> 2021  9 12 10 36  7.9999964  0 11
C06  36698598.789   191099202.233        -382.454          32.000  
C08  37939272.188   197559680.861       -2071.236          32.000  
C09  37690487.319   196264265.195        -484.493          27.000  
C13  37017056.625   192757553.728       -1845.714          31.000  
C16  37343934.732   194459615.7761       -356.016          19.000  
C24  24573577.366   127961065.857       -3035.033          21.000  
C25  21816799.844   113605780.442        -595.658          40.000  
G10  20149329.310   105885471.413        -321.984          43.000  
G23  21284709.902   111851905.4771      -2675.281          27.000  
G25  20781726.210   109208767.424        -230.167          30.000  
G32  21771589.342   114410459.7101        898.653          31.000  
> 2021  9 12 10 36  8.9999962  0  9
C06  36698612.879   191099271.652        -382.039          31.000  
C08  37939609.455   197561439.292       -2070.793          31.000  
C13  37017352.220   192759087.424       -1846.456          29.000  
C23  23838810.335   124134882.8451       1942.248          21.000  
C24  24574100.504   127963789.349       -3037.653          21.000  
C25  21816855.605   113606064.081        -595.898          37.000  
G10  20149332.308   105885478.504        -324.209          41.000  
G23  21285158.092   111854266.187       -2676.777          28.000  
G25  20781712.120   109208682.793        -231.469          30.000  
> 2021  9 12 10 36  9.9999959  0 12
C06  36698595.791   191099186.263        -382.898          36.000  
C09  37690527.791   196264455.7131       -487.028          29.000  
C13  37017617.237   192760465.302       -1846.609          27.000  
C16  37343916.445   194459551.5931       -361.768          24.000  
C24  24574593.363   127966358.157       -3037.019          20.000  
C25  21816883.186   113606193.262        -598.335          35.000  
C33  22262923.399   115928910.9961       -665.298          24.000  
G10  20149303.827                        -325.183          39.000  
G23  21285574.204   111856471.049       -2678.956          18.000  
G25  20781668.051   109208442.471        -232.493          22.000  
G31  21742742.712   114258901.2761       1332.993          31.000  
J02  37920880.820   199275589.4391       -996.065          23.000  
> 2021  9 12 10 36 10.9999956  0 11
C06  36698580.202                        -382.625          32.000  
C09  37690533.187   196264474.827        -487.872          30.000  
C13  37017881.654   192761844.341       -1848.003          23.000  
C23  23837890.272   124130062.5021       1939.388          21.000  
C25  21816908.369   113606322.465        -596.632          29.000  
C33  22262959.074   115929108.567        -666.086          25.000  
G10  20149275.947   105885183.0741       -323.855          37.000  
G23  21285993.014   111858677.730       -2679.427          25.000  
G25  20781622.482   109208202.673        -233.121          29.000  
G31  21742400.649   114257095.627        1332.955          35.000  
J02  37920979.752   199276113.697        -997.650          27.000  
> 2021  9 12 10 36 11.9999954  0 13
C06  36698592.493   191099208.0631       -381.936          34.000  
C09  37690567.663   196264650.466        -487.495          31.000  
C13  37018176.350   192763380.537       -1848.939          22.000  
C16  37343902.654   194459494.5111       -362.042          10.000  
C24  24575606.362   127971646.1981      -3032.763          18.000  
C25  21816961.732   113606606.653        -595.777          33.000  
C33  22263024.429   115929462.231        -665.914          26.000  
G10  20149280.443   105885192.559        -324.367          37.000  
G23  21286446.300   111861041.917       -2679.028          24.000  
G25  20781605.694   109208121.191        -233.803          28.000  
G31  21742090.064   114255447.947        1332.639          35.000  
G32  21770597.629   114405293.3331        897.006          31.000  
J02  37921111.061   199276796.382        -997.540          26.000  
> 2021  9 12 10 36 12.9999951  0 10
C06  36698581.701   191099122.111        -382.685          36.000  
C08  37940867.684   197568017.2661      -2075.400          20.000  
C09  37690571.260   196264669.583        -487.250          29.000  
C13  37018441.366   192764761.329       -1849.314          28.000  
C25  21816984.216   113606734.331        -596.722          27.000  
C33  22263062.203   115929658.885        -664.448          29.000  
G10  20149250.164   105885044.420        -325.028          30.000  
G25  20781559.826   109207882.157        -233.850          26.000  
G31  21741748.900   114253643.257        1332.044          29.000  
J02  37921211.791   199277321.343        -997.215          29.000  
> 2021  9 12 10 36 13.9999951  0 12
C06  36698654.550   191099504.229        -381.742          37.000  
C08  37941264.009   197570093.099       -2077.119          20.000  
C09  37690662.997   196265157.435        -488.813          28.000  
C13  37018793.922   192766609.606       -1848.534          27.000  
C24  24576684.715   127977244.4561      -3033.994          25.000  
C25  21817097.238   113607331.142        -597.025          35.000  
C33  22263189.315   115930324.366        -665.307          31.000  
G10  20149312.221   105885369.882        -325.967          32.000  
G25  20781603.895   109208116.605        -235.054          28.000  
G31  21741495.876   114252311.117        1332.131          34.000  
G32  21770165.928   114403025.6421        898.890          37.000  
J02  37921399.162   199278318.059        -997.437          24.000  
> 2021  9 12 10 36 14.9999949  0 13
C06  36698666.842   191099573.736        -383.419          38.000  
C09  37690696.574   196265333.674        -487.554          30.000  
C13  37019088.918   192768145.853       -1848.381          27.000  
C23  23836183.254   124121210.2591       1939.260          25.000  
C24  24577206.354   127979966.317       -3034.611          27.000  
C25  21817152.699   113607615.884        -597.027          32.000  
C33  22263256.768   115930677.279        -665.011          29.000  
G10  20149314.020   105885381.034        -326.760          37.000  
G23  21287823.247   111868291.2631      -2680.290          21.000  
G25  20781587.107   109208036.559        -235.505          27.000  
G31  21741181.693   114250663.893        1331.870          29.000  
G32  21769938.985                         897.063          41.000  
J02  37921528.672   199279001.135        -998.726          22.000  
> 2021  9 12 10 36 15.9999949  0  9
C06  36698738.492   191099955.698        -381.520          32.000  
C09  37690791.608   196265821.235        -487.337          28.000  
C13  37019444.472   192769993.286       -1847.261          23.000  
C24  24577789.151   127983001.724       -3036.184          27.000  
C25  21817264.822   113608213.307        -596.932          31.000  
C33  22263385.079   115931341.265        -663.564          20.000  
G10  20149376.677   105885707.866        -327.556          32.000  
G31  21740929.568   114249332.324        1331.163          33.000  
G32  21769767.204   114400904.3221        896.629          39.000  
> 2021  9 12 10 36 16.9999946  0  8
C06  36698721.404   191099868.404        -381.059          30.000  
C08  37942307.287   197575536.9571      -2074.814          20.000  
C09  37690798.503   196265839.218        -485.924          25.000  
C24  24578285.607   127985569.654       -3036.239          29.000  
C25  21817290.304   113608342.038        -597.582          29.000  
C33  22263420.755   115931536.477        -664.169          23.000  
G32  21769506.085   114399533.574         897.316          33.000  
J02  37921820.970   199280524.7211       -996.750          30.000  
> 2021  9 12 10 36 17.9999944  0 12
C06  36698733.396   191099937.086        -381.808          30.000  
C08  37942644.854   197577300.002       -2075.636          22.000  
C09  37690832.979   196266012.994        -486.061          27.000  
C23  23834918.130   124114615.3701       1938.434          25.000  
C24  24578810.843   127988293.223       -3035.966          29.000  
C25  21817346.365   113608628.981        -599.810          32.000  
C33  22263487.009   115931888.538        -665.638          29.000  
G10  20149350.895   105885573.8551       -327.644          42.000  
G25  20781563.423   109207957.6131       -236.809          25.000  
G31  21740270.924   114245881.5421       1331.159          30.000  
G32  21769278.542   114398320.436         896.450          34.000  
J02  37921951.379   199281204.832        -993.829          25.000  
> 2021  9 12 10 36 18.9999944  0 11
C06  36698806.845   191100318.825        -381.392          31.000  
C09  37690926.814   196266499.552        -486.248          30.000  
C13  37020366.933   192774751.3781      -1846.103          21.000  
C23  23834544.288   124112676.597        1938.880          27.000  
C24  24579394.539   127991328.970       -3037.564          21.000  
C25  21817461.186   113609228.947        -600.213          40.000  
C33  22263614.720   115932554.574        -666.723          29.000  
G10  20149412.652                        -329.251          43.000  
G31  21740017.899   114244550.742        1330.007          31.000  
G32  21769109.159   114397424.047         897.617          31.000  
J02  37922141.148   199282199.307        -995.160          31.000  
> 2021  9 12 10 36 19.9999941  0 12
C06  36698790.656   191100232.579        -383.495          29.000  
C08  37943353.563   197580974.3351      -2067.712          20.000  
C09  37690929.213   196266517.526        -486.377          28.000  
C13  37020635.547   192776129.057       -1845.804          26.000  
C23  23834078.411   124110269.135        1939.029          30.000  
C24  24579886.499   127993897.514       -3036.320          21.000  
C25  21817490.566   113609360.822        -600.049          41.000  
C33  22263654.293   115932753.216        -666.972          31.000  
G10  20149385.371   105885736.1851       -329.990          45.000  
G25  20781563.123   109207960.9011       -238.844          22.000  
G31  21739676.135   114242748.271        1329.287          34.000  
G32  21768849.539   114396053.351         898.228          33.000  
> 2021  9 12 10 36 20.9999939  0 13
C06  36698803.847   191100303.579        -382.433          28.000  
C08  37943690.829   197582729.620       -2067.821          23.000  
C09  37690962.789   196266691.729        -486.205          26.000  
C13  37020930.543   192777663.155       -1846.734          31.000  
C24  24580407.238   127996620.602       -3035.129          24.000  
C25  21817549.325                        -600.924          41.000  
C33  22263723.845   115933107.737        -666.861          32.000  
G10  20149387.170   105885751.167        -330.398          43.000  
G23  21290617.612   111882811.6911      -2684.664          16.000  
G31  21739367.649   114241103.740        1329.410          36.000  
G32  21768615.701                         898.838          36.000  
J02  37922373.487   199283401.3851       -994.302          26.000  
R12  19109264.132   102078259.6101       -970.223          36.000  
> 2021  9 12 10 36 21.9999936  0 13
C06  36698785.859   191100216.347        -380.297          29.000  
C08  37943997.217   197584330.573       -2070.315          21.000  
C09  37690966.387   196266709.912        -487.808          22.000  
C13  37021194.960   192779042.863       -1848.655          32.000  
C25  21817576.606   113609838.1071       -600.857          41.000  
C33  22263767.015   115933306.731        -668.516          33.000  
G10  20149360.488   105885609.364        -330.757          42.000  
G25  20781501.966   109207651.5041       -241.300          25.000  
G31  21739022.288                        1330.419          35.000  
G32  21768354.582   114393477.2771        899.798          37.000  
J01  37998923.992   199685694.2881        834.854          26.000  
J02  37922475.417   199283924.534        -996.000          25.000  
R12  19109357.367   102078757.517        -971.053          36.000  
> 2021  9 12 10 36 22.9999933  0 13
C06  36698767.572   191100128.137        -380.353          33.000  
C08  37944306.303   197585933.109       -2071.284          23.000  
C13  37021453.381   192780423.283       -1849.089          35.000  
C24  24581390.857   128001754.3871      -3036.786          23.000  
C25  21817601.189   113609970.931        -601.230          41.000  
C33  22263804.789   115933506.500        -667.989          29.000  
G10  20149333.806   105885468.075        -331.405          43.000  
G23  21291464.226   111887237.6941      -2685.284          17.000  
G31  21738676.328   114237531.7461       1328.395          35.000  
G32  21768096.161   114392106.394         898.091          37.000  
J01  37998676.364   199684386.344         835.487          26.000  
J02  37922576.147   199284447.976        -996.785          26.000  
R12  19109450.303   102079254.051        -971.251          35.000  
> 2021  9 12 10 36 23.9999931  0 13
C06  36698780.463   191100196.278        -380.615          33.000  
C08  37944645.069   197587691.916       -2071.436          21.000  
C13  37021745.979                       -1849.211          35.000  
C25  21817656.651   113610260.362        -602.528          41.000  
C33  22263874.341   115933862.687        -668.891          28.000  
G10  20149338.004   105885485.067        -332.511          42.000  
G23  21291919.911   111889607.199       -2684.355          16.000  
G25  20781441.407   109207345.1011       -240.850          24.000  
G31  21738362.445   114235888.221        1328.895          36.000  
G32  21767864.421   114390893.079         898.359          37.000  
J01  37998456.016   199683235.509         835.986          26.000  
J02  37922704.158   199285129.719        -997.376          24.000  
R12  19109573.518   102079912.437        -971.856          36.000  
> 2021  9 12 10 36 24.9999931  0 13
C06  36698854.811   191100576.581        -381.046          32.000  
C09  37691104.291   196267381.8111       -483.172          20.000  
C13  37022099.434   192783795.4481      -1849.223          35.000  
C24  24582498.291   128007515.0211      -3037.671          20.000  
C25  21817771.771   113610862.515        -603.136          41.000  
C33  22264003.551   115934532.483        -669.821          29.000  
G10  20149400.061   105885817.811        -333.641          42.000    20149405.757    79070596.5251       -247.164          30.000  
G23  21292432.556   111892292.568       -2686.195          16.000  
G31  21738106.122   114234560.249        1328.005          36.000  
G32  21767693.240   114389994.913         897.126          38.000  
J01  37998298.026   199682400.093         834.969          28.000    37998311.816                         622.948          30.000  
J02  37922895.426   199286127.360        -997.900          25.000  
R12  19109756.691   102080891.148        -972.905          36.000  
> 2021  9 12 10 36 25.9999928  0 12
C06  36698840.721                        -382.556          32.000  
C08  37945354.078   197591367.2501      -2071.770          23.000  
C13  37022368.048   192785175.900       -1849.453          35.000  
C25  21817795.455   113610996.780        -603.238          40.000  
C33  22264041.325   115934734.435        -670.771          29.000  
G10  20149373.979   105885678.544        -334.115          42.000    20149379.375    79070491.867        -249.838          30.000  
G12  22491505.555   118193659.9091      -1946.605          27.000  
G25  20781445.904   109207353.2031       -241.089          28.000  
G32  21767433.319   114388624.103         897.443          38.000  
J01  37998049.498   199681092.856         834.053          29.000    37998063.288                         623.258          31.000  
J02  37922995.856   199286651.730        -996.569          26.000  
R12  19109849.926   102081389.189        -974.473          36.000  
> 2021  9 12 10 36 26.9999926  0 12
C06  36698854.811   191100563.1211       -382.937          31.000  
C08  37945693.443   197593126.281       -2071.522          23.000  
C13  37022663.943   192786712.679       -1848.615          33.000  
C25  21817850.616   113611287.600        -603.347          40.000  
C33  22264109.678   115935092.787        -670.193          29.000  
G10  20149378.176   105885697.459        -334.459          43.000    20149383.272    79070506.866        -250.868          29.000  
G12  22491814.041   118195292.224       -1947.316          26.000  
G25  20781433.013   109207280.176        -241.887          28.000  
G32  21767203.678   114387410.850         898.357          38.000  
J01  37997832.148   199679944.401         832.912          28.000    37997845.339   149111703.6651        622.657          31.000  
J02  37923125.666   199287332.207        -995.437          27.000  
R12  19109973.141   102082047.243        -975.139          35.000  
> 2021  9 12 10 36 27.9999923  0 14
C06  36698834.126   191100475.075        -378.701          31.000  
C08  37946001.330   197594729.474       -2071.302          20.000  
C13  37022931.658   192788093.277       -1850.288          33.000  
C14  23162662.622   120614063.1221      -1928.299          27.000  
C24  24583999.951   128015382.3351      -3041.416          20.000  
C25  21817875.499   113611422.591        -603.867          40.000  
C33  22264146.852   115935294.526        -669.955          30.000  
G10  20149352.094   105885559.366        -335.459          44.000    20149357.790    79070404.280        -251.062          31.000  
G12  22492094.947   118196767.202       -1949.357          27.000  
G25  20781392.541   109207050.354        -243.333          28.000  
G32  21766942.859   114386040.026         897.679          39.000  
J01  37997583.920   199678638.802         833.892          29.000    37997597.411   149110728.251         622.368          30.000  
J02  37923227.296   199287854.697        -996.118          27.000  
R12  19110067.875   102082553.124        -975.781          33.000  
> 2021  9 12 10 36 28.9999921  0 14
C06  36698845.218   191100543.151        -379.106          29.000  
C08  37946340.695   197596489.390       -2072.766          25.000  
C13  37023226.953   192789630.201       -1850.782          33.000  
C14  23162971.409   120615679.519       -1928.327          25.000  
C25  21817933.059   113611714.283        -604.317          40.000  
C33  22264214.305   115935652.414        -670.950          30.000  
G10  20149354.792   105885579.552        -336.363          43.000    20149362.287    79070419.789        -250.673          32.000  
G12  22492406.431   118198402.166       -1950.513          28.000  
G25  20781380.849   109206978.976        -244.172          29.000  
G31  21736803.524   114227676.9251       1325.265          29.000  
G32  21766712.319   114384826.887         898.687          38.000  
J01  37997365.971   199677489.837         833.344          29.000    37997379.162   149109870.983         622.046          31.000  
J02  37923357.406   199288537.097        -997.928          26.000  
R12  19110189.591   102083203.536        -976.691          34.000  
> 2021  9 12 10 36 29.9999921  0 16
C06  36698915.969   191100923.843        -381.934          26.000  
C08  37946740.019   197598563.229       -2075.737          26.000  
C09  37691263.481   196268244.1821       -486.227          21.000  
C13  37023580.109   192791479.517       -1849.048          33.000  
C14  23163340.453   120617608.600       -1929.653          23.000  
C16  37344134.394   194460746.1481       -354.718          24.000  
C25  21818051.177   113612318.726        -605.187          40.000  
C33  22264343.516   115936322.881        -669.845          31.000  
G10  20149416.849   105885915.526        -336.016          41.000    20149425.843    79070671.500        -252.318          31.000  
G12  22492778.473   118200353.005       -1951.486          27.000  
G25  20781428.816   109207223.456        -244.404          30.000  
G31  21736547.501   114226351.038        1323.969          31.000  
G32  21766541.737   114383928.845         898.165          38.000  
J01  37997207.980   199676656.242         833.300          28.000    37997219.972   149109249.082         622.464          30.000  
J02  37923546.275   199289534.788        -998.055          24.000  
R12  19110371.265   102084173.286        -977.422          34.000  
> 2021  9 12 10 36 30.9999918  0 15
C08  37947050.604   197600170.053       -2074.082          24.000  
C09  37691265.880   196268261.381        -484.717          22.000  
C13  37023846.025   192792860.629       -1849.407          32.000  
C14  23163619.860   120619069.794       -1929.429          23.000  
C25  21818077.859   113612455.241        -604.891          40.000  
C33  22264382.189   115936524.796        -671.412          32.000  
E21                                                                                                                                  24202264.921    94974886.3301       -671.290          32.000  
G10  20149391.367   105885779.545        -337.389          41.000    20149400.660    79070569.981        -252.318          30.000  
G12  22493060.278   118201832.118       -1951.592          28.000  
G25  20781388.344   109206995.770        -245.861          28.000  
G31  21736206.637   114224552.916        1327.045          28.000  
G32  21766279.119   114382558.188         896.751          36.000  
J01  37996957.654   199675349.826         833.684          29.000    37996970.844   149108272.779         623.368          31.000  
J02  37923646.106   199290060.539        -998.972          25.000  
R12  19110463.901   102084668.272        -978.316          33.000  
> 2021  9 12 10 36 31.9999916  0 16
C06  36698908.175   191100903.0491       -379.496          26.000  
C08  37947388.769   197601931.757       -2073.755          25.000  
C09  37691298.557   196268433.813        -484.176          22.000  
C13  37024139.821   192794398.110       -1850.815          33.000  
C14  23163929.545   120620686.707       -1928.136          24.000  
C25  21818132.421   113612748.361        -605.296          40.000  
C33  22264452.041   115936884.280        -672.181          32.000  
E21                                                                                                                                  24202375.544    94975320.831        -670.900          31.000  
G10  20149397.662   105885801.760        -337.880          41.000    20149405.157    79070587.172        -251.707          31.000  
G12  22493373.861   118203469.228       -1952.556          27.000  
G25  20781373.654   109206927.208        -247.059          28.000  
G31  21735903.847   114222912.710        1325.384          28.000  
G32  21766052.775   114381345.088         897.324          38.000  
J01  37996739.704   199674201.650         832.868          28.000    37996751.996   149107414.407         623.918          30.000  
J02  37923775.916   199290743.348        -998.062          26.000  
R12  19110583.219   102085305.539        -979.141          32.000  
> 2021  9 12 10 36 32.9999913  0 16
C06  36698892.885   191100814.851        -381.049          30.000  
C08  37947696.956   197603536.013       -2071.302          22.000  
C09  37691300.356   196268449.069        -483.681          21.000  
C13  37024407.236   192795779.497       -1848.586          30.000  
C14  23164209.851   120622147.348       -1929.601          26.000  
C25  21818157.604   113612885.784        -606.244          41.000  
C33  22264488.016   115937087.117        -671.318          28.000  
E21                                                                                                                                  24202456.788    94975638.090        -669.094          31.000  
G10  20149373.379   105885667.062        -338.429          44.000    20149379.975    79070486.671        -253.306          32.000  
G12  22493655.666   118204949.427       -1953.113          28.000  
G25  20781329.885   109206701.993        -247.751          28.000  
G31  21735551.591   114221115.562        1324.823          31.000  
G32  21765788.958   114379974.575         897.223          37.000  
J01  37996491.177   199672895.874         833.176          30.000    37996503.168   149106437.952         623.428          30.000  
J02  37923873.948   199291268.646        -998.066          28.000  
R12  19110678.253   102085813.340        -979.741          29.000  
> 2021  9 12 10 36 33.9999913  0 16
C06  36698967.533   191101195.239        -380.306          30.000  
C08  37948096.579   197605605.852       -2069.970          21.000  
C13  37024767.287   192797629.229       -1851.924          30.000  
C14  23164579.495   120624076.531       -1929.627          26.000  
C16  37344184.459   194460919.8621       -357.962          21.000  
C23  23828045.088   124078815.6621       1934.797          30.000  
C25  21818273.923   113613491.915        -606.909          40.000  
E21                                                                                                                                  24202627.670    94976308.557        -671.379          32.000  
G10  20149438.434   105886005.525        -339.319          45.000    20149445.029    79070740.000        -254.038          33.000  
G12  22494027.109   118206902.836       -1953.369          27.000  
G25  20781376.952   109206950.114        -248.511          29.000  
G31  21735294.069   114219791.313        1323.764          33.000  
G32  21765618.976   114379076.475         897.284          35.000  
J01  37996332.287   199672062.528         833.212          26.000    37996344.878   149105815.408         621.935          30.000  
J02  37924065.816   199292266.598        -997.883          28.000  
R12  19110863.524   102086803.211        -980.509          27.000  
> 2021  9 12 10 36 34.9999910  0 17
C06  36698951.345   191101106.862        -379.971          32.000  
C08  37948404.466   197607208.794       -2072.203          21.000  
C09  37691392.692   196268947.5501       -484.414          24.000  
C13  37025033.802   192799010.793       -1847.523          31.000  
C14  23164860.101   120625538.395       -1930.116          28.000  
C23  23827581.309   124076412.343        1934.944          29.000  
C24  24587667.912   128034621.9931      -3036.624          19.000  
C25  21818300.905   113613630.112        -607.394          39.000  
E21                                                                                                                                  24202708.613    94976626.443        -669.748          31.000  
G10  20149413.551   105885872.011        -339.346          46.000    20149418.948                        -253.766          33.000  
G12  22494313.111   118208383.657       -1953.830          27.000  
G25  20781334.981   109206726.065        -248.889          28.000  
G31  21734953.805   114217994.890        1322.326          33.000  
G32  21765356.957   114377705.847         897.946          35.000  
J01  37996084.058   199670755.930         833.429          27.000    37996096.050   149104839.605         623.539          29.000  
J02  37924164.447   199292791.290        -997.232          28.000  
R12  19110954.362   102087288.615        -979.884          26.000  
> 2021  9 12 10 36 35.9999910  0 18
C06  36699025.693   191101486.618        -379.787          30.000  
C08  37948800.792   197609281.611       -2072.921          22.000  
C09  37691485.328   196269431.901        -484.588          23.000  
C13  37025388.457   192800860.803       -1851.395          31.000  
C14  23165230.345   120627468.734       -1931.051          27.000  
C16  37344239.621   194461162.6341       -354.805          19.000  
C23  23827207.168   124074477.803        1934.038          29.000  
C24  24588249.209   128037658.900       -3036.985          19.000  
C25  21818416.624   113614237.193        -608.197          40.000  
E21                                                                                                                                  24202880.095    94977297.624        -671.591          31.000  
G10  20149477.407   105886211.822        -340.410          46.000    20149482.803    79070902.2241       -253.715          33.000  
G12  22494686.053   118210337.608       -1954.414          27.000  
G25  20781382.648   109206975.187        -249.745          29.000  
G31  21734703.478   114216671.616        1322.665          33.000  
G32  21765186.375   114376807.900         896.076          35.000  
J01  37995924.269   199669922.377         834.334          25.000    37995937.460   149104217.135         621.104          29.000  
J02  37924353.916   199293788.439        -997.148          28.000  
R12  19111144.730   102088305.293        -983.465          28.000  
> 2021  9 12 10 36 36.9999908  0 17
C06  36699039.783   191101554.116        -380.060          32.000  
C08  37949140.757   197611043.616       -2074.876          24.000  
C13  37025677.157   192802398.671       -1848.529          32.000  
C14  23165540.330   120629087.046       -1930.450          27.000  
C16  37344247.715   194461205.020        -353.897          21.000  
C23  23826773.968   124072231.778        1933.403          29.000  
C25  21818472.386   113614532.443        -607.325          39.000  
C33  22264837.873   115938996.5921       -673.724          25.000  
E21                                                                                                                                  24202991.618    94977733.855        -673.188          31.000  
G10  20149482.504   105886237.140        -340.138          46.000    20149487.300    79070921.117        -253.890          32.000  
G12  22495000.235   118211977.141       -1955.204          26.000  
G25  20781367.958   109206910.061        -250.437          28.000    20781372.755    81550571.2331       -185.751          25.000  
G31  21734391.694   114215033.623        1323.568          31.000  
G32  21764955.235   114375594.831         898.443          37.000  
J01  37995706.320   199668772.407         835.181          27.000    37995718.911   149103359.663         622.369          30.000  
J02  37924485.225   199294470.047        -996.889          28.000  
R12  19111270.643   102088977.890        -985.696          30.000  
> 2021  9 12 10 36 37.9999905  0 18
C06  36699023.894   191101465.374        -379.257          30.000  
C08  37949450.742   197612650.246       -2074.260          24.000  
C09  37691517.106   196269617.5201       -482.294          20.000  
C13  37025943.373   192803780.615       -1852.562          31.000  
C14  23165819.137   120630549.251       -1931.086          25.000  
C16  37344225.531   194461088.323        -351.303          23.000  
C23  23826311.688   124069830.682        1932.164          28.000  
C25  21818499.967   113614671.947        -608.379          40.000  
C33  22264880.144   115939202.457        -673.608          27.000  
E21                                                                                                                                  24203072.262    94978052.824        -671.048          31.000  
G10  20149456.721   105886105.562        -341.824          46.000    20149461.818    79070822.962        -253.972          32.000  
G12  22495284.439   118213459.864       -1955.649          25.000  
G25  20781326.887   109206688.042        -251.088          27.000    20781331.084    81550403.920        -188.215          24.000  
G31  21734043.335   114213238.404        1323.320          29.000  
G32  21764696.514   114374224.301         897.358          37.000  
J01  37995458.691   199667464.537         834.928          29.000    37995469.784   149102384.271         621.682          29.000  
J02  37924584.157   199294994.379        -997.895          27.000  
R12  19111367.176   102089493.882        -984.353          30.000  
> 2021  9 12 10 36 38.9999903  0 15
C06  36699037.085   191101532.924        -380.613          25.000  
C09  37691548.584   196269786.781        -479.994          24.000  
C13  37026236.870   192805318.717       -1851.487          32.000  
C14  23166130.322   120632169.151       -1933.583          24.000  
C16  37344236.023   194461128.865        -353.979          23.000  
C23  23825879.987   124067585.291        1932.850          27.000  
C25  21818557.527   113614968.111        -608.616          40.000  
E21                                                                                                                                  24203183.785    94978489.492        -673.740          32.000  
G10  20149462.417   105886132.160        -342.226          45.000    20149466.914    79070842.740        -256.940          32.000  
G12  22495597.122   118215100.639       -1956.219          26.000  
G25  20781312.197   109206624.337        -251.937          26.000    20781318.792    81550356.640        -187.932          26.000  
G32  21764465.074   114373011.366         897.552          37.000  
J01  37995240.742   199666314.189         835.529          26.000    37995250.935   149101526.953         622.260          31.000  
J02  37924713.967   199295676.841        -996.467          24.000  
R12  19111493.089   102090165.990        -985.726          29.000  
> 2021  9 12 10 36 39.9999900  0 16
C06  36699021.796   191101445.251        -380.705          28.000  
C08  37950105.189   197616018.5091      -2075.257          22.000  
C13  37026503.085   192806701.051       -1851.920          33.000  
C14  23166411.527   120633634.789       -1933.803          24.000  
C16  37344212.640   194461014.554        -354.462          24.000  
C23  23825417.107   124065184.253        1932.433          27.000  
C25  21818583.309   113615108.669        -608.423          38.000  
C33  22264996.763   115939770.3381       -675.021          31.000  
E21                                                                                                                                  24203265.328    94978809.193        -672.721          32.000  
G10  20149437.535   105886002.000        -342.937          46.000    20149442.931    79070745.543        -255.760          33.000  
G12  22495881.026   118216584.405       -1956.814          27.000  
G25  20781268.727   109206403.981        -252.778          27.000    20781276.522    81550192.261        -189.478          25.000  
G32  21764202.456   114371640.993         897.806          38.000  
J01  37994992.514   199665006.260         834.825          28.000    37995002.107   149100551.556         621.820          30.000  
J02  37924813.198   199296201.549        -998.173          25.000  
R12  19111588.423   102090675.223        -985.660          33.000  
> 2021  9 12 10 36 40.9999898  0 16
C06  36699036.786   191101513.878        -381.480          30.000  
C08  37950445.753   197617780.100       -2072.432          21.000  
C09  37691583.060   196269971.2971       -484.152          21.000  
C13  37026801.079   192808239.614       -1850.424          32.000  
C14  23166722.712   120635255.275       -1932.073          25.000  
C23  23824986.005   124062939.403        1933.111          28.000  
C25  21818638.771   113615405.870        -609.778          38.000  
C33  22265070.512   115940133.151        -675.342          31.000  
E21                                                                                                                                  24203376.851    94979246.800        -673.534          32.000  
G10  20149442.331   105886030.059        -343.275          45.000    20149447.728    79070766.483        -257.809          32.000  
G12  22496194.309   118218226.534       -1957.441          27.000  
G25  20781255.536   109206341.739        -253.068          26.000    20781264.830    81550146.463        -190.159          25.000  
G32  21763970.717   114370428.159         897.382          37.000  
J01  37994773.666   199663857.105         834.119          28.000    37994783.259   149099693.230         623.451          30.000  
J02  37924943.308   199296885.006        -998.652          26.000  
R12  19111714.635   102091349.428        -987.214          34.000  
> 2021  9 12 10 36 41.9999898  0 16
C06  36699110.834   191101894.540        -380.237          31.000  
C08  37950845.976   197619854.013       -2074.555          24.000  
C13  37027158.432   192810090.470       -1851.731          30.000  
C14  23167094.454   120637187.568       -1932.438          25.000  
C16  37344285.789   194461407.6361       -353.048          16.000  
C23  23824617.261   124061007.076        1930.857          29.000  
C25  21818756.289   113616015.650        -610.007          37.000  
C33  22265203.021   115940808.543        -675.896          29.000  
E21                                                                                                                                  24203548.032    94979920.028        -673.212          31.000  
G10  20149506.787   105886373.773        -344.170          46.000    20149513.382    79071023.225        -254.931          32.000  
G12  22496564.852   118220184.333       -1958.045          27.000  
G25  20781305.002   109206594.864        -253.430          26.000    20781313.396    81550336.765        -189.378          24.000  
G32  21763797.137   114369530.458         896.874          37.000  
J01  37994611.178   199663024.438         832.368          26.000    37994624.669   149099070.064         622.944          29.000  
J02  37925134.276   199297883.577        -998.765          26.000  
R12  19111901.406   102092347.653        -987.464          33.000  
> 2021  9 12 10 36 42.9999895  0 16
C06  36699094.645   191101805.887        -379.094          29.000  
C08  37951155.961   197621459.944       -2074.527          22.000  
C13  37027427.046   192811473.062       -1850.901          32.000  
C14  23167374.460   120638649.832       -1931.404          22.000  
C16  37344263.604   194461292.050        -353.103          20.000  
C23  23824159.178   124058607.637        1931.223          27.000  
C25  21818783.271   113616157.526        -610.602          38.000  
C33  22265245.891   115941016.602        -676.794          30.000  
E21                                                                                                                                  24203629.876    94980240.916        -674.000          31.000  
G10  20149482.504   105886245.549        -344.702          45.000    20149489.399    79070927.655        -256.987          33.000  
G12  22496846.957   118221670.021       -1958.675          28.000  
G25  20781265.729   109206376.295        -254.367          26.000    20781271.125    81550172.773        -188.821          25.000  
G32  21763541.714   114368160.145         897.947          38.000  
J01  37994361.451   199661719.752         834.338          27.000    37994375.841   149098093.917         622.879          29.000  
J02  37925233.807   199298409.393        -998.982          24.000  
R12  19111997.040   102092858.272        -988.841          35.000  
> 2021  9 12 10 36 43.9999892  0 17
C06  36699074.559   191101716.511        -379.149          25.000  
C09  37691690.985   196270488.5671       -484.768          25.000  
C13  37027689.964   192812855.894       -1850.568          30.000  
C14  23167652.968   120640113.791       -1932.315          21.000  
C16  37344239.621   194461176.997        -354.543          23.000  
C23  23823699.596   124056208.484        1929.819          26.000  
C25  21818813.250   113616299.871        -610.984          38.000  
C33  22265286.063   115941225.120        -677.029          32.000  
E21                                                                                                                                  24203710.820    94980561.637        -674.829          32.000  
G10  20149459.719   105886117.979        -346.102          43.000    20149465.415    79070832.134        -260.279          34.000  
G12  22497124.265   118223156.004       -1959.084          26.000  
G25  20781225.257   109206158.586        -255.088          27.000    20781229.754    81550011.184        -192.938          26.000  
G31  21732131.259   114203267.7321       1320.192          20.000  
G32  21763291.687   114366790.047         898.614          36.000  
J01  37994114.122   199660412.611         834.825          25.000    37994127.613   149097118.233         623.204          31.000  
J02  37925333.938   199298936.289       -1000.222          24.000  
R12  19112090.575   102093358.221        -988.634          35.000  
> 2021  9 12 10 36 44.9999890  0 15
C06  36699088.350   191101783.233        -379.072          30.000  
C09  37691726.061   196270660.990        -484.322          26.000  
C13  37027984.660   192814397.503       -1852.074          29.000  
C14  23167961.754   120641731.983       -1930.677          16.000  
C16  37344246.816   194461218.778        -353.754          25.000  
C23  23823264.597   124053967.203        1928.041          22.000  
C25  21818872.009   113616597.680        -609.765          35.000  
C33  22265357.414   115941589.607        -676.913          31.000  
E21                                                                                                                                  24203820.544    94980998.973        -669.273          32.000  
G10  20149463.317   105886148.562        -346.286          39.000    20149472.011    79070854.791        -255.520          34.000  
G12  22497433.651   118224800.202       -1959.631          28.000  
G25  20781218.662   109206098.823        -255.757          21.000    20781217.163    81549967.742        -191.735          27.000  
J01  37993895.873   199659262.705         834.918          32.000    37993908.764   149096259.653         623.297          33.000  
J02  37925461.949   199299619.942        -998.297          30.000  
R12  19112213.790   102094015.871        -989.360          33.000  
> 2021  9 12 10 36 45.9999887  0 14
C06  36699072.761   191101693.245        -378.248          29.000  
C09  37691731.457   196270677.239        -484.795          24.000  
C13  37028249.376   192815780.327       -1849.914          26.000  
C25  21818898.691   113616739.890        -610.920          35.000  
C33  22265405.680   115941798.531        -678.668          31.000  
E21                                                                                                                                  24203901.787    94981322.114        -676.330          23.000  
G10  20149441.732   105886022.214        -346.788          37.000    20149448.027    79070759.369        -258.523          29.000  
G12  22497712.758   118226287.684       -1960.710          27.000  
G25  20781177.890   109205882.036        -256.239          24.000    20781175.492    81549807.188        -193.168          26.000  
G31  21731482.208   114199840.4741       1318.849          31.000  
G32  21762795.530   114364207.2291        898.138          30.000  
J01  37993648.544   199657955.198         834.709          37.000    37993660.836   149095283.217         622.711          35.000  
J02  37925559.382   199300146.104        -998.928          30.000  
R12  19112307.025   102094514.077        -990.170          39.000  
> 2021  9 12 10 36 46.9999887  0 15
C06  36699145.310   191102071.522        -378.886          31.000  
C08  37952508.625   197628511.3351      -2074.162          19.000  
C09  37691827.990   196271162.304        -484.809          24.000  
C13  37028604.331   192817630.074       -1850.344          28.000  
C23  23822428.176   124049642.4851       1925.625          17.000  
C25  21819014.111   113617351.392        -612.069          32.000  
C33  22265536.390   115942476.961        -677.879          32.000  
E21                                                                                                                                  24204075.068    94981997.689        -674.098          31.000  
G10  20149506.187   105886369.395        -347.969          43.000    20149513.682    79071018.208        -259.209          36.000  
G12  22498081.202   118228248.504       -1961.063          29.000  
G25  20781227.655   109206138.935        -257.553          25.000    20781222.559    81549999.233        -191.612          24.000  
G31  21731234.579   114198521.643        1318.501          31.000  
G32  21762618.053   114363309.899         900.147          33.000  
J01  37993493.252   199657120.898         833.694          39.000    37993502.246                         622.692          36.000  
R12  19112491.997   102095501.980        -991.932          38.000  
> 2021  9 12 10 36 47.9999885  0 17
C06  36699158.801   191102138.322        -379.384          33.000  
C09  37691862.766   196271334.404        -483.615          28.000  
C13  37028901.125   192819168.246       -1850.341          28.000  
C14  23168931.882   120646743.7701      -1929.675          14.000  
C16  37344295.382   194461502.5241       -354.974          20.000  
C23  23821995.875   124047403.548        1927.209          23.000  
C25  21819071.971   113617651.537        -612.798          39.000  
C33  22265607.141   115942842.861        -678.115          29.000  
E21                                                                                                                                  24204188.389    94982437.909        -677.490          25.000  
G10  20149511.883   105886402.147        -348.406          43.000    20149519.678    79071042.546        -259.863          37.000  
G12  22498391.787   118229894.887       -1961.851          27.000  
G25  20781215.664   109206081.625        -258.346          29.000    20781212.666    81549955.454        -192.389          27.000  
G31  21730926.393   114196888.398        1317.628          29.000  
G32  21762385.114   114362097.427         893.657          32.000  
J01  37993273.204                         833.988          37.000    37993283.997   149093805.6391        622.445          36.000  
J02  37925874.763   199301827.2401       -998.254          34.000  
R12  19112611.315   102096139.354        -991.643          39.000  
> 2021  9 12 10 36 48.9999882  0 16
C06  36699142.013   191102049.069        -378.409          31.000  
C09  37691866.064   196271349.750        -483.057          27.000  
C13  37029166.142   192820549.987       -1850.856          27.000  
C14  23169211.888   120648205.874       -1932.370          14.000  
C23  23821536.294   124045008.980        1926.177          25.000  
C25  21819101.051   113617796.825        -613.157          39.000  
C33  22265649.112   115943053.033        -678.890          28.000  
E21                                                                                                                                  24204271.132    94982761.128        -675.545          23.000  
G10  20149489.998   105886278.037        -348.411          45.000    20149495.994    79070949.959        -259.475          35.000  
G12  22498672.993   118231384.268       -1962.377          28.000  
G25  20781173.393   109205867.488        -259.669          28.000    20781172.793    81549794.579        -192.662          27.000  
G31  21730586.728   114195097.791        1318.367          28.000  
G32  21762123.096   114360727.453         895.665          32.000  
J01  37993023.777   199654691.9711        833.998          37.000    37993034.869   149092830.037         622.330          35.000  
J02  37925974.594   199302352.896        -997.889          34.000  
R12  19112703.351   102096631.457        -993.459          37.000  
> 2021  9 12 10 36 49.9999880  0 17
C06  36699154.304   191102115.515        -379.500          34.000  
C08  37953484.150   197633638.0461      -2073.748          26.000  
C09  37691898.142   196271520.487        -482.883          29.000  
C13  37029462.337   192822088.139       -1851.115          26.000  
C14  23169524.272   120649827.900       -1938.643          13.000  
C16  37344272.598   194461430.1851       -353.214          24.000  
C23  23821103.393   124042770.680        1926.504          25.000  
C25  21819160.709                        -613.320          37.000  
C33  22265719.263   115943419.263        -678.071          28.000  
E21                                                                                                                                  24204383.554    94983200.843        -674.857          26.000  
G10  20149496.294   105886311.935        -349.147          46.000    20149502.290                        -260.044          36.000  
G12  22498986.276   118233031.065       -1961.507          26.000  
G25  20781160.802   109205812.391        -259.668          28.000    20781163.200    81549752.264        -192.194          25.000  
G31  21730277.042   114193464.913        1316.690          29.000  
J01  37992807.327   199653542.785         837.038          35.000    37992817.220   149091971.942         622.774          36.000  
J02  37926104.404                        -999.280          32.000  
R12  19112831.662   102097317.037        -995.025          37.000  
> 2021  9 12 10 36 50.9999880  0 15
C06  36699222.957   191102494.733        -380.066          34.000  
C08  37953882.274   197635712.232       -2074.386          25.000  
C09  37691990.778   196272003.908        -483.284          27.000  
C13  37029818.490   192823939.340       -1852.576          27.000  
C14  23169895.715   120651767.557       -1938.964          10.000  
C16  37344339.452   194461782.915        -352.582          26.000  
C25  21819277.628                        -614.833          35.000  
C33  22265846.675   115944097.109        -678.157          21.000  
G10  20149563.447   105886662.430        -349.318          47.000    20149569.144    79071236.9381       -260.960          39.000  
G12  22499359.817   118234993.500       -1961.347          24.000  
G25  20781219.261   109206069.816        -256.184          21.000    20781213.565    81549945.173        -192.837          25.000  
G32  21761722.273   114358616.3401        896.427          28.000  
J01  37992642.741   199652709.376         834.904          29.000    37992658.930   149091349.760         621.914          35.000  
J02  37926292.674   199304023.4161       -996.837          28.000  
R12  19113020.831   102098327.068        -996.628          41.000  
> 2021  9 12 10 36 51.9999877  0 14
C06  36699203.170                        -379.512          32.000  
C08  37954191.360   197637318.881       -2076.631          25.000  
C09  37691994.675   196272020.325        -485.572          26.000  
C13  37030087.104   192825324.348       -1854.115          25.000  
C14  23170177.520   120653237.428       -1935.543          10.000  
C16  37344314.569   194461667.407        -352.650          28.000  
C25  21819306.408   113618858.2771       -615.233          36.000  
G10  20149541.263   105886540.822        -350.755          48.000    20149546.060    79071146.120        -262.456          40.000  
G25  20781178.789   109205854.706        -259.084          17.000    20781174.892    81549787.575        -196.038          26.000  
G31  21729685.252   114190360.9701       1314.726          28.000  
G32  21761460.554   114357247.704         896.109          33.000  
J01  37992396.611   199651403.374         833.152          33.000    37992411.001   149090374.582         621.880          32.000  
J02  37926402.998   199304550.255        -997.986          30.000  
R12  19113122.161   102098868.910        -996.213          42.000  
> 2021  9 12 10 36 52.9999877  0 12
C06  36699280.817   191102761.9251       -379.097          33.000  
C08  37954587.686   197639395.501       -2077.303          25.000  
C13  37030444.457   192827179.212       -1854.975          27.000  
C16  37344379.924   194462019.798        -352.425          26.000  
C23  23819894.330   124036525.2651       1925.044          27.000  
C25  21819425.126   113619474.169        -616.292          36.000  
G10  20149607.517   105886892.854        -352.705          49.000    20149613.213    79071408.998        -263.257          40.000  
G25                                                                  20781225.557    81549984.147        -198.436          27.000  
G31  21729436.124   114189045.352        1316.753          26.000  
J01  37992241.319   199650570.390         833.485          36.000    37992253.310   149089751.601         621.257          26.000  
J02  37926597.863   199305550.102       -1000.211          32.000  
R12  19113305.934   102099850.000        -997.812          41.000  
> 2021  9 12 10 36 53.9999875  0 13
C06  36699290.110   191102829.158        -380.979          32.000  
C08  37954926.451   197641160.480       -2076.732          25.000  
C09  37692129.881   196272679.1661       -486.318          22.000  
C13  37030740.052   192828721.341       -1853.569          29.000  
C16  37344385.620   194462059.430        -351.645          28.000  
C23  23819465.027   124034287.749        1925.151          27.000  
C25  21819481.787   113619778.333        -617.319          36.000  
C33  22266104.497   115945358.9031       -682.681          25.000  
G10  20149614.412   105886930.510        -353.340          48.000    20149620.708    79071437.125        -264.072          40.000  
G25  20781206.670   109206056.4271       -257.663          16.000    20781215.964    81549946.851        -197.905          26.000  
J01  37992027.267   199649422.411         832.056          35.000    37992034.162   149088893.553         624.538          24.000  
J02  37926725.874   199306235.004        -999.877          32.000  
R12  19113431.846   102100522.789        -998.450          40.000  
> 2021  9 12 10 36 54.9999872  0 13
C06  36699270.324   191102739.722        -378.578          32.000  
C08  37955234.638   197642769.786       -2078.619          26.000  
C09  37692137.076   196272697.053        -486.638          25.000  
C13  37031006.268   192830107.326       -1854.493          30.000  
C16  37344361.636   194461941.898        -350.985          27.000  
C23  23819005.745   124031894.044        1925.940          30.000  
C25  21819508.469   113619926.412        -616.872          36.000  
C33  22266150.665   115945572.938        -682.662          26.000  
G10  20149592.527   105886810.850        -353.952          49.000    20149598.223    79071347.796        -264.278          40.000  
G25                                                                  20781175.791    81549792.233        -198.716          26.000  
J01  37991776.640   199648116.469         833.113          36.000    37991784.735   149087914.425         625.864          17.000  
J02  37926826.904   199306762.019       -1000.039          33.000    37926834.099   148833043.9971       -748.441          27.000  
R12  19113527.780   102101034.728        -997.721          40.000  
> 2021  9 12 10 36 55.9999869  0 15
C06  36699258.932   191102650.306        -378.365          34.000  
C08  37955542.225   197644380.372       -2078.935          22.000  
C09  37692145.471   196272715.374        -486.346          23.000  
C13  37031273.383   192831493.043       -1853.699          28.000  
C16  37344337.953   194461825.330        -352.369          28.000  
C23  23818545.864   124029499.575        1924.922          29.000  
C25  21819538.148   113620075.259        -616.472          33.000  
C33  22266195.034   115945787.406        -682.966          26.000  
G10  20149569.743   105886691.953        -353.281          48.000    20149575.739    79071258.908        -264.334          40.000  
G25  20781122.129   109205632.3911       -263.552          19.000    20781135.619    81549637.387        -196.919          26.000  
G31  21728454.304   114183844.0051       1312.199          23.000  
G32  21760547.387                         898.688          34.000  
J01  37991524.215   199646810.753         833.731          36.000    37991535.307   149086937.263         623.268          28.000  
J02  37926915.343   199307289.313        -999.805          31.000    37926933.930   148833439.543        -747.141          28.000  
R12  19113620.416   102101529.726        -998.801          38.000  
> 2021  9 12 10 36 56.9999867  0 15
C06  36699275.420   191102716.865        -378.166          32.000  
C08  37955881.290   197646147.916       -2078.585          24.000  
C09  37692176.649   196272887.620        -483.496          26.000  
C13  37031567.779   192833034.352       -1853.479          27.000  
C14  23171766.720   120661372.8681      -1941.019          18.000  
C16  37344345.148   194461862.879        -347.665          24.000  
C25  21819599.306   113620380.173        -617.810          39.000  
C33  22266266.085   115946157.892        -683.160          26.000  
G10  20149577.838   105886731.122        -354.292          44.000    20149583.534    79071288.212        -264.128          37.000  
G12  22501228.124   118244741.8561      -1970.000          25.000  
G25  20781111.636   109205582.126        -265.616          20.000    20781125.726    81549599.250        -197.216          28.000  
G32  21760310.550   114351237.4581        895.839          32.000  
J01  37991304.767   199645662.111         833.867          33.000    37991317.058   149086079.590         621.674          35.000  
J02  37927042.155   199307973.934       -1002.306          32.000    37927066.438   148833952.281        -748.920          26.000  
R12  19113749.626   102102220.177        -999.937          38.000  
> 2021  9 12 10 36 57.9999867  0 13
C06  36699347.670   191103096.379        -378.783          27.000  
C08  37956276.117   197648225.420       -2076.128          25.000  
C09  37692266.887   196273371.513        -483.784          27.000  
C13  37031922.134   192834887.239       -1853.406          27.000  
C16  37344412.601   194462210.380        -347.916          20.000  
C25  21819720.722   113620997.864        -617.897          40.000  
G10  20149644.691   105887085.884        -355.831          44.000    20149649.788    79071553.099        -267.484          29.000  
G12  22501601.366   118246710.776       -1968.886          28.000  
G25                                                                  20781176.091    81549797.406        -198.699          29.000  
G31  21727891.294   114180901.8441       1313.374          31.000  
J01  37991144.978   199644828.617         833.078          36.000    37991158.768   149085457.684         621.760          35.000  
J02  37927236.421   199308973.594        -999.148          29.000    37927260.404   148834699.825        -747.488          22.000  
R12  19113933.699   102103203.809       -1000.934          40.000  
> 2021  9 12 10 36 58.9999864  0 16
C06  36699329.983   191103006.179        -377.674          27.000  
C08  37956582.205   197649832.728       -2076.119          24.000  
C09  37692267.786   196273386.080        -482.502          27.000  
C13  37032185.352   192836272.022       -1852.856          26.000  
C16  37344392.815   194462089.841        -348.249          23.000  
C23  23817296.928   124022949.9711       1923.209          27.000  
C25  21819748.902   113621147.572        -618.894          40.000  
C33  22266434.268   115947056.8781       -684.207          31.000  
G10  20149624.305   105886968.747        -355.587          43.000    20149627.003    79071465.576        -265.484          28.000  
G12  22501885.269   118248206.689       -1968.508          28.000  
G25  20781119.730   109205643.6461       -268.915          25.000    20781137.118    81549643.566        -199.609          29.000  
G31  21727551.929   114179116.287        1312.332          31.000  
G32  21759876.451   114348969.3211        895.389          25.000  
J01  37990898.548   199643522.382         832.221          37.000    37990909.641   149084482.692         622.833          35.000  
J02  37927328.757   199309501.050       -1002.639          28.000    37927365.331   148835092.637        -745.993          21.000  
R12  19114035.928   102103749.625       -1002.268          40.000  
> 2021  9 12 10 36 59.9999862  0 13
C06  36699341.974   191103071.048        -376.216          22.000  
C09  37692299.264   196273556.502        -482.539          24.000  
C13  37032479.148   192837812.571       -1852.954          23.000  
C16  37344399.710   194462126.619        -349.418          22.000  
C23  23816867.026   124020713.786        1924.729          25.000  
C25  21819805.863   113621453.865        -618.759          42.000  
C33  22266502.621   115947428.905        -684.343          36.000  
G10  20149631.800   105887009.708        -356.356          45.000    20149635.697    79071497.330        -266.182          22.000  
G12  22502197.353   118249860.621       -1969.790          24.000  
G25  20781111.636   109205597.551        -269.492          29.000    20781128.124    81549607.932        -199.486          29.000  
J01  37990681.199   199642373.752         832.411          37.000    37990689.893   149083624.743         622.041          33.000  
J02                                                                  37927498.439   148835603.328        -746.749          23.000  
R12  19114164.239   102104435.208       -1002.564          43.000  
> 2021  9 12 10 37  0.9999859  0 11
C06  36699324.586   191102979.380        -377.983          22.000  
C13  37032744.764   192839197.592       -1853.428          19.000  
C23  23816408.643   124018320.721        1924.943          27.000  
C25  21819835.542   113621604.524        -619.767          43.000  
C33  22266531.701   115947644.375        -683.262          36.000  
G10  20149609.616   105886893.738        -357.568          45.000    20149612.613    79071411.451        -268.420          21.000  
G25  20781074.761   109205393.931        -269.294          29.000    20781088.852    81549454.149        -199.040          28.000  
G31  21726910.073   114175704.7211       1312.057          26.000  
J01  37990429.373   199641067.542         834.154          37.000    37990441.964                         623.078          31.000  
J02  37927559.297   199310714.7971      -1000.823          26.000  
R12  19114261.972   102104957.495       -1003.407          43.000  
> 2021  9 12 10 37  1.9999857  0 14
C06  36699338.976   191103046.236        -380.260          26.000  
C09  37692331.942   196273737.5681       -482.901          23.000  
C16  37344386.519   194462049.1811       -355.085          22.000  
C23  23815978.741   124016083.154        1925.193          26.000  
C25  21819894.302   113621911.631        -620.095          41.000  
C33  22266596.756                        -684.660          37.000  
G10  20149617.710   105886935.938        -357.928          45.000    20149621.907    79071443.049        -266.051          22.000  
G12  22502779.850   118253014.0541      -1972.086          21.000  
G25  20781069.665   109205347.762        -268.883          31.000    20781079.258    81549418.409        -199.563          28.000  
G31  21726601.886   114174077.270        1312.128          24.000  
G32  21759183.331   114345178.1601        896.038          20.000  
J01  37990213.822   199639918.765         834.668          37.000    37990222.816   149081797.1201        623.214          31.000  
J02  37927690.606   199311400.191       -1000.258          25.000  
R12  19114390.883   102105646.086       -1004.619          44.000  
> 2021  9 12 10 37  2.9999854  0 13
C06  36699321.588   191102958.045        -380.545          27.000  
C09  37692335.539   196273753.450        -485.705          22.000  
C16  37344366.433   194461935.971        -354.307          24.000  
C23  23815519.459   124013690.179        1923.852          25.000  
C25  21819922.482   113622063.085        -620.176          42.000  
C33  22266636.628   115948229.3451       -685.519          37.000  
G10  20149596.125   105886821.242        -358.015          45.000    20149600.022    79071356.696        -265.484          22.000  
G12  22503056.558   118254512.778       -1967.749          20.000  
G25  20781033.390   109205144.047        -269.086          31.000    20781040.285    81549265.878        -200.753          27.000  
G31  21726266.719   114172292.817        1311.261          25.000  
J01  37989964.695   199638612.533         832.327          37.000    37989974.288   149080821.671         623.703          31.000  
J02  37927789.238   199311926.896        -999.501          24.000  
R12  19114490.114   102106175.324       -1004.703          44.000  
> 2021  9 12 10 37  3.9999854  0 13
C06  36699394.738   191103337.466        -379.047          27.000  
C08  37958257.145   197658647.0411      -2072.449          14.000  
C09  37692427.875   196274239.698        -484.538          21.000  
C16  37344435.685   194462289.023        -353.957          23.000  
C23  23815152.513   124011768.334        1920.442          21.000  
C25  21820041.200   113622683.258        -621.471          42.000  
C33  22266769.736   115948914.444        -685.403          37.000  
G10  20149664.178   105887179.760        -358.669          45.000    20149668.375    79071622.688        -265.093          24.000  
G25  20781085.554   109205413.265        -269.541          31.000    20781090.950    81549466.582        -201.010          28.000  
G31  21726021.189   114170981.720        1310.524          29.000  
J01  37989806.704   199637778.797         834.159          37.000    37989815.998   149080199.095         622.885          31.000  
J02  37927978.107   199312928.018       -1001.716          22.000  
R12  19114677.484   102107176.338       -1005.941          44.000  
> 2021  9 12 10 37  4.9999852  0 12
C06  36699407.329   191103404.271        -379.362          27.000  
C09  37692457.555   196274410.629        -482.484          22.000  
C16  37344443.180   194462330.357        -353.443          24.000  
C23  23814726.808   124009535.696        1920.255          23.000  
C25  21820099.659   113622991.794        -620.438          41.000  
C33  22266844.384   115949287.833        -686.060          38.000  
G10  20149672.272   105887223.973        -359.473          45.000    20149677.369    79071652.941        -267.743          25.000  
G25                                                                  20781082.856    81549434.954        -204.570          27.000  
G31  21725718.398   114169356.211        1309.875          26.000  
J01  37989588.455   199636630.099         833.657          37.000    37989595.950   149079341.370         622.962          30.000  
J02  37928107.318   199313614.301       -1001.023          22.000  
R12  19114804.296   102107854.421       -1006.832          44.000  
> 2021  9 12 10 37  5.9999849  0 10
C06  36699390.241   191103314.494        -378.477          33.000  
C09  37692458.754   196274425.290        -482.635          23.000  
C16  37344420.995   194462214.737        -351.725          24.000  
C25  21820129.039   113623144.697        -621.170          42.000  
C33  22266886.355   115949505.502        -686.490          37.000  
G10  20149649.788   105887111.326        -360.529          44.000    20149656.683    79071568.645        -270.672          26.000  
G25  20781042.084                        -267.745          32.000    20781044.182    81549285.253        -202.497          27.000  
G31  21725384.729   114167573.756        1309.648          28.000  
J01  37989342.026   199635323.931         833.126          36.000    37989347.722   149078365.860         622.203          31.000  
R12  19114904.727   102108390.850       -1007.316          44.000  
> 2021  9 12 10 37  6.9999846  0 11
C06  36699372.853   191103224.252        -377.702          34.000  
C09  37692462.651   196274439.543        -481.806          23.000  
C13  37034480.563   192848291.8561      -1855.446          24.000  
C16  37344398.811   194462098.100        -351.244          24.000  
C25  21820158.718   113623297.896        -621.749          43.000  
C33  22266925.328   115949723.445        -685.988          37.000  
G10  20149628.203   105886999.118        -361.343          44.000    20149637.196    79071487.280        -273.110          24.000  
G25  20781001.912   109204912.2741       -270.718          32.000    20781004.910    81549135.347        -203.435          28.000  
J01  37989091.099   199634017.623         834.380          37.000    37989099.793   149077390.442         624.100          31.000  
J02  37928302.782   199314668.2671       -999.403          19.000  
R12  19115004.258   102108922.174       -1008.362          44.000  
> 2021  9 12 10 37  7.9999844  0 10
C06  36699382.146   191103289.093        -376.721          31.000  
C09  37692494.429   196274608.549        -481.457          23.000  
C13  37034777.957   192849834.973       -1855.425          26.000  
C16  37344406.905   194462136.225        -350.588          23.000  
C25  21820218.677   113623607.564        -622.843          43.000  
C33  22266996.379   115950097.824        -686.919          36.000  
G10  20149637.196   105887045.099        -361.656          43.000    20149648.888    79071524.847        -272.749          14.000  
G25  20780991.119   109204868.984        -274.272          32.000    20780997.415    81549103.103        -202.565          27.000  
J01  37988871.052   199632868.716         833.686          37.000    37988880.945   149076532.453         621.832          32.000  
R12  19115128.072   102109583.511       -1009.077          44.000  
> 2021  9 12 10 37  8.9999844  0 10
C06  36699455.895                        -379.939          33.000  
C09  37692587.365   196275090.136        -482.106          23.000  
C16  37344474.059   194462486.676        -350.388          23.000  
C25  21820337.695   113624230.013        -622.344          43.000  
C33  22267126.489   115950784.906        -686.375          35.000  
G10  20149707.648   105887406.838        -361.573          43.000    20149717.541    79071797.906        -272.147          14.000  
G25  20781045.082   109205141.602        -271.562          31.000    20781049.279    81549305.240        -202.852          27.000  
J01  37988711.562   199632034.956         833.453          37.000    37988722.655   149075909.890         621.591          32.000  
J02  37928619.663   199316356.3841      -1004.793          17.000  
R12  19115319.040   102110603.781       -1009.732          44.000  
> 2021  9 12 10 37  9.9999844  0 13
C06  36699529.045   191104077.0851       -377.884          27.000  
C08  37960373.680   197669546.6261      -2078.094          17.000  
C09  37692682.099   196275574.652        -485.350          17.000  
C13  37035491.763   192853545.8801      -1855.210          24.000  
C16  37344539.713   194462835.710        -348.538          23.000  
C25  21820457.312   113624852.931        -624.121          43.000  
C33  22267258.098   115951472.546        -687.934          36.000  
G10  20149775.101   105887769.180        -362.103          44.000    20149785.594    79072069.503        -270.988          19.000  
G25  20781101.443   109205414.924        -268.394          31.000    20781100.543    81549506.758        -200.939          27.000  
G31  21724236.524   114161550.1781       1307.860          31.000  
J01  37988553.572   199631201.411         832.842          36.000    37988564.364   149075287.397         621.681          32.000  
J02  37928809.731   199317360.922       -1003.787          18.000  
R12  19115507.909   102111612.945       -1010.730          44.000  
> 2021  9 12 10 37 10.9999841  0 11
C06  36699511.357   191103986.317        -377.237          30.000  
C09  37692685.097   196275590.909        -483.465          20.000  
C13  37035761.276   192854932.467       -1855.553          26.000  
C16  37344516.629   194462716.767        -350.305          24.000  
C25  21820486.991   113625007.994        -623.512          39.000  
C33  22267309.063   115951692.180        -687.522          31.000  
G10  20149752.916   105887659.650        -363.432          43.000    20149763.409    79071987.492        -270.898          20.000  
G25  20781061.870   109205216.370        -273.163          26.000    20781062.470    81549355.970        -203.898          28.000  
G32  21757151.937   114334594.6921        896.896          29.000  
J01  37988303.844   199629895.530         833.261          38.000    37988316.436   149074312.125         622.313          32.000  
R12  19115610.138   102112158.304       -1010.870          39.000  
> 2021  9 12 10 37 11.9999839  0  9
C06  36699523.948   191104050.961        -376.644          36.000  
C13  37036060.469   192856475.617       -1854.670          26.000  
C25  21820546.950   113625319.620        -624.473          41.000  
C33  22267399.600   115952068.521        -687.638          28.000  
G10  20149760.711   105887708.302        -363.883          46.000    20149770.904    79072023.295        -271.322          34.000  
G25  20781051.377   109205174.747        -273.952          25.000    20781055.874    81549326.195        -205.525          28.000  
G31  21723577.880   114158147.3561       1307.810          30.000  
J01  37988085.596   199628746.801         833.498          35.000    37988096.988   149073454.495         622.759          33.000  
R12  19115742.047   102112863.627       -1012.372          38.000  
> 2021  9 12 10 37 12.9999836  0 14
C06  36699506.560   191103959.050        -377.001          36.000  
C08  37961337.213   197674530.8181      -2077.389          19.000  
C09  37692717.475   196275778.8851       -484.886          25.000  
C13  37036329.383   192857862.777       -1856.463          24.000  
C16  37344507.036   194462636.4811       -348.741          20.000  
C23  23811293.285   123991668.1291       1921.368          29.000  
C25  21820578.428   113625475.560        -624.839          42.000  
C33  22267446.667   115952288.515        -686.928          23.000  
G10  20149740.025   105887600.090        -364.922          46.000    20149748.719    79071941.505        -271.009          33.000  
G25  20781012.404   109204976.534        -275.015          26.000    20781018.700    81549179.096        -206.154          28.000  
G31  21723231.020   114156367.229        1307.234          26.000  
J01  37987836.768   199627440.506         834.610          36.000    37987848.160   149072478.876         624.023          33.000  
J02  37929152.694   199319107.7391      -1000.193          28.000  
R12  19115840.079   102113387.329       -1013.545          39.000  
> 2021  9 12 10 37 13.9999834  0 14
C06  36699521.250   191104023.843        -376.801          36.000  
C08  37961677.777   197676296.555       -2077.118          23.000  
C09  37692749.852   196275951.281        -483.729          19.000  
C13  37036628.576   192859405.137       -1854.067          24.000  
C16  37344515.130   194462672.805        -348.255          21.000  
C23  23810861.284   123989435.312        1920.182          27.000  
C25  21820637.487   113625788.088        -625.257          43.000  
C33  22267520.416   115952663.883        -688.948          25.000  
G10  20149749.019   105887650.061        -366.043          46.000    20149757.413    79071978.871        -273.812          30.000  
G25  20781003.710   109204936.921        -276.165          26.000    20781011.205    81549151.882        -207.012          27.000  
G32  21756418.345   114330802.7651        895.312          36.000  
J01  37987618.219   199626291.709         832.719          37.000    37987629.311   149071621.057         622.844          32.000  
J02  37929284.902   199319792.792        -999.925          30.000  
R12  19115974.087   102114102.627       -1014.473          38.000  
> 2021  9 12 10 37 14.9999834  0 14
C06  36699596.798                        -376.406          35.000  
C09  37692840.689   196276433.695        -482.313          21.000  
C13  37036984.729   192861258.281       -1853.864          23.000  
C16  37344582.883   194463022.420        -351.149          24.000  
C23  23810489.841   123987514.733        1920.929          25.000  
C25  21820757.404   113626413.298        -624.527          43.000  
G10  20149819.770   105888015.802        -366.107          47.000  
G12  22506981.141   118275056.2041      -1978.604          24.000  
G25                                                                  20781063.669    81549358.467        -206.966          28.000  
G31  21722667.110   114153440.4901       1305.271          29.000  
G32  21756248.962                         897.555          36.000  
J01  37987462.327   199625458.056         834.878          36.000    37987470.122   149070998.495         623.455          30.000  
J02  37929477.969   199320792.805       -1000.020          29.000  
R12  19116162.056   102115106.692       -1014.880          38.000  
> 2021  9 12 10 37 15.9999831  0 14
C06  36699576.412   191104339.9641       -377.036          36.000  
C09  37692840.390   196276447.662        -481.830          22.000  
C13  37037250.645   192862644.052       -1854.593          23.000  
C16  37344560.399   194462904.391        -350.186          22.000  
C23  23810029.659   123985125.441        1920.974          26.000  
C25  21820787.683   113626570.636        -625.980          43.000  
G10  20149799.984   105887909.564        -366.924          47.000  
G12  22507275.238   118276562.391       -1979.243          26.000  
G25  20781018.700   109205018.2701       -278.004          23.000    20781026.495    81549212.588        -206.446          26.000  
G31  21722328.945   114151662.862        1304.530          29.000  
G32  21755987.543   114328492.0191        894.690          36.000  
J01  37987212.000   199624151.718         832.972          37.000    37987221.294   149070022.920         622.404          31.000  
J02  37929580.498   199321320.427       -1000.007          27.000  
R12  19116260.388   102115632.330       -1016.094          38.000  
> 2021  9 12 10 37 16.9999828  0 14
C06  36699561.722   191104248.597        -376.661          34.000  
C09  37692842.488   196276460.685        -480.375          17.000  
C13  37037518.959   192864030.880       -1855.356          22.000  
C16  37344536.715   194462786.024        -350.054          21.000  
C23  23809569.478   123982736.604        1919.077          25.000  
C25  21820817.962   113626728.465        -626.606          43.000  
G10  20149779.598   105887804.044        -367.662          46.000  
G12  22507563.038   118278068.986       -1979.306          26.000  
G25  20780983.624   109204823.971        -278.740          26.000    20780988.121    81549066.910        -207.565          27.000  
G31  21721989.879   114149885.641        1304.462          30.000  
G32  21755727.623   114327123.194         896.856          36.000  
J01  37986964.971   199622845.488         833.414          36.000    37986973.366   149069047.497         621.532          29.000  
J02  37929684.526   199321848.272       -1001.036          30.000  
R12  19116359.020   102116159.013       -1016.751          39.000  
> 2021  9 12 10 37 17.9999826  0 12
C06  36699572.515   191104313.143        -378.521          34.000  
C13  37037817.552   192865574.212       -1856.112          26.000  
C25  21820877.621   113627042.787        -626.645          43.000  
C33  22267806.418   115954174.2561       -690.819          24.000  
G10  20149788.592   105887856.626        -368.188          45.000  
G12  22507880.818   118279733.542       -1980.160          23.000  
G25  20780977.029   109204788.040        -279.540          29.000    20780980.926    81549040.123        -208.685          27.000  
G31  21721681.393   114148266.161        1304.295          27.000  
G32  21755496.783   114325911.936         894.372          36.000  
J01  37986745.523   199621696.684         834.215          35.000    37986756.316   149068189.628         622.218          29.000  
J02  37929818.533   199322534.443       -1001.452          31.000  
R12  19116489.730   102116856.863       -1017.720          38.000  
> 2021  9 12 10 37 18.9999823  0 15
C06  36699550.930   191104221.519        -375.419          33.000  
C08  37963360.213   197684976.2811      -2078.097          17.000  
C09  37692873.667   196276636.1161       -479.442          15.000  
C13  37038084.668   192866962.980       -1857.407          24.000  
C16  37344518.428   194462705.4581       -350.402          23.000  
C23  23808681.793   123978118.7621       1918.308          21.000  
C25  21820907.600   113627201.437        -626.532          43.000  
G10  20149768.506   105887752.308        -368.945          45.000    20149775.401    79072057.8651       -275.796          26.000  
G12  22508166.820   118281241.488       -1980.708          24.000  
G25  20780940.754   109204595.548        -280.370          28.000    20780944.352    81548897.499        -210.603          27.000  
G31  21721343.827   114146489.771        1303.590          28.000  
G32  21755235.064   114324543.224         896.369          36.000  
J01  37986495.496   199620390.343         832.879          35.000    37986506.289   149067214.238         622.125          29.000  
J02  37929921.362   199323063.086       -1001.649          32.000    37929928.857   148845212.2241       -747.943          26.000  
R12  19116592.259   102117405.222       -1018.354          38.000  
> 2021  9 12 10 37 19.9999821  0 13
C06  36699564.420   191104285.773        -375.744          33.000  
C13  37038380.862   192868507.154       -1855.743          24.000  
C23  23808254.588   123975888.182        1918.602          21.000  
C25  21820968.458   113627516.605        -627.322          43.000  
C33  22267911.346   115954776.0841       -691.786          24.000  
G10  20149778.698   105887806.149        -369.347          45.000    20149786.493    79072098.984        -276.435          28.000  
G12  22508480.703   118282908.019       -1982.687          23.000  
G25  20780934.758   109204561.319        -281.623          28.000    20780937.756    81548871.586        -207.931          28.000  
G31  21721035.940   114144871.755        1302.452          26.000  
G32  21755004.224   114323331.896         896.548          37.000  
J01  37986276.048   199619241.478         832.534          34.000    37986287.440   149066356.160         622.646          30.000  
J02  37930053.870   199323749.002        -999.878          33.000    37930058.367   148845724.410        -747.539          27.000  
R12  19116724.767   102118112.707       -1019.172          39.000  
> 2021  9 12 10 37 20.9999821  0 14
C06  36699638.469   191104662.271        -377.586          33.000  
C08  37964103.698   197688816.4061      -2077.374          16.000  
C13  37038738.815   192870363.716       -1856.744          24.000  
C16  37344591.577   194463094.4561       -350.013          22.000  
C25  21821088.974   113628144.465        -627.834          43.000  
C33  22268040.856   115955468.711        -692.936          24.000  
G10  20149849.449   105888175.750        -369.628          45.000    20149857.244    79072375.835        -277.638          29.000  
G12  22508857.242   118284892.715       -1985.099          21.000  
G25  20780989.021   109204843.182        -282.230          28.000    20780990.520    81549080.451        -209.339          27.000  
G31  21720788.311   114143568.799        1303.425          26.000  
G32  21754834.242   114322435.814         897.285          36.000  
J01  37986119.557   199618407.720         833.655          34.000    37986128.850   149065733.646         620.838          29.000  
J02  37930244.238                       -1001.885          32.000    37930248.435   148846472.207        -746.890          27.000  
R12  19116912.137   102119113.913       -1020.638          39.000  
> 2021  9 12 10 37 21.9999818  0 15
C06  36699621.081   191104570.371        -376.891          34.000  
C09  37693001.678   196277304.4371       -488.079          13.000  
C13  37039005.330   192871750.792       -1854.858          21.000  
C14  23179593.401   120702323.2861      -1944.892          23.000  
C16  37344568.193   194462975.727        -349.738          23.000  
C25  21821119.853   113628304.485        -628.829          43.000  
C33  22268083.427   115955693.358        -692.714          24.000  
G10  20149831.462   105888073.418        -370.496          46.000    20149837.158    79072299.543        -276.839          27.000  
G12  22509141.446   118286404.990       -1984.577          22.000  
G25  20780953.046   109204652.915        -283.264          28.000    20780953.945    81548936.974        -210.209          26.000  
G31  21720450.145   114141793.801        1302.081          27.000  
G32  21754573.422   114321067.125         895.898          36.000  
J01  37985873.427   199617101.426         835.463          35.000    37985880.922   149064758.147         624.326          29.000  
J02  37930338.373   199325307.9111      -1001.571          31.000    37930348.266   148846865.426        -745.673          26.000  
R12  19117018.863   102119684.100       -1021.782          39.000  
> 2021  9 12 10 37 22.9999816  0 13
C06  36699632.773   191104634.487        -377.357          34.000  
C13  37039300.026   192873293.377       -1853.519          24.000  
C14  23179909.083   120703956.956       -1946.379          22.000  
C25  21821181.610   113628620.987        -628.978          43.000  
C33  22268155.677   115956074.195        -693.658          23.000  
G10  20149842.554   105888129.225        -371.447          46.000    20149847.351    79072340.044        -275.976          28.000  
G12  22509457.427   118288074.580       -1984.382          22.000  
G25  20780947.949   109204620.758        -282.594          28.000    20780947.949    81548911.406        -211.624          26.000  
G31  21720141.059   114140176.512        1302.724          26.000  
G32  21754343.481   114319855.961         895.815          37.000  
J01  37985651.880   199615952.550         834.020          35.000    37985661.774   149063900.225         622.928          28.000  
J02  37930471.181   199325993.918       -1001.455          31.000    37930478.376   148847375.821        -745.854          26.000  
R12  19117149.573   102120382.622       -1021.472          39.000  
> 2021  9 12 10 37 23.9999813  0 13
C06  36699613.586   191104542.344        -376.656          34.000  
C13  37039565.942   192874679.792       -1855.749          21.000  
C14  23180195.385   120705435.667       -1947.538          22.000  
C16  37344545.109   194462895.2081       -352.231          23.000  
C25  21821212.489   113628781.847        -629.096          43.000  
C33  22268195.849   115956298.852        -691.675          21.000  
G10  20149822.468   105888028.108        -372.008          46.000    20149828.164    79072264.876        -279.841          27.000  
G25  20780912.574   109204430.782        -282.937          28.000    20780912.274    81548771.471        -213.102          25.000  
G31  21719803.793   114138401.182        1302.870          27.000  
G32  21754084.161   114318487.300         897.315          37.000  
J01  37985400.954   199614646.164         835.184          34.000    37985412.646   149062924.682         623.005          29.000  
J02  37930574.909   199326522.408       -1001.287          31.000    37930579.106   148847769.907        -747.388          26.000  
R12  19117250.603   102120921.614       -1022.009          39.000  
> 2021  9 12 10 37 24.9999811  0 13
C06  36699627.676   191104606.253        -376.220          35.000  
C13  37039863.036   192876223.599       -1855.517          21.000  
C14  23180508.068   120707070.670       -1947.464          21.000  
C25  21821273.047   113629099.259        -629.782          43.000  
C33  22268265.401   115956678.056        -691.385          21.000  
G10  20149833.860   105888085.221        -372.516          46.000    20149839.257    79072309.541        -280.750          28.000  
G12  22510054.314   118291254.3621      -1984.015          21.000  
G25  20780908.976   109204398.721        -283.443          27.000    20780906.878    81548749.302        -213.050          25.000  
G31  21719496.206   114136783.277        1302.651          29.000  
G32  21753853.021   114317276.121         895.886          36.000  
J01  37985186.603   199613497.320         833.845          35.000    37985194.397   149062066.399         621.774          29.000  
J02  37930708.617   199327208.500       -1002.231          31.000    37930709.816   148848283.510        -750.024          26.000  
R12  19117381.612   102121621.738       -1023.096          40.000  
> 2021  9 12 10 37 25.9999811  0 14
C06  36699701.425   191104982.193        -375.178          34.000  
C08  37965820.909   197697993.0851      -2079.181          18.000  
C13  37040219.190   192878079.195       -1854.750          23.000  
C14  23180880.710   120709017.466       -1946.520          16.000  
C16  37344621.257   194463287.0191       -351.007          25.000  
C25  21821394.763   113629729.256        -630.573          42.000  
C33  22268396.410   115957369.555        -692.852          21.000  
G10  20149905.211   105888457.939        -373.276          46.000    20149910.607    79072589.648        -279.693          29.000  
G25  20780962.039   109204682.782        -284.398          28.000    20780961.140    81548962.133        -211.853          26.000  
G31  21719249.476   114135481.026        1301.860          31.000  
G32  21753683.039   114316380.074         897.013          37.000  
J01  37985027.413   199612663.445         833.574          35.000    37985035.207   149061443.981         623.561          29.000  
J02  37930896.587   199328209.645       -1002.420          30.000    37930900.784   148849032.361        -748.070          26.000  
R12  19117574.978   102122654.179       -1023.568          40.000  
> 2021  9 12 10 37 26.9999808  0 12
C06  36699681.039   191104889.734        -376.481          34.000  
C08  37966134.492   197699603.408       -2079.166          18.000  
C13  37040487.504   192879465.687       -1854.924          22.000  
C16  37344598.772   194463168.841        -350.210          24.000  
C25  21821425.941   113629891.365        -630.661          42.000  
C33  22268434.184   115957593.613        -692.792          20.000  
G10  20149886.924   105888358.691        -373.917          47.000    20149891.420    79072515.186        -278.189          27.000  
G25  20780925.165   109204494.789        -285.134          27.000    20780925.165    81548822.110        -215.578          27.000  
G32  21753422.819   114315011.402         894.548          36.000  
J01  37984775.587   199611356.923         833.858          36.000    37984786.979   149060467.376         623.110          30.000  
J02  37930992.520   199328738.273       -1001.795          30.000    37931002.114   148849427.012        -747.473          26.000  
R12  19117669.713   102123160.940       -1024.606          39.000  
> 2021  9 12 10 37 27.9999808  0 12
C06  36699752.990   191105265.423        -374.765          35.000  
C08  37966536.214   197701682.938       -2079.881          18.000  
C13  37040845.156   192881321.715       -1857.409          23.000  
C16  37344663.827   194463519.530        -350.521          23.000  
C25  21821546.458   113630522.214        -630.313          42.000  
G10  20149958.274   105888732.677        -373.898          47.000    20149961.872    79072793.704        -278.757          29.000  
G12  22511093.994   118296742.3701      -1986.929          17.000  
G25  20780980.626   109204780.292        -286.044          27.000    20780979.427    81549036.377        -213.500          27.000  
G32  21753252.836   114314115.191         897.250          37.000  
J01  37984619.395   199610522.863         834.773          35.000    37984628.689   149059844.771         621.638          31.000  
J02  37931183.488   199329739.411       -1001.348          29.000    37931193.081   148850175.507        -747.529          29.000  
R12  19117855.584   102124153.542       -1024.998          39.000  
> 2021  9 12 10 37 28.9999805  0 12
C06  36699732.304   191105173.457        -375.637          29.000  
C09  37693265.495   196278651.5781       -480.615          16.000  
C16  37344641.942   194463401.008        -348.265          24.000  
C25  21821577.037   113630685.225        -631.459          38.000  
C33  22268610.762   115958513.4021       -694.159          29.000  
G10  20149937.588   105888634.765        -375.423          46.000    20149942.985    79072719.348        -279.201          31.000  
G12  22511381.195   118298255.985       -1986.647          17.000  
G25                                                                  20780942.253    81548897.591        -215.135          28.000  
G31  21718334.510                        1300.475          37.000  
J01  37984371.767   199609216.068         834.171          37.000    37984381.060   149058869.848         621.734          34.000  
J02  37931282.120   199330268.646       -1002.336          26.000    37931293.812   148850569.875        -748.135          28.000  
R12  19117958.113   102124701.646       -1026.571          41.000  
> 2021  9 12 10 37 29.9999803  0 11
C06  36699747.294   191105236.369        -375.155          27.000  
C13  37041404.869   192884254.3341      -1860.005          19.000  
C25  21821638.194   113631004.678        -631.686          41.000  
C33  22268683.311   115958896.006        -695.145          23.000  
G10  20149948.381   105888695.000        -376.273          40.000    20149955.276    79072764.177        -280.530          37.000  
G12  22511701.673   118299930.340       -1990.405          18.000  
G25  20780941.054   109204562.9281       -285.401          18.000    20780935.358    81548876.603        -213.726          25.000  
G31  21718021.826   114129003.8551       1297.855          36.000  
J01  37984153.817   199608067.092         834.658          37.000    37984162.511                         624.742          37.000  
J02                                                                  37931425.720   148851083.401        -749.055          27.000  
R12  19118095.418   102125435.114       -1027.145          43.000  
> 2021  9 12 10 37 30.9999800  0 13
C06  36699731.405   191105142.742        -374.504          29.000  
C09  37693304.169   196278829.4691       -476.790          16.000  
C13  37041670.185   192885645.864       -1859.993          19.000  
C25  21821669.672   113631168.696        -633.042          41.000  
C33  22268726.481   115959121.832        -693.712          24.000  
G10  20149929.494   105888598.551        -376.981          40.000    20149936.989    79072691.723        -278.543          36.000  
G12  22511987.076   118301449.029       -1990.416          19.000  
G25                                                                  20780898.483    81548738.507        -214.583          24.000  
G31  21717682.761   114127232.035        1298.543          35.000  
G32  21752512.049   114310166.3191        895.321          37.000  
J01  37983905.589   199606760.648         833.482          37.000    37983914.283   149057037.3621        621.858          37.000  
J02                                                                  37931529.449   148851480.577        -749.740          27.000  
R12  19118197.347   102125979.155       -1028.396          44.000  
> 2021  9 12 10 37 31.9999800  0 13
C06  36699802.156   191105516.925        -374.427          34.000  
C13  37042026.639   192887505.136       -1860.600          20.000  
C14  23182785.891   120718992.6421      -1952.290          12.000  
C23  23803216.876   123949629.3781       1911.845          29.000  
C25  21821792.887   113631801.729        -633.456          43.000  
C33  22268860.489   115959816.210        -695.468          33.000  
G10  20150001.144   105888975.554        -377.337          42.000    20150008.939    79072972.880        -284.410          32.000  
G25  20780962.639   109204662.8381       -287.901          24.000    20780953.645    81548955.018        -217.387          24.000  
G31  21717439.030   114125933.495        1296.212          32.000  
G32  21752337.570   114309272.789         893.262          28.000  
J01  37983746.699   199605926.917         833.069          37.000    37983754.794   149056414.836         623.201          35.000  
J02                                                                  37931722.515   148852229.581        -749.075          26.000  
R12  19118390.714   102127011.690       -1029.193          44.000  
> 2021  9 12 10 37 32.9999798  0 13
C06  36699811.749   191105578.728        -374.126          27.000  
C09  37693431.880   196279481.6671       -483.532          17.000  
C13  37042325.232   192889052.814       -1859.965          25.000  
C14  23183102.172   120720635.447       -1955.673          11.000  
C23  23802791.470   123947404.605        1911.888          24.000  
C25  21821855.544   113632122.844        -633.616          42.000  
C33  22268933.938   115960200.077        -696.833          36.000  
G10  20150013.736   105889037.890        -377.975          44.000    20150024.828    79073021.513        -283.044          24.000  
G12  22512675.999   118305116.8741      -1992.025          19.000  
G25  20780955.444   109204636.556        -289.663          26.000    20780948.848    81548936.735        -216.505          26.000  
J01  37983529.650   199604778.163         834.379          36.000    37983536.845   149055556.929         622.226          33.000  
J02                                                                  37931855.623   148852743.729        -749.933          23.000  
R12  19118523.222   102127719.800       -1029.964          44.000  
> 2021  9 12 10 37 33.9999795  0 12
C06  36699793.761   191105484.658        -374.716          29.000  
C13  37042591.448   192890443.423       -1858.106          24.000  
C23  23802336.985   123945024.200        1910.878          18.000  
C25  21821889.121   113632288.284        -633.560          41.000  
C33  22268979.206   115960429.292        -697.750          32.000  
G10  20149997.247   105888943.382        -378.036          43.000    20150009.838    79072953.464        -285.123          22.000  
G12  22512961.101   118306635.738       -1991.128          20.000  
G25  20780924.265   109204454.241        -290.698          25.000    20780914.672    81548799.278        -215.088          25.000  
G32  21751839.915   114306695.1101        896.174          29.000  
J01  37983280.522   199603471.796         833.651          37.000    37983288.317   149054581.408         623.461          31.000  
J02                                                                  37931957.552   148853138.004        -744.238          23.000  
R12  19118626.051   102128269.520       -1030.514          45.000  
> 2021  9 12 10 37 34.9999793  0 11
C06  36699805.753   191105546.600        -373.889          29.000  
C13  37042889.741   192891989.312       -1858.311          23.000  
C25  21821948.779   113632610.135        -634.306          40.000  
C33  22269052.056   115960814.515        -697.559          35.000  
G10  20150007.740   105889006.992        -379.206          43.000    20150022.130    79073002.121        -283.979          23.000  
G12  22513278.881   118308311.802       -1991.903          19.000  
G25  20780918.569   109204430.337        -291.374          28.000    20780909.276    81548778.890        -216.057          25.000  
G32  21751605.177   114305483.686         895.923          28.000  
J01  37983060.175   199602322.793         833.865          37.000    37983069.468   149053723.409         622.076          30.000  
J02                                                                  37932088.562   148853647.394        -744.548          22.000  
R12  19118759.758   102128983.074       -1031.390          44.000  
> 2021  9 12 10 37 35.9999790  0 12
C06  36699786.566   191105452.867        -375.334          25.000  
C16  37344676.418   194463512.5861       -352.639          19.000  
C23  23801461.891   123940421.5361       1910.322          26.000  
C25  21821980.257   113632776.364        -635.512          39.000  
C33  22269097.325   115961043.790        -697.818          37.000  
G10  20149989.752   105888913.685        -380.050          42.000    20150003.243    79072931.946        -282.562          30.000  
G25  20780883.194   109204249.427        -292.092          30.000    20780874.200    81548640.469        -214.602          25.000  
G31  21716150.222   114119167.3441       1294.849          30.000  
G32  21751341.060   114304115.072         895.983          30.000  
J01  37982812.546   199601016.379         834.092          34.000    37982819.741   149052747.845         622.894          29.000  
J02                                                                  37932187.793   148854038.765        -745.475          21.000  
R12  19118864.086   102129540.355       -1032.140          43.000  
> 2021  9 12 10 37 36.9999790  0 14
C06  36699857.317   191105828.430        -375.549          30.000  
C13  37043515.708   192895237.5451      -1857.595          25.000  
C14  23184371.194   120727208.3461      -1954.918          16.000  
C16  37344745.071   194463865.169        -352.867          20.000  
C23  23801092.846   123938511.678        1909.522          25.000  
C25  21822101.673   113633411.366        -635.209          39.000  
C33  22269235.529   115961742.368        -698.639          37.000  
G10  20150060.503   105889293.632        -380.596          42.000    20150073.994    79073214.479        -282.901          31.000  
G25  20780938.656   109204541.751        -292.891          30.000    20780929.662    81548855.187        -215.242          24.000  
G31  21715907.690   114117870.631        1294.017          32.000  
G32  21751168.379   114303219.197         895.771          28.000  
J01  37982655.455   199600182.489         834.968          35.000    37982661.451   149052125.105         617.965          29.000  
J02                                                                  37932376.962   148854785.122        -748.751          22.000  
R12  19119058.052   102130576.628       -1032.706          43.000  
> 2021  9 12 10 37 37.9999788  0 12
C06  36699869.309   191105891.334        -374.884          32.000  
C13  37043811.603   192896783.695       -1858.679          24.000  
C23  23800666.841   123936289.084        1911.045          26.000  
C25  21822163.730   113633734.598        -636.309          37.000  
C33  22269311.976                        -698.509          37.000  
G10  20150073.994   105889359.184        -382.032          41.000    20150084.787    79073262.800        -284.041          32.000  
G25  20780933.559   109204519.705        -293.336          30.000    20780925.764    81548837.327        -220.146          25.000  
G31  21715607.298   114116259.205        1295.472          31.000  
G32  21750936.940   114302008.171         895.891          31.000  
J01  37982444.401   199599033.469         831.993          33.000    37982441.703   149051267.222         624.415          28.000  
J02  37932494.481   199336601.1331      -1001.355          30.000    37932508.271   148855299.450        -751.677          23.000  
R12  19119189.361   102131278.602       -1033.985          43.000  
> 2021  9 12 10 37 38.9999785  0 13
C06  36699851.921   191105797.949        -375.140          31.000  
C13  37044080.517   192898174.842       -1860.248          23.000  
C23  23800208.758   123933908.886        1911.887          26.000  
C25  21822196.408   113633902.256        -636.265          39.000  
C33  22269354.547   115962382.8601       -698.939          37.000  
G10  20150056.906   105889267.875        -382.306          41.000    20150066.799    79073195.231        -286.100          34.000  
G12  22514561.993   118315001.2221      -1991.416          17.000  
G25  20780897.584   109204340.622        -293.924          29.000    20780892.787    81548704.197        -220.114          25.000  
G31  21715265.534   114114491.036        1295.380          31.000  
G32  21750677.319   114300639.935         895.309          31.000  
J01  37982188.078   199597727.190         832.445          31.000    37982193.475   149050291.529         623.516          26.000  
J02  37932595.511   199337129.894       -1001.209          29.000    37932609.301   148855699.290        -752.534          21.000  
R12  19119290.690   102131820.043       -1035.083          43.000  
> 2021  9 12 10 37 39.9999782  0 11
C06  36699832.435   191105705.233        -375.953          28.000  
C13  37044349.431   192899566.412       -1860.341          22.000  
C25  21822228.486   113634070.282        -636.282          39.000  
C33  22269398.316   115962614.031        -699.996          36.000  
G10  20150039.518   105889177.212        -382.432          42.000    20150049.411    79073127.365        -284.268          32.000  
G25  20780862.208   109204162.195        -294.568          30.000    20780859.810    81548571.917        -220.805          26.000  
G31  21714927.069   114112722.972        1295.469          32.000  
G32  21750417.699   114299271.754         895.440          28.000  
J01  37981935.353   199596420.701         836.018          33.000    37981945.246   149049314.905         623.952          29.000  
J02  37932696.241   199337658.799       -1001.990          30.000    37932709.731   148856096.042        -749.667          25.000  
R12  19119391.721   102132359.510       -1035.149          43.000  
> 2021  9 12 10 37 40.9999780  0 12
C06  36699844.726   191105768.299        -375.487          32.000  
C13  37044645.326   192901113.838       -1858.478          20.000  
C25  21822290.543   113634394.963        -636.649          38.000  
C33  22269472.665   115963001.822        -700.164          37.000  
E21                                                                                                                                  24210288.866                        -694.256          32.000  
G10  20150051.510   105889244.755        -382.558          42.000    20150062.302                        -286.886          33.000  
G25  20780857.112   109204141.948        -295.157          29.000    20780855.913    81548556.450        -218.686          26.000  
G31  21714628.176   114111113.007        1295.500          31.000  
G32  21750187.459   114298061.135         895.485          31.000  
J01  37981722.501   199595271.859         833.507          31.000    37981726.698   149048455.923         622.840          29.000  
J02  37932826.351   199338345.777       -1002.809          30.000    37932838.642   148856609.261        -748.861          24.000  
R12  19119527.826   102133086.752       -1036.836          43.000  
> 2021  9 12 10 37 41.9999780  0 13
C06  36699918.475   191106144.004        -376.137          27.000  
C13  37045000.580   192902971.350       -1856.968          26.000  
C25  21822414.057   113635032.283        -637.440          40.000  
C33  22269605.173   115963702.187        -701.688          36.000  
E21                                                                                                                                  24210465.743    95007068.2121       -693.728          31.000  
G10  20150125.558   105889628.000        -383.695          41.000    20150136.351    79073459.0901       -287.292          34.000  
G12  22515539.916   118320193.8311      -1995.171          21.000  
G25  20780913.173   109204437.225        -295.699          29.000    20780911.974    81548775.370        -218.525          27.000  
G31  21714382.046   114109818.618        1296.015          29.000  
G32  21750017.776   114297165.729         895.232          32.000  
J01  37981559.414   199594438.187         834.014          32.000    37981569.007   149047833.687         621.833          28.000  
J02  37933016.719   199339348.301       -1003.477          26.000    37933029.310   148857358.123        -748.874          23.000  
R12  19119721.492   102134120.481       -1036.912          44.000  
> 2021  9 12 10 37 42.9999777  0 12
C06  36699901.087   191106050.743        -374.607          22.000  
C13  37045268.594   192904361.497       -1859.317          25.000  
C25  21822447.034   113635201.656        -637.611          41.000  
C33  22269648.943   115963934.706        -702.467          35.000  
E21                                                                                                                                  24210553.283    95007409.595        -693.590          32.000  
G10  20150110.869   105889539.278        -384.257          41.000    20150120.162    79073392.895        -287.739          32.000  
G12  22515828.017   118321716.839       -1996.274          21.000  
G25  20780878.697   109204260.602        -296.333          29.000    20780878.397    81548642.408        -220.796          28.000  
G31  21714037.884   114108051.922        1293.845          34.000  
G32  21749757.556   114295797.841         894.933          26.000  
J01  37981308.787   199593131.846         834.311          34.000    37981320.779   149046858.293         623.075          32.000  
R12  19119827.919   102134689.086       -1037.601          44.000  
> 2021  9 12 10 37 43.9999775  0 11
C06  36699917.276   191106112.970        -374.627          28.000  
C13  37045566.288   192905909.356       -1860.206          20.000  
C25  21822503.695   113635527.509        -637.625          36.000  
C33  22269729.287   115964323.658        -702.449          31.000  
E21                                                                                                                                  24210672.001    95007868.892        -695.873          33.000  
G10  20150123.160   105889608.507        -384.591          43.000    20150131.554    79073444.846        -287.201          31.000  
G25  20780873.601   109204242.442        -297.646          26.000    20780873.601    81548629.027        -221.988          27.000  
G31  21713734.494   114106443.500        1293.361          35.000  
J01  37981093.836   199591983.048         833.444          36.000    37981102.530   149046000.468         622.041          35.000  
J02  37933249.658   199340568.3391      -1004.747          23.000  
R12  19119963.125   102135411.854       -1039.175          42.000  
> 2021  9 12 10 37 44.9999775  0 12
C06  36699988.327   191106487.266        -374.232          34.000  
C13  37045920.343   192907769.389       -1860.571          27.000  
C25  21822624.212   113636166.060        -639.603          36.000  
C33  22269862.695   115965024.003        -699.810          27.000  
E21                                                                                                                                  24210849.178    95008563.935        -694.473          34.000  
G10  20150197.209   105889993.610        -385.811          47.000    20150202.905    79073732.032        -287.428          37.000  
G25  20780929.962   109204540.268        -298.315          27.000    20780928.163    81548851.440        -222.129          24.000  
G31  21713483.868   114105150.171        1293.209          38.000  
G32  21749361.530   114293692.2371        895.614          23.000  
J01  37980934.646   199591149.151         833.349          38.000    37980943.340   149045377.569         624.602          34.000  
J02  37933434.030   199341572.831       -1004.172          26.000  
R12  19120158.590   102136455.425       -1039.765          39.000  
> 2021  9 12 10 37 45.9999772  0 15
C06  36699969.140   191106393.033        -373.912          30.000  
C08  37972597.418   197733498.2891      -2079.343          24.000  
C09  37693839.598   196281595.7651       -479.520          28.000  
C13  37046188.357   192909162.039       -1861.095          25.000  
C25  21822656.589   113636336.774        -638.791          38.000  
C33  22269906.764   115965256.674        -702.039          31.000  
E21                                                                                                                                  24210936.417    95008906.131        -693.876          31.000  
G10  20150181.320   105889906.762        -385.828          47.000    20150185.217    79073667.087        -288.819          35.000  
G12  22516821.829   118326924.7061      -1997.906          23.000  
G25  20780896.085   109204366.259        -299.222          30.000    20780894.586    81548719.896        -221.888          26.000  
G31  21713147.801   114103384.738        1291.536          36.000  
G32  21749104.009   114292324.316         894.834          27.000  
J01  37980685.519   199589842.631         833.706          39.000    37980694.213                         623.101          34.000  
J02  37933531.762   199342103.905       -1004.004          26.000  
R12  19120266.215   102137030.763       -1039.686          42.000  
> 2021  9 12 10 37 46.9999770  0 14
C06  36699980.232   191106454.648        -374.255          32.000  
C08  37972934.984   197735264.689       -2079.319          22.000  
C09  37693873.774   196281764.110        -481.124          26.000  
C13  37046487.850   192910710.705       -1860.897          27.000  
C25  21822722.544   113636663.976        -640.136          39.000  
C33  22269982.312   115965646.492        -702.832          29.000  
E21                                                                                                                                  24211053.337    95009366.445        -697.157          29.000  
G10  20150194.810   105889978.167        -387.125          47.000    20150199.008    79073720.465        -287.793          33.000  
G25                                                                  20780891.588    81548704.357        -221.615          24.000  
G31  21712839.914   114101777.238        1292.007          35.000  
G32  21748873.768   114291112.795         897.200          30.000  
J01  37980466.370   199588693.626         833.476          39.000    37980475.364   149043544.5921        622.457          31.000  
J02  37933661.273   199342792.187       -1003.592          29.000  
R12  19120401.422   102137752.583       -1041.197          42.000  
> 2021  9 12 10 37 47.9999770  0 14
C06  36700051.283   191106828.567        -374.130          31.000  
C09  37693966.110   196282244.801        -480.608          24.000  
C13  37046846.702   192912571.676       -1861.435          26.000  
C25  21822847.257   113637303.863        -639.985          39.000  
C33  22270117.518   115966349.803        -703.858          32.000  
E21                                                                                                                                  24211230.214    95010062.517        -696.846          28.000  
G10  20150268.260   105890365.242        -386.750          47.000    20150272.457    79074009.407        -289.497          30.000  
G12  22517526.341   118330604.8921      -1997.786          20.000  
G25  20780948.549   109204650.1021       -299.933          30.000    20780948.549    81548926.242        -221.824          25.000  
G31  21712595.583   114100485.302        1291.692          34.000  
G32  21748701.088   114290216.754         895.842          30.000  
J01  37980306.881   199587859.714         832.982          39.000    37980317.074   149042921.901         622.220          31.000  
J02  37933850.442   199343795.108       -1002.272          31.000  
R12  19120594.788   102138785.979       -1041.832          43.000  
> 2021  9 12 10 37 48.9999767  0 14
C06  36700033.895   191106734.205        -373.808          32.000  
C08  37973641.295   197738958.2751      -2081.228          21.000  
C09  37693967.609   196282256.877        -479.950          25.000  
C25  21822882.333   113637475.874        -640.323          39.000  
C33  22270163.387   115966585.166        -703.865          32.000  
E21                                                                                                                                  24211316.854    95010405.903        -692.913          26.000  
G10  20150252.071   105890280.350        -388.088          47.000    20150256.268    79073946.421        -290.157          29.000  
G12  22517824.934   118332130.562       -1998.643          17.000  
G25  20780915.272   109204477.534        -300.466          29.000  
G31  21712261.914   114098721.146        1290.832          33.000  
G32  21748440.568   114288848.592         895.180          30.000  
J01  37980058.653   199586553.199         833.810          38.000    37980068.546   149041946.289         621.482          31.000  
J02  37933950.273   199344324.945       -1002.796          32.000    37933967.361   148861068.8791       -750.391          23.000  
R12  19120695.518   102139323.770       -1042.987          43.000  
> 2021  9 12 10 37 49.9999764  0 13
C06  36700015.608   191106639.388        -373.306          32.000  
C08  37973948.283   197740570.969       -2081.429          23.000  
C09  37693971.207   196282268.009        -477.596          23.000  
C13  37047382.431   192915357.7641      -1861.268          21.000  
C25  21822913.511   113637648.422        -641.540          39.000  
C33  22270209.255   115966820.015        -702.976          31.000  
E21                                                                                                                                  24211404.394    95010749.656        -696.793          25.000  
G10  20150235.882   105890196.197        -389.472          47.000    20150240.679    79073883.423        -289.175          29.000  
G23  21331175.035   112095954.4761      -2725.261          26.000  
G31  21711925.847   114096957.402        1288.382          35.000  
J01  37979809.825   199585246.703         833.906          38.000    37979820.018   149040970.693         621.785          29.000  
J02                                                                  37934067.791   148861464.888        -747.970          22.000  
R12  19120806.441   102139916.676       -1043.827          43.000  
> 2021  9 12 10 37 50.9999762  0 14
C06  36700025.201   191106701.373        -374.343          29.000  
C08  37974287.348   197742080.054       -2083.747          23.000  
C09  37694001.486   196282434.193        -479.899          23.000  
C25  21822976.168   113637978.074        -641.715          39.000  
C33  22270285.102   115967211.050        -704.310          32.000  
E21                                                                                                                                  24211521.313    95011212.173        -699.218          25.000  
G10  20150250.272   105890270.808        -389.978          46.000    20150255.069    79073938.457        -290.997          31.000  
G23  21331630.719   112098365.277       -2727.141          26.000  
G25  20780882.295   109204292.6841       -302.714          28.000  
G31  21711623.356   114095352.291        1288.097          33.000  
G32  21747947.709   114286271.0381        894.456          31.000  
J01  37979590.976   199584098.356         832.648          38.000    37979600.570   149040113.103         624.425          30.000  
J02                                                                  37934197.302   148861976.400        -745.277          22.000  
R12  19120942.847   102140644.763       -1045.224          43.000  
> 2021  9 12 10 37 51.9999759  0 17
C06  36700006.314   191106607.492        -375.058          32.000  
C08  37974599.432   197743695.540       -2083.951          25.000  
C09  37694002.985   196282444.457        -478.829          24.000  
C24  24628179.166   128245449.2421      -3051.571          27.000  
C25  21823008.246   113638152.269        -642.314          38.000  
C33  22270337.566   115967447.959        -705.681          32.000  
E21                                                                                                                                  24211608.852    95011557.258        -697.803          25.000  
G10  20150234.083   105890188.690        -391.124          47.000    20150239.479    79073877.387        -291.969          30.000  
G12  22518750.693   118336868.0781      -1999.626          19.000  
G23  21332055.825   112100619.876       -2729.467          27.000  
G25  20780850.217   109204122.759        -304.809          28.000  
G31  21711285.490   114093590.188        1288.904          33.000  
G32  21747688.389   114284903.597         894.752          32.000  
J01  37979343.348   199582792.611         833.297          38.000    37979352.641   149039138.113         624.289          30.000  
J02  37934289.338   199346074.8381      -1004.845          31.000    37934298.032   148862370.799        -749.063          22.000  
R02  20824979.966   111126083.8111       2303.735          28.000  
R12  19121045.076   102141190.925       -1045.882          43.000  
> 2021  9 12 10 37 52.9999759  0 17
C06  36700077.365   191106982.717        -375.716          32.000  
C08  37975000.854   197745779.374       -2083.430          25.000  
C09  37694095.021   196282922.298        -478.206          22.000  
C13  37048309.389   192920147.3181      -1857.544          25.000  
C24  24628764.061   128248500.801       -3051.116          24.000  
C25  21823130.261   113638795.273        -643.647          38.000  
C33  22270470.374                        -706.327          31.000  
E21                                                                                                                                  24211786.929    95012256.394        -699.333          26.000  
G10  20150308.732   105890579.898        -391.904          47.000    20150313.828    79074169.454        -292.421          29.000  
G23  21332570.868   112103349.446       -2730.011          26.000  
G25  20780907.777   109204427.869        -305.404          28.000  
G31  21711042.658   114092301.217        1289.470          35.000  
G32  21747518.706   114284008.992         894.720          31.000  
J01  37979183.858   199581959.566         833.245          39.000    37979194.651   149038516.025         622.617          30.000  
J02  37934480.006   199347078.927       -1003.696          31.000    37934490.499   148863122.026        -750.752          21.000  
R02  20824545.567   111123779.585        2304.871          28.000  
R12  19121242.040   102142243.098       -1046.978          43.000  
> 2021  9 12 10 37 53.9999757  0 16
C06  36700093.554   191107045.072        -372.686          32.000  
C09  37694127.998   196283088.204        -477.749          23.000  
C13  37048606.184   192921694.750       -1860.900          26.000  
C24  24629288.998   128251238.750       -3049.581          25.000  
C25  21823193.817   113639126.732        -644.411          38.000  
C33  22270545.622   115968577.9811       -706.679          33.000  
E21                                                                                                                                  24211905.347    95012720.690        -697.886          25.000  
G10  20150323.721   105890656.902        -392.424          47.000    20150328.518    79074226.541        -293.101          30.000  
G23  21333027.153   112105763.865       -2730.340          25.000  
G25  20780906.278   109204418.396        -306.509          28.000  
G31  21710735.670   114090697.772        1287.151          35.000  
G32  21747286.367   114282799.982         892.996          31.000  
J01  37978966.808   199580811.622         832.991          38.000    37978976.702   149037658.814         622.332          30.000  
J02                                                                  37934622.707   148863639.755        -752.843          20.000  
R02  20824050.310   111121155.532        2304.044          26.000  
R12  19121376.646   102142962.181       -1048.064          44.000  
> 2021  9 12 10 37 54.9999754  0 15
C06  36700075.267                        -375.333          33.000  
C08  37975656.200   197749163.1801      -2082.800          22.000  
C09  37694129.197   196283097.901        -478.504          24.000  
C13  37048875.397   192923087.275       -1861.443          25.000  
C24  24629783.955   128253820.071       -3050.360          24.000  
C25  21823226.195   113639302.453        -644.401          37.000  
C33  22270589.692   115968816.177        -706.735          32.000  
E21                                                                                                                                  24211993.486    95013066.503        -699.051          26.000  
G10  20150308.432   105890576.945        -392.805          46.000    20150313.228    79074167.518        -294.838          30.000  
G23  21333453.757   112108021.892       -2730.475          25.000  
G25  20780874.200   109204251.915        -306.500          31.000  
G32  21747027.046   114281433.632         894.346          31.000  
J01  37978717.981   199579506.099         832.819          39.000    37978727.574   149036683.909         621.664          30.000  
J02  37934711.146   199348298.2701      -1003.137          31.000  
R12  19121483.672   102143533.901       -1048.317          44.000  
> 2021  9 12 10 37 55.9999752  0 15
C06  36700087.558   191106985.7711       -373.592          33.000  
C08  37976000.962   197750933.516       -2082.650          22.000  
C09  37694162.474   196283264.209        -479.345          23.000  
C13  37049173.391   192924637.538       -1862.543          23.000  
C24  24630310.091   128256558.785       -3050.989          25.000  
C25  21823290.950   113639634.876        -644.436          38.000  
C33  22270662.241   115969210.936        -709.189          32.000  
E21                                                                                                                                  24212111.904    95013530.774        -699.022          26.000  
G10  20150323.421   105890655.338        -394.010          46.000    20150328.518    79074227.489        -295.412          30.000  
G23  21333912.140   112110436.961       -2730.031          26.000  
G25  20780873.001   109204243.617        -306.909          29.000  
G31  21710101.010   114087334.7071       1286.878          33.000  
J01  37978498.533   199578358.232         832.150          38.000    37978508.726   149035826.663         620.617          29.000  
J02  37934843.654   199348986.580       -1003.321          32.000  
R12  19121623.675   102144282.175       -1049.600          44.000  
> 2021  9 12 10 37 56.9999749  0 16
C06  36700068.371   191106891.966        -376.789          32.000  
C08  37976313.046   197752548.014       -2082.937          23.000  
C09  37694164.273   196283274.712        -478.648          27.000  
C13  37049440.806   192926032.360       -1863.058          27.000  
C24  24630807.147   128259141.494       -3051.953          25.000  
C25  21823328.124   113639811.646        -645.735          39.000  
C33  22270707.210   115969450.115        -706.535          33.000  
E21                                                                                                                                  24212200.043    95013876.885        -699.600          24.000  
G10  20150308.432   105890576.875        -394.997          47.000    20150313.528    79074168.849        -294.158          30.000  
G23  21334337.246   112112695.597       -2731.901          21.000  
G25  20780841.223   109204078.108        -307.653          28.000  
G31  21709762.244   114085575.091        1285.997          33.000  
G32  21746535.986   114278857.7161        893.527          30.000  
J01  37978252.103   199577052.911         833.075          38.000    37978261.097   149034851.967         622.400          30.000  
J02  37934944.384   199349517.455       -1004.766          30.000  
R12  19121728.003   102144838.974       -1050.873          45.000  
> 2021  9 12 10 37 57.9999747  0 15
C06  36700077.965   191106954.110        -374.456          29.000  
C08  37976655.708   197754317.979       -2082.333          23.000  
C09  37694195.751   196283441.858        -480.114          30.000  
C13  37049737.301   192927583.243       -1862.810          28.000  
C24  24631335.082   128261882.481       -3053.876          14.000  
C25  21823393.779   113640145.212        -645.948          40.000  
C33  22270785.156   115969845.948        -708.502          33.000  
E21                                                                                                                                  24212319.360    95014341.638        -700.517          30.000  
G10  20150323.721   105890656.819        -395.887          48.000    20150327.918    79074227.799        -294.627          32.000  
G25  20780838.825   109204070.387        -307.710          29.000  
G31  21709453.758   114083973.692        1285.476          34.000  
G32  21746309.044   114277648.411         893.420          25.000  
J01  37978034.754   199575905.335         831.997          40.000    37978043.448   149033995.056         621.482          34.000  
J02  37935072.096   199350206.113       -1002.577          23.000  
R12  19121864.109   102145566.579       -1051.389          45.000  
> 2021  9 12 10 37 58.9999747  0 16
C06  36700148.416   191107328.951        -375.687          28.000  
C08  37977055.332   197756400.595       -2082.773          24.000  
C09  37694287.788   196283922.550        -481.695          31.000  
C13  37050093.754   192929445.640       -1861.927          26.000  
C25  21823515.495   113640791.774        -646.755          39.000  
C33  22270919.163   115970554.736        -708.429          33.000  
E21                                                                                                                                  24212498.936    95015042.421        -701.002          33.000  
G10  20150398.669   105891052.799        -396.382          49.000    20150403.466    79074523.453        -295.636          34.000  
G12  22521042.906   118348987.7201      -2005.351          26.000  
G25  20780897.584   109204378.331        -307.564          30.000  
G31  21709207.029   114082688.209        1285.315          33.000  
G32  21746140.260   114276754.859         893.938          24.000  
J01  37977876.163   199575073.128         832.549          40.000    37977884.857   149033373.585         620.248          33.000  
J02  37935256.468   199351207.569       -1000.895          20.000  
R02  20821589.913   111108042.6161       2300.262          19.000  
R12  19122060.173   102146613.854       -1053.219          44.000  
> 2021  9 12 10 37 59.9999744  0 17
C06  36700129.229   191107235.876        -375.524          31.000  
C08  37977366.816   197758015.081       -2082.374          25.000  
C09  37694289.886   196283936.124        -482.183          30.000  
C13  37050357.871   192930840.287       -1863.808          26.000  
C24  24632415.234   128267511.5931      -3044.299          12.000  
C25  21823550.870   113640970.848        -647.010          39.000  
C33  22270965.631   115970796.012        -709.638          32.000  
E21                                                                                                                                  24212587.974    95015390.901        -701.748          32.000  
G10  20150384.279   105890977.196        -397.533          49.000    20150389.076    79074466.753        -297.337          34.000  
G23  21335765.457   112120103.9851      -2732.934          17.000  
G25  20780866.705   109204213.349        -309.534          30.000  
G31  21708869.762   114080930.882        1283.144          34.000  
G32  21745883.338   114275388.498         893.734          26.000  
J01  37977629.134   199573768.660         831.563          40.000    37977636.629   149032399.488         621.285          33.000  
J02  37935354.201   199351737.388       -1002.773          25.000  
R02  20821073.671   111105261.257        2301.851          19.000  
R12  19122171.696   102147209.820       -1054.094          44.000  
> 2021  9 12 10 38  0.9999741  0 17
C06  36700110.942   191107143.441        -376.616          32.000  
C08  37977680.099   197759629.711       -2083.466          25.000  
C09  37694291.685   196283949.719        -481.627          30.000  
C13  37050624.386   192932235.514       -1863.353          28.000  
C24  24632911.390   128270087.830       -3044.613          11.000  
C25  21823585.646   113641150.828        -648.055          39.000  
C33  22271012.699   115971038.180        -710.995          33.000  
E21                                                                                                                                  24212676.413    95015739.370        -701.072          31.000  
G10  20150371.688   105890902.743        -398.770          48.000    20150374.386                        -298.245          33.000  
G23  21336204.653   112122364.865       -2733.476          17.000  
G25  20780834.628   109204051.343        -311.634          30.000  
G31  21708540.290   114079174.442        1283.060          34.000  
G32  21745624.318   114274021.596         894.327          26.000  
J01  37977380.007   199572464.700         831.986          40.000    37977388.101   149031425.779         620.496          32.000  
J02  37935454.931   199352268.892       -1004.440          26.000  
R02  20820558.927   111102480.145        2301.383          20.000  
R12  19122279.321   102147784.028       -1055.541          45.000  
> 2021  9 12 10 38  1.9999739  0 17
C06  36700124.133   191107207.584        -376.522          31.000  
C08  37978019.764   197761401.578       -2084.438          27.000  
C09  37694323.763   196284118.657        -481.125          29.000  
C13  37050921.481   192933787.671       -1864.030          27.000  
C25  21823650.701   113641487.701        -649.199          39.000  
C33  22271090.045   115971437.155        -712.292          32.000  
E21                                                                                                                                  24212795.431    95016206.643        -703.535          28.000  
G10  20150387.277   105890986.785        -399.753          48.000    20150389.676    79074460.3611       -298.113          32.000  
G12  22521930.892   118353753.1581      -2010.868          23.000  
G23  21336664.235   112124782.093       -2732.175          17.000  
G25  20780834.328   109204048.702        -313.356          30.000  
G31  21708238.099   114077576.215        1282.622          36.000  
G32  21745395.876   114272813.074         892.857          26.000  
J01  37977161.758   199571318.584         830.199          39.000    37977170.152   149030569.869         619.760          32.000  
J02  37935584.741   199352958.495       -1006.770          25.000  
R02  20820063.670   111099861.493        2297.316          20.000  
R12  19122416.327   102148516.530       -1056.460          45.000  
> 2021  9 12 10 38  2.9999739  0 14
C06  36700195.184   191107583.778        -375.983          30.000  
C08  37978419.088   197763488.378       -2088.000          26.000  
C09  37694416.998   196284599.909        -481.146          27.000  
C13  37051277.634   192935651.958       -1865.306          27.000  
C25  21823771.817   113642137.497        -650.913          38.000  
C33  22271225.551   115972149.037        -712.062          33.000  
E21                                                                                                                                  24212974.407    95016910.797        -704.463          27.000  
G10  20150461.925   105891386.894        -400.707          47.000    20150466.722    79074759.108        -299.740          31.000  
G12  22522311.928   118355764.181       -2011.037          21.000  
G25  20780897.284   109204362.344        -314.102          31.000  
G31  21707994.368   114076294.007        1283.203          35.000  
G32  21745226.193   114271921.565         891.098          24.000  
J01  37977002.568   199570487.823         830.752          39.000    37977012.162   149029949.511         619.303          33.000  
R12  19122612.990   102149566.329       -1057.821          46.000  
> 2021  9 12 10 38  3.9999736  0 14
C06  36700177.796   191107490.896        -375.130          31.000  
C08  37978729.373   197765107.934       -2088.509          24.000  
C09  37694419.996   196284612.688        -481.017          28.000  
C13  37051545.649   192937048.516       -1865.079          27.000  
C23  23789619.489   123878570.3901       1896.902          23.000  
C25  21823808.991   113642319.660        -651.115          38.000  
C33  22271270.820   115972393.203        -713.687          33.000  
E21                                                                                                                                  24213064.045    95017261.862        -704.148          30.000  
G10  20150447.535   105891315.246        -401.712          47.000    20150453.831    79074705.687        -299.774          31.000  
G23  21337592.692   112129779.3451      -2735.452          17.000  
G25  20780869.104   109204204.233        -315.051          32.000  
G31  21707659.200   114074539.707        1281.392          33.000  
J01  37976754.640   199569184.698         830.455          40.000    37976764.233   149028976.385         617.566          32.000  
R12  19122720.316   102150140.103       -1058.580          45.000  
