     3.03           OBSERVATION DATA    M: Mixed            RINEX VERSION / TYPE
RTKCONV 2.4.3 b34                       20211028 102533 UTC PGM / RUN BY / DATE 
format: RINEX                                               COMMENT             
log: E:\Dropbox\210912_wj_gdd\bag_hw\0geo++\best\2021-09-12,COMMENT             
                                                            MARKER NAME         
                                                            MARKER NUMBER       
                                                            MARKER TYPE         
                                                            OBSERVER / AGENCY   
                                                            REC # / TYPE / VERS 
                                                            ANT # / TYPE        
        0.0000        0.0000        0.0000                  APPROX POSITION XYZ 
        0.0000        0.0000        0.0000                  ANTENNA: DELTA H/E/N
G    8 C1C L1C D1C S1C C5Q L5Q D5Q S5Q                      SYS / # / OBS TYPES 
C    4 C2I L2I D2I S2I                                      SYS / # / OBS TYPES 
  2021    09    12    11    00   00.9998021     GPS         TIME OF FIRST OBS   
  2021    09    12    11    22   30.9995197     GPS         TIME OF LAST OBS    
G L1C                                                       SYS / PHASE SHIFT   
G L5Q  0.00000                                              SYS / PHASE SHIFT   
C L2I                                                       SYS / PHASE SHIFT   
  0                                                         GLONASS SLOT / FRQ #
                                                            GLONASS COD/PHS/BIS 
                                                            END OF HEADER       
> 2021 09 12 11 00 00.9998021  0 10                     
C03  36476256.513   189941201.7541       -366.906          42.000  
C06  36702134.541   191117632.5341       -280.004          28.000  
C08  38440404.961   200169263.0631      -2196.866          26.000  
C09  37723633.272   196436865.8331       -388.640          34.000  
C23  23290074.117   121277549.0961       1402.467          29.000  
C25  21980480.530   114458105.2111      -1215.310          32.000  
C33  22441487.282   116858690.9181      -1280.648          36.000  
G10  20280473.820   106574588.1471      -1283.943          44.000    20280478.917    79584954.7701       -959.814          29.000  
G25  20895444.085   109806252.6071      -1243.708          27.000    20895436.290    81998196.7601       -931.582          30.000  
G32                                                                  21450095.508    84174805.4351        600.262          26.000  
> 2021 09 12 11 00 01.9998019  0 11                     
C03  36476266.706   189941256.506        -367.418          42.000  
C06  36702127.946   191117600.282        -279.688          27.000  
C08  38440767.111   200171148.632       -2199.441          26.000  
C09  37723651.859   196436941.774        -388.864          34.000  
C23  23289743.446   121275833.878        1402.768          28.000  
C25  21980654.410   114459007.469       -1214.389          32.000  
C33  22441671.654   116859659.585       -1280.643          36.000  
G10  20280658.192   106575557.395       -1284.620          45.000    20280663.889    79585679.650        -960.446          29.000  
G23  22018368.301   115707274.1371      -3313.686          19.000                                                                  
G25  20895620.663   109807181.508       -1244.124          26.000    20895614.067    81998890.829        -929.361          30.000  
G32                                                                  21449881.756    84173971.389         598.277          26.000  
> 2021 09 12 11 00 02.9998016  0 11                     
C03  36476247.819   189941155.282        -367.175          42.000  
C06  36702093.469   191117411.045        -278.901          27.000  
C08  38441098.981   200172879.626       -2199.212          26.000  
C09  37723633.872   196436861.479        -387.914          34.000  
C23  23289383.096   121273963.227        1402.276          29.000  
C25  21980797.111   114459754.021       -1213.380          32.000  
C33  22441827.546   116860472.645       -1279.931          36.000  
G10  20280813.785   106576369.786       -1285.107          45.000    20280818.581    79586286.686        -958.758          29.000  
G25  20895768.461   109807953.896       -1245.625          26.000    20895760.966    81999467.750        -929.181          30.000  
G31  21376928.460                         712.884          34.000                                                                  
G32                                                                  21449639.224    84173019.721         599.924          27.000  
> 2021 09 12 11 00 03.9998013  0 12                     
C03  36476228.932   189941053.717        -366.832          42.000  
C06  36702055.995   191117221.530        -279.330          29.000  
C08  38441432.350   200174609.595       -2197.537          26.000  
C09  37723616.784   196436781.089        -387.932          35.000  
C16  37338700.356   194432311.0611       -241.235          21.000  
C23  23289021.846   121272093.730        1400.205          24.000  
C25  21980938.313   114460500.845       -1214.209          31.000  
C33  22441984.937   116861286.010       -1281.706          36.000  
G10  20280968.178   106577182.740       -1286.388          45.000    20280973.574    79586893.435        -960.062          29.000  
G25  20895915.059   109808727.088       -1246.071          25.000    20895907.264    82000045.186        -931.985          29.000  
G31  21376701.517   112335333.4511        712.820          35.000                                                                  
G32  21449429.069   112717420.7861        802.692          23.000    21449397.591    84172067.089         599.421          27.000  
> 2021 09 12 11 00 04.9998011  0 11                     
C03  36476238.526   189941108.460        -367.449          42.000  
C06  36702048.501   191117189.057        -279.901          29.000  
C08  38441796.898   200176495.336       -2197.889          26.000  
C09  37723631.773   196436856.625        -386.311          34.000  
C23  23288692.674   121270381.547        1399.473          26.000  
C25  21981113.991   114461404.151       -1213.096          31.000  
C33  22442172.307   116862255.882       -1281.371          36.000  
G10  20281152.850   106578153.879       -1285.465          45.000    20281158.546    79587618.770        -961.268          29.000  
G25  20896092.236   109809658.458       -1247.318          27.000    20896085.041    82000740.800        -930.193          29.000  
G31  21376503.355   112334307.131         710.801          36.000                                                                  
G32  21449217.416   112716303.000         802.662          27.000    21449183.539    84171229.597         601.220          27.000  
> 2021 09 12 11 00 05.9998011  0 12                     
C03  36476308.677   189941475.562        -366.984          42.000  
C06  36702101.864   191117468.664        -279.133          28.000  
C08  38442219.305   200178694.162       -2199.451          28.000  
C09  37723707.321   196437244.376        -387.806          34.000  
C16  37338728.236   194432483.2171       -240.391          21.000  
C25  21981346.930   114462619.991       -1214.582          32.000  
C33  22442417.538   116863538.377       -1282.643          36.000  
G10  20281397.780   106579440.736       -1286.518          45.000    20281402.877    79588579.608        -961.049          29.000  
G23  22020644.025   115719274.3781      -3305.785          18.000                                                                  
G25  20896329.072   109810906.021       -1247.576          25.000    20896322.177    82001672.122        -932.233          29.000  
G31  21376368.448   112333596.259         710.241          36.000                                                                  
G32  21449065.421   112715500.587         802.445          26.000    21449030.945    84170628.658         599.937          28.000  
> 2021 09 12 11 00 06.9998008  0 13                     
C03  36476290.390   189941373.678        -366.404          42.000  
C06  36702064.390   191117278.748        -277.945          28.000  
C08  38442551.176   200180425.933       -2199.697          28.000  
C09  37723691.132   196437163.446        -386.824          35.000  
C16  37338683.567   194432255.900        -240.848          22.000  
C23  23288067.606   121267112.6341       1401.355          26.000  
C25  21981483.935   114463367.803       -1217.726          30.000  
C33  22442573.130   116864352.877       -1283.184          37.000  
G10  20281553.373   106580255.475       -1287.691          45.000    20281558.169    79589187.651        -961.756          30.000  
G23  22021176.457   115722105.985       -3300.614          18.000                                                                  
G25  20896475.371   109811681.280       -1247.976          27.000    20896469.675    82002250.997        -933.284          30.000  
G31  21376144.803   112332413.019         710.323          37.000                                                                  
G32  21448823.189   112714225.472         802.465          26.000    21448788.413    84169675.224         599.892          27.000  
> 2021 09 12 11 00 07.9998006  0 12                     
C03  36476300.283   189941427.922        -366.978          42.000  
C06  36702056.895   191117244.371        -279.026          28.000  
C08  38442912.725   200182313.027       -2199.114          28.000  
C09  37723707.321   196437239.400        -388.161          34.000  
C23  23287740.233   121265398.995        1400.514          27.000  
C25  21981663.211   114464272.898       -1218.034          29.000  
C33  22442758.402   116865324.683       -1284.059          36.000  
G10  20281738.645   106581229.188       -1289.179          44.000    20281743.141    79589915.067        -964.108          30.000  
G23  22021739.167   115725085.032       -3290.210          18.000                                                                  
G25  20896651.649   109812614.722       -1249.300          26.000    20896648.052    82002948.502        -930.802          29.000  
G31  21375949.038   112331388.537         709.122          37.000                                                                  
G32                                                                  21448576.160    84168842.164         595.915          27.000  
> 2021 09 12 11 00 08.9998003  0 12                     
C03  36476280.496   189941326.922        -367.939          42.000  
C06  36702020.320   191117056.189        -281.213          29.000  
C08  38443244.296   200184043.411       -2199.083          27.000  
C09  37723693.231   196437159.102        -388.381          34.000  
C16  37338626.307   194431958.1821       -242.599          22.000  
C23  23287382.880   121263530.486        1399.309          28.000  
C25  21981802.915   114465022.270       -1213.262          30.000  
C33  22442915.493   116866140.797       -1284.388          36.000  
G10  20281893.038   106582046.052       -1289.210          45.000    20281899.033    79590526.024        -964.098          29.000  
G25  20896802.445   109813391.645       -1250.125          27.000    20896796.149    82003529.034        -932.553          30.000  
G31  21375722.395   112330206.968         709.125          37.000                                                                  
G32  21448370.802   112711834.7181        801.016          26.000    21448333.927    84167892.433         598.704          28.000  
> 2021 09 12 11 00 09.9998003  0 13                     
C03  36476351.247   189941694.454        -367.407          42.000  
C06  36702075.182   191117337.267        -280.917          27.000  
C08  38443667.303   200186241.991       -2198.136          28.000  
C09  37723767.579   196437546.379        -386.730          34.000  
C13  37466813.964   195099532.5521      -2029.138          21.000  
C23  23287115.166   121262130.932        1399.344          29.000  
C25  21982039.751   114466238.557       -1217.026          30.000  
C33  22443163.121   116867425.016       -1285.544          36.000  
G10  20282138.268   106583335.475       -1289.664          45.000    20282144.264    79591489.751        -963.803          30.000  
G23  22022891.569   115731198.3041      -3308.867          18.000                                                                  
G25  20897041.079   109814641.654       -1250.012          27.000    20897033.585    82004462.382        -932.581          29.000  
G31  21375585.990   112329497.714         708.725          37.000                                                                  
G32  21448218.507   112711033.279         801.938          30.000    21448180.134    84167292.362         600.826          28.000  
> 2021 09 12 11 00 10.9998001  0 12                     
C03  36476362.040   189941749.199        -366.349          42.000  
C06  36702068.886   191117305.333        -279.970          29.000  
C08  38444028.553   200188127.939       -2197.923          27.000  
C09  37723781.070   196437621.424        -386.520          35.000  
C13  37467144.036   195101249.956       -2029.919          23.000  
C23  23286787.193   121260419.724        1398.385          27.000  
C25  21982213.031   114467143.422       -1217.469          29.000  
C33  22443348.393   116868397.509       -1285.425          36.000  
G10  20282325.039   106584310.538       -1290.171          44.000    20282329.236    79592218.066        -964.464          30.000  
G25  20897219.156   109815576.876       -1250.501          26.000    20897211.362    82005160.989        -935.034          29.000  
G31  21375395.022   112328473.799         708.560          36.000                                                                  
G32  21448005.355   112709915.950         802.521          28.000    21447967.581    84166458.109         598.383          27.000  
> 2021 09 12 11 00 11.9997998  0 11                     
C03  36476342.853   189941646.872        -366.055          42.000  
C06  36702033.811   191117116.052        -278.140          27.000  
C08  38444361.622   200189857.880       -2197.540          28.000  
C09  37723760.684   196437540.179        -384.971          35.000  
C23  23286428.641   121258552.178        1399.485          27.000  
C25  21982355.432   114467892.236       -1217.632          28.000  
C33  22443506.983   116869214.286       -1284.100          36.000  
G10  20282479.432   106585128.577       -1291.879          45.000    20282484.528    79592829.572        -964.922          30.000  
G25  20897369.652   109816354.860       -1251.005          26.000    20897359.159    82005742.768        -935.777          28.000  
G31  21375166.880   112327292.621         708.211          36.000                                                                  
G32  21447762.223   112708640.505         803.278          26.000    21447724.150    84165506.242         598.153          28.000  
> 2021 09 12 11 00 12.9997996  0 14                     
C03  36476353.646   189941701.473        -367.745          40.000  
C06  36702029.014   191117082.636        -279.104          27.000  
C08  38444725.570   200191743.763       -2198.900          26.000  
C09  37723781.969   196437615.340        -385.689          34.000  
C13  37467777.497   195104531.7201      -2032.360          22.000  
C16  37338604.722   194431836.2921       -243.793          21.000  
C23  23286099.769   121256840.428        1398.161          26.000  
C25  21982529.611   114468797.807       -1218.757          28.000  
C33  22443693.155   116870187.751       -1285.004          34.000  
G10  20282665.303   106586105.194       -1291.216          43.000    20282670.399    79593559.517        -965.262          27.000  
G23  22024591.093   115740057.3071      -3325.677          17.000                                                                  
G25  20897545.031   109817291.351       -1252.264          27.000    20897537.836    82006442.215        -934.912          28.000  
G31  21374971.415   112326269.838         709.032          35.000                                                                  
G32  21447546.972   112707522.382         802.422          23.000    21447511.297    84164674.000         596.034          25.000  
> 2021 09 12 11 00 13.9997993  0 12                     
C03  36476333.860   189941600.910        -367.709          42.000  
C06  36701994.838   191116892.199        -278.133          27.000  
C08  38445057.141   200193474.915       -2199.827          23.000  
C09  37723766.680   196437534.170        -387.051          31.000  
C13  37468077.590   195106096.075       -2034.107          18.000  
C23  23285742.116   121254974.178        1396.688          26.000  
C25  21982674.711   114469547.919       -1218.748          27.000  
C33  22443849.047   116871005.549       -1286.011          35.000  
G10  20282820.595   106586924.818       -1292.699          43.000    20282826.591    79594171.529        -965.057          28.000  
G25  20897694.327   109818071.440       -1253.524          27.000    20897686.832    82007024.981        -936.562          30.000  
G31  21374747.470   112325089.679         706.242          35.000                                                                  
G32  21447305.639   112706247.249         802.397          27.000    21447269.364    84163723.358         599.441          27.000  
> 2021 09 12 11 00 14.9997990  0 11                     
C03  36476314.973   189941499.912        -367.229          41.000  
C06  36701960.062   191116701.731        -277.362          28.000  
C08  38445389.910   200195206.240       -2199.494          28.000  
C09  37723761.883   196437452.979        -387.650          32.000  
C13  37468379.780   195107661.665       -2034.274          19.000  
C25  21982819.811   114470298.330       -1219.481          27.000  
C33  22444001.641   116871823.744       -1284.598          35.000  
G10  20282976.488   106587745.030       -1292.848          42.000    20282983.683    79594784.319        -967.080          30.000  
G23  22025673.643   115745760.7111      -3320.480          18.000                                                                  
G25  20897841.525   109818852.649       -1254.033          26.000    20897835.829    82007608.716        -937.827          29.000  
G32  21447060.409   112704972.404         802.132          28.000    21447028.331    84162771.230         599.457          29.000  
> 2021 09 12 11 00 15.9997990  0 12                     
C03  36476384.524   189941866.794        -366.705          41.000  
C06  36702014.624   191116979.583        -278.817          25.000  
C08  38445812.318   200197405.555       -2199.264          28.000  
C09  37723837.731   196437840.862        -386.920          29.000  
C16  37338574.743   194431619.8611       -237.443          20.000  
C23  23285119.747   121251712.8451       1397.567          22.000  
C25  21983053.649   114471518.629       -1220.440          28.000  
C33  22444248.970   116873110.247       -1284.803          31.000  
G10  20283224.116   106589038.403       -1295.173          43.000    20283230.412    79595750.596        -965.954          27.000  
G25  20898078.661   109820107.714       -1255.563          22.000    20898075.064    82008546.397        -937.034          27.000  
G31  21374390.118   112323203.9021        706.620          30.000                                                                  
G32  21446904.217   112704170.193         802.179          30.000    21446876.037    84162172.412         597.758          30.000  
> 2021 09 12 11 00 16.9997988  0 12                     
C03  36476395.617   189941921.511        -367.450          40.000  
C06  36702005.930   191116947.860        -280.593          22.000  
C08  38446173.868   200199292.026       -2198.732          29.000  
C09  37723848.823   196437914.948        -386.046          25.000  
C23  23284792.673   121250003.671        1396.200          22.000  
C25  21983230.826   114472426.430       -1220.812          27.000  
C33  22444433.042   116874085.362       -1287.854          29.000  
G10  20283410.587   106590017.502       -1295.879          42.000    20283415.684    79596483.086        -967.678          28.000  
G23  22026884.805   115752090.5811      -3323.835          19.000                                                                  
G25                                                                  20898254.340    82009248.536        -936.731          27.000  
G31  21374195.552   112322182.365         706.316          32.000                                                                  
G32  21446687.767   112703053.121         801.443          27.000    21446663.184    84161339.518         597.887          28.000  
> 2021 09 12 11 00 17.9997985  0 12                     
C03  36476375.830   189941820.204        -367.001          41.000  
C06  36701969.955   191116759.735        -281.017          24.000  
C08  38446507.836   200201022.998       -2200.239          24.000  
C09  37723831.435   196437833.296        -385.740          26.000  
C23  23284433.822   121248139.815        1394.800          26.000  
C25  21983375.326   114473178.471       -1220.310          30.000  
C33  22444589.234   116874905.087       -1288.236          31.000  
G10  20283567.079   106590839.636       -1295.602          43.000    20283571.276    79597097.302        -967.221          27.000  
G23  22027425.331   115754941.416       -3323.376          20.000                                                                  
G25                                                                  20898403.336    82009833.048        -938.170          27.000  
G31  21373969.209   112321003.373         706.708          31.000                                                                  
G32  21446446.434   112701778.844         801.752          27.000    21446420.352    84160387.582         598.843          25.000  
> 2021 09 12 11 00 18.9997983  0 12                     
C03  36476385.724   189941874.882        -366.955          42.000  
C06  36701965.158   191116728.656        -281.824          18.000  
C08  38446869.386   200202911.246       -2200.886          29.000  
C09  37723841.328   196437906.372        -384.953          23.000  
C16  37338515.384   194431241.7721       -240.805          26.000  
C23  23284105.849   121246433.002        1395.509          27.000  
C25  21983550.705   114474086.413       -1220.210          27.000  
C33  22444777.804   116875881.089       -1288.102          32.000  
G10  20283754.149   106591820.080       -1295.521          44.000    20283758.047    79597829.559        -968.194          28.000  
G25  20898579.614   109822767.4801      -1255.340          22.000    20898581.413    82010536.767        -939.424          25.000  
G31  21373766.849   112319982.992         705.058          32.000                                                                  
G32  21446230.284   112700661.711         801.472          23.000    21446207.499    84159553.465         597.990          27.000  
> 2021 09 12 11 00 19.9997980  0 12                     
C03  36476366.537   189941772.876        -366.351          43.000  
C06  36701928.284   191116541.998        -281.843          21.000  
C08  38447203.355   200204643.412       -2200.419          27.000  
C09  37723819.743   196437823.687        -385.466          26.000  
C16  37338473.113   194431014.105        -241.293          26.000  
C23  23283750.595   121244569.110        1395.955          24.000  
C25  21983694.905   114474837.906       -1220.853          23.000  
C33  22444936.694   116876701.001       -1287.666          33.000  
G10  20283911.240   106592643.237       -1296.366          42.000    20283914.538    79598443.889        -967.112          30.000  
G25  20898728.311   109823550.882       -1257.630          18.000    20898729.211    82011121.870        -937.618          26.000  
G31  21373546.202                         705.776          34.000                                                                  
G32  21445985.653   112699387.827         800.782          30.000    21445965.567    84158602.140         600.377          27.000  
> 2021 09 12 11 00 20.9997978  0 11                     
C03  36476377.030   189941826.935        -366.766          42.000  
C06  36701922.288   191116510.668        -281.152          21.000  
C08  38447566.703   200206530.927       -2199.479          30.000  
C09  37723828.137   196437897.262        -385.952          30.000  
C16  37338459.922   194430942.265        -240.400          25.000  
C33  22445123.764   116877676.152       -1288.033          31.000  
G10  20284096.212   106593624.770       -1296.971          43.000    20284101.908    79599176.003        -968.056          32.000  
G23  22029103.569   115763804.0701      -3319.942          21.000                                                                  
G25  20898906.088   109824493.835       -1258.811          25.000    20898909.086    82011824.566        -938.879          24.000  
G31  21373350.737   112317723.8371        703.572          34.000                                                                  
G32  21445771.601   112698271.304         801.434          26.000    21445752.714    84157766.632         600.335          28.000  
> 2021 09 12 11 00 21.9997975  0 11                     
C03  36476357.843   189941725.675        -367.285          41.000  
C06  36701885.413   191116322.351        -278.678          21.000  
C08  38447899.473   200208261.987       -2199.259          29.000  
C09  37723807.152   196437814.945        -385.894          32.000  
C13  37470652.207   195119546.1961      -2027.662          17.000  
C16  37338414.054   194430714.768        -242.013          23.000  
C33  22445280.556   116878496.810       -1289.412          29.000  
G10  20284251.505   106594449.292       -1296.842          42.000    20284258.400    79599791.104        -967.998          33.000  
G25  20899055.685   109825280.243       -1258.770          28.000    20899060.182    82012410.687        -940.489          23.000  
G31  21373132.188   112316546.698         705.519          31.000                                                                  
G32  21445525.172   112696998.224         800.957          25.000    21445510.182    84156814.268         598.040          30.000  
> 2021 09 12 11 00 22.9997972  0 11                     
C03  36476338.356   189941624.279        -367.017          40.000  
C06  36701849.438   191116131.509        -277.334          20.000  
C08  38448231.343   200209992.850       -2198.936          30.000  
C09  37723787.665   196437732.434        -385.213          31.000  
C23  23282715.412   121239135.3461       1395.408          24.000  
C25  21984158.684   114477253.7761      -1221.100          27.000  
C33  22445437.047   116879317.836       -1290.057          27.000  
G10  20284410.095   106595274.371       -1297.553          44.000    20284414.592    79600405.091        -968.667          33.000  
G25  20899204.082   109826066.983       -1259.457          29.000    20899210.078    82012998.374        -940.733          23.000  
G31  21372908.543   112315369.731         706.980          33.000                                                                  
G32  21445279.942   112695723.955         802.605          27.000    21445265.851    84155864.059         597.659          27.000  
> 2021 09 12 11 00 23.9997970  0 12                     
C03  36476348.549   189941678.893        -367.322          39.000  
C08  38448593.493   200211880.161       -2200.080          28.000  
C09  37723800.556   196437805.897        -386.986          29.000  
C13  37471279.373   195122817.7541      -2023.113          18.000  
C16  37338351.397   194430417.5931       -241.409          25.000  
C23  23282384.441   121237428.793        1393.934          19.000  
C25  21984331.664   114478162.950       -1221.593          25.000  
C33  22445625.017   116880295.739       -1290.037          31.000  
G10  20284598.065   106596257.641       -1298.748          45.000    20284602.262    79601138.518        -968.900          31.000  
G25  20899383.658   109827011.253       -1259.731          29.000    20899390.253    82013702.484        -939.077          19.000  
G31  21372716.676   112314350.901         702.942          33.000                                                                  
G32  21445064.691   112694607.052         801.428          29.000    21445053.598    84155030.933         598.213          22.000  
> 2021 09 12 11 00 24.9997970  0 12                     
C03  36476419.300   189942046.259        -367.820          41.000  
C06  36701897.705   191116367.9651       -273.306          19.000  
C08  38449015.301   200214079.863       -2199.648          25.000  
C09  37723874.005   196438192.925        -387.165          29.000  
C16  37338397.865   194430658.885        -241.552          24.000  
C25  21984569.399   114479387.112       -1224.366          22.000  
C33  22445873.545   116881585.779       -1290.280          29.000  
G10  20284844.494   106597556.609       -1298.875          43.000    20284849.591    79602108.442        -970.572          33.000  
G23  22031383.790   115775821.3381      -3320.372          17.000                                                                  
G25  20899623.492   109828271.380       -1260.535          30.000    20899630.687    82014641.734        -938.871          21.000  
G31  21372580.570   112313647.456         701.977          34.000                                                                  
G32                                                                  21444902.203    84154431.616         598.828          27.000  
> 2021 09 12 11 00 25.9997970  0 13                     
C03  36476489.752   189942413.438        -366.886          41.000  
C06  36701949.569   191116641.604        -273.854          23.000  
C08  38449438.308   200216279.365       -2199.090          29.000  
C09  37723948.354   196438579.525        -386.574          30.000  
C16  37338446.731   194430900.428        -241.718          26.000  
C23  23281855.607   121234639.9911       1394.652          26.000  
C25  21984805.336   114480611.623       -1224.626          24.000  
C33  22446121.473   116882876.244       -1290.063          27.000  
G10  20285092.423   106598856.170       -1300.340          42.000    20285096.920                        -972.459          32.000  
G23  22032019.051   115779143.059       -3323.626          18.000                                                                  
G25  20899862.426   109829532.013       -1261.126          30.000    20899872.319    82015588.734        -941.183          10.000  
G31  21372447.762   112312944.259         702.609          34.000                                                                  
G32  21444759.202   112693003.0291        801.397          26.000    21444751.108    84153832.330         599.314          28.000  
> 2021 09 12 11 00 26.9997967  0 11                     
C03  36476469.965   189942311.544        -366.389          41.000  
C08  38449770.478   200218009.557       -2197.697          29.000  
C09  37723932.165   196438497.884        -386.748          29.000  
C16  37338402.962   194430673.610        -241.278          28.000  
C23  23281498.254   121232777.439        1393.633          26.000  
C25  21984952.234   114481368.878       -1225.821          21.000  
C33  22446279.464   116883697.601       -1289.568          26.000  
G10  20285248.914   106599683.719       -1300.360          42.000    20285254.311    79603696.2271       -971.463          32.000  
G25  20900012.622   109830321.572       -1263.130          31.000    20900022.815    82016178.799        -938.925          11.000  
G31  21372220.520   112311768.917         702.012          32.000                                                                  
G32  21444517.569   112691728.153         802.348          23.000    21444508.576    84152880.375         597.880          27.000  
> 2021 09 12 11 00 27.9997965  0 11                     
C03  36476481.357   189942365.409        -366.069          42.000  
C08  38450132.027   200219895.671       -2199.538          28.000  
C09  37723945.956   196438571.454        -385.673          27.000  
C16  37338388.571   194430601.823        -240.237          29.000  
C23  23281169.682   121231071.935        1393.129          25.000  
C25  21985129.412   114482281.483       -1224.844          21.000  
G10  20285437.184   106600669.514       -1301.473          43.000    20285441.981    79604432.403        -972.330          33.000  
G23  22033141.174   115785006.4051      -3327.193          18.000                                                                  
G25  20900193.397   109831269.183       -1262.180          28.000    20900202.991    82016886.509        -937.680          11.000  
G31  21372025.655   112310751.487         701.698          32.000                                                                  
G32  21444304.117   112690610.072         804.165          23.000    21444296.622    84152046.483         599.655          29.000  
> 2021 09 12 11 00 28.9997962  0 11                     
C03  36476460.072   189942262.832        -365.809          42.000  
C06  36701869.225   191116215.3301       -276.059          19.000  
C08  38450464.497   200221627.664       -2200.227          29.000  
C09  37723928.268   196438488.995        -385.207          29.000  
C16  37338344.202   194430373.669        -240.564          28.000  
C23  23280812.029   121229210.403        1392.875          29.000  
C25  21985276.310   114483037.280       -1223.902          25.000  
G10  20285596.374   106601498.080       -1301.712          43.000    20285599.971    79605051.175        -973.069          33.000  
G25  20900342.394   109832058.897       -1262.624          29.000    20900352.587    82017473.574        -937.606          10.000  
G31  21371800.510   112309576.708         701.994          33.000                                                                  
G32  21444061.285   112689333.847         803.021          26.000    21444053.790    84151094.370         598.737          29.000  
> 2021 09 12 11 00 29.9997960  0 12                     
C03  36476470.565   189942316.925        -366.744          42.000  
C06  36701862.629   191116180.335        -277.476          23.000  
C08  38450825.148   200223515.000       -2199.034          23.000  
C09  37723943.557   196438561.660        -384.788          30.000  
C16  37338331.311   194430301.957        -240.675          24.000  
C23  23280482.258   121227505.154        1392.895          28.000  
C25  21985451.089   114483948.590       -1223.374          25.000  
C33  22446807.698   116886476.8581      -1294.121          25.000  
G10  20285782.845   106602484.817       -1302.508          43.000    20285787.641    79605787.963        -972.216          32.000  
G25  20900524.068   109833006.769       -1263.569          31.000    20900531.863    82018176.284        -941.492          11.000  
G31  21371601.448   112308559.768         701.950          33.000                                                                  
G32  21443848.732   112688216.458         801.856          24.000    21443841.238    84150260.354         598.337          29.000  
> 2021 09 12 11 00 30.9997957  0 13                     
C03  36476451.978   189942215.257        -366.956          42.000  
C06  36701824.855   191115988.486        -276.691          22.000  
C08  38451157.617   200225245.375       -2198.779          23.000  
C09  37723927.069   196438477.814        -383.997          30.000  
C16  37338289.340   194430073.995        -240.609          23.000  
C23  23280121.907   121225644.287        1393.000          28.000  
C25  21985595.889   114484704.709       -1224.613          26.000  
C33  22446964.190   116887302.182       -1294.531          24.000  
G10  20285941.135   106603314.651       -1301.596          42.000    20285944.433    79606407.692        -972.928          32.000  
G23  22034811.018   115793732.6031      -3331.981          19.000                                                                  
G25  20900673.964   109833797.927       -1264.184          31.000    20900680.860                        -943.153          13.000  
G31  21371372.707   112307385.641         700.152          31.000                                                                  
G32  21443602.903   112686941.809         802.297          24.000    21443598.706    84149309.076         599.206          29.000  
> 2021 09 12 11 00 31.9997955  0 12                     
C03  36476462.770   189942269.340        -365.674          42.000  
C06  36701817.061   191115952.375        -276.118          23.000  
C08  38451519.767   200227130.960       -2197.894          25.000  
C09  37723942.958   196438549.440        -384.100          28.000  
C16  37338277.648   194430001.778        -240.070          23.000  
C23  23279792.735   121223939.671        1391.986          26.000  
C25  21985770.668   114485618.288       -1226.044          26.000  
C33  22447153.659   116888283.667       -1293.143          27.000  
G10  20286128.206   106604302.476       -1302.837          43.000    20286132.403    79607145.292        -973.620          31.000  
G25  20900857.138   109834747.230       -1264.610          33.000    20900859.236                        -944.360          16.000  
G31  21371189.533   112306369.313         702.681          30.000                                                                  
G32  21443391.249   112685824.842         801.472          26.000    21443386.752    84148475.112         599.353          29.000  
> 2021 09 12 11 00 32.9997952  0 12                     
C03  36476442.984   189942165.979        -364.668          42.000  
C06  36701780.186   191115760.313        -275.604          22.000  
C08  38451851.637   200228861.730       -2199.924          26.000  
C09  37723926.469   196438464.527        -382.831          29.000  
C16  37338235.977   194429774.312        -240.433          24.000  
C23  23279434.483   121222079.235        1391.840          29.000  
C25  21985913.669   114486375.313       -1224.515          25.000  
C33  22447314.947   116889108.349       -1293.040          26.000  
G10  20286286.196   106605133.139       -1304.669          43.000    20286290.993    79607765.707        -974.217          32.000  
G25  20901008.533   109835539.759       -1264.825          32.000    20901007.933    82020052.7051       -945.234          17.000  
G31  21370962.890   112305195.558         699.243          32.000                                                                  
G32  21443148.417   112684550.570         801.551          28.000    21443144.520    84147522.528         600.364          29.000  
> 2021 09 12 11 00 33.9997949  0 12                     
C03  36476422.598   189942062.425        -365.152          42.000  
C06  36701743.612   191115568.589        -276.194          23.000  
C08  38452184.107   200230591.841       -2197.688          27.000  
C09  37723910.880   196438379.205        -383.493          29.000  
C16  37338191.608   194429546.538        -241.078          22.000  
C23  23279076.531   121220218.631        1391.696          28.000  
C25  21986055.171   114487131.217       -1223.872          25.000  
C33  22447475.036   116889932.822       -1293.118          28.000  
G10  20286444.487   106605964.484       -1303.557          44.000    20286448.384    79608386.382        -975.039          31.000  
G25  20901159.928                       -1265.449          32.000    20901157.230    82020645.140        -945.921          18.000  
G31  21370738.645   112304022.255         701.719          31.000                                                                  
G32  21442900.789   112683276.528         801.311          26.000    21442901.388    84146570.496         598.822          28.000  
> 2021 09 12 11 00 34.9997949  0 12                     
C03  36476492.750   189942427.808        -365.898          42.000  
C06  36701796.975   191115844.596        -276.965          22.000  
C08  38452607.714   200232789.490       -2198.562          28.000  
C09  37723984.929   196438762.382        -383.280          30.000  
C16  37338235.378   194429786.019        -238.870          22.000  
C23  23278808.516   121218827.226        1390.921          28.000  
C25  21986288.409   114488355.182       -1223.579          24.000  
C33  22447725.063   116891225.727       -1293.752          28.000  
G10  20286692.715   106607269.232       -1304.802          44.000    20286697.212    79609360.821        -974.812          31.000  
G25  20901402.160   109837603.0901      -1266.448          31.000    20901396.764    82021591.468        -946.740          20.000  
G31  21370602.240   112303322.071         701.144          30.000                                                                  
G32  21442744.297   112682475.168         801.334          25.000    21442749.094    84145972.232         598.031          28.000  
> 2021 09 12 11 00 35.9997947  0 13                     
C03  36476502.942   189942481.500        -366.158          42.000  
C06  36701788.281   191115809.163        -276.712          24.000  
C08  38452969.863   200234675.825       -2199.584          27.000  
C09  37723998.419   196438833.888        -384.004          30.000  
C16  37338217.690   194429712.635        -239.266          25.000  
C23  23278481.143   121217124.840        1388.481          26.000  
C25  21986463.188   114489267.349       -1225.088          29.000  
C33  22447916.031   116892208.276       -1296.375          28.000  
G10  20286881.884   106608259.335       -1305.220          44.000    20286886.081    79610100.199        -974.595          31.000  
G23  22037717.805   115808798.6991      -3327.713          18.000                                                                  
G25  20901582.336   109838554.450       -1266.860          32.000    20901576.340    82022303.025        -946.962          21.000  
G31  21370413.071   112302307.037         699.364          31.000                                                                  
G32  21442531.744   112681358.563         801.555          29.000    21442536.541    84145137.600         599.517          28.000  
> 2021 09 12 11 00 36.9997944  0 12                     
C03  36476482.856   189942379.067        -366.036          42.000  
C06  36701750.207   191115617.049        -275.570          23.000  
C08  38453302.932   200236406.814       -2199.470          26.000  
C09  37723984.029   196438749.750        -384.157          30.000  
C23  23278122.291   121215267.843        1388.958          26.000  
C25  21986607.388   114490024.334       -1225.945          26.000  
C33  22448075.221   116893036.148       -1296.812          25.000  
G10  20287039.875   106609092.452       -1306.460          44.000    20287044.971    79610722.313        -975.887          32.000  
G23  22038263.727   115811654.297       -3328.708          18.000                                                                  
G25  20901735.230   109839348.729       -1268.198          32.000    20901727.135    82022896.472        -946.382          21.000  
G31  21370187.327   112301134.798         698.578          31.000                                                                  
G32  21442289.812   112680084.310         801.517          28.000    21442294.908    84144185.061         598.448          29.000  
> 2021 09 12 11 00 37.9997942  0 12                     
C03  36476494.248   189942432.030        -365.305          42.000  
C06  36701742.113   191115578.873        -273.119          21.000  
C08  38453668.080   200238294.189       -2199.993          27.000  
C09  37723999.918   196438821.595        -384.117          32.000  
C23  23277795.218   121213566.432        1388.402          29.000  
C25  21986782.767   114490939.213       -1227.958          25.000  
C33  22448263.491   116894020.733       -1296.535          27.000  
G10  20287228.744   106610083.936       -1306.577          43.000    20287233.540    79611462.720        -975.945          34.000  
G23  22038843.226   115814668.792       -3330.783          19.000                                                                  
G25  20901917.204   109840301.430       -1267.496          33.000    20901907.610    82023607.318        -946.623          21.000  
G31  21369995.460   112300120.625         697.758          31.000                                                                  
G32  21442075.160   112678967.765         800.930          27.000    21442083.554    84143351.796         597.050          31.000  
> 2021 09 12 11 00 38.9997939  0 12                     
C03  36476475.062   189942328.900        -365.445          42.000  
C06  36701701.341   191115384.005        -273.918          23.000  
C08  38454000.849   200240025.138       -2198.699          28.000  
C09  37723984.929   196438736.393        -382.153          35.000  
C23  23277438.165   121211708.960        1389.143          26.000  
C25  21986928.466   114491698.849       -1228.547          21.000  
C33  22448423.280   116894847.769       -1295.263          31.000  
G10  20287386.734   106610918.238       -1306.425          43.000    20287391.831    79612085.732        -975.171          32.000  
G23  22039383.153   115817526.137       -3329.815          19.000                                                                  
G25  20902065.301   109841097.035       -1267.488          33.000    20902057.806    82024201.046        -947.126          24.000  
G31  21369782.008   112298948.968         697.997          30.000                                                                  
G32  21441834.127   112677694.041         801.113          24.000    21441841.022    84142401.676         598.797          31.000  
> 2021 09 12 11 00 39.9997937  0 11                     
C03  36476485.854   189942381.938        -365.419          42.000  
C06  36701691.448   191115345.746        -273.886          19.000  
C08  38454363.298   200241911.917       -2198.793          28.000  
C09  37723998.419                        -383.679          35.000  
C23  23277111.391   121210008.407        1387.107          20.000  
C25  21987104.444   114492615.045       -1228.061          29.000  
C33  22448613.049   116895830.431       -1294.995          31.000  
G10  20287575.004   106611910.609       -1306.751          42.000    20287580.400    79612826.772        -975.213          33.000  
G25  20902239.481   109842050.628       -1270.308          32.000    20902238.581    82024913.069        -947.744          24.000  
G31  21369589.241   112297935.174         696.400          30.000                                                                  
G32                                                                  21441627.570    84141568.009         598.294          27.000  
> 2021 09 12 11 00 40.9997934  0 12                     
C03  36476464.269   189942279.163        -365.903          43.000  
C06  36701653.074   191115151.136        -274.312          19.000  
C08  38454696.368   200243642.011       -2198.042          27.000  
C09  37723983.729   196438674.2731       -383.733          35.000  
C23  23276755.238   121208152.397        1387.804          25.000  
C25  21987249.844   114493374.964       -1228.281          29.000  
C33  22448772.538   116896657.309       -1295.745          31.000  
G10  20287733.894   106612746.127       -1309.466          43.000    20287739.590    79613450.736        -978.497          33.000  
G23  22040497.781   115823398.9861      -3330.948          23.000                                                                  
G25  20902394.473   109842847.489       -1270.983          30.000    20902389.677    82025507.907        -947.690          23.000  
G31  21369369.194   112296764.232         698.567          32.000                                                                  
G32  21441380.241   112675303.2291        801.779          23.000    21441385.338    84140617.575         598.447          27.000  
> 2021 09 12 11 00 41.9997934  0 11                     
C03  36476535.020   189942644.650        -365.250          43.000  
C06  36701701.641   191115425.366        -275.013          20.000  
C08  38455119.075   200245840.845       -2198.747          24.000  
C09  37724057.179   196439057.158        -383.022          35.000  
C23  23276487.223   121206763.972        1388.736          25.000  
C25  21987485.181   114494603.024       -1227.886          29.000  
C33  22449022.565   116897953.000       -1296.017          31.000  
G10  20287983.621   106614054.825       -1309.160          43.000    20287989.017    79614427.994        -980.273          32.000  
G25  20902640.003   109844117.607       -1272.170          33.000    20902628.312    82026455.756        -948.902          20.000  
G31  21369230.090   112296066.421         696.308          29.000                                                                  
G32  21441230.045   112674501.375         801.853          25.000    21441232.444    84140018.786         599.899          28.000  
> 2021 09 12 11 00 42.9997932  0 12                     
C03  36476544.913   189942697.225        -364.848          42.000  
C08  38455480.025   200247727.137       -2198.389          25.000  
C09  37724070.969   196439127.836        -382.716          35.000  
C16  37338079.485   194429041.4671       -239.868          18.000  
C23  23276158.950   121205062.961        1388.257          29.000  
C25  21987660.859   114495518.712       -1228.172          29.000  
C33  22449214.132   116898937.458       -1297.706          33.000  
G10  20288173.090   106615049.210       -1308.224          44.000    20288177.887    79615170.564        -975.058          32.000  
G23  22041702.047   115829745.7051      -3331.179          23.000                                                                  
G25  20902823.776   109845073.375       -1269.595          33.000    20902810.585    82027171.085        -952.884          20.000  
G31  21369037.024   112295052.895         697.965          27.000                                                                  
G32  21441018.692   112673384.343         801.677          29.000    21441020.191    84139184.544         598.914          28.000  
> 2021 09 12 11 00 43.9997932  0 12                     
C03  36476615.065   189943062.043        -365.302          42.000  
C06  36701742.412   191115660.8631       -272.562          20.000  
C08  38455903.032   200249925.994       -2199.468          25.000  
C09  37724144.718   196439510.298        -380.800          35.000  
C23  23275891.236   121203674.199        1388.246          30.000  
C25  21987894.997   114496746.854       -1228.658          29.000  
C33  22449464.759   116900235.212       -1296.921          32.000  
G10  20288421.618   106616359.085       -1310.755          43.000    20288427.314    79616148.699        -977.518          32.000  
G23  22042335.808   115833076.841       -3331.168          23.000                                                                  
G25  20903061.512   109846344.591       -1271.333          33.000                                                                  
G31  21368904.815   112294355.094         697.540          26.000                                                                  
G32  21440866.697   112672582.751         801.618          29.000    21440867.296    84138584.970         599.670          28.000  
> 2021 09 12 11 00 44.9997929  0 11                     
C03  36476595.878   189942959.003        -365.298          43.000  
C06  36701702.840   191115465.647        -273.559          20.000  
C08  38456233.703   200251656.812       -2198.709          25.000  
C09  37724130.628   196439424.396        -382.766          34.000  
C23  23275533.583   121201817.889        1388.168          28.000  
C25  21988041.596   114497506.906       -1228.753          29.000  
C33  22449622.750   116901063.114       -1295.960          32.000  
G10  20288582.607   106617196.872       -1311.780          42.000    20288586.804    79616774.335        -979.371          33.000  
G25  20903212.907   109847143.856       -1273.068          32.000                                                                  
G31  21368682.369   112293185.078         696.815          27.000                                                                  
G32                                                                  21440625.364    84137632.365         600.060          29.000  
> 2021 09 12 11 00 45.9997926  0 10                     
C03  36476576.991   189942855.861        -365.387          43.000  
C08  38456565.274   200253386.310       -2197.604          27.000  
C09  37724112.340   196439338.583        -381.665          35.000  
C23  23275177.730   121199961.600        1388.333          27.000  
C25  21988187.894   114498266.832       -1228.330          31.000  
C33  22449781.939   116901891.452       -1297.684          31.000  
G10  20288742.696   106618035.678       -1311.496          43.000    20288746.293    79617400.754        -978.573          33.000  
G23  22043416.560   115838794.3601      -3332.130          25.000                                                                  
G25  20903362.803   109847944.094       -1273.418          34.000                                                                  
G32  21440382.532   112670034.3581        801.089          26.000    21440383.731    84136680.567         598.162          30.000  
> 2021 09 12 11 00 46.9997924  0 11                     
C03  36476586.884   189942908.705        -364.774          42.000  
C06  36701651.276   191115228.0031       -272.042          20.000  
C08  38456927.423   200255272.930       -2198.986          27.000  
C09  37724127.630   196439408.549        -382.467          34.000  
C23  23274850.656   121198261.499        1387.504          27.000  
C25  21988363.872   114499183.639       -1229.735          29.000  
C33  22449969.909   116902877.430       -1298.195          30.000  
G10  20288930.965   106619032.340       -1311.735          42.000    20288936.362    79618145.012        -979.206          32.000  
G23  22043988.564   115841811.383       -3332.324          27.000                                                                  
G25  20903550.473   109848902.161       -1272.897          34.000                                                                  
G32  21440170.879   112668918.018         801.119          26.000    21440171.778    84135846.625         598.705          30.000  
> 2021 09 12 11 00 47.9997921  0 12                     
C03  36476565.599   189942804.903        -364.916          42.000  
C06  36701610.804   191115032.087        -272.678          20.000  
C08  38457258.994   200257002.943       -2197.937          28.000  
C09  37724114.139   196439322.499        -381.363          36.000  
C23  23274492.704   121196405.717        1386.981          29.000  
C25  21988509.871   114499946.238       -1230.825          28.000  
C33  22450129.099   116903708.391       -1299.948          31.000  
G10  20289091.654   106619872.052       -1311.434          42.000    20289096.151    79618772.099        -979.418          33.000  
G23  22044530.289   115844671.013       -3332.401          24.000                                                                  
G25  20903704.566   109849703.469       -1273.081          35.000                                                                  
G31  21368052.205   112289832.9811        696.652          30.000                                                                  
G32  21439931.045   112667642.873         802.014          27.000    21439929.546    84134894.667         599.704          30.000  
> 2021 09 12 11 00 48.9997919  0 10                     
C03  36476575.492   189942857.627        -365.126          42.000  
C06  36701604.208   191114993.509        -273.576          21.000  
C08  38457620.543   200258888.370       -2197.738          28.000  
C09  37724132.726   196439392.063        -381.247          36.000  
C25  21988687.049   114500865.000       -1231.823          28.000  
C33  22450323.964   116904695.516       -1299.837          34.000  
G10  20289283.521   106620869.842       -1313.813          43.000    20289285.020    79619517.128        -981.668          32.000  
G25  20903888.039   109850662.771       -1274.944          34.000                                                                  
G31  21367861.537   112288821.613         695.781          33.000                                                                  
G32  21439719.691   112666526.061         801.683          31.000    21439716.093    84134060.541         598.340          29.000  
> 2021 09 12 11 00 49.9997916  0 10                     
C03  36476556.306   189942754.115        -364.658          42.000  
C08  38457955.411   200260618.130       -2199.468          25.000  
C09  37724112.340   196439305.345        -383.802          35.000  
C23  23273798.085   121192852.8611       1384.716          24.000  
C25  21988835.746   114501628.076       -1231.401          24.000  
C33  22450486.452                       -1299.733          33.000  
G10  20289440.313   106621710.525       -1315.031          42.000    20289445.709    79620144.964        -982.975          30.000  
G23  22045641.020   115850541.1271      -3329.074          19.000                                                                  
G25  20904033.739   109851465.114       -1276.351          33.000                                                                  
G32  21439480.457   112665251.907         801.733          31.000    21439474.161    84133109.998         597.883          28.000  
> 2021 09 12 11 00 50.9997914  0 10                     
C03  36476567.398   189942806.190        -364.087          42.000  
C08  38458318.160   200262505.156       -2199.575          27.000  
C09  37724122.234   196439374.725        -379.076          36.000  
C23  23273468.313   121191154.466        1383.896          27.000  
C25  21989013.223   114502546.979       -1231.032          29.000  
C33  22450671.424   116906562.5741      -1299.405          34.000  
G10  20289632.780   106622709.406       -1314.616          43.000    20289635.178    79620890.847        -981.728          32.000  
G25  20904218.411   109852425.627       -1275.593          31.000                                                                  
G31  21367439.429   112286642.7971        695.742          31.000                                                                  
G32  21439270.902   112664135.705         801.589          28.000    21439261.908    84132277.541         597.291          29.000  
> 2021 09 12 11 00 51.9997911  0 11                     
C03  36476546.412   189942702.138        -364.651          41.000  
C08  38458650.930   200264236.019       -2198.292          27.000  
C09  37724107.844   196439287.565        -380.704          35.000  
C23  23273105.564   121189302.182        1383.476          19.000  
C25  21989161.320   114503309.150       -1230.922          28.000  
C33  22450830.314   116907394.283       -1300.120          33.000  
G10  20289793.168   106623551.484       -1315.561          44.000    20289796.166    79621519.650        -982.959          30.000  
G23  22046752.951   115856413.0991      -3332.506          22.000                                                                  
G25  20904372.204   109853228.979       -1277.293          32.000                                                                  
G31  21367210.388                         695.257          34.000                                                                  
G32                                                                  21439019.076    84131326.327         599.762          24.000  
> 2021 09 12 11 00 52.9997911  0 10                     
C03  36476615.964   189943066.711        -364.347          43.000  
C06  36701580.824   191114838.1041       -274.685          21.000  
C08  38459072.738   200266434.338       -2197.878          26.000  
C09  37724182.192   196439668.561        -381.461          37.000  
C25  21989397.257   114504540.553       -1231.861          27.000  
C33  22451082.139   116908694.578       -1301.398          33.000  
G10  20290042.896   106624866.567       -1315.988          43.000    20290047.692    79622501.746        -983.635          32.000  
G25  20904613.237   109854505.704       -1276.363          28.000                                                                  
G31  21367075.781   112284754.7961        691.641          32.000                                                                  
G32  21438876.675   112662060.6441        800.972          33.000    21438866.182    84130726.599         599.034          26.000  
> 2021 09 12 11 00 53.9997908  0 10                     
C03  36476596.478   189942962.679        -364.665          43.000  
C08  38459401.311   200268163.672       -2198.390          24.000  
C09  37724165.704   196439581.363        -381.229          37.000  
C23  23272487.992   121186070.2951       1380.634          17.000  
C25  21989545.055   114505304.355       -1231.877          30.000  
C33  22451246.126   116909527.109       -1299.095          34.000  
G10  20290202.385   106625709.816       -1315.564          43.000    20290207.182    79623131.507        -982.657          33.000  
G25  20904764.633   109855309.181       -1276.413          30.000                                                                  
G31  21366859.631   112283588.415         692.232          30.000                                                                  
G32  21438632.643   112660785.129         801.890          33.000    21438623.949    84129773.633         600.623          27.000  
> 2021 09 12 11 00 54.9997906  0  9                     
C03  36476605.771   189943014.739        -364.471          42.000  
C08  38459762.261   200270049.466       -2198.599          25.000  
C09  37724181.593   196439649.951        -379.650          37.000  
C23  23272167.514   121184378.629        1378.828          18.000  
C33  22451432.597   116910515.992       -1300.046          31.000  
G10  20290393.653   106626711.016       -1315.562          44.000    20290397.550    79623879.177        -982.664          32.000  
G25  20904946.906   109856270.888       -1277.958          33.000                                                                  
G31  21366667.464   112282578.533         693.334          28.000                                                                  
G32  21438422.789   112659668.527         801.066          31.000    21438412.296    84128938.901         598.514          28.000  
> 2021 09 12 11 00 55.9997903  0  9                     
C03  36476587.484   189942911.319        -365.548          43.000  
C06  36701504.077   191114414.3311       -275.370          21.000  
C08  38460095.030   200271780.048       -2199.051          26.000  
C09  37724165.104   196439563.051        -380.290          37.000  
C25  21989868.231   114506985.9781      -1231.495          26.000  
C33  22451589.088   116911349.904       -1300.904          33.000  
G10  20290554.042   106627556.074       -1316.989          44.000    20290557.339    79624510.200        -983.961          32.000  
G31  21366447.716   112281412.851         692.382          31.000                                                                  
G32  21438181.456   112658394.722         800.807          33.000    21438170.663    84127988.097         597.417          29.000  
> 2021 09 12 11 00 56.9997901  0 11                     
C03  36476597.977   189942964.352        -364.668          43.000  
C06  36701498.082   191114376.985        -274.285          23.000  
C08  38460457.479   200273667.095       -2199.567          27.000  
C09  37724176.496   196439631.835        -380.159          37.000  
C23  23271501.675   121180837.6081       1380.638          19.000  
C25  21990046.008   114507907.690       -1234.707          25.000  
C33  22451781.855   116912340.035       -1302.422          34.000  
G10  20290744.410   106628559.020       -1317.404          44.000    20290748.607    79625259.093        -983.710          32.000  
G25  20905289.569                       -1280.547          34.000                                                                  
G31  21366257.048   112280405.756         691.427          32.000                                                                  
G32  21437973.999   112657279.426         799.867          32.000    21437959.310    84127155.844         596.848          30.000  
> 2021 09 12 11 00 57.9997901  0 10                     
C03  36476668.128   189943328.804        -364.745          42.000  
C06  36701549.346   191114649.891        -272.385          23.000  
C08  38460878.088   200275866.944       -2199.527          27.000  
C09  37724250.545   196440012.799        -380.543          37.000  
C25  21990283.444   114509142.103       -1233.935          27.000  
C33  22452035.479   116913642.863       -1302.775          33.000  
G10  20290995.936   106629877.700       -1319.098          46.000    20291000.433    79626243.927        -983.716          32.000  
G25  20905534.500   109859318.7791      -1280.675          34.000                                                                  
G31  21366126.039   112279714.191         692.190          32.000                                                                  
G32  21437816.608   112656479.161         800.289          33.000    21437807.914    84126559.943         595.566          31.000  
> 2021 09 12 11 00 58.9997898  0 10                     
C03  36476647.442   189943224.956        -364.280          42.000  
C06  36701511.272   191114453.362        -272.413          22.000  
C08  38461207.260   200277597.538       -2199.000          26.000  
C09  37724231.058   196439924.956        -379.628          36.000  
C25  21990430.941   114509907.496       -1233.754          28.000  
C33  22452194.369   116914477.303       -1303.612          32.000  
G10  20291157.224   106630724.007       -1318.067          45.000    20291160.822    79626875.867        -985.898          32.000  
G25  20905685.595   109860126.893       -1278.683          34.000                                                                  
G31  21365903.293                         691.123          33.000                                                                  
G32  21437573.177                         803.477          32.000    21437565.982    84125609.568         597.818          31.000  
> 2021 09 12 11 00 59.9997896  0 11                     
C03  36476656.436   189943276.875        -364.414          42.000  
C06  36701506.176   191114412.750        -270.608          24.000  
C08  38461568.210   200279483.634       -2197.079          25.000  
C09  37724244.549   196439993.105        -380.349          37.000  
C25  21990609.018   114510829.255       -1234.330          29.000  
C33  22452383.239   116915468.356       -1302.561          32.000  
G10  20291349.091   106631728.466       -1319.848          44.000    20291352.389    79627625.979        -985.072          32.000  
G23  22051356.564   115880696.8491      -3325.170          18.000                                                                  
G25  20905871.167   109861093.188       -1281.351          33.000                                                                  
G31  21365713.225                         689.984          32.000                                                                  
G32  21437361.523   112654091.4961        800.393          32.000    21437353.429    84124776.938         597.068          30.000  
> 2021 09 12 11 01 00.9997893  0 12                     
C03  36476637.249   189943172.720        -364.218          42.000  
C06  36701468.702   191114215.152        -271.883          24.000  
C08  38461902.179   200281212.730       -2197.498          25.000  
C09  37724225.362   196439905.218        -380.640          37.000  
C16  37337709.841   194427185.9711       -234.365          20.000  
C25  21990755.916   114511595.347       -1234.792          29.000  
C33  22452549.324   116916303.835       -1306.533          31.000  
G10  20291509.780   106632576.242       -1321.402          45.000    20291513.977    79628259.088        -986.690          32.000  
G23  22051900.687   115883546.915       -3321.963          18.000                                                                  
G25  20906023.761   109861902.868       -1284.706          33.000                                                                  
G31  21365488.380   112276410.4401        690.604          34.000                                                                  
G32  21437117.193   112652818.037         798.650          33.000    21437111.197    84123826.716         597.976          30.000  
> 2021 09 12 11 01 01.9997893  0 14                     
C03  36476708.600   189943537.186        -365.039          43.000  
C06  36701521.166   191114487.185        -271.676          24.000  
C08  38462322.788   200283411.014       -2199.202          25.000  
C09  37724296.713   196440285.996        -381.178          36.000  
C16  37337756.309   194427420.350        -235.278          20.000  
C23  23269974.532   121172675.9681       1382.581          27.000  
C25  21990993.652   114512830.783       -1236.278          30.000  
C33  22452793.355   116917608.586       -1302.551          31.000  
G10  20291761.906   106633897.688       -1320.787          44.000    20291765.503    79629245.871        -987.592          31.000  
G12  23070534.901   121236480.0891      -2787.695          23.000                                                                  
G23  22052535.647   115886871.489       -3328.657          18.000                                                                  
G25  20906267.792   109863186.192       -1283.119          32.000                                                                  
G31  21365358.570   112275720.265         688.632          32.000                                                                  
G32  21436964.598   112652017.764         801.511          32.000    21436958.303    84123228.276         597.129          30.000  
> 2021 09 12 11 01 02.9997891  0 12                     
C03  36476719.093   189943590.097        -365.312          42.000  
C08  38462685.837   200285298.896       -2200.752          25.000  
C09  37724311.702   196440354.329        -381.416          35.000  
C23  23269655.852   121170981.526        1380.745          27.000  
C25  21991172.028   114513754.734       -1236.353          29.000  
C33  22452982.823   116918601.453       -1303.617          32.000  
G10  20291953.173   106634904.641       -1322.686          44.000    20291956.471    79629997.802        -987.067          33.000  
G12  23071003.776   121238953.588       -2789.125          23.000                                                                  
G23  22053111.549   115889890.066       -3336.717          20.000                                                                  
G25  20906451.565   109864155.037       -1281.822          32.000                                                                  
G31  21365166.103   112274715.332         690.188          31.000                                                                  
G32                                                                  21436746.649    84122395.627         597.952          29.000  
> 2021 09 12 11 01 03.9997888  0 11                     
C03  36476698.707   189943487.454        -366.043          42.000  
C08  38463019.206   200287031.990       -2201.534          25.000  
C09  37724297.013   196440266.515        -381.524          36.000  
C25  21991319.226   114514522.487       -1235.890          24.000  
C33  22453143.512   116919438.529       -1305.370          34.000  
G10  20292115.061   106635754.659       -1323.352          45.000    20292118.659    79630632.600        -987.991          32.000  
G12  23071440.874   121241270.439       -2790.440          24.000                                                                  
G23  22053662.267   115892756.430       -3340.258          24.000                                                                  
G25  20906603.260   109864967.049       -1286.567          33.000                                                                  
G31  21364946.355   112273553.215         688.943          31.000                                                                  
G32  21436515.809   112649631.5411        793.828          31.000    21436504.417    84121444.888         597.639          29.000  
> 2021 09 12 11 01 04.9997885  0 10                     
C03  36476678.621   189943384.871        -365.771          43.000  
C08  38463352.875   200288764.704       -2200.681          28.000  
C09  37724279.325   196440178.671        -380.712          38.000  
C25  21991465.825   114515290.241       -1236.714          28.000  
C33  22453308.098   116920276.153       -1306.196          34.000  
G10  20292277.249   106636605.409       -1324.183          45.000    20292280.247    79631267.853        -987.862          31.000  
G12  23071882.468   121243588.006       -2790.311          23.000                                                                  
G25  20906764.848   109865779.836       -1285.619          31.000                                                                  
G31  21364724.209   112272391.596         687.584          31.000                                                                  
G32                                                                  21436262.184    84120494.796         595.833          29.000  
> 2021 09 12 11 01 05.9997883  0 11                     
C03  36476688.514   189943438.003        -365.120          42.000  
C08  38463714.724   200290652.818       -2200.639          28.000  
C09  37724292.516   196440246.987        -381.631          39.000  
C25  21991643.902   114516214.604       -1236.833          32.000  
C33  22453496.668   116921270.411       -1306.714          32.000  
G10  20292469.416   106637614.511       -1324.296          46.000    20292472.114    79632021.408        -987.646          31.000  
G12  23072352.243   121246063.490       -2791.871          22.000                                                                  
G23  22054774.797   115898651.2011      -3340.785          18.000                                                                  
G25  20906946.522   109866750.874       -1284.320          31.000                                                                  
G31  21364539.837   112271388.074         687.687          32.000                                                                  
G32  21436046.334   112647243.0801        800.252          30.000    21436050.531    84119663.445         596.747          30.000  
> 2021 09 12 11 01 06.9997880  0 10                     
C03  36476668.428   189943334.313        -364.595          42.000  
C08  38464051.092   200292384.493       -2200.250          24.000  
C09  37724276.927   196440158.852        -379.874          37.000  
C16  37337602.815   194426560.5401       -232.003          23.000  
C25  21991787.203   114516983.129       -1237.325          34.000  
C33  22453651.660   116922108.828       -1308.222          32.000  
G10  20292632.203   106638466.460       -1325.419          46.000    20292634.601    79632657.619        -989.660          31.000  
G23  22055323.717   115901519.229       -3340.551          20.000                                                                  
G25  20907102.714   109867564.849       -1286.562          31.000                                                                  
G32                                                                  21435807.999    84118713.570         596.883          30.000  
> 2021 09 12 11 01 07.9997878  0 10                     
C03  36476679.220   189943386.781        -365.491          42.000  
C08  38464415.639   200294272.291       -2200.221          25.000  
C09  37724290.417   196440227.288        -379.925          37.000  
C16  37337588.425   194426479.988        -230.763          21.000  
C25  21991961.382   114517908.530       -1237.820          33.000  
C33  22453842.029   116923104.295       -1307.492          32.000  
G10  20292823.770   106639477.205       -1325.847          46.000    20292827.068    79633412.349        -990.271          32.000  
G25  20907293.082   109868537.609       -1287.371          31.000                                                                  
G31  21364129.721   112269224.7291        687.496          33.000                                                                  
G32  21435593.048   112644854.9351        799.903          30.000    21435595.446    84117881.286         596.044          30.000  
> 2021 09 12 11 01 08.9997875  0 10                     
C03  36476659.434   189943284.210        -365.913          41.000  
C08  38464748.709   200296004.766       -2202.354          26.000  
C09  37724271.530   196440138.890        -379.635          37.000  
C16  37337544.656   194426240.781        -228.208          22.000  
C25  21992105.882                       -1238.285          32.000  
C33  22454006.914   116923943.465       -1306.310          31.000  
G10  20292985.958   106640330.371       -1326.357          45.000    20292989.556    79634049.517        -990.547          31.000  
G25  20907450.773   109869352.929       -1287.137          31.000                                                                  
G31  21363912.671   112268064.558         686.688          34.000                                                                  
G32  21435348.717   112643582.281         799.898          28.000    21435353.214    84116931.712         596.224          30.000  
> 2021 09 12 11 01 09.9997873  0 11                     
C03  36476670.227   189943337.171        -364.720          42.000  
C08  38465111.158   200297894.412       -2201.987          26.000  
C09  37724284.421   196440206.367        -380.255          37.000  
C16  37337528.767   194426157.007        -229.670          19.000  
C25  21992285.458   114519592.3371      -1239.924          32.000  
C33  22454200.880   116924938.993       -1307.991          32.000  
G10  20293178.425   106641341.627       -1327.018          46.000    20293181.423    79634804.647        -990.617          32.000  
G12  23074179.178   121255657.4721      -2793.030          22.000                                                                  
G25  20907630.049   109870326.201       -1287.908          30.000                                                                  
G31  21363725.301   112267062.173         687.370          34.000                                                                  
G32  21435137.963   112642467.041         800.205          28.000    21435141.260    84116098.967         597.772          29.000  
> 2021 09 12 11 01 10.9997873  0 11                     
C03  36476739.179   189943701.515        -364.495          42.000  
C08  38465535.964   200300096.390       -2202.689          26.000  
C09  37724356.372   196440586.152        -379.797          37.000  
C25  21992521.394   114520830.621       -1239.519          32.000  
C33  22454449.408   116926247.483       -1308.003          31.000  
G10  20293431.450   106642668.765       -1328.140          46.000    20293433.548    79635795.678        -991.930          32.000  
G12  23074712.209   121258450.312       -2792.954          23.000                                                                  
G23  22057665.396   115913778.1861      -3340.715          22.000                                                                  
G25  20907878.577   109871615.540       -1290.383          31.000                                                                  
G31  21363590.694   112266375.387         685.574          35.000                                                                  
G32                                                                  21434989.266    84115502.647         596.720          30.000  
> 2021 09 12 11 01 11.9997870  0  9                     
C03  36476719.692   189943597.792        -365.327          43.000  
C08  38465870.232   200301829.536       -2200.888          26.000  
C09  37724337.185   196440497.419        -378.610          36.000  
C25  21992670.991   114521600.824       -1238.642          31.000  
C33  22454611.596   116927087.771       -1308.629          30.000  
G10  20293594.837   106643523.820       -1328.296          46.000    20293596.336    79636434.178        -992.082          31.000  
G25  20908035.069   109872432.831       -1291.188          29.000                                                                  
G31  21363368.847   112265216.323         685.776          34.000                                                                  
G32  21434748.532   112640394.6121        799.647          28.000    21434747.333    84114552.669         598.147          29.000  
> 2021 09 12 11 01 12.9997868  0  9                     
C03  36476729.885   189943650.967        -365.674          43.000  
C08  38466230.583   200303716.167       -2197.571          25.000  
C09  37724350.376   196440565.112        -379.642          36.000  
C25  21992850.566   114522527.935       -1238.705          33.000  
C33  22454801.964   116928085.065       -1308.524          30.000  
G10  20293787.004   106644537.456       -1328.192          46.000    20293789.702    79637191.132        -990.257          31.000  
G25  20908220.340   109873408.866       -1291.045          27.000    20908210.447    82048340.8961       -965.445          26.000  
G31  21363182.676   112264215.571         686.175          34.000                                                                  
G32  21434536.579   112639279.992         799.320          30.000    21434534.780    84113719.031         598.643          30.000  
> 2021 09 12 11 01 13.9997865  0  9                     
C03  36476709.499   189943547.681        -364.954          42.000  
C08  38466562.153   200305445.361       -2198.321          23.000  
C09  37724329.690   196440476.565        -380.354          36.000  
C25  21992999.863   114523299.194       -1241.741          32.000  
C33  22454960.854   116928926.494       -1309.958          30.000  
G10  20293949.791   106645394.100       -1329.932          46.000    20293952.489    79637830.822        -993.312          31.000  
G25  20908373.834   109874227.267       -1291.456          25.000    20908367.838    82048953.439        -964.992          27.000  
G31  21362965.627   112263057.593         685.821          35.000                                                                  
G32  21434295.546   112638008.448         798.683          26.000    21434291.649    84112767.588         597.183          30.000  
> 2021 09 12 11 01 14.9997865  0 10                     
C03  36476779.051   189943912.730        -365.210          42.000  
C08  38466983.362   200307644.481       -2200.830          20.000  
C09  37724407.336   196440855.849        -380.780          35.000  
C25  21993236.099   114524538.971       -1241.725          31.000  
C33  22455209.982   116930237.780       -1310.588          30.000  
G10  20294202.516   106646723.888       -1331.078          45.000    20294205.814    79638823.793        -994.731          30.000  
G23  22059974.398   115925890.4001      -3342.319          26.000                                                                  
G25  20908617.265   109875518.693       -1291.850          27.000    20908613.668    82049917.831        -963.653          26.000  
G31  21362833.718   112262372.480         685.457          35.000                                                                  
G32  21434147.448   112637209.612         798.864          27.000    21434140.253    84112171.092         595.960          29.000  
> 2021 09 12 11 01 15.9997862  0 11                     
C03  36476760.464   189943809.423        -365.246          44.000  
C08  38467315.232   200309377.364       -2201.132          23.000  
C09  37724391.447   196440766.819        -378.860          35.000  
C23  23265316.357   121148535.8021       1379.736          21.000  
C25  21993386.895   114525310.381       -1242.462          26.000  
C33  22455370.970   116931079.217       -1309.855          24.000  
G10  20294365.003   106647581.621       -1331.711          45.000    20294369.201    79639464.398        -995.580          32.000  
G23  22060521.819   115928760.084       -3342.070          24.000                                                                  
G25  20908773.457   109876338.455       -1292.577          25.000    20908769.260    82050529.081        -964.853          26.000  
G31  21362605.876   112261215.021         682.428          32.000                                                                  
G32  21433904.916   112635938.121         798.825          31.000    21433898.621    84111222.418         595.448          31.000  
> 2021 09 12 11 01 16.9997860  0 10                     
C03  36476770.357   189943862.222        -365.257          43.000  
C08  38467676.482   200311266.370       -2201.148          22.000  
C09  37724406.737   196440834.008        -380.538          36.000  
C25  21993567.370   114526240.308       -1240.699          26.000  
C33  22455563.137   116932076.681       -1310.026          24.000  
G10  20294558.370   106648597.726       -1332.004          45.000    20294562.267    79640223.181        -994.085          31.000  
G23  22061099.519   115931787.248       -3342.539          23.000                                                                  
G25  20908957.830   109877316.840       -1294.187          23.000    20908954.532    82051258.584        -964.310          25.000  
G31  21362408.912   112260215.741         684.088          32.000                                                                  
G32  21433694.162   112634824.057         799.278          33.000    21433687.267    84110391.190         596.737          31.000  
> 2021 09 12 11 01 17.9997857  0 10                     
C03  36476750.271   189943758.912        -365.149          44.000  
C09  37724387.550   196440744.860        -379.224          37.000  
C23  23264625.935   121144998.3121       1376.451          18.000  
C25  21993717.866   114527012.598       -1241.170          27.000  
C33  22455727.723   116932918.885       -1310.018          24.000  
G10  20294722.056   106649456.849       -1332.957          46.000    20294725.654    79640864.701        -995.414          31.000  
G12  23077937.976   121275505.8421      -2800.868          16.000                                                                  
G23  22061649.038   115934657.414       -3343.071          24.000                                                                  
G25  20909111.024   109878138.460       -1294.425          23.000    20909111.024    82051870.476        -966.634          25.000  
G32  21433441.137                         798.706          34.000    21433445.634    84109442.164         595.676          31.000  
> 2021 09 12 11 01 18.9997855  0 12                     
C03  36476761.064   189943811.773        -365.250          44.000  
C08  38468366.004   200314883.0041      -2198.221          21.000  
C09  37724400.141   196440811.730        -378.204          36.000  
C23  23264299.161   121143311.337        1374.073          18.000  
C25  21993898.941   114527941.690       -1240.469          27.000  
C33  22455921.689   116933916.631       -1310.259          25.000  
G10  20294916.022   106650474.159       -1333.611          46.000    20294919.620    79641624.415        -994.433          30.000  
G12  23078405.652   121277990.309       -2798.526          14.000                                                                  
G23  22062228.237   115937685.086       -3342.572          26.000                                                                  
G25  20909296.295   109879118.288       -1295.097          25.000    20909297.794    82052603.825        -969.615          24.000  
G31  21362004.792   112258060.6961        684.046          33.000                                                                  
G32  21433234.281                         798.331          34.000    21433233.681    84108611.594         596.161          31.000  
> 2021 09 12 11 01 19.9997855  0 11                     
C03  36476831.215   189944177.004        -365.255          43.000  
C08  38468789.911   200317082.124       -2199.619          25.000  
C09  37724477.787   196441190.742        -378.915          35.000  
C23  23264033.245   121141936.909        1374.583          20.000  
C25  21994140.274   114529181.569       -1239.365          27.000  
G10  20295169.646   106651807.093       -1333.315          45.000    20295172.644    79642619.689        -994.184          30.000  
G12  23078930.589   121280789.060       -2803.441          11.000                                                                  
G23  22062864.697   115941027.841       -3342.650          27.000                                                                  
G25  20909541.825   109880413.594       -1295.061          27.000    20909544.524    82053573.728        -968.987          25.000  
G31  21361872.583   112257377.447         681.075          33.000                                                                  
G32                                                                  21433081.087    84108013.803         597.595          31.000  
> 2021 09 12 11 01 20.9997852  0 11                     
C03  36476810.530   189944073.694        -364.845          43.000  
C08  38469123.280   200318813.607       -2199.566          26.000  
C09  37724457.402   196441101.271        -376.515          35.000  
C23  23263676.492   121140094.110        1373.969          31.000  
C25  21994289.270   114529953.140       -1240.667          24.000  
C33  22456347.694   116936073.9231      -1314.161          27.000  
G10  20295332.434   106652667.994       -1332.857          43.000    20295337.230    79643262.654        -995.022          30.000  
G23  22063411.818   115943898.134       -3343.666          28.000                                                                  
G25  20909696.818   109881237.081       -1298.915          26.000    20909700.416    82054189.500        -968.683          24.000  
G31  21361646.840   112256221.973         683.703          33.000                                                                  
G32  21432846.649   112630309.1671        796.093          31.000    21432839.454    84107064.094         596.588          31.000  
> 2021 09 12 11 01 21.9997850  0 11                     
C03  36476820.423   189944126.145        -364.589          43.000  
C08  38469486.629   200320701.934       -2201.293          24.000  
C09  37724473.590   196441167.627        -378.514          35.000  
C23  23263349.718   121138407.690        1375.331          32.000  
C25  21994472.144   114530882.917       -1242.258          25.000  
C33  22456543.159   116937075.694       -1314.773          29.000  
G10  20295526.999   106653687.047       -1333.437          44.000    20295531.196    79644023.761        -996.988          31.000  
G23  22063988.019   115946926.861       -3344.360          28.000                                                                  
G25  20909884.188   109882221.983       -1300.903          23.000    20909888.086    82054922.828        -968.849          25.000  
G31  21361458.270   112255224.441         682.921          33.000                                                                  
G32  21432634.396   112629195.515         798.805          29.000    21432627.801    84106232.331         596.827          31.000  
> 2021 09 12 11 01 22.9997847  0 10                     
C03  36476800.337   189944022.247        -364.895          43.000  
C08  38469820.897   200322435.970       -2203.877          24.000  
C09  37724453.804   196441077.834        -379.701          32.000  
C23  23262996.563   121136564.784        1373.600          26.000  
C25  21994620.841   114531657.316       -1243.793          26.000  
C33  22456707.145   116937921.479       -1313.887          28.000  
G10  20295690.386   106654549.176       -1335.560          44.000    20295694.583    79644667.337        -995.821          29.000  
G23  22064533.641   115949798.604       -3344.955          28.000                                                                  
G25  20910041.579   109883051.237       -1304.231          22.000    20910045.777    82055538.065        -970.663          23.000  
G32  21432390.964   112627923.574         799.223          30.000    21432385.568                         595.849          31.000  
> 2021 09 12 11 01 23.9997844  0 10                     
C03  36476782.349   189943918.838        -365.394          42.000  
C08  38470154.566   200324170.870       -2202.211          26.000  
C09  37724433.418   196440988.583        -381.725          35.000  
C23  23262643.107   121134723.874        1371.634          27.000  
C33  22456869.633   116938767.207       -1313.668          31.000  
G10  20295854.672   106655412.015       -1336.680          44.000    20295857.970    79645310.402        -998.183          30.000  
G23  22065081.062   115952672.188       -3347.998          26.000                                                                  
G25  20910198.071   109883881.979       -1303.576          23.000    20910203.467    82056155.150        -971.047          24.000  
G31  21361023.871   112252915.4701        680.131          35.000                                                                  
G32  21432149.931   112626652.067         798.440          37.000    21432143.036    84104336.1161        596.509          29.000  
> 2021 09 12 11 01 24.9997842  0  8                     
C03  36476793.142   189944234.118        -365.660          43.000  
C08  38470520.613   200326060.084       -2200.274          28.000  
C33  22457062.999   116939769.075       -1314.448          31.000  
G10  20296050.437   106656433.161       -1335.203          45.000    20296052.235    79646072.570        -998.683          29.000  
G23  22065658.463   115955704.293       -3347.337          24.000                                                                  
G25  20910385.741   109884871.095       -1304.804          24.000    20910390.238    82056890.551        -970.119          25.000  
G31  21360835.301   112251919.183         680.531          36.000                                                                  
G32                                                                  21431931.383    84103504.531         595.269          30.000  
> 2021 09 12 11 01 25.9997839  0  8                     
C03  36476772.456   189944130.964        -364.981          42.000  
C08  38470855.181   200327793.026       -2200.847          25.000  
C33  22457224.887   116940614.885       -1314.288          31.000  
G10  20296214.723   106657297.295       -1337.405          44.000    20296216.522    79646718.225        -998.950          29.000  
G23  22066205.884   115958578.875       -3347.909          24.000                                                                  
G25  20910544.931   109885701.118       -1301.601          25.000    20910545.531    82057506.955        -970.510          24.000  
G31  21360616.453   112250765.657         680.561          36.000                                                                  
G32  21431704.140                         799.787          36.000    21431690.050    84102555.297         596.018          31.000  
> 2021 09 12 11 01 26.9997837  0  8                     
C03  36476780.550   189944183.144        -364.250          41.000  
C23  23261650.195   121129519.1321       1370.775          24.000  
C33  22457418.253   116941617.064       -1314.527          34.000  
G10  20296407.789   106658319.477       -1338.086          44.000    20296411.087    79647482.012        -999.568          30.000  
G23  22066786.582   115961610.795       -3347.998          25.000                                                                  
G25  20910732.901   109886686.441       -1299.921          26.000    20910733.201    82058241.705        -968.993          24.000  
G31  21360425.485   112249769.969         680.329          36.000                                                                  
G32  21431494.285                         798.274          35.000    21431477.797    84101723.586         597.002          31.000  
> 2021 09 12 11 01 27.9997834  0 13                     
C03  36476761.064   189944079.209        -365.077          41.000  
C06  36701115.846   191112312.9221       -271.119          30.000  
C08  38471553.698   200331415.4981      -2201.531          18.000  
C09  37724420.227   196440944.4221       -378.974          21.000  
C16  37337159.123   194424385.7201       -231.609          35.000  
C23  23261298.238   121127679.214        1372.635          25.000  
C25  21995425.484   114535858.7721      -1246.082          24.000  
C33  22457580.740   116942463.752       -1315.693          30.000  
G10  20296572.076   106659185.060       -1338.921          44.000    20296576.572    79648128.678        -999.876          28.000  
G23  22067337.600   115964485.027       -3346.656          19.000                                                                  
G25  20910893.590   109887514.908       -1301.904          24.000    20910891.491    82058856.948        -968.498          23.000  
G31  21360204.538   112248617.383         679.720          36.000                                                                  
G32  21431249.055   112621981.4001        799.018          36.000    21431236.164    84100774.589         596.978          30.000  
> 2021 09 12 11 01 28.9997832  0  9                     
C03  36476770.657   189944132.195        -365.698          41.000  
C06  36701107.152   191112271.144        -269.474          30.000  
C09  37724431.919   196441009.954        -376.761          25.000  
C16  37337145.932   194424305.892        -233.394          34.000  
C33  22457774.706   116943467.590       -1316.370          28.000  
G10  20296767.540   106660208.742       -1339.355          44.000    20296771.737    79648893.570       -1000.563          30.000  
G25  20911085.157   109888501.787       -1302.874          24.000    20911079.461    82059589.904        -968.394          23.000  
G31  21360012.671   112247622.737         679.266          38.000                                                                  
G32  21431034.104   112620868.068         795.206          37.000    21431024.211    84099943.181         595.629          31.000  
> 2021 09 12 11 01 29.9997832  0 11                     
C03  36476841.408   189944497.587        -365.144          41.000  
C06  36701158.417   191112540.690        -269.696          32.000  
C08  38472332.858   200335505.2841      -2199.885          25.000  
C16  37337191.200   194424538.165        -231.731          35.000  
C23  23260717.540   121124621.0421       1372.828          23.000  
C33  22458027.431   116944784.010       -1316.591          29.000  
G10  20297022.963   106661548.252       -1339.922          44.000    20297027.160    79649894.350        -999.947          30.000  
G23  22068545.164   115970865.2621      -3349.522          20.000                                                                  
G25  20911335.184   109889804.721       -1303.547          25.000    20911328.289    82060560.291        -970.644          24.000  
G31  21359883.760   112246943.643         678.196          38.000                                                                  
G32  21430884.807   112620069.974         798.765          35.000    21430873.415    84099347.224         593.908          31.000  
> 2021 09 12 11 01 30.9997829  0 11                     
C03  36476821.022   189944394.198        -364.860          41.000  
C06  36701120.643   191112341.907        -269.848          33.000  
C08  38472666.827   200337237.345       -2201.098          28.000  
C16  37337144.433   194424302.244        -232.129          34.000  
C23  23260365.584   121122780.618        1371.846          24.000  
C25  21995972.905   114538814.4831      -1243.905          24.000  
C33  22458191.418   116945632.230       -1316.904          31.000  
G10  20297186.650   106662415.939       -1340.223          44.000    20297191.747    79650541.569       -1001.092          30.000  
G25  20911493.774   109890634.912       -1301.803          23.000    20911486.579    82061179.456        -972.470          25.000  
G31  21359666.710   112245792.496         679.776          36.000                                                                  
G32  21430642.875   112618799.465         798.159          36.000    21430630.883    84098398.484         597.593          31.000  
> 2021 09 12 11 01 31.9997829  0 13                     
C03  36476891.474   189944759.090        -365.353          41.000  
C06  36701171.308   191112610.553        -268.478          32.000  
C08  38473089.834   200339438.156       -2200.868          28.000  
C09  37724560.530   196441673.8931       -378.827          21.000  
C16  37337187.303   194424534.224        -231.346          34.000  
C23  23260102.666   121121409.647        1369.570          27.000  
C25  21996207.942   114540059.406       -1245.526          20.000  
C33  22458444.442   116946949.309       -1317.848          30.000  
G10  20297442.973   106663756.652       -1341.463          44.000    20297447.170    79651542.206       -1000.182          29.000  
G23  22069719.451   115977091.9991      -3347.829          19.000                                                                  
G25  20911741.403   109891937.066       -1302.596          24.000    20911734.208    82062152.789        -973.241          26.000  
G31  21359540.198   112245114.089         677.921          35.000                                                                  
G32  21430488.182   112618001.458         796.615          37.000    21430477.989    84097802.591         596.363          30.000  
> 2021 09 12 11 01 32.9997827  0 10                     
C03  36476902.566   189944812.464        -365.684          41.000  
C06  36701162.914   191112567.587        -270.245          31.000  
C08  38473453.183   200341327.027       -2201.865          29.000  
C16  37337168.416   194424454.087        -231.540          34.000  
C23  23259785.486   121119727.698        1368.340          25.000  
C25  21996388.717   114540992.803       -1246.386          26.000  
C33  22458637.509   116947954.346       -1317.772          31.000  
G10  20297639.636   106664782.977       -1342.576          44.000    20297642.335    79652308.055       -1001.850          29.000  
G25  20911930.872   109892925.065       -1304.142          24.000    20911923.676    82062892.001        -975.545          26.000  
G32  21430273.530   112616888.514         796.613          38.000    21430266.635    84096971.463         596.385          28.000  
> 2021 09 12 11 01 33.9997824  0 11                     
C03  36476883.079   189944709.333        -364.997          42.000  
C06  36701127.838   191112369.033        -268.484          32.000  
C08  38473786.552   200343060.590       -2201.261          29.000  
C16  37337128.844   194424217.668        -232.696          35.000  
C23  23259435.328   121117891.796        1366.576          24.000  
C25  21996537.714   114541771.729       -1248.725          24.000  
C33  22458801.495   116948804.060       -1318.440          30.000  
G10  20297803.923   106665652.414       -1342.620          44.000    20297807.820    79652957.225       -1001.875          30.000  
G25  20912089.162   109893757.423       -1305.904          26.000    20912083.166    82063514.101        -975.488          26.000  
G31  21359128.283   112242970.7951        677.122          35.000                                                                  
G32  21430032.197   112615618.032         797.732          37.000    21430024.703    84096022.753         596.406          31.000  
> 2021 09 12 11 01 34.9997821  0 11                     
C03  36476863.893   189944605.616        -364.550          41.000  
C06  36701089.165   191112168.582        -268.881          32.000  
C08  38474120.221   200344793.408       -2201.069          28.000  
C09  37724535.048   196441557.9041       -377.494          18.000  
C16  37337085.074   194423981.150        -231.942          35.000  
C23  23259086.070   121116056.304        1367.757          25.000  
C25  21996688.509   114542551.789       -1247.582          28.000  
C33  22458966.081   116949655.057       -1319.593          29.000  
G10  20297969.708   106666522.462       -1342.389          44.000    20297974.205    79653607.294       -1003.726          30.000  
G25  20912247.153   109894591.139       -1306.825          26.000    20912241.157    82064137.083        -974.237          26.000  
G32  21429788.166   112614347.730         796.671          36.000    21429782.770    84095074.169         597.131          30.000  
> 2021 09 12 11 01 35.9997819  0 11                     
C03  36476874.685   189944657.738        -364.221          42.000  
C06  36701080.471   191112125.489        -269.928          31.000  
C08  38474484.169   200346682.500       -2201.411          28.000  
C09  37724543.742   196441620.378        -374.420          17.000  
C16  37337070.384   194423900.669        -231.445          35.000  
C23  23258765.292   121114375.920        1368.173          27.000  
C25  21996866.886   114543487.064       -1248.274          24.000  
C33  22459161.546   116950662.239       -1319.348          30.000  
G10  20298166.672   106667550.800       -1343.978          44.000    20298169.969    79654375.566       -1003.653          30.000  
G25  20912434.223   109895582.940       -1307.154          27.000    20912428.527    82064875.684        -975.275          25.000  
G32  21429577.412   112613234.999         799.122          35.000    21429571.416    84094243.232         596.103          31.000  
> 2021 09 12 11 01 36.9997816  0 12                     
C03  36476853.700   189944554.044        -364.988          42.000  
C06  36701042.097   191111927.229        -270.385          32.000  
C08  38474817.238   200348415.160       -2201.113          28.000  
C16  37337023.017   194423664.090        -234.653          34.000  
C23  23258413.036   121112540.152        1367.733          27.000  
C25  21997019.480   114544267.006       -1248.326          26.000  
C33  22459328.530   116951513.267       -1319.790          29.000  
G10  20298330.958   106668422.134       -1343.960          44.000    20298335.455    79655025.789       -1003.062          30.000  
G23  22072521.911   115991787.0001      -3350.663          23.000                                                                  
G25  20912592.214   109896417.624       -1307.829          27.000                                                                  
G31  21358498.419   112239680.3531        676.386          33.000                                                                  
G32  21429335.180   112611964.896         795.778          36.000    21429328.884    84093294.748         595.815          31.000  
> 2021 09 12 11 01 37.9997814  0 10                     
C03  36476863.293   189944606.847        -365.026          42.000  
C06  36701034.902   191111885.269        -269.671          29.000  
C08  38475179.987   200350303.950       -2201.126          28.000  
C16  37336999.333   194423583.501        -230.715          31.000  
C25  21997199.656   114545202.246       -1247.906          30.000  
C33  22459520.697   116952521.060       -1320.126          32.000  
G10  20298527.922   106669451.659       -1344.302          44.000    20298531.519    79655794.350       -1004.212          30.000  
G23  22073094.515   115994822.827       -3351.375          25.000                                                                  
G25  20912781.083   109897410.187       -1307.947          26.000                                                                  
G32  21429116.631   112610852.348         798.084          35.000    21429115.432    84092463.920         594.207          31.000  
> 2021 09 12 11 01 38.9997814  0 12                     
C03  36476934.044   189944971.486        -364.679          42.000  
C06  36701086.467   191112154.688        -269.898          28.000  
C08  38475601.196   200352504.899       -2201.119          30.000  
C09  37724618.990   196441966.4501       -377.626          30.000  
C16  37337040.105   194423814.696        -230.805          28.000  
C25  21997440.689   114546450.410       -1248.286          32.000  
C33  22459769.825   116953840.710       -1316.963          36.000  
G10  20298784.544   106670796.904       -1345.100          45.000    20298787.242    79656798.156       -1004.509          29.000  
G23  22073730.974   115998174.141       -3351.424          26.000                                                                  
G25  20913029.311   109898718.125       -1308.373          23.000                                                                  
G31  21358170.746   112238013.6131        671.533          28.000                                                                  
G32                                                                  21428963.737    84091868.375         595.368          32.000  
> 2021 09 12 11 01 39.9997811  0 12                     
C03  36476913.658   189944867.626        -364.714          43.000  
C06  36701049.592   191111955.824        -269.493          31.000  
C08  38475933.066   200354237.506       -2201.112          29.000  
C16  37336996.036   194423577.151        -231.254          32.000  
C23  23257466.891   121107657.3961       1368.022          27.000  
C25  21997592.384   114547230.430       -1248.779          33.000  
C33  22459931.413   116954690.404       -1319.366          31.000  
G10  20298949.730   106671670.031       -1345.499          45.000    20298952.727    79657449.064       -1003.173          29.000  
G23  22074277.196   116001052.923       -3351.366          30.000                                                                  
G25  20913189.400   109899554.019       -1308.790          26.000                                                                  
G31  21357957.594   112236866.499         676.116          30.000                                                                  
G32  21428722.404   112608784.6631        796.209          33.000    21428722.404    84090919.968         594.503          32.000  
> 2021 09 12 11 01 40.9997809  0 12                     
C03  36476924.451   189944920.024        -364.947          41.000  
C06  36701041.797   191111912.167        -268.155          30.000  
C08  38476295.215   200356126.448       -2200.424          30.000  
C16  37336981.645   194423496.308        -231.515          32.000  
C23  23257144.014   121105977.556        1367.269          25.000  
C25  21997772.259                       -1250.499          33.000  
C33  22460123.580   116955698.462       -1321.106          33.000  
G10  20299145.194   106672701.413       -1347.783          45.000    20299148.792    79658218.125       -1004.936          29.000  
G23  22074854.596   116004089.397       -3351.671          28.000                                                                  
G25  20913377.670   109900547.993       -1308.997          25.000                                                                  
G31  21357765.726   112235875.495         675.327          26.000                                                                  
G32  21428513.149   112607670.427         797.344          33.000    21428510.451    84090089.235         594.467          32.000  
> 2021 09 12 11 01 41.9997806  0 12                     
C03  36476903.765   189944816.527        -365.080          42.000  
C06  36701002.225   191111711.655        -267.703          31.000  
C08  38476627.085   200357858.621       -2200.956          29.000  
C16  37336942.972   194423258.124        -230.537          32.000  
C23  23256790.859   121104141.971        1367.222          27.000  
C25  21997919.457                       -1249.474          34.000  
C33  22460286.967   116956551.778       -1321.516          31.000  
G10  20299312.179   106673576.022       -1347.389          45.000    20299315.177    79658869.906       -1005.603          31.000  
G23  22075403.216   116006968.457       -3351.822          29.000                                                                  
G25  20913537.459   109901384.777       -1310.284          24.000                                                                  
G31  21357546.278   112234727.659         674.876          27.000                                                                  
G32  21428271.816   112606400.586         797.019          29.000    21428269.418    84089140.969         595.218          32.000  
> 2021 09 12 11 01 42.9997804  0 12                     
C03  36476913.358   189944869.152        -365.356          42.000  
C06  36700993.531   191111667.056        -267.604          32.000  
C08  38476990.734   200359747.330       -2202.021          28.000  
C16  37336928.882                        -232.501          32.000  
C23  23256467.982   121102462.958        1366.367          28.000  
C25  21998102.331   114549893.0141      -1250.640          33.000  
C33  22460485.130   116957561.277       -1322.207          28.000  
G10  20299508.842   106674608.850       -1348.923          44.000    20299512.140    79659641.144       -1007.059          30.000  
G23  22075981.216   116010005.297       -3352.242          31.000                                                                  
G25  20913725.429   109902380.568       -1311.245          28.000                                                                  
G31  21357355.311   112233737.858         674.151          25.000                                                                  
G32  21428059.863   112605288.624         796.664          34.000    21428057.165    84088310.560         594.119          32.000  
> 2021 09 12 11 01 43.9997801  0 12                     
C03  36476894.172   189944766.299        -365.526          42.000  
C06  36700953.958   191111466.056        -267.779          30.000  
C08  38477325.302   200361480.634       -2201.030          22.000  
C16  37336881.815   194422949.4811       -229.916          31.000  
C23  23256113.628   121100628.380        1366.062          28.000  
C25  21998254.026   114550674.924       -1251.076          35.000  
C33  22460649.116   116958414.745       -1321.511          29.000  
G10  20299676.127   106675484.626       -1348.760          45.000    20299679.724    79660295.542       -1007.969          32.000  
G23  22076528.637   116012885.034       -3352.583          30.000                                                                  
G25  20913883.420   109903219.411       -1311.866          27.000                                                                  
G31  21357131.066   112232591.556         673.005          24.000                                                                  
G32  21427818.530   112604018.571         799.918          33.000    21427815.832    84087362.346         594.212          33.000  
> 2021 09 12 11 01 44.9997798  0 11                     
C03  36476874.385   189944662.647        -364.485          42.000  
C06  36700914.685   191111265.317        -267.855          29.000  
C08  38477658.671   200363214.694       -2202.555          22.000  
C16  37336836.246   194422711.865        -231.026          32.000  
C23  23255761.072   121098794.440        1364.879          30.000  
C25  21998402.123   114551457.428       -1251.621          35.000  
G10  20299843.411   106676361.036       -1349.513          45.000    20299846.109    79660950.634       -1007.217          30.000  
G23  22077077.557   116015765.189       -3353.134          31.000                                                                  
G25  20914042.310   109904058.636       -1312.238          30.000                                                                  
G31  21356913.117   112231445.831         672.943          23.000                                                                  
G32  21427576.597   112602747.169         798.029          32.000    21427573.599    84086414.286         595.323          32.000  
> 2021 09 12 11 01 45.9997796  0 13                     
C03  36476885.178   189944714.933        -365.072          41.000  
C06  36700908.390   191111221.347        -268.290          31.000  
C08  38478021.420   200365104.973       -2202.904          23.000  
C13  37498091.312   195262454.7911      -2035.955          25.000  
C16  37336821.556   194422628.091        -224.577          30.000  
C23  23255438.195   121097117.534        1364.065          27.000  
C25  21998583.498   114552396.271       -1249.080          35.000  
C33  22461010.966   116960277.7721      -1321.767          23.000  
G10  20300040.374   106677395.622       -1349.736          45.000    20300043.073    79661722.748       -1007.699          29.000  
G23  22077654.358   116018803.246       -3353.294          31.000                                                                  
G25  20914235.076   109905055.882       -1312.782          27.000                                                                  
G31  21356729.344   112230458.146         672.782          26.000                                                                  
G32                                                                  21427361.047    84085583.803         595.493          33.000  
> 2021 09 12 11 01 46.9997796  0 11                     
C03  36476955.629   189945080.022        -365.442          42.000  
C06  36700962.352   191111489.286        -268.184          27.000  
C08  38478442.329   200367307.378       -2201.031          20.000  
C13  37498483.440   195264491.114       -2036.625          25.000  
C16  37336867.724   194422859.052        -231.405          30.000  
C23  23255175.277   121095753.323        1364.255          22.000  
C25  21998824.830   114553647.695       -1250.071          31.000  
G10  20300295.198   106678745.979       -1349.926          44.000    20300299.695    79662731.510       -1009.731          30.000  
G23  22078291.717   116022156.764       -3353.894          29.000                                                                  
G25  20914485.103   109906368.904       -1313.692          23.000                                                                  
G32  21427210.851   112600838.6551        796.609          31.000    21427208.752    84084988.778         595.321          31.000  
> 2021 09 12 11 01 47.9997796  0 13                     
C03  36477025.781   189945445.220        -365.228          42.000  
C06  36701016.915   191111757.468        -268.087          28.000  
C08  38478864.436   200369508.502       -2200.261          25.000  
C09  37724730.513   196442554.8231       -375.051          23.000  
C13  37498875.269   195266528.958       -2037.768          23.000  
C16  37336910.295   194423090.792        -231.824          28.000  
C23  23254912.059   121094388.667        1364.850          28.000  
C25  21999067.063   114554899.459       -1249.800          34.000  
G10  20300553.319   106680096.883       -1351.279          45.000    20300557.516    79663741.713       -1010.488          30.000  
G23  22078930.574   116025510.700       -3354.151          28.000                                                                  
G25  20914735.130   109907682.999       -1314.303          27.000                                                                  
G31  21356478.717   112229113.0481        672.136          27.000                                                                  
G32  21427058.856   112600041.720         796.900          29.000    21427057.357    84084393.805         594.535          32.000  
> 2021 09 12 11 01 48.9997793  0 13                     
C03  36477004.795   189945341.939        -365.069          42.000  
C06  36700977.342   191111557.044        -268.316          29.000  
C08  38479196.906   200371240.761       -2200.539          25.000  
C09  37724714.923   196442461.285        -374.836          26.000  
C16  37336862.628   194422853.805        -230.943          32.000  
C23  23254559.803   121092556.032        1364.746          25.000  
C25  21999219.058   114555683.415       -1252.908          36.000  
C33  22461682.201   116963781.8901      -1325.640          25.000  
G10  20300720.604   106680975.930       -1351.797          45.000    20300724.201    79664398.844       -1009.263          30.000  
G23  22079480.394   116028392.326       -3354.503          31.000                                                                  
G25  20914896.119   109908525.743       -1316.151          24.000                                                                  
G31  21356261.668   112227968.716         671.801          27.000                                                                  
G32                                                                  21426816.624    84083445.869         595.415          32.000  
> 2021 09 12 11 01 49.9997791  0 10                     
C03  36477014.688   189945394.357        -364.617          42.000  
C06  36700968.648   191111512.185        -266.834          29.000  
C08  38479560.854   200373128.980       -2201.322          25.000  
C13  37499502.734   195269816.5701      -2034.926          18.000  
C16  37336845.240   194422772.049        -229.908          31.000  
C23  23254236.327   121090880.262        1362.743          21.000  
C25  21999399.533   114556623.755       -1254.461          37.000  
C33  22461872.869   116964796.369       -1326.994          27.000  
G10  20300917.867   106682013.090       -1353.711          45.000    20300921.764    79665174.049       -1010.880          28.000  
G32                                                                  21426604.370    84082615.703         596.455          32.000  
> 2021 09 12 11 01 50.9997788  0 11                     
C03  36476995.801   189945290.977        -365.240          42.000  
C06  36700929.375   191111310.768        -267.145          30.000  
C08  38479896.322   200374861.287       -2200.474          27.000  
C16  37336799.971   194422532.536        -230.010          31.000  
C25  21999549.729   114557408.387       -1253.364          38.000  
C33  22462036.556   116965654.084       -1325.060          25.000  
G10  20301084.252   106682893.453       -1353.494          45.000    20301089.048    79665831.625       -1010.166          30.000  
G23  22080611.211   116034313.8961      -3353.161          32.000                                                                  
G25  20915248.974   109910368.2561      -1316.826          21.000                                                                  
G31  21355862.944   112225839.6271        669.208          27.000                                                                  
G32                                                                  21426364.237    84081668.016         594.807          33.000  
> 2021 09 12 11 01 51.9997786  0 13                     
C03  36477005.694   189945343.521        -364.559          43.000  
C06  36700920.382   191111265.594        -267.072          32.000  
C08  38480259.371   200376751.565       -2203.548          25.000  
C09  37724725.416   196442493.7131       -376.214          28.000  
C13  37500139.793   195273107.0521      -2035.028          19.000  
C16  37336783.782   194422450.631        -229.911          34.000  
C25  21999731.403   114558349.555       -1256.084          36.000  
C33  22462231.121   116966665.600       -1323.584          24.000  
G10  20301282.115   106683932.001       -1354.135          45.000    20301286.312    79666606.982       -1011.063          30.000  
G23  22081188.012   116037353.032       -3354.201          31.000                                                                  
G25  20915436.944   109911370.046       -1318.573          22.000                                                                  
G31  21355680.670   112224855.854         668.699          30.000                                                                  
G32                                                                  21426152.283    84080838.007         595.850          32.000  
> 2021 09 12 11 01 52.9997783  0 12                     
C03  36476987.107   189945239.557        -364.405          43.000  
C06  36700880.809   191111064.566        -267.556          29.000  
C08  38480592.440   200378486.298       -2202.818          28.000  
C09  37724708.028   196442401.583        -376.185          27.000  
C13  37500440.785   195274675.719       -2037.673          19.000  
C16  37336737.914   194422211.928        -229.546          30.000  
C25  21999881.299   114559134.964       -1254.859          33.000  
C33  22462393.908   116967521.373       -1325.534          24.000  
G10  20301449.999   106684813.709       -1354.781          46.000    20301453.896    79667264.981       -1010.961          32.000  
G23  22081736.632   116040235.271       -3356.185          31.000                                                                  
G31  21355466.019   112223714.686         668.556          29.000                                                                  
G32                                                                  21425910.051    84079890.521         593.335          32.000  
> 2021 09 12 11 01 53.9997780  0 11                     
C03  36476967.321   189945135.554        -364.952          42.000  
C06  36700840.337   191110863.493        -267.316          34.000  
C08  38480925.809   200380220.769       -2201.895          26.000  
C13  37500741.477   195276245.556       -2039.743          20.000  
C16  37336691.446   194421972.857        -229.413          35.000  
C25  22000034.193   114559920.719       -1254.413          33.000  
G10  20301617.882   106685695.973       -1356.388          46.000    20301620.581    79667923.208       -1012.068          29.000  
G23  22082283.153   116043118.421       -3355.962          32.000                                                                  
G25  20915761.919   109913066.1641      -1322.413          25.000                                                                  
G31  21355250.768   112222573.167         669.837          26.000                                                                  
G32  21425658.825   112592739.9851        796.528          29.000    21425669.618    84078942.941         596.941          33.000  
> 2021 09 12 11 01 54.9997778  0 12                     
C03  36476977.214   189945188.562        -365.625          43.000  
C06  36700828.945   191110818.781        -267.981          32.000  
C08  38481288.258   200382111.283       -2202.961          27.000  
C13  37501073.347   195277974.902       -2043.031          20.000  
C16  37336675.857   194421890.714        -230.516          35.000  
C25  22000215.268   114560863.571       -1254.881          35.000  
C33  22462757.856   116969393.1921      -1325.808          22.000  
G10  20301815.745   106686737.062       -1356.563          47.000    20301818.444    79668700.344       -1013.087          28.000  
G23  22082861.453   116046160.569       -3358.520          31.000                                                                  
G25  20915953.487   109914074.395       -1324.434          24.000    20915946.591    82078679.5921       -985.521          25.000  
G31  21355063.997   112221588.735         670.075          24.000                                                                  
G32  21425447.771   112591629.039         795.216          34.000    21425458.264    84078113.600         595.303          31.000  
> 2021 09 12 11 01 55.9997775  0 12                     
C03  36476956.828   189945085.969        -366.132          43.000  
C06  36700788.173                        -268.917          31.000  
C08  38481621.328   200383845.986       -2203.113          26.000  
C09  37724693.038   196442280.8881       -375.954          26.000  
C13  37501377.037   195279547.861       -2040.694          21.000  
C16  37336632.087   194421652.929        -230.260          36.000  
C23  23252153.969   121080204.7111       1359.950          23.000  
C25  22000368.762   114561650.959       -1256.785          35.000  
G10  20301983.629   106687621.573       -1358.292          46.000    20301987.227    79669361.152       -1014.366          28.000  
G25  20916116.574   109914926.550       -1326.097          23.000    20916108.180    82079311.446        -984.029          25.000  
G31  21354847.247   112220447.446         667.612          26.000                                                                  
G32  21425207.338   112590361.971         793.811          35.000    21425216.331    84077166.901         593.436          31.000  
> 2021 09 12 11 01 56.9997775  0 12                     
C03  36477027.579   189945452.081        -366.472          42.000  
C06  36700846.033                        -267.135          32.000  
C08  38482044.335   200386049.206       -2203.159          25.000  
C13  37501766.467   195281589.271       -2040.447          20.000  
C16  37336677.956                        -230.037          36.000  
C25  22000604.099   114562907.033       -1256.852          35.000  
C33  22463182.362   116971580.6341      -1329.106          25.000  
G10  20302243.249   106688979.350       -1358.432          47.000    20302245.948    79670375.597       -1014.244          28.000  
G23  22084051.629   116052405.9521      -3358.590          31.000                                                                  
G25  20916368.999   109916253.379       -1327.364          23.000    20916360.905    82080296.562        -986.323          26.000  
G31  21354720.135   112219779.387         667.735          30.000                                                                  
G32  21425062.238   112589566.855         795.536          33.000    21425064.337    84076573.169         592.023          32.000  
> 2021 09 12 11 01 57.9997773  0 10                     
C03  36477037.472   189945506.174        -366.583          43.000  
C06  36700838.838   191110860.1871       -269.273          29.000  
C08  38482407.384   200387941.102       -2203.887          25.000  
C16  37336664.765   194421799.2091       -231.000          35.000  
C25  22000784.574   114563851.466       -1257.248          34.000  
C33  22463377.527   116972598.302       -1330.064          29.000  
G10  20302439.614   106690022.880       -1358.712          46.000    20302444.710    79671154.507       -1013.382          28.000  
G25  20916560.267   109917264.478       -1324.182          24.000    20916552.772    82081048.182        -987.399          25.000  
G31  21354534.264   112218796.753         667.189          31.000                                                                  
G32  21424851.784   112588456.095         795.723          32.000    21424853.283    84075744.365         591.601          31.000  
> 2021 09 12 11 01 58.9997770  0 14                     
C03  36477018.586   189945404.238        -366.603          42.000  
C06  36700800.764   191110660.717        -268.696          30.000  
C08  38482739.854   200389676.286       -2203.760          29.000  
C09  37724759.293   196442629.0761       -375.898          27.000  
C13  37502396.631   195284891.3931      -2042.487          20.000  
C16  37336615.899   194421561.673        -230.702          34.000  
C23  23251210.222   121075346.5681       1357.387          18.000  
C25  22000935.969   114564640.430       -1258.834          34.000  
C33  22463543.612   116973460.074       -1330.650          28.000  
G10  20302609.596   106690909.786       -1359.870          46.000    20302613.793    79671816.228       -1015.330          30.000  
G23  22085181.847   116058334.4381      -3359.272          30.000                                                                  
G25  20916726.651   109918116.023       -1324.545          24.000    20916715.259    82081684.135        -990.248          24.000  
G31  21354316.015   112217657.488         665.720          32.000                                                                  
G32  21424615.547   112587188.198         794.436          35.000    21424612.250    84074798.180         593.624          32.000  
> 2021 09 12 11 01 59.9997768  0 13                     
C03  36477027.579   189945458.660        -367.104          42.000  
C06  36700791.771   191110617.328        -269.279          31.000  
C08  38483102.303   200391568.014       -2204.374          29.000  
C09  37724770.984   196442693.410        -377.133          28.000  
C13  37502728.801   195286620.174       -2039.350          20.000  
C16  37336601.808   194421480.529        -230.604          33.000  
C25  22001119.742   114565586.280       -1257.853          37.000  
C33  22463739.377   116974478.379       -1330.762          27.000  
G10  20302809.557   106691955.334       -1361.057          47.000    20302813.755    79672596.695       -1016.567          30.000  
G23  22085760.746   116061378.453       -3359.447          29.000                                                                  
G25  20916919.118   109919127.280       -1328.441          23.000    20916907.127    82082439.366        -989.488          24.000  
G31  21354126.246                         665.348          35.000                                                                  
G32  21424414.686                         794.044          35.000    21424401.196    84073970.033         593.779          32.000  
> 2021 09 12 11 02 00.9997765  0 12                     
C03  36477009.292   189945357.625        -367.867          42.000  
C06  36700752.498   191110417.770        -269.590          32.000  
C08  38483435.372   200393304.195       -2204.116          29.000  
C09  37724752.997   196442602.045        -376.489          29.000  
C13  37503030.392   195288190.891       -2038.868          20.000  
C16  37336554.741   194421243.646        -232.032          34.000  
C25  22001270.837   114566376.913       -1260.374          37.000  
C33  22463904.562   116975340.660       -1330.929          27.000  
G10  20302978.940   106692844.455       -1361.813          47.000    20302983.737    79673260.427       -1017.270          31.000  
G23  22086308.467   116064265.922       -3360.414          28.000                                                                  
G31  21353910.695                         663.940          35.000                                                                  
G32  21424171.555   112584793.3381        791.778          34.000    21424161.662    84073024.668         594.632          32.000  
> 2021 09 12 11 02 01.9997763  0 13                     
C03  36477019.785   189945413.287        -368.077          42.000  
C06  36700741.405                        -271.001          32.000  
C08  38483798.121   200395196.944       -2205.060          28.000  
C09  37724765.588   196442666.260        -376.561          30.000  
C13  37503361.963   195289918.204       -2039.552          20.000  
C16  37336542.150   194421163.247        -231.148          33.000  
C23  23250223.905   121070182.3211       1355.468          26.000  
C25  22001453.111   114567324.462       -1259.225          37.000  
C33  22464099.428   116976360.140       -1332.478          27.000  
G10  20303177.703   106693892.215       -1363.845          47.000    20303183.998    79674043.289       -1018.220          31.000  
G25  20917269.276   109920997.2341      -1330.139          20.000                                                                  
G31  21353723.625   112214575.6571        662.888          35.000                                                                  
G32  21423959.002   112583685.345         793.075          35.000    21423951.207    84072197.314         592.190          32.000  
> 2021 09 12 11 02 02.9997760  0 13                     
C03  36477000.298   189945312.991        -368.359          42.000  
C06  36700706.330                        -271.312          32.000  
C08  38484131.490   200396933.631       -2204.679          29.000  
C09  37724748.800   196442574.746        -377.512          29.000  
C16  37336498.680   194420927.084        -232.644          32.000  
C23  23249874.947   121068357.759        1356.889          24.000  
C25  22001606.005   114568116.654       -1260.188          36.000  
C33  22464262.515   116977224.502       -1332.762          28.000  
G10  20303347.085   106694783.486       -1364.255          47.000    20303353.981    79674708.578       -1018.081          31.000  
G23  22087437.185   116070199.7771      -3362.235          28.000                                                                  
G25  20917430.864   109921853.963       -1328.906          21.000                                                                  
G31  21353507.774   112213440.153         662.632          36.000                                                                  
G32  21423717.069   112582420.445         792.547          36.000    21423709.874    84071252.815         589.588          31.000  
> 2021 09 12 11 02 03.9997760  0 13                     
C03  36477071.649   189945681.440        -368.937          42.000  
C06  36700759.993   191110463.4941       -270.635          31.000  
C08  38484554.198   200399138.152       -2205.026          28.000  
C09  37724821.949   196442952.936        -378.259          28.000  
C13  37504053.884   195293531.6461      -2044.094          20.000  
C16  37336543.649   194421159.644        -233.597          32.000  
C23  23249616.825   121067001.397        1355.106          27.000  
C25  22001849.137   114569378.092       -1261.300          37.000  
C33  22464516.139   116978558.633       -1334.804          27.000  
G10  20303607.305   106696148.555       -1365.398          47.000    20303613.901    79675726.962       -1019.130          30.000  
G23  22088075.743   116073562.754       -3363.800          29.000                                                                  
G31  21353383.061   112212778.064         662.039          36.000                                                                  
G32  21423566.873   112581628.742         791.735          35.000    21423559.978    84070661.536         591.640          30.000  
> 2021 09 12 11 02 04.9997757  0 13                     
C03  36477052.162   189945582.169        -369.752          43.000  
C06  36700723.418   191110265.533        -270.334          30.000  
C08  38484887.267   200400876.022       -2207.454          28.000  
C09  37724805.461   196442862.568        -377.352          31.000  
C16  37336499.879   194420924.019        -233.158          34.000  
C23  23249265.768   121065179.115        1354.077          24.000  
C25  22001998.433   114570171.810       -1261.784          37.000  
C33  22464678.627   116979425.905       -1335.912          25.000  
G10  20303777.587   106697041.909       -1366.067          46.000    20303783.283    79676394.241       -1021.673          30.000  
G23  22088626.762   116076454.239       -3364.883          28.000                                                                  
G25  20917840.980   109924038.0911      -1328.609          21.000                                                                  
G31  21353169.608   112211644.124         661.127          37.000                                                                  
G32  21423320.744   112580364.727         792.077          35.000    21423318.645    84069717.613         590.373          32.000  
> 2021 09 12 11 02 05.9997755  0 12                     
C03  36477062.355   189945639.745        -370.069          43.000  
C06  36700711.126   191110223.919        -272.591          31.000  
C08  38485251.215   200402771.271       -2207.660          30.000  
C09  37724818.951   196442927.661        -377.606          28.000  
C16  37336480.093   194420844.770        -232.126          33.000  
C23  23248945.590   121063513.392        1352.576          25.000  
C25  22002180.108   114571122.358       -1262.958          36.000  
C33  22464871.693   116980449.242       -1335.675          26.000  
G10  20303977.549   106698093.785       -1367.667          46.000    20303984.144    79677181.297       -1023.225          28.000  
G23  22089207.160   116079504.377       -3365.685          28.000                                                                  
G31  21352986.435   112210668.389         660.329          37.000                                                                  
G32  21423109.390   112579258.668         790.745          36.000    21423109.990    84068891.705         587.289          31.000  
> 2021 09 12 11 02 06.9997752  0 12                     
C03  36477043.768   189945541.313        -370.103          43.000  
C06  36700676.650   191110026.214        -269.958          30.000  
C08  38485585.783   200404511.228       -2208.566          30.000  
C09  37724800.964   196442838.117        -379.580          31.000  
C16  37336440.220   194420609.473        -234.714          32.000  
C23  23248596.332   121061692.476        1353.044          25.000  
C25  22002334.801   114571917.298       -1263.671          35.000  
C33  22465038.078   116981317.177       -1337.665          28.000  
G10  20304147.831   106698988.967       -1368.451          46.000    20304154.127    79677851.111       -1021.977          29.000  
G23  22089758.778   116082397.429       -3365.902          29.000                                                                  
G31  21352767.587   112209535.746         658.592          38.000                                                                  
G32  21422865.659   112577995.349         789.755          37.000    21422869.856    84067948.343         590.254          31.000  
> 2021 09 12 11 02 07.9997752  0 13                     
C03  36477114.519   189945911.164        -369.928          41.000  
C06  36700729.714   191110297.058        -270.688          31.000  
C08  38486009.690   200406719.761       -2208.346          26.000  
C13  37505381.964   195300463.4361      -2044.754          19.000  
C16  37336483.690   194420842.699        -233.939          33.000  
C23  23248335.512   121060339.235        1351.719          23.000  
C25  22002577.932   114573181.228       -1264.588          37.000  
C33  22465296.199   116982655.204       -1338.681          28.000  
G10  20304409.250   106700357.699       -1369.665          46.000    20304414.346    79678873.480       -1021.938          30.000  
G23  22090401.533   116085763.579       -3366.490          29.000                                                                  
G25  20918448.060   109927238.0751      -1330.491          23.000                                                                  
G31  21352641.674   112208876.336         658.854          38.000                                                                  
G32  21422714.264   112577205.178         787.821          35.000    21422719.960    84067358.191         588.298          31.000  
> 2021 09 12 11 02 08.9997750  0 14                     
C03  36477126.811   189945968.638        -369.754          42.000  
C06  36700726.116   191110255.373        -271.062          31.000  
C08  38486374.537   200408615.461       -2207.696          30.000  
C09  37724886.105   196443289.2091       -380.383          30.000  
C13  37505714.134   195302195.391       -2044.079          19.000  
C16  37336464.803   194420763.404        -232.020          34.000  
C23  23248017.432   121058675.424        1351.600          23.000  
C25  22002760.206   114574133.204       -1263.483          37.000  
C33  22465493.163   116983681.418       -1338.286          30.000  
G10  20304609.511   106701411.858       -1369.566          45.000    20304614.608    79679659.637       -1021.954          29.000  
G23  22090981.931   116088815.007       -3366.822          28.000                                                                  
G25  20918635.430   109928254.087       -1332.450          22.000                                                                  
G31  21352454.903   112207902.150         659.637          38.000                                                                  
G32  21422502.010   112576099.686         790.161          37.000    21422509.505    84066532.695         589.451          30.000  
> 2021 09 12 11 02 09.9997747  0 12                     
C03  36477107.924   189945869.529        -369.172          42.000  
C06  36700687.443   191110057.404        -272.142          29.000  
C08  38486708.806   200410354.686       -2207.246          29.000  
C09  37724867.817   196443200.782        -379.084          33.000  
C16  37336420.734   194420527.809        -234.464          30.000  
C25  22002915.199   114574929.325       -1264.924          36.000  
C33  22465660.147   116984551.625       -1338.629          31.000  
G10  20304780.093   106702309.027       -1370.207          46.000    20304785.789    79680329.369       -1023.212          29.000  
G23  22091534.449   116091709.125       -3366.811          28.000                                                                  
G25  20918797.618   109929114.484       -1333.935          21.000                                                                  
G31  21352237.853   112206770.770         658.676          38.000                                                                  
G32  21422263.376   112574836.732         791.182          37.000    21422268.472    84065589.495         590.550          29.000  
> 2021 09 12 11 02 10.9997745  0 12                     
C03  36477118.117   189945926.380        -369.740          43.000  
C06  36700679.049   191110014.867        -270.883          28.000  
C08  38487073.354   200412249.373       -2206.505          28.000  
C13  37506347.596   195305504.9061      -2044.751          17.000  
C16  37336407.243   194420447.424        -231.292          27.000  
C23  23247353.092   121055193.4551       1348.224          25.000  
C25  22003096.273   114575882.012       -1265.100          36.000  
C33  22465859.209   116985578.285       -1338.920          28.000  
G10  20304980.355   106703364.418       -1370.221          46.000    20304986.950    79681117.687       -1024.614          29.000  
G23  22092114.248   116094760.932       -3367.093          23.000                                                                  
G31  21352050.783   112205797.283         658.381          38.000                                                                  
G32                                                                  21422057.718    84064764.205         587.536          28.000  
> 2021 09 12 11 02 11.9997742  0 11                     
C03  36477099.829   189945827.643        -369.967          43.000  
C06  36700640.076   191109816.874        -269.935          27.000  
C08  38487406.123   200413987.473       -2207.320          28.000  
C09  37724852.528   196443177.8441       -378.434          30.000  
C13  37506649.487   195307084.927       -2050.987          17.000  
C25  22003256.363   114576678.802       -1265.568          35.000  
C33  22466027.393   116986448.722       -1338.622          30.000  
G10  20305149.737   106704262.934       -1372.023          46.000    20305158.431    79681790.091       -1025.140          27.000  
G23  22092667.365   116097655.250       -3368.178          25.000                                                                  
G31  21351838.530   112204666.698         656.764          38.000                                                                  
G32  21421826.278   112572468.9771        790.839          27.000    21421817.584    84063821.290         586.091          29.000  
> 2021 09 12 11 02 12.9997740  0 10                     
C03  36477110.622   189945885.457        -369.993          43.000  
C06  36700631.082   191109774.468        -269.808          28.000  
C08  38487767.673   200415882.600       -2207.380          28.000  
C09  37724864.820   196443244.412        -379.077          31.000  
C13  37506977.760   195308824.734       -2052.797          14.000  
C23  23246694.448   121051713.8841       1351.432          33.000  
C25  22003439.236   114577632.432       -1265.660          36.000  
G10  20305351.498   106705319.780       -1371.154          46.000    20305359.892    79682580.303       -1025.115          28.000  
G31  21351654.157   112203694.185         657.814          36.000                                                                  
G32  21421619.122   112571363.233         790.444          28.000    21421607.430    84062996.030         589.613          28.000  
> 2021 09 12 11 02 13.9997737  0 12                     
C03  36477090.536   189945786.211        -368.544          43.000  
C06  36700590.010   191109575.459        -269.344          28.000  
C08  38488100.443   200417621.213       -2206.021          28.000  
C09  37724845.033   196443154.735        -378.363          34.000  
C16  37336309.811   194419895.4721       -232.690          28.000  
C23  23246345.490   121049893.834        1351.231          28.000  
C25  22003590.931   114578429.592       -1264.041          34.000  
C33  22466392.240   116988341.4741      -1337.632          22.000  
G10  20305522.379   106706219.094       -1372.010          45.000    20305529.874    79683253.258       -1025.545          28.000  
G25  20919508.426   109932877.0761      -1337.307          19.000                                                                  
G31  21351443.403   112202563.917         658.805          37.000                                                                  
G32                                                                  21421366.397    84062052.930         589.728          28.000  
> 2021 09 12 11 02 14.9997734  0 11                     
C03  36477072.548   189945686.079        -368.726          43.000  
C06  36700549.538   191109375.695        -267.544          28.000  
C08  38488431.713   200419358.333       -2204.846          26.000  
C09  37724823.448   196443063.568        -376.898          27.000  
C16  37336269.339   194419659.539        -232.535          25.000  
C23  23246000.729   121048074.614        1350.728          30.000  
C25  22003742.326   114579226.995       -1266.528          36.000  
C33  22466550.831   116989211.529       -1339.985          26.000  
G10  20305692.961   106707118.918       -1372.896          46.000    20305700.756    79683925.586       -1025.569          27.000  
G31  21351228.752   112201433.899         657.452          37.000                                                                  
G32  21421132.259   112568836.5811        790.458          28.000    21421125.663    84061109.228         590.665          27.000  
> 2021 09 12 11 02 15.9997732  0 12                     
C03  36477084.840   189945741.479        -366.891          34.000  
C06  36700539.645   191109331.139        -268.897          26.000  
C08  38488793.862   200421250.708       -2204.845          25.000  
C09  37724835.740   196443129.009        -378.180          33.000  
C13  37507913.412   195313713.0811      -2038.685          12.000  
C16  37336252.550   194419579.709        -231.630          27.000  
C23  23245684.448   121046411.695        1350.142          34.000  
C25  22003929.397   114580181.175       -1267.595          35.000  
G10  20305894.722   106708177.155       -1374.454          40.000    20305903.416    79684716.302       -1025.752          29.000  
G23  22094925.701   116109556.7561      -3371.463          23.000                                                                  
G31  21351038.084   112200461.114         660.414          34.000                                                                  
G32  21420922.404   112567731.168         790.069          32.000    21420915.209    84060283.291         590.848          26.000  
> 2021 09 12 11 02 16.9997732  0 11                     
C03  36477154.092   189946108.519        -367.320          35.000  
C06  36700590.010   191109599.518        -266.947          22.000  
C09  37724909.788   196443506.880        -377.863          26.000  
C16  37336296.020   194419811.009        -231.539          22.000  
C23  23245426.026   121045061.912        1350.399          25.000  
C25  22004171.029   114581446.870       -1265.098          30.000  
C33  22467007.414   116991577.9841      -1339.369          22.000  
G10  20306156.141   106709550.308       -1376.228          37.000    20306166.334    79685740.960       -1023.329          25.000  
G25  20920142.487   109936101.0821      -1338.217          20.000                                                                  
G31  21350912.471   112199803.099         657.562          25.000                                                                  
G32                                                                  21420764.713    84059690.521         593.770          22.000  
> 2021 09 12 11 02 17.9997729  0 10                     
C03  36477133.706   189946007.472        -367.566          36.000  
C06  36700546.540   191109398.331        -267.756          22.000  
C08  38489553.237   200425191.7261      -2205.257          23.000  
C09  37724891.801   196443415.880        -376.688          23.000  
C16  37336249.852   194419574.108        -231.313          26.000  
C25  22004322.724   114582243.584       -1265.542          30.000  
G10  20306327.022   106710453.392       -1375.015          38.000    20306336.316    79686412.698       -1024.897          22.000  
G23  22096115.877   116115828.4341      -3370.850          17.000                                                                  
G31  21350698.719   112198673.350         656.488          30.000                                                                  
G32  21420526.678   112565676.2711        791.265          25.000    21420523.980    84058744.176         592.138          22.000  
> 2021 09 12 11 02 18.9997727  0 10                     
C03  36477143.299   189946062.778        -367.827          40.000  
C08  38489915.386   200427084.408       -2206.601          27.000  
C09  37724903.193   196443480.001        -375.904          31.000  
C13  37508939.601   195319052.3821      -2043.059          17.000  
C16  37336234.563   194419493.654        -232.293          24.000  
C23  23244759.288   121041581.7351       1349.127          30.000  
C25  22004505.898   114583197.264       -1266.374          33.000  
G10  20306527.583   106711512.960       -1374.351          42.000    20306537.776    79687202.960       -1026.969          27.000  
G31  21350514.946   112197701.854         656.689          34.000                                                                  
G32  21420316.823   112564570.122         791.022          29.000    21420314.425    84057918.471         589.766          21.000  
> 2021 09 12 11 02 19.9997727  0 12                     
C03  36477216.149   189946430.482        -368.060          42.000  
C06  36700581.916   191109624.3611       -270.043          24.000  
C08  38490338.093   200429291.075       -2207.241          24.000  
C09  37724975.443   196443855.840        -375.963          31.000  
C16  37336279.831   194419726.208        -231.991          26.000  
C23  23244501.167   121040232.547        1349.275          35.000  
C25  22004748.430   114584464.003       -1266.951          32.000  
C33  22467632.781   116994821.0381      -1342.817          20.000  
G10  20306789.602                       -1374.987          43.000    20306798.896    79688229.786       -1027.182          27.000  
G23  22097328.838   116122251.4091      -3368.011          22.000                                                                  
G31  21350390.232   112197045.216         656.713          36.000                                                                  
G32                                                                  21420165.128    84057329.065         589.213          22.000  
> 2021 09 12 11 02 20.9997724  0 11                     
C03  36477199.061   189946330.086        -368.469          40.000  
C06  36700542.943   191109423.496        -265.713          27.000  
C08  38490673.261   200431029.559       -2206.525          30.000  
C09  37724957.455   196443764.624        -378.051          32.000  
C16  37336233.363   194419488.722        -230.235          27.000  
C23  23244154.007   121038414.871        1348.168          36.000  
C25  22004901.624   114585262.484       -1266.896          32.000  
C33  22467801.265   116995696.133       -1343.608          20.000  
G10  20306959.584   106713803.1371      -1376.392          41.000    20306970.977    79688904.270       -1028.027          31.000  
G31  21350168.686                         655.439          36.000                                                                  
G32  21419922.296   112562515.2921        791.458          27.000    21419923.795    84056384.959         591.251          26.000  
> 2021 09 12 11 02 21.9997722  0  9                     
C03  36477208.654   189946385.519        -367.422          38.000  
C06  36700534.249   191109377.090        -265.325          25.000  
C09  37724970.646   196443829.114        -376.322          29.000  
C16  37336217.175   194419406.199        -229.443          25.000  
C23  23243834.428                        1350.641          34.000  
C25  22005085.396   114586217.648       -1268.209          31.000  
G10  20307159.246   106714863.821       -1375.401          37.000    20307172.437    79689696.221       -1027.155          30.000  
G31  21349984.014                         657.823          33.000                                                                  
G32  21419713.341   112561408.538         791.937          28.000    21419713.941    84055556.982         592.667          23.000  
> 2021 09 12 11 02 22.9997719  0 12                     
C03  36477189.167   189946284.465        -367.014          42.000  
C06  36700496.175   191109175.114        -266.926          24.000  
C08  38491365.482   200434661.3871      -2206.708          24.000  
C09  37724953.258   196443736.058        -374.285          31.000  
C16  37336173.105   194419166.735        -229.016          24.000  
C23  23243479.774   121034928.8581       1350.217          34.000  
C25  22005238.590   114587017.596       -1268.397          32.000  
C33  22468174.806   116997600.1421      -1341.884          21.000  
G10  20307334.925   106715767.428       -1376.220          41.000    20307344.518    79690370.537       -1027.257          27.000  
G23  22099005.277   116131095.1651      -3367.201          25.000                                                                  
G31  21349773.260   112193795.6991        657.026          34.000                                                                  
G32  21419472.008   112560143.958         792.154          30.000    21419471.109    84054613.070         590.631          23.000  
> 2021 09 12 11 02 23.9997716  0 11                     
C03  36477168.782   189946183.022        -366.733          39.000  
C08  38491699.151   200436399.417       -2206.704          28.000  
C09  37724936.170   196443641.816        -374.055          32.000  
C16  37336129.336   194418929.047        -231.179          25.000  
C23  23243138.010   121033111.869        1349.541          33.000  
C25  22005393.283   114587817.454       -1268.412          35.000  
C33  22468342.990   116998474.028       -1342.436          25.000  
G10  20307508.205   106716671.411       -1377.436          42.000    20307516.599    79691045.366       -1027.853          31.000  
G25  20921466.670   109942943.6331      -1339.050          17.000                                                                  
G31  21349551.113   112192667.716         656.123          34.000                                                                  
G32                                                                  21419228.577    84053671.138         587.914          25.000  
> 2021 09 12 11 02 24.9997714  0  9                     
C03  36477178.075   189946237.458        -366.783          41.000  
C08  38492062.500   200438292.922       -2205.581          26.000  
C16  37336111.648   194418847.544        -229.650          27.000  
C23  23242817.532   121031451.075        1347.854          31.000  
C25  22005579.454   114588772.892       -1266.302          33.000  
C33  22468544.151   116999503.980       -1341.720          23.000  
G10  20307712.063   106717733.467       -1376.941          43.000    20307719.259    79691838.589       -1028.791          26.000  
G31  21349371.538   112191697.174         655.198          33.000                                                                  
G32  21419023.818   112557772.7261        790.574          32.000    21419019.321    84052846.290         591.092          24.000  
> 2021 09 12 11 02 25.9997711  0  9                     
C03  36477159.188   189946135.958        -367.180          42.000  
C08  38492397.368   200440030.256       -2205.731          30.000  
C16  37336065.180   194418608.693        -229.742          27.000  
C23  23242467.375   121029634.472        1345.276          32.000  
C25  22005732.348   114589571.360       -1267.284          30.000  
C33  22468712.634   117000377.798       -1342.171          28.000  
G10  20307885.044   106718638.371       -1378.409          44.000    20307891.639    79692514.774       -1029.636          32.000  
G31  21349158.685   112190569.470         655.695          33.000                                                                  
G32  21418779.488   112556508.244         792.235          32.000    21418779.488    84051902.562         590.656          28.000  
> 2021 09 12 11 02 26.9997711  0 12                     
C03  36477230.239   189946502.697        -366.806          42.000  
C06  36700470.993   191108991.0181       -265.802          26.000  
C08  38492822.174   200442236.145       -2206.206          27.000  
C09  37725004.223   196443983.6241       -375.800          29.000  
C16  37336109.849   194418836.945        -227.682          27.000  
C23  23242209.853   121028286.201        1348.617          30.000  
C25  22005976.679   114590838.750       -1267.515          33.000  
C33  22468971.954   117001720.616       -1343.097          27.000  
G10  20308146.163   106720016.440       -1377.883          44.000    20308153.958    79693544.781       -1030.750          30.000  
G25  20922066.855   109946173.5571      -1339.587          21.000                                                                  
G31  21349034.871   112189914.808         656.196          34.000                                                                  
G32  21418626.893                         793.745          33.000    21418629.591    84051312.032         590.258          29.000  
> 2021 09 12 11 02 27.9997709  0 13                     
C03  36477241.931   189946557.735        -368.002          39.000  
C06  36700462.299   191108945.299        -266.569          25.000  
C08  38493187.621   200444130.447       -2207.271          28.000  
C09  37725016.215   196444047.281        -376.297          30.000  
C16  37336093.061   194418752.027        -227.345          23.000  
C23  23241891.473   121026625.883        1347.901          33.000  
C25  22006160.152   114591794.414       -1270.282          32.000  
C33  22469168.918   117002751.995       -1343.658          25.000  
G10  20308351.221   106721080.277       -1378.877          42.000    20308356.317    79694339.512       -1027.935          32.000  
G23  22101919.559   116146364.8731      -3371.932          20.000                                                                  
G25  20922259.621   109947198.912       -1341.990          24.000                                                                  
G31  21348847.800   112188945.517         654.174          32.000                                                                  
G32  21418411.342   112554538.3651        789.760          32.000    21418419.437    84050487.161         588.927          28.000  
> 2021 09 12 11 02 28.9997706  0  8                     
C03  36477222.744   189946456.822        -366.944          39.000  
C09  37724997.328   196443954.659        -374.820          28.000  
C23  23241542.515   121024809.463        1347.711          30.000  
C25  22006314.246   114592595.935       -1270.003          26.000  
C33  22469339.200   117003626.662       -1343.228          25.000  
G10  20308522.402   106721986.805       -1379.322          44.000    20308528.099    79695013.008       -1027.006          26.000  
G25  20922422.708   109948068.645       -1342.672          24.000                                                                  
G32  21418172.708   112553275.806         790.732          27.000    21418178.703    84049541.806         594.381          20.000  
> 2021 09 12 11 02 29.9997704  0 11                     
C03  36477232.637   189946510.937        -366.084          42.000  
C06  36700420.328   191108695.5591       -264.467          24.000  
C08  38493886.137   200447761.4651      -2205.680          23.000  
C09  37725009.619   196444016.762        -373.882          27.000  
C23  23241225.335   121023149.012        1348.578          26.000  
C25  22006497.419   114593552.716       -1268.710          31.000  
C33  22469534.965   117004657.475       -1343.752          20.000  
G10  20308725.062   106723051.385       -1379.729          44.000    20308731.058    79695806.375       -1030.455          26.000  
G25  20922614.276   109949096.369       -1343.648          23.000                                                                  
G31  21348458.370   112186849.5361        653.397          31.000                                                                  
G32  21417963.153   112552169.254         791.896          31.000    21417968.249    84048712.623         591.988          28.000  
> 2021 09 12 11 02 30.9997701  0 12                     
C03  36477212.251   189946408.207        -365.755          43.000  
C06  36700381.055   191108491.862        -265.020          27.000  
C08  38494219.207   200449497.965       -2204.137          26.000  
C09  37724991.332   196443921.447        -372.811          30.000  
C16  37335980.938   194418184.6791       -227.772          27.000  
C23  23240876.376   121021332.226        1347.706          31.000  
C25  22006654.510   114594353.101       -1270.469          32.000  
C33  22469703.448   117005532.813       -1343.865          26.000  
G10  20308896.543   106723958.979       -1380.282          44.000    20308904.338    79696484.812       -1032.404          31.000  
G25  20922777.962   109949968.253       -1344.590          23.000                                                                  
G31  21348241.620   112185723.347         654.091          31.000                                                                  
G32  21417723.019   112550903.937         793.510          30.000                                                                  
> 2021 09 12 11 02 31.9997699  0 13                     
C03  36477222.444   189946461.686        -366.150          43.000  
C06  36700372.061   191108444.666        -265.359          27.000  
C08  38494581.356   200451389.634       -2204.286          27.000  
C09  37725003.923   196443981.647        -372.185          30.000  
C16  37335965.649   194418100.037        -226.826          27.000  
C23  23240557.697   121019673.017        1346.816          33.000  
C25  22006839.782   114595310.400       -1269.412          32.000  
C33  22469901.911   117006564.530       -1344.410          28.000  
G10  20309098.604   106725024.791       -1381.959          44.000    20309107.298    79697281.385       -1030.971          32.000  
G23  22104199.781   116158276.8481      -3372.294          24.000                                                                  
G25  20922974.326   109950997.831       -1345.063          24.000                                                                  
G31  21348053.650   112184755.076         653.466          32.000                                                                  
G32  21417511.665   112549794.563         793.885          29.000                                                                  
> 2021 09 12 11 02 32.9997696  0 13                     
C03  36477203.258   189946359.278        -366.328          43.000  
C06  36700332.489   191108242.314        -266.660          27.000  
C08  38494915.025   200453125.173       -2203.978          28.000  
C09  37724985.636   196443885.846        -372.786          30.000  
C16  37335921.280   194417858.065        -225.950          23.000  
C23  23240210.837   121017858.395        1344.418          31.000  
C25  22006992.376   114596111.371       -1269.565          31.000  
C33  22470069.794   117007440.434       -1344.407          28.000  
G10  20309270.085   106725933.471       -1381.905          43.000    20309279.678    79697959.844       -1032.491          32.000  
G23  22104752.898   116161176.415       -3373.056          23.000                                                                  
G25  20923138.013   109951870.467       -1345.481          27.000                                                                  
G31  21347828.206   112183629.411         653.056          29.000                                                                  
G32  21417270.332   112548528.975         792.400          29.000                                                                  
> 2021 09 12 11 02 33.9997693  0 15                     
C03  36477183.771   189946257.095        -366.579          43.000  
C05  38099439.607   198393780.2721       -361.284          30.000  
C06  36700293.216   191108040.476        -266.331          27.000  
C07  37871429.455   197206472.2151       1043.640          23.000  
C08  38495248.994   200454860.859       -2203.974          28.000  
C09  37724966.749   196443791.414        -373.624          30.000  
C16  37335874.512   194417615.914        -226.435          26.000  
C23  23239863.377   121016044.918        1345.122          29.000  
C25  22007144.071   114596912.787       -1269.632          29.000  
C33  22470237.978   117008316.423       -1344.934          28.000  
G10  20309444.264   106726842.985       -1382.000          44.000    20309451.759    79698639.689       -1032.135          32.000  
G23  22105306.315   116164076.571       -3372.932          22.000                                                                  
G25  20923301.999   109952743.526       -1346.141          23.000                                                                  
G31  21347612.355   112182504.129         650.084          28.000                                                                  
G32  21417031.398   112547264.518         791.328          30.000                                                                  
> 2021 09 12 11 02 34.9997691  0 12                     
C03  36477194.264   189946311.245        -366.595          43.000  
C06  36700285.421   191107992.905        -264.131          27.000  
C08  38495611.443   200456753.294       -2205.311          27.000  
C16  37335858.023   194417530.631        -226.798          27.000  
C23  23239544.398   121014387.532        1345.256          29.000  
C25  22007327.544   114597870.065       -1269.805          28.000  
C33  22470435.541   117009348.777       -1344.685          28.000  
G10  20309647.823   106727910.472       -1382.443          44.000    20309655.918    79699436.805       -1033.154          31.000  
G23  22105891.210   116167134.139       -3372.818          23.000                                                                  
G25  20923498.064   109953774.564       -1345.771          24.000                                                                  
G31  21347431.581   112181537.844         651.642          26.000                                                                  
G32  21416822.442   112546158.162         790.922          31.000                                                                  
> 2021 09 12 11 02 35.9997691  0 13                     
C03  36477264.415   189946677.425        -365.933          41.000  
C06  36700338.185   191108256.967        -263.994          26.000  
C07  37870966.575   197204073.7091       1042.595          22.000  
C08  38496035.349   200458958.360       -2204.626          25.000  
C09  37725050.991   196444224.9861       -373.429          24.000  
C16  37335901.793   194417756.820        -226.680          27.000  
C23  23239286.277   121013042.196        1345.283          29.000  
C25  22007569.477   114599139.212       -1269.553          27.000  
C33  22470693.363   117010692.812       -1344.028          25.000  
G10  20309911.341   106729293.716       -1381.879          44.000    20309919.435                       -1030.663          31.000  
G25  20923757.984   109955121.505       -1352.114          21.000                                                                  
G31  21347309.565   112180886.492         651.264          25.000                                                                  
G32  21416673.146   112545367.353         790.749          31.000                                                                  
> 2021 09 12 11 02 36.9997691  0 11                     
C03  36477334.567   189947043.207        -365.738          41.000  
C06  36700390.348   191108520.521        -263.545          28.000  
C07  37870766.914   197203032.505        1039.627          24.000  
C08  38496459.855   200461163.357       -2205.789          28.000  
C16  37335945.863   194417983.780        -226.983          27.000  
C25  22007811.409   114600409.206       -1270.145          33.000  
G10  20310175.758   106730677.642       -1383.150          43.000    20310182.953    79701520.6201      -1034.254          31.000  
G23  22107172.223   116173878.4771      -3372.045          23.000                                                                  
G25  20924015.206   109956472.877       -1351.014          20.000                                                                  
G31  21347187.849   112180235.347         650.994          30.000                                                                  
G32  21416523.849   112544576.533         791.017          36.000    21416522.950    84043045.7671        590.374          27.000  
> 2021 09 12 11 02 37.9997688  0 12                     
C03  36477315.380   189946940.519        -366.021          42.000  
C06  36700350.176   191108315.933        -264.350          25.000  
C07  37870476.415   197201523.976        1040.786          23.000  
C08  38496794.724   200462900.745       -2204.972          21.000  
C09  37725110.949   196444501.8341       -372.317          33.000  
C16  37335899.395   194417742.927        -228.147          27.000  
C23  23238687.292   121009885.8681       1343.814          23.000  
C25  22007965.203   114601211.342       -1271.227          31.000  
C33  22471116.969   117012914.7561      -1345.999          18.000  
G10  20310349.638   106731589.632       -1384.047          43.000    20310357.132    79702201.469       -1033.387          30.000  
G31  21346975.596   112179111.517         651.105          28.000                                                                  
G32  21416283.116   112543312.674         791.346          35.000    21416283.416    84042104.075         588.445          23.000  
> 2021 09 12 11 02 38.9997686  0 13                     
C03  36477325.273   189946994.280        -366.490          42.000  
C06  36700339.684   191108268.222        -264.765          30.000  
C07  37870216.195   197200171.780        1039.331          22.000  
C08  38497158.372   200464794.408       -2207.287          22.000  
C09  37725124.440   196444561.987        -371.468          32.000  
C16  37335882.307   194417658.367        -227.729          28.000  
C23  23238370.111   121008231.084        1343.087          20.000  
C25  22008148.376   114602170.797       -1271.535          31.000  
C33  22471314.832   117013948.986       -1347.650          24.000  
G10  20310553.796   106732659.617       -1384.899          44.000    20310560.691    79703000.528       -1032.999          31.000  
G25  20924380.053   109958385.3521      -1349.984          26.000                                                                  
G31  21346795.121   112178145.291         651.027          28.000                                                                  
G32  21416071.162   112542206.449         790.346          38.000    21416074.460    84041279.371         589.482          26.000  
> 2021 09 12 11 02 39.9997683  0 13                     
C03  36477306.386   189946892.390        -366.425          42.000  
C06  36700299.511   191108064.707        -264.075          30.000  
C07  37869925.396   197198664.785        1038.712          23.000  
C09  37725105.853   196444465.225        -371.704          32.000  
C16  37335834.040   194417417.443        -226.610          28.000  
C23  23238023.551   121006420.085        1343.072          21.000  
C25  22008301.870   114602973.848       -1271.593          32.000  
C33  22471483.316   117014829.054       -1349.263          22.000  
G10  20310726.776   106733572.523       -1385.624          43.000    20310733.971    79703682.452       -1035.469          30.000  
G23  22108848.962   116182736.2471      -3373.910          23.000                                                                  
G25  20924548.536   109959263.140       -1356.812          27.000                                                                  
G31  21346582.269   112177021.920         650.521          28.000                                                                  
G32  21415828.630                         791.924          38.000    21415833.727    84040335.818         591.221          25.000  
> 2021 09 12 11 02 40.9997681  0 12                     
C03  36477315.980   189946946.366        -366.295          42.000  
C06  36700290.218   191108016.657        -265.478          29.000  
C07  37869666.975   197197313.684        1039.639          24.000  
C08  38497861.985   200468427.1701      -2205.968          25.000  
C09  37725112.748   196444524.487        -371.321          30.000  
C16  37335817.851   194417331.250        -225.081          27.000  
C23  23237705.771   121004764.032        1345.184          26.000  
C25  22008486.242   114603932.905       -1271.643          33.000  
G10  20310930.635   106734643.652       -1387.762          43.000    20310937.231    79704482.343       -1035.300          31.000  
G25  20924741.603   109960303.488       -1353.925          21.000                                                                  
G31  21346401.194   112176056.418         650.322          27.000                                                                  
G32  21415622.073   112539833.2761        790.270          35.000    21415621.774    84039509.531         590.670          29.000  
> 2021 09 12 11 02 41.9997678  0 13                     
C03  36477296.493   189946844.042        -365.980          41.000  
C06  36700252.444   191107813.541        -265.474          22.000  
C07  37869376.776   197195805.519        1039.320          22.000  
C08  38498197.153   200470163.631       -2204.495          29.000  
C09  37725091.463   196444427.325        -371.218          26.000  
C16  37335770.484   194417087.868        -225.075          25.000  
C23  23237356.213   121002950.775        1344.282          28.000  
C25  22008641.535   114604736.544       -1273.159          23.000  
C33  22471844.266   117016748.2621      -1349.975          23.000  
G10  20311104.515   106735557.924       -1387.432          44.000    20311111.110    79705165.114       -1036.131          32.000  
G23  22109979.480   116188699.5981      -3376.835          17.000                                                                  
G31  21346188.042   112174933.827         649.433          32.000                                                                  
G32  21415385.537   112538570.484         791.012          29.000    21415378.942    84038565.940         590.896          28.000  
> 2021 09 12 11 02 42.9997676  0 11                     
C03  36477306.086   189946897.761        -366.253          42.000  
C06  36700244.649   191107764.645        -262.111          21.000  
C07  37869115.357   197194452.385        1041.667          22.000  
C08  38498561.700   200472055.938       -2205.247          32.000  
C09  37725099.857   196444486.846        -372.036          25.000  
C16  37335752.796   194417001.086        -225.568          25.000  
C23  23237035.735   121001294.826        1343.804          30.000  
C25  22008828.005   114605697.833       -1274.217          22.000  
G10  20311307.474   106736630.696       -1387.844          44.000                                                                  
G25  20925110.048   109962221.5921      -1352.886          23.000                                                                  
G32  21415176.582   112537464.185         791.197          30.000                                                                  
> 2021 09 12 11 02 43.9997673  0 11                     
C03  36477287.200   189946795.807        -366.492          42.000  
C06  36700205.077   191107557.752        -260.255          22.000  
C08  38498897.768   200473792.834       -2205.452          31.000  
C09  37725080.071   196444391.745        -373.927          25.000  
C16  37335707.528   194416758.616        -225.076          24.000  
C23  23236685.877   120999483.320        1342.561          31.000  
C33  22472207.315   117018667.6511      -1350.232          24.000  
G10  20311482.253   106737546.255       -1389.086          44.000                                                                  
G25  20925277.032   109963101.635       -1352.425          25.000                                                                  
G31  21345792.915   112172847.8121        649.255          31.000                                                                  
G32  21414938.247   112536200.472         791.103          31.000                                                                  
> 2021 09 12 11 02 44.9997670  0 12                     
C03  36477267.113   189946693.316        -366.105          42.000  
C07  37868536.158   197191433.1521       1040.523          22.000  
C08  38499230.837   200475529.261       -2205.744          31.000  
C09  37725060.584   196444296.864        -373.175          25.000  
C16  37335660.460   194416515.412        -225.962          25.000  
C23  23236335.720   120997672.566        1342.284          30.000  
C33  22472372.500   117019549.211       -1349.566          23.000  
G10  20311657.032   106738462.479       -1389.400          43.000                                                                  
G23  22111664.313   116197568.9341      -3382.285          17.000                                                                  
G25  20925444.316   109963982.086       -1353.802          24.000                                                                  
G31  21345579.163   112171726.171         648.795          31.000                                                                  
G32  21414696.614   112534937.002         789.859          31.000                                                                  
> 2021 09 12 11 02 45.9997670  0 13                     
C03  36477337.864   189947059.428        -366.399          41.000  
C06  36700219.467   191107613.7231       -263.791          22.000  
C07  37868335.897   197190392.963        1039.699          21.000  
C08  38499653.544                       -2205.170          32.000  
C09  37725131.035   196444669.299        -372.417          27.000  
C16  37335703.930   194416742.350        -227.758          24.000  
C23  23236077.598   120996330.710        1341.593          29.000  
C25  22009397.012   114608581.8251      -1273.911          24.000  
C33  22472630.322   117020899.128       -1350.338          23.000  
G10  20311920.550   106739852.052       -1389.218          43.000                                                                  
G23  22112299.274   116200948.032       -3378.130          16.000                                                                  
G31  21345455.049                         648.355          33.000                                                                  
G32  21414548.517                         792.079          33.000                                                                  
> 2021 09 12 11 02 46.9997668  0 13                     
C03  36477347.458   189947113.399        -366.358          41.000  
C06  36700212.572   191107565.778        -265.187          22.000  
C07  37868077.475   197189039.722        1041.990          23.000  
C08  38500014.195   200479692.8771      -2207.333          31.000  
C09  37725141.528   196444729.859        -372.487          26.000  
C16  37335688.041   194416658.186        -228.160          25.000  
C23  23235759.818   120994677.277        1340.527          30.000  
C25  22009584.082   114609543.236       -1274.216          24.000  
C33  22472830.283   117021936.515       -1349.009          25.000  
G10  20312124.709   106740927.408       -1390.782          43.000                                                                  
G25  20925897.603   109966375.3401      -1354.695          21.000                                                                  
G31  21345267.978                         647.820          31.000                                                                  
G32  21414339.861   112533106.6231        789.916          34.000                                                                  
> 2021 09 12 11 02 47.9997665  0 13                     
C03  36477327.971   189947010.814        -365.421          41.000  
C06  36700173.898   191107361.978        -263.896          22.000  
C07  37867786.977   197187529.354        1041.337          22.000  
C08  38500349.962   200481430.484       -2205.630          31.000  
C09  37725121.742   196444633.689        -372.193          26.000  
C16  37335642.173   194416417.811        -227.428          26.000  
C23  23235411.459   120992868.088        1340.591          30.000  
C25  22009739.075   114610349.910       -1274.652          25.000  
C33  22472999.366   117022817.045       -1349.568          25.000  
G10  20312299.188   106741845.940       -1391.547          43.000                                                                  
G25  20926063.987   109967258.251       -1356.297          22.000                                                                  
G31  21345054.526   112169042.4791        645.535          30.000                                                                  
G32  21414105.124   112531843.655         790.440          33.000                                                                  
> 2021 09 12 11 02 48.9997663  0 13                     
C03  36477338.464   189947064.057        -366.114          41.000  
C05  38099569.417   198394475.8671       -359.536          30.000  
C06  36700165.504   191107313.425        -263.842          21.000  
C07  37867524.658   197186176.318        1040.750          24.000  
C08  38500711.812   200483324.043       -2205.910          32.000  
C16  37335626.584   194416332.055        -224.870          26.000  
C23  23235093.979   120991215.342        1340.969          29.000  
C25  22009923.747   114611312.733       -1275.389          28.000  
C33  22473198.728   117023855.679       -1352.248          26.000  
G10  20312503.946   106742922.528       -1392.276          43.000    20312511.741    79710664.5121      -1039.985          32.000  
G25  20926261.551   109968299.663       -1357.042          23.000                                                                  
G31  21344883.645   112168080.647         644.595          29.000                                                                  
G32  21413891.971   112530738.166         789.015          33.000    21413879.080    84032668.5941        588.908          29.000  
> 2021 09 12 11 02 49.9997660  0 14                     
C03  36477319.277   189946961.700        -366.363          42.000  
C05  38099546.633   198394366.915        -359.065          30.000  
C06  36700127.131   191107107.887        -261.798          22.000  
C07  37867233.859   197184667.437        1039.580          23.000  
C08  38501044.881   200485061.342       -2205.259          30.000  
C16  37335581.914   194416088.350        -225.006          25.000  
C23  23234746.819   120989406.866        1339.655          27.000  
C25  22010077.840   114612119.801       -1275.678          30.000  
C33  22473368.711   117024738.342       -1350.294          27.000  
G10  20312679.625   106743842.147       -1392.394          42.000    20312686.520    79711351.400       -1039.521          30.000  
G23  22114574.699   116212905.7071      -3380.096          14.000                                                                  
G25  20926427.636   109969183.561       -1353.903          25.000                                                                  
G31  21344664.496   112166961.646         645.245          29.000                                                                  
G32                                                                  21413639.246    84031725.962         589.585          27.000  
> 2021 09 12 11 02 50.9997658  0 10                     
C03  36477330.070   189947015.506        -366.509          41.000  
C07  37866972.141   197183317.640        1036.085          20.000  
C08  38501409.429   200486955.440       -2204.688          32.000  
C16  37335565.126   194416000.915        -224.463          24.000  
C23  23234428.440   120987755.217        1338.589          30.000  
C25  22010261.913   114613083.251       -1275.405          28.000  
C33  22473571.370   117025777.781       -1352.732          27.000  
G10  20312884.383   106744920.488       -1393.634          41.000    20312892.477    79712156.620       -1042.110          30.000  
G31  21344496.313   112166001.114         646.129          30.000                                                                  
G32  21413445.280   112528370.2911        791.513          30.000    21413427.892    84030900.969         589.169          28.000  
> 2021 09 12 11 02 51.9997658  0 13                     
C03  36477399.922   189947381.923        -366.371          41.000  
C06  36700169.401   191107318.0951       -263.079          17.000  
C07  37866771.580   197182279.417        1038.998          23.000  
C08  38501833.335   200489161.852       -2205.324          32.000  
C09  37725194.591   196445026.4931       -371.717          28.000  
C16  37335607.996   194416225.676        -225.004          25.000  
C23  23234169.719   120986416.305        1338.732          32.000  
C25  22010506.543   114614359.254       -1275.792          25.000  
C33  22473832.190   117027131.338       -1353.761          27.000  
G10  20313147.301   106746314.303       -1395.080          40.000    20313157.793    79713197.422       -1042.051          32.000  
G23  22115796.952   116219350.4061      -3379.949          15.000                                                                  
G31  21344379.693   112165355.690         647.186          29.000                                                                  
G32  21413290.887   112527580.498         789.113          32.000    21413277.696    84030311.342         590.100          28.000  
> 2021 09 12 11 02 52.9997655  0 12                     
C03  36477381.035   189947279.791        -366.085          42.000  
C06  36700125.032   191107112.088        -262.202          25.000  
C07  37866480.181   197180772.617        1038.290          22.000  
C08  38502168.503   200490899.532       -2207.074          30.000  
C09  37725176.903   196444930.016        -371.778          29.000  
C16  37335561.229   194415982.772        -225.673          30.000  
C23  23233818.662   120984609.352        1338.452          26.000  
C25  22010660.337   114615167.299       -1277.327          29.000  
C33  22474000.973   117028016.548       -1353.459          29.000  
G10  20313324.478   106747235.974       -1395.042          40.000    20313333.472    79713885.754       -1041.988          32.000  
G31  21344171.937   112164237.613         644.140          27.000                                                                  
G32  21413042.659   112526317.874         789.668          36.000    21413039.361    84029369.206         588.508          29.000  
> 2021 09 12 11 02 53.9997652  0 11                     
C03  36477361.848   189947177.447        -366.098          42.000  
C06  36700081.862   191106906.347        -263.066          29.000  
C08  38502502.172   200492637.439       -2206.469          31.000  
C09  37725159.516   196444833.075        -371.284          30.000  
C16  37335513.262   194415739.886        -225.469          32.000  
C23  23233470.303   120982802.990        1337.661          27.000  
C25  22010812.931   114615976.459       -1277.785          28.000  
C33  22474170.056   117028902.911       -1355.401          28.000  
G10  20313501.955   106748158.499       -1395.243          44.000    20313509.450    79714574.503       -1042.131          33.000  
G25  20927228.681   109973353.1861      -1359.155          24.000                                                                  
G32  21412803.125   112525055.538         789.171          35.000    21412800.427    84028426.357         590.478          31.000  
> 2021 09 12 11 02 54.9997652  0 13                     
C03  36477432.599   189947544.049        -367.108          43.000  
C06  36700129.529   191107169.909        -264.866          29.000  
C07  37865992.719   197178230.7861       1038.512          22.000  
C08  38502925.479   200494844.149       -2204.750          31.000  
C09  37725232.065   196445204.277        -371.117          29.000  
C16  37335556.132   194415965.638        -226.028          31.000  
C23  23233212.182   120981465.883        1336.481          26.000  
C25  22011056.363   114617254.332       -1278.025          28.000  
C33  22474432.374   117030258.197       -1355.472          27.000  
G10  20313768.171   106749554.766       -1396.083          44.000    20313775.366    79715617.211       -1041.387          31.000  
G23  22117546.241   116228543.2851      -3383.647          17.000                                                                  
G25  20927488.601   109974712.802       -1360.829          25.000                                                                  
G32  21412649.631   112524266.353         789.216          36.000    21412651.130    84027835.880         589.907          30.000  
> 2021 09 12 11 02 55.9997650  0 14                     
C03  36477442.492   189947599.572        -368.507          43.000  
C06  36700118.137   191107122.379        -265.189          28.000  
C07  37865734.298   197176879.949        1038.708          23.000  
C08  38503289.427   200496739.258       -2207.067          31.000  
C09  37725244.357   196445263.757        -371.538          30.000  
C16  37335538.445   194415880.349        -226.610          30.000  
C23  23232895.301   120979817.672        1335.471          27.000  
C25  22011240.735   114618220.859       -1280.159          29.000  
C33  22474632.336   117031301.816       -1356.752          30.000  
G10  20313974.128   106750637.189       -1397.683          45.000    20313981.623    79716425.495       -1043.021          31.000  
G23  22118134.434   116231610.411       -3381.388          17.000                                                                  
G25  20927690.062   109975758.832       -1362.082          27.000                                                                  
G31  21343643.703   112161517.2851        642.272          28.000                                                                  
G32                                                                  21412441.275    84027010.887         589.702          30.000  
> 2021 09 12 11 02 56.9997647  0  9                     
C03  36477421.806   189947499.553        -367.880          42.000  
C06  36700079.164   191106919.122        -265.017          26.000  
C08  38503622.197   200498478.140       -2206.965          32.000  
C16  37335491.377   194415637.999        -225.035          28.000  
C23  23232546.942   120978013.496        1335.103          25.000  
C25  22011395.428   114619032.665       -1280.900          22.000  
C33  22474803.217   117032190.427       -1357.421          27.000  
G10  20314149.807   106751562.475       -1398.856          45.000    20314156.702    79717116.491       -1042.964          31.000  
G32  21412208.936   112521901.5011        788.296          35.000    21412201.142    84026068.086         589.087          29.000  
> 2021 09 12 11 02 57.9997645  0 12                     
C03  36477432.299   189947554.781        -367.384          42.000  
C06  36700068.971   191106871.907        -265.660          27.000  
C07  37865183.279   197174022.6841       1038.042          22.000  
C08  38503985.246   200500373.242       -2206.172          32.000  
C16  37335473.390   194415550.861        -225.387          29.000  
C23  23232226.764   120976366.711        1335.105          24.000  
C25  22011577.702   114620001.944       -1282.318          20.000  
C33  22475002.280   117033235.589       -1357.106          26.000  
G10  20314355.464   106752646.060       -1399.935          45.000    20314362.959    79717925.626       -1043.849          31.000  
G25  20928058.507   109977695.4631      -1363.891          21.000                                                                  
G31  21343253.673   112159446.9571        639.847          21.000                                                                  
G32  21411994.285   112520797.961         788.801          35.000    21411991.287    84025244.210         588.700          29.000  
> 2021 09 12 11 02 58.9997642  0 10                     
C03  36477414.312   189947453.396        -366.639          43.000  
C06  36700029.099   191106669.013        -265.338          28.000  
C08  38504324.011   200502112.223       -2210.579          32.000  
C16  37335426.022   194415308.081        -225.848          30.000  
C23  23231879.005   120974564.273        1333.568          24.000  
C25  22011729.996   114620815.663       -1281.532          23.000  
C33  22475171.662   117034124.391       -1357.147          29.000  
G10  20314532.042   106753572.551       -1400.519          46.000    20314538.937    79718617.492       -1045.894          31.000  
G25  20928229.988   109978587.948       -1365.493          26.000                                                                  
G32  21411749.055   112519536.729         786.730          35.000    21411751.753    84024302.023         589.947          30.000  
> 2021 09 12 11 02 59.9997640  0 10                     
C03  36477425.404   189947507.386        -366.126          43.000  
C06  36700018.906   191106621.131        -263.004          27.000  
C08  38504684.062   200504007.267       -2205.043          31.000  
C16  37335408.934   194415221.485        -226.044          30.000  
C23  23231561.824   120972918.386        1334.059          26.000  
C25  22011912.270   114621783.812       -1279.608          27.000  
C33  22475370.125   117035169.696       -1358.323          28.000  
G10  20314738.000   106754657.292       -1400.707          46.000    20314746.094    79719427.699       -1045.032          31.000  
G25  20928430.849   109979638.213       -1365.536          27.000                                                                  
G32                                                                  21411541.898    84023477.224         589.088          31.000  
> 2021 09 12 11 03 00.9997637  0 11                     
C03  36477406.517   189947405.292        -366.702          43.000  
C06  36699978.134   191106416.209        -263.638          28.000  
C07  37864345.359   197169659.1051       1037.863          23.000  
C08  38505016.232   200505746.406       -2205.535          30.000  
C16  37335360.967   194414978.913        -225.577          30.000  
C23  23231216.464   120971115.589        1334.744          26.000  
C25  22012067.263   114622594.502       -1279.435          26.000  
C33  22475541.007   117036059.948       -1358.653          29.000  
G10  20314915.177   106755585.183       -1400.872          45.000    20314922.672    79720120.560       -1046.530          32.000  
G25  20928602.930   109980530.788       -1365.161          28.000                                                                  
G32  21411293.370   112517172.3571        788.166          31.000    21411302.364    84022535.225         588.866          31.000  
> 2021 09 12 11 03 01.9997635  0 11                     
C03  36477416.110   189947460.049        -367.615          42.000  
C06  36699968.540   191106367.278        -263.529          28.000  
C07  37864087.837   197168309.164        1037.727          23.000  
C08  38505381.379   200507641.918       -2207.291          30.000  
C16  37335343.879   194414892.197        -226.100          29.000  
C25  22012251.635   114623562.587       -1280.997          27.000  
C33  22475740.669   117037106.266       -1358.616          29.000  
G10  20315122.333   106756671.570       -1401.967          45.000    20315129.528    79720931.848       -1046.249          33.000  
G25  20928804.390   109981581.028       -1365.705          29.000                                                                  
G31  21342442.135   112155308.9611        640.504          28.000                                                                  
G32                                                                  21411092.809    84021711.144         588.233          33.000  
> 2021 09 12 11 03 02.9997632  0 12                     
C03  36477397.223   189947359.293        -368.128          42.000  
C06  36699927.469   191106161.404        -262.651          28.000  
C08  38505716.547   200509381.446       -2206.982          30.000  
C09  37725204.784   196445054.4241       -371.781          25.000  
C16  37335296.212   194414649.157        -225.771          29.000  
C23  23230561.117   120967665.4631       1334.336          26.000  
C25  22012405.429   114624375.513       -1281.950          26.000  
C33  22475911.850   117037996.069       -1357.878          28.000  
G10  20315299.211   106757601.071       -1402.291          44.000    20315305.806    79721625.906       -1045.770          34.000  
G25  20928974.373   109982474.940       -1367.083          28.000                                                                  
G31  21342228.083   112154196.218         639.604          29.000                                                                  
G32  21410834.088   112514808.0601        789.877          31.000    21410853.874    84020770.411         587.280          33.000  
> 2021 09 12 11 03 03.9997629  0 12                     
C03  36477378.936   189947258.872        -367.758          42.000  
C06  36699887.596   191105955.644        -263.310          28.000  
C08  38506055.612   200511120.922       -2207.814          29.000  
C09  37725188.296   196444958.422        -372.634          28.000  
C13  37523700.183   195395754.7291      -2044.934          23.000  
C16  37335249.445   194414406.636        -226.329          27.000  
C23  23230218.155   120965862.897        1333.878          29.000  
C33  22476082.432   117038885.744       -1358.694          27.000  
G10  20315476.388   106758531.027       -1402.440          45.000    20315482.384    79722320.399       -1046.533          32.000  
G25  20929143.755   109983369.932       -1367.966          29.000                                                                  
G31  21342012.232   112153084.311         638.897          30.000                                                                  
G32                                                                  21410615.240    84019830.371         588.246          32.000  
> 2021 09 12 11 03 04.9997629  0 14                     
C03  36477449.687   189947626.017        -366.784          42.000  
C06  36699938.261   191106218.549        -263.369          28.000  
C08  38506479.519   200513328.641       -2207.686          29.000  
C09  37725260.246   196445330.229        -370.741          28.000  
C13  37524094.110   195397800.752       -2046.807          25.000  
C16  37335292.915   194414633.783        -228.820          26.000  
C23  23229963.331   120964529.087        1333.544          30.000  
C25  22012806.851   114626472.9251      -1283.143          29.000  
C33  22476345.050   117040245.291       -1360.675          28.000  
G10  20315743.503   106759934.292       -1403.346          45.000    20315749.799    79723368.111       -1045.586          31.000  
G23  22123337.332   116258737.6251      -3384.066          19.000                                                                  
G25  20929403.975   109984738.104       -1368.753          29.000                                                                  
G31  21341886.020   112152445.401         638.720          31.000                                                                  
G32  21410450.653   112512758.6101        787.136          27.000    21410465.943                         594.078          33.000  
> 2021 09 12 11 03 05.9997627  0 13                     
C03  36477460.180   189947680.791        -367.500          42.000  
C06  36699927.469   191106169.149        -262.742          28.000  
C08  38506841.368   200515224.262       -2208.756          30.000  
C09  37725273.137   196445389.234        -371.579          29.000  
C13  37524426.580   195399535.803       -2047.656          25.000  
C16  37335277.625   194414549.374        -226.884          26.000  
C23  23229648.549   120962883.415        1332.036          28.000  
C25  22012993.622   114627443.969       -1282.954          32.000  
C33  22476549.209   117041293.080       -1359.815          29.000  
G10  20315949.461   106761023.117       -1403.840          45.000    20315958.155    79724181.374       -1047.440          31.000  
G25  20929603.937   109985791.939       -1369.261          29.000                                                                  
G31  21341700.748   112151491.721         638.449          29.000                                                                  
G32  21410245.296   112511657.204         786.204          29.000    21410256.688    84018444.1111        588.126          33.000  
> 2021 09 12 11 03 06.9997624  0 13                     
C03  36477440.094   189947579.593        -366.989          43.000  
C06  36699889.695   191105963.872        -263.678          28.000  
C07  37862758.258   197161396.7501       1037.487          18.000  
C08  38507173.538   200516963.599       -2209.284          29.000  
C09  37725256.049   196445291.776        -370.766          30.000  
C16  37335232.956   194414306.939        -224.817          28.000  
C23  23229303.788   120961083.267        1331.144          27.000  
C25  22013148.914   114628258.538       -1282.911          29.000  
C33  22476720.690   117042184.309       -1359.673          28.000  
G10  20316127.538   106761954.815       -1405.097          45.000    20316134.433    79724877.028       -1050.673          32.000  
G25  20929774.519   109986688.774       -1369.935          28.000                                                                  
G31  21341486.696   112150380.645         638.419          29.000                                                                  
G32  21410007.560   112510398.043         787.132          30.000    21410014.455    84017502.874         588.910          33.000  
> 2021 09 12 11 03 07.9997622  0 13                     
C03  36477450.287   189947633.880        -366.728          42.000  
C06  36699881.001   191105914.223        -262.157          28.000  
C08  38507541.084   200518858.893       -2207.963          29.000  
C13  37525053.746   195402845.6651      -2044.430          25.000  
C16  37335219.465   194414219.409        -224.948          27.000  
C23  23228989.605   120959439.790        1331.226          28.000  
C25  22013336.284   114629229.284       -1283.378          31.000  
C33  22476923.050   117043232.921       -1361.386          28.000  
G10  20316334.394   106763044.615       -1404.622          44.000    20316341.889    79725690.898       -1049.373          32.000  
G23  22125075.829   116267797.0991      -3386.621          17.000                                                                  
G25  20929975.979   109987743.975       -1370.783          28.000                                                                  
G31  21341303.823   112149427.179         638.266          28.000                                                                  
G32  21409802.802   112509295.591         787.783          30.000    21409803.402    84016679.217         589.382          33.000  
> 2021 09 12 11 03 08.9997622  0 15                     
C03  36477521.637   189948000.464        -367.014          43.000  
C06  36699931.666   191106176.187        -262.340          28.000  
C07  37862301.074   197159009.7751       1038.045          19.000  
C08  38507965.290   200521066.855       -2208.102          29.000  
C09  37725340.290   196445720.8571       -371.105          29.000  
C13  37525443.176   195404888.809       -2043.615          25.000  
C16  37335265.334   194414443.470        -223.894          29.000  
C23  23228736.880   120958108.694        1330.637          27.000  
C25  22013584.513   114630512.525       -1283.766          31.000  
C33  22477185.368   117044595.583       -1363.292          27.000  
G10  20316600.910   106764450.485       -1407.749          45.000    20316609.604    79726740.766       -1049.151          32.000  
G23  22125721.282   116271450.208       -3385.187          18.000                                                                  
G25  20930235.899   109989115.114       -1371.690          28.000                                                                  
G31  21341182.407   112148789.105         637.523          29.000                                                                  
G32  21409657.403   112508507.790         787.403          31.000    21409653.206    84016091.276         587.961          33.000  
> 2021 09 12 11 03 09.9997619  0 15                     
C03  36477500.952   189947899.284        -367.474          42.000  
C06  36699893.293   191105970.478        -262.887          28.000  
C07  37862013.873   197157503.362        1037.194          20.000  
C08  38508301.058   200522806.201       -2206.967          29.000  
C09  37725324.102   196445623.458        -371.019          28.000  
C13  37525742.069   195406464.205       -2045.055          24.000  
C16  37335218.866   194414199.714        -224.623          29.000  
C23  23228391.819   120956310.118        1329.701          28.000  
C25  22013742.203   114631327.708       -1283.917          31.000  
C33  22477355.051   117045490.481       -1362.713          27.000  
G10  20316779.886   106765383.966       -1406.214          45.000    20316787.381    79727437.863       -1049.251          32.000  
G23  22126277.397   116274362.812       -3385.354          18.000                                                                  
G25  20930407.680   109990014.170       -1371.819          29.000                                                                  
G31  21340970.753   112147678.967         637.192          29.000                                                                  
G32  21409419.667   112507247.617         787.475          30.000    21409413.971    84015150.137         588.217          33.000  
> 2021 09 12 11 03 10.9997617  0 11                     
C03  36477510.545   189947954.452        -367.344          42.000  
C06  36699885.798   191105921.105        -263.564          28.000  
C07  37861755.452   197156153.330        1037.815          25.000  
C08  38508659.610   200524701.529       -2206.321          30.000  
C13  37526072.441   195408196.856       -2044.674          24.000  
C16  37335205.675   194414112.368        -224.954          29.000  
C23  23228077.337   120954667.098        1330.815          26.000  
C25  22013931.672   114632299.098       -1284.338          30.000  
G10  20316987.942   106766475.591       -1407.065          44.000    20316995.437    79728252.860       -1050.224          32.000  
G25  20930609.441   109991071.181       -1372.402          29.000                                                                  
G32                                                                  21409204.416    84014326.569         589.224          33.000  
> 2021 09 12 11 03 11.9997614  0 12                     
C03  36477492.258   189947853.159        -366.976          42.000  
C06  36699846.525   191105715.422        -261.778          27.000  
C07  37861467.052   197154646.989        1038.516          24.000  
C08  38508987.882   200526440.879       -2206.924          29.000  
C13  37526375.531   195409772.763       -2044.589          21.000  
C16  37335160.106   194413868.243        -223.964          29.000  
C23  23227732.575   120952867.397        1330.892          24.000  
C25  22014090.562   114633114.829       -1284.223          29.000  
G10  20317164.819   106767410.328       -1407.490          44.000    20317174.713    79728950.937       -1050.680          32.000  
G23  22127415.109   116280346.7531      -3386.085          21.000                                                                  
G25  20930781.222   109991971.238       -1373.128          29.000                                                                  
G32  21408972.976   112504884.1101        787.842          26.000    21408964.882    84013385.438         587.752          31.000  
> 2021 09 12 11 03 12.9997612  0 11                     
C03  36477502.451   189947908.131        -367.723          42.000  
C06  36699838.431   191105664.599        -262.068          28.000  
C07  37861208.930   197153296.758        1036.873          24.000  
C08  38509351.830   200528336.647       -2210.630          29.000  
C16  37335143.618   194413779.933        -224.310          30.000  
C23  23227416.894   120951225.161        1329.577          24.000  
C25  22014277.333   114634086.711       -1283.992          30.000  
G10  20317373.475   106768503.633       -1408.407          44.000    20317381.869    79729767.389       -1050.979          32.000  
G25  20930982.682   109993029.645       -1373.949          29.000                                                                  
G31  21340404.146   112144666.3761        635.842          29.000                                                                  
G32  21408769.417   112503781.707         786.835          24.000    21408754.728    84012562.390         587.020          32.000  
> 2021 09 12 11 03 13.9997609  0 12                     
C03  36477483.564   189947807.383        -367.449          42.000  
C06  36699799.458   191105457.648        -261.090          28.000  
C07  37860921.430   197151791.575        1036.612          25.000  
C08  38509684.300   200530076.138       -2208.770          29.000  
C16  37335097.450   194413535.501        -223.640          30.000  
C23  23227069.734   120949427.462        1329.262          26.000  
C25  22014435.923   114634903.053       -1285.691          29.000  
C33  22478095.538   117049384.3821      -1364.746          22.000  
G10  20317551.852   106769439.608       -1410.169          44.000    20317559.946    79730466.289       -1052.284          32.000  
G25  20931154.163   109993930.951       -1374.224          28.000                                                                  
G31  21340195.790   112143558.190         635.406          32.000                                                                  
G32                                                                  21408514.894    84011621.383         585.308          32.000  
> 2021 09 12 11 03 14.9997609  0 13                     
C03  36477553.415   189948174.397        -366.668          43.000  
C06  36699850.122   191105718.648        -261.142          27.000  
C07  37860722.367   197150754.701        1036.644          23.000  
C08  38510112.704   200532283.908       -2209.434          29.000  
C09  37725381.662   196445915.0591       -371.024          28.000  
C13  37527403.219   195415125.2741      -2042.362          22.000  
C16  37335139.721   194413759.194        -223.612          30.000  
C23  23226813.412   120948097.892        1329.017          25.000  
C25  22014682.353   114636188.741       -1285.725          29.000  
G10  20317820.466   106770848.949       -1410.310          44.000    20317827.361    79731518.726       -1053.272          32.000  
G25  20931414.983   109995305.509       -1374.807          26.000                                                                  
G31  21340077.672   112142922.840         635.567          31.000                                                                  
G32                                                                  21408365.297    84011033.546         587.142          32.000  
> 2021 09 12 11 03 15.9997606  0 11                     
C03  36477533.629   189948072.660        -366.874          42.000  
C06  36699809.950   191105511.475        -261.628          28.000  
C08  38510447.872   200534023.373       -2208.234          29.000  
C16  37335091.754   194413514.297        -222.958          29.000  
C23  23226466.552   120946300.111        1330.847          25.000  
C25  22014840.643   114637006.633       -1287.052          29.000  
G10  20317998.842   106771786.258       -1410.262          44.000    20318005.737    79732218.658       -1054.247          32.000  
G23  22129737.302   116292634.7431      -3387.619          23.000                                                                  
G25  20931584.965   109996207.990       -1375.261          26.000                                                                  
G31  21339867.517   112141816.246         633.984          31.000                                                                  
G32                                                                  21408125.763    84010092.676         587.026          33.000  
> 2021 09 12 11 03 16.9997604  0 10                     
C03  36477543.822   189948127.235        -366.970          42.000  
C06  36699801.256   191105460.602        -261.540          29.000  
C08  38510808.222   200535918.856       -2209.116          30.000  
C16  37335073.766   194413425.759        -224.302          30.000  
C23  23226148.472   120944657.786        1330.744          24.000  
C25  22015031.011   114637981.239       -1286.765          27.000  
G10  20318205.999   106772881.584       -1410.418          44.000    20318214.393    79733036.658       -1053.270          32.000  
G23  22130316.800   116295707.285       -3387.926          25.000                                                                  
G31  21339687.642   112140866.625         634.777          30.000                                                                  
G32                                                                  21407915.908    84009269.522         587.075          32.000  
> 2021 09 12 11 03 17.9997601  0 11                     
C03  36477524.635   189948025.869        -367.201          43.000  
C06  36699761.983   191105252.662        -260.562          27.000  
C08  38511145.789   200537658.404       -2205.949          29.000  
C16  37335026.399   194413181.603        -224.723          29.000  
C23  23225801.612   120942860.139        1328.971          24.000  
C25  22015189.002   114638798.545       -1284.896          26.000  
G10  20318385.275   106773820.197       -1411.292          44.000    20318392.769    79733737.508       -1053.383          32.000  
G23  22130867.219   116298622.625       -3387.886          25.000                                                                  
G25  20931953.710   109998172.7951      -1376.965          24.000                                                                  
G31  21339478.387   112139759.197         634.785          31.000                                                                  
G32  21407652.690   112498110.8701        787.113          23.000    21407676.374    84008328.875         587.269          32.000  
> 2021 09 12 11 03 18.9997599  0 11                     
C03  36477536.327   189948080.851        -367.498          42.000  
C06  36699751.191   191105201.595        -262.186          27.000  
C08  38511510.636   200539554.200       -2207.698          30.000  
C16  37335009.311   194413093.953        -224.006          29.000  
C23  23225485.631   120941219.574        1327.535          24.000  
C25  22015376.672   114639772.163       -1286.216          28.000  
G10  20318593.331   106774916.993       -1411.633          45.000    20318601.125    79734556.574       -1052.090          32.000  
G23  22131448.817   116301696.146       -3389.332          24.000                                                                  
G25  20932155.470   109999235.040       -1377.570          25.000                                                                  
G31  21339297.312   112138809.819         633.974          32.000                                                                  
G32                                                                  21407466.519    84007505.872         586.440          33.000  
> 2021 09 12 11 03 19.9997596  0 11                     
C03  36477517.140   189947979.508        -367.128          42.000  
C06  36699711.319   191104995.390        -262.820          27.000  
C08  38511842.506   200541293.693       -2205.855          30.000  
C16  37334962.543   194412848.875        -222.695          28.000  
C23  23225141.169   120939423.440        1327.980          26.000  
C25  22015533.463   114640590.563       -1287.284          29.000  
C33  22479267.727   117055548.3191      -1366.737          22.000  
G10  20318772.906   106775856.592       -1412.295          45.000    20318780.101    79735258.217       -1054.028          32.000  
G25  20932326.352   110000141.348       -1379.663          25.000                                                                  
G31  21339088.357   112137703.930         633.447          32.000                                                                  
G32                                                                  21407226.386    84006565.234         589.596          33.000  
> 2021 09 12 11 03 20.9997594  0 11                     
C03  36477526.134   189948034.640        -368.182          36.000  
C06  36699700.826   191104946.067        -262.969          26.000  
C08  38512205.855   200543188.695       -2206.994          28.000  
C09  37725355.880   196445794.1611       -370.093          29.000  
C16  37334948.753   194412759.649        -223.684          23.000  
C23  23224827.287   120937784.001        1326.333          26.000  
C25  22015720.534   114641566.283       -1288.845          30.000  
G10  20318981.262   106776955.397       -1414.573          43.000    20318989.656    79736078.676       -1054.965          31.000  
G25  20932527.213   110001206.266       -1380.817          22.000                                                                  
G31  21338909.380   112136755.461         632.625          31.000                                                                  
G32                                                                  21407016.231    84005744.459         584.289          31.000  
> 2021 09 12 11 03 21.9997591  0 11                     
C03  36477505.748   189947934.329        -368.182          34.000  
C06  36699663.951   191104740.262        -262.742          19.000  
C08  38512540.123   200544929.408       -2208.882          24.000  
C09  37725338.492   196445696.368        -370.041          32.000  
C23  23224482.226   120935989.154        1326.166          31.000  
C25  22015879.124   114642387.367       -1289.572          30.000  
G10  20319160.538   106777897.566       -1417.178          45.000    20319168.932    79736782.272       -1058.081          31.000  
G23  22133130.952   116310605.2421      -3392.764          22.000                                                                  
G25  20932699.594   110002115.271       -1383.616          25.000                                                                  
G31  21338700.125   112135651.366         630.641          30.000                                                                  
G32                                                                  21406780.594    84004805.223         586.847          24.000  
> 2021 09 12 11 03 22.9997588  0  9                     
C03  36477485.362   189947834.127        -368.318          35.000  
C06  36699627.377   191104536.012        -265.821          24.000  
C09  37725319.904   196445599.566        -372.250          27.000  
C23  23224136.265   120934194.304        1328.143          34.000  
C25  22016037.414   114643209.845       -1291.288          28.000  
G10  20319346.709   106778837.624       -1412.082          36.000    20319348.808    79737486.246       -1057.316          33.000  
G23  22133684.069   116313524.678       -3392.088          26.000                                                                  
G31  21338493.868   112134546.598         632.874          24.000                                                                  
G32                                                                  21406540.760    84003865.597         585.036          23.000  
> 2021 09 12 11 03 23.9997588  0  9                     
C02  37168589.121   193546598.2691       -348.641          31.000  
C08  38513300.097   200548882.9291      -2211.698          16.000  
C09  37725391.555   196445971.964        -369.968          24.000  
C23  23223879.043                        1324.900          35.000  
C25  22016288.341   114644500.784       -1289.986          24.000  
G10  20319616.222   106780251.863       -1415.608          30.000    20319618.921    79738544.599       -1058.273          26.000  
G23  22134324.426   116316916.536       -3391.312          22.000                                                                  
G31  21338374.251   112133914.289         631.907          25.000                                                                  
G32                                                                  21406389.965    84003280.776         584.772          23.000  
> 2021 09 12 11 03 24.9997588  0  7                     
C09  37725460.207   196446341.415        -369.697          25.000  
C23  23223623.620   120931508.4571       1326.443          42.000  
C25  22016534.171   114645790.560       -1290.932          24.000  
G10  20319883.937   106781668.008       -1417.358          25.000    20319890.233    79739602.646       -1058.874          21.000  
G23  22134965.982   116320031.566       -3392.268          21.000                                                                  
G31  21338255.233   112133282.824         630.985          27.000                                                                  
G32  21406217.284   112490559.4421        784.344          30.000    21406240.968    84002697.609         581.305          18.000  
> 2021 09 12 11 03 25.9997586  0 10                     
C02  37168663.470   193546981.9461       -347.350          33.000  
C06  36699712.518   191105017.0571       -262.684          21.000  
C09  37725471.000   196446397.987        -368.114          25.000  
C16  37334903.784   194412635.8971       -227.638          22.000  
C23  23223309.138   120929871.539        1327.097          39.000  
C25  22016719.442   114646769.756       -1293.297          25.000  
G10  20320091.393   106782770.863       -1418.597          29.000    20320100.387    79740425.940       -1059.760          26.000  
G23  22135549.378   116323108.820       -3392.582          23.000                                                                  
G31  21338075.658   112132337.955         628.611          26.000                                                                  
G32                                                                  21406033.511    84001881.576         579.620          16.000  
> 2021 09 12 11 03 26.9997583  0  8                     
C08  38514423.719   200554722.3311      -2204.711          16.000  
C09  37725449.715   196446297.266        -366.115          23.000  
C23  23222967.074   120928078.219        1327.320          38.000  
C25  22016876.833   114647593.530       -1290.970          23.000  
G10  20320269.170   106783717.471       -1419.733          30.000    20320280.862    79741134.009       -1060.775          21.000  
G23  22136100.097   116326028.128       -3393.229          20.000                                                                  
G31  21337867.602   112131237.239         628.078          23.000                                                                  
G32  21405773.891   112488202.7481        784.913          27.000    21405795.476    84000947.621         582.587          16.000  
> 2021 09 12 11 03 27.9997581  0 10                     
C06  36699658.255   191104759.9201       -261.872          18.000  
C09  37725459.908   196446351.792        -367.820          23.000  
C16  37334838.129   194412306.2581       -226.388          19.000  
C23  23222655.290   120926442.098        1324.456          36.000  
C25  22017065.403   114648572.479       -1290.679          24.000  
G10  20320477.826   106784821.819       -1419.033          28.000    20320491.916    79741960.620       -1065.985          22.000  
G23  22136684.092   116329105.999       -3393.266          19.000                                                                  
G25  20933985.703   110008848.4801      -1388.693          18.000                                                                  
G31  21337688.626   112130294.049         628.641          23.000                                                                  
G32  21405563.437   112487102.771         784.455          23.000    21405587.120    84000130.389         582.769          16.000  
> 2021 09 12 11 03 28.9997578  0  6                     
C09  37725440.721   196446252.741        -369.243          22.000  
C23  23222311.428   120924649.973        1322.855          31.000  
C25  22017223.094   114649395.235       -1292.377          21.000  
G10  20320655.303   106785768.961       -1419.923          30.000    20320672.091    79742673.335       -1066.665          20.000  
G31  21337479.071   112129193.751         627.069          26.000                                                                  
G32  21405325.701   112485846.546         783.049          25.000    21405347.886    83999192.706         585.739          16.000  
> 2021 09 12 11 03 29.9997576  0  8                     
C03  36477612.474   189948481.7781       -366.751          34.000  
C09  37725454.811   196446311.116        -371.003          23.000  
C23  23221997.246   120923014.754        1322.873          26.000  
C25  22017408.665   114650375.764       -1291.863          25.000  
G10  20320866.057   106786874.478       -1420.971          35.000    20320882.546    79743504.249       -1063.173          21.000  
G23  22137829.899   116335106.8891      -3394.551          17.000                                                                  
G31  21337297.696   112128251.652         627.811          25.000                                                                  
G32  21405120.643   112484747.910         783.244          23.000    21405138.031    83998370.494         588.495          14.000  
> 2021 09 12 11 03 30.9997573  0  9                     
C03  36477595.986   189948382.555        -370.805          33.000  
C09  37725438.323   196446213.058        -370.294          23.000  
C16  37334722.709   194411723.7051       -219.224          18.000  
C23  23221652.185   120921224.853        1321.273          24.000  
C25  22017565.457   114651199.592       -1291.673          24.000  
G10  20321046.832   106787822.866       -1421.138          37.000    20321060.323    79744213.409       -1061.631          27.000  
G23  22138386.014   116338029.815       -3396.369          24.000                                                                  
G31  21337089.940   112127149.876         628.232          17.000                                                                  
G32  21404884.407   112483491.736         782.886          23.000    21404899.097    83997430.577         586.532          13.000  
> 2021 09 12 11 03 31.9997571  0  6                     
C06  36699556.326   191104249.2261       -264.946          18.000  
C09  37725452.113   196446271.443        -369.191          24.000  
C23  23221341.000   120919591.256        1321.245          24.000  
C25  22017753.426   114652178.895       -1290.786          25.000  
G10  20321258.785   106788929.215       -1421.738          42.000    20321268.978    79745039.407       -1061.070          34.000  
G32  21404676.051   112482392.805         785.790          21.000    21404689.842    83996609.641         585.123          12.000  
> 2021 09 12 11 03 32.9997568  0 11                     
C03  36477592.688   189948349.8611       -376.087          37.000  
C06  36699516.154   191104043.464        -261.361          18.000  
C09  37725429.629   196446171.496        -367.466          26.000  
C16  37334657.954   194411385.2641       -222.453          17.000  
C23  23220998.637   120917801.097        1321.364          22.000  
C25  22017910.518   114653001.864       -1292.542          26.000  
G10  20321442.258                       -1423.654          43.000    20321449.453    79745747.731       -1062.542          35.000  
G23  22139530.622   116344037.5241      -3398.592          21.000                                                                  
G25  20934927.351   110013748.3061      -1389.385          18.000                                                                  
G31  21336703.208   112125106.0351        626.050          22.000                                                                  
G32  21404434.418   112481133.305         786.592          23.000    21404450.607    83995670.107         582.503          12.000  
> 2021 09 12 11 03 33.9997565  0  8                     
C03  36477576.499   189948257.500        -375.530          32.000  
C07  37855624.696   197124219.1151       1032.860          32.000  
C09  37725407.444   196446071.990        -370.030          25.000  
C23  23220653.276   120916010.526        1320.655          22.000  
C25  22018065.810   114653826.339       -1292.955          27.000  
G10  20321624.532   106790849.9931      -1421.481          43.000    20321630.828    79746457.476       -1063.051          37.000  
G25  20935105.728   110014665.325       -1388.561          18.000                                                                  
G32  21404198.182   112479875.906         782.576          26.000    21404211.673    83994724.172         583.922          11.000  
> 2021 09 12 11 03 34.9997565  0  9                     
C03  36477647.850   189948632.602        -374.570          30.000  
C07  37855425.934   197123186.741        1032.347          27.000  
C09  37725478.794   196446442.817        -370.933          27.000  
C23  23220401.151   120914689.583        1322.294          25.000  
C25  22018311.340   114655118.932       -1292.783          31.000  
G10  20321894.046   106792274.236       -1423.763          43.000    20321901.840    79747520.647       -1062.644          38.000  
G23  22140735.188   116350359.1031      -3395.841          20.000                                                                  
G25  20935368.646   110016052.906       -1386.885          19.000                                                                  
G32  21404050.084   112479093.042         781.755          26.000    21404062.376    83994138.172         587.217          10.000  
> 2021 09 12 11 03 35.9997563  0  9                     
C07  37855168.112   197121842.167        1032.369          27.000  
C09  37725492.885   196446501.630        -371.004          24.000  
C23  23220089.666   120913055.104        1322.747          24.000  
C25  22018499.310   114656099.662       -1292.853          29.000  
G10  20322105.699                       -1424.291          41.000    20322112.894                       -1063.764          36.000  
G23  22141330.876   116353440.303       -3396.706          22.000                                                                  
G25  20935572.505   110017125.347       -1387.939          27.000                                                                  
G31  21336218.144   112122433.8481        626.862          21.000                                                                  
G32  21403841.129   112477995.052         783.105          26.000    21403852.221                         585.696          13.000  
> 2021 09 12 11 03 36.9997560  0  9                     
C07  37854878.813   197120341.924        1032.362          28.000  
C09  37725474.897   196446402.871        -369.666          27.000  
C23  23219746.104   120911265.010        1321.406          25.000  
C25  22018657.601   114656924.498       -1293.720          28.000  
G10  20322285.874   106794337.9481      -1422.131          41.000    20322293.669    79749047.2101      -1064.690          35.000  
G23  22141888.789   116356364.930       -3397.522          19.000                                                                  
G25  20935743.386   110018040.541       -1387.242          26.000                                                                  
G31  21336011.886   112121335.081         625.373          26.000                                                                  
G32  21403601.895   112476739.617         782.926          29.000    21403613.587                         584.083          13.000  
> 2021 09 12 11 03 37.9997558  0  8                     
C07  37854619.792   197118996.959        1032.583          28.000  
C09  37725489.587   196446460.307        -369.581          28.000  
C23  23219434.020   120909631.403        1321.138          25.000  
C25  22018846.170   114657907.125       -1295.973          27.000  
G10  20322495.729                       -1425.645          42.000    20322504.723    79749876.577       -1065.026          36.000  
G23  22142475.483   116359447.799       -3398.032          25.000                                                                  
G25  20935946.346   110019113.405       -1388.825          23.000                                                                  
G32  21403393.239   112475641.818         782.305          28.000    21403405.531    83991559.2991        583.327          12.000  
> 2021 09 12 11 03 38.9997555  0  8                     
C07  37854331.691   197117495.978        1033.162          32.000  
C09  37725473.398   196446361.412        -369.620          28.000  
C23  23219090.458   120907841.022        1322.256          28.000  
C25  22019005.360   114658736.292       -1299.255          28.000  
G10  20322678.303                       -1425.039          41.000    20322686.097    79750588.639       -1063.935          36.000  
G23  22143030.999   116362372.420       -3397.660          22.000                                                                  
G25  20936116.928   110020030.162       -1389.900          25.000                                                                  
G32                                                                  21403166.296    83990623.780         583.181          13.000  
> 2021 09 12 11 03 39.9997553  0  6                     
C07  37854073.270   197116150.403        1033.696          35.000  
C23  23218777.175   120906206.853        1321.112          24.000  
G10  20322890.256   106797500.6731      -1425.916          44.000    20322897.451    79751418.711       -1064.716          34.000  
G23  22143616.493   116365455.856       -3399.111          26.000                                                                  
G25  20936323.485   110021105.775       -1391.099          24.000                                                                  
G32                                                                  21402956.142    83989804.167         585.522          14.000  
> 2021 09 12 11 03 40.9997553  0  7                     
C07  37853875.707   197115116.859        1032.740          35.000  
C23  23218523.850   120904886.966        1319.269          26.000  
G10  20323161.268                       -1429.587          42.000    20323169.363    79752484.370       -1068.626          35.000  
G23  22144263.146   116368854.713       -3397.262          28.000                                                                  
G25  20936588.801   110022497.170       -1391.740          23.000                                                                  
G31  21335319.666   112117728.9891        623.675          21.000                                                                  
G32  21402803.847   112472507.9171        781.522          30.000    21402806.545    83989218.931         584.579          14.000  
> 2021 09 12 11 03 41.9997550  0  6                     
C07  37853587.906                        1033.043          34.000  
C23  23218180.588   120903101.265        1317.017          21.000  
G10  20323344.741   106799889.2011      -1427.783          43.000    20323351.636    79753197.998       -1067.546          37.000  
G23  22144818.061   116371779.583       -3399.416          21.000                                                                  
G25  20936762.681   110023417.928       -1394.333          23.000                                                                  
G32  21402567.611   112471253.529         781.677          31.000    21402567.311    83988281.689         584.137          15.000  
> 2021 09 12 11 03 42.9997548  0  7                     
C07  37853330.085   197112222.4421       1032.712          35.000  
C23  23217869.104   120901472.854        1316.278          25.000  
G10  20323555.196   106801004.905       -1429.439          43.000    20323563.590    79754030.085       -1066.853          38.000  
G23  22145406.254   116374864.738       -3400.984          26.000                                                                  
G25  20936965.940   110024497.254       -1394.033          22.000                                                                  
G31  21334930.235   112115695.4591        621.571          24.000                                                                  
G32                                                                  21402357.456    83987462.624         582.360          18.000  
> 2021 09 12 11 03 43.9997545  0  6                     
C07  37853043.783   197110720.392        1033.673          29.000  
C23  23217528.839   120899688.841        1314.479          24.000  
G10  20323737.769                       -1427.234          41.000    20323745.264    79754744.962       -1068.943          39.000  
G23  22145963.269   116377792.841       -3401.109          26.000                                                                  
G25  20937141.918   110025419.748       -1396.539          23.000                                                                  
G32                                                                  21402117.322    83986526.709         583.657          19.000  
> 2021 09 12 11 03 44.9997542  0  7                     
C07  37852755.383   197109218.875        1032.526          34.000  
C23  23217186.776   120897905.578        1315.380          23.000  
G10  20323921.542   106802920.5421      -1428.722          36.000    20323926.938    79755459.588       -1066.106          33.000  
G23  22146519.384   116380721.814       -3402.224          24.000                                                                  
G25  20937318.196   110026343.683       -1396.464          21.000                                                                  
G31  21334505.729   112113505.9811        622.987          26.000                                                                  
G32                                                                  21401877.788    83985591.073         582.260          18.000  
> 2021 09 12 11 03 45.9997540  0  6                     
C03  36477669.735   189948761.4141       -365.789          33.000  
C07  37852496.662   197107874.412        1032.322          33.000  
G10  20324134.694   106804037.908       -1432.164          32.000    20324138.891    79756291.071       -1068.002          27.000  
G23  22147103.679   116383809.776       -3403.818          23.000                                                                  
G25  20937526.852   110027425.901       -1398.554          21.000                                                                  
G32  21401667.634   112466549.6841        782.350          26.000    21401668.233    83984773.132         585.164          18.000  
> 2021 09 12 11 03 46.9997537  0  7                     
C03  36477652.347   189948659.188        -366.564          34.000  
C07  37852208.861   197106375.505        1029.115          30.000  
G10  20324313.970   106804997.030       -1431.601          31.000    20324322.364    79757008.453       -1071.861          28.000  
G23  22147661.593   116386739.190       -3401.672          23.000                                                                  
G25  20937706.427   110028351.988       -1398.659          15.000                                                                  
G31  21334113.301   112111472.3681        621.976          21.000                                                                  
G32  21401426.900   112465294.967         781.423          23.000    21401429.599    83983835.431         585.095          17.000  
> 2021 09 12 11 03 47.9997537  0  6                     
C03  36477725.196   189949026.122        -367.768          35.000  
C07  37852011.598   197105346.024        1030.341          29.000  
G10  20324590.379   106806429.744       -1434.785          34.000    20324595.475    79758078.067       -1070.642          24.000  
G23  22148308.245   116390139.312       -3400.090          19.000                                                                  
G31  21333994.583   112110850.728         621.736          26.000                                                                  
G32                                                                  21401279.403    83983247.606         589.605          14.000  
> 2021 09 12 11 03 48.9997535  0  7                     
C03  36477736.888   189949081.772        -368.672          35.000  
C07  37851751.678   197104001.717        1032.985          29.000  
G10  20324802.932   106807548.650       -1433.737          31.000    20324808.628    79758913.477       -1070.527          24.000  
G23  22148897.337   116393224.827       -3401.180          24.000                                                                  
G25  20938173.204   110030832.4071      -1399.608          20.000                                                                  
G31  21333812.309   112109914.230         620.396          25.000                                                                  
G32  21401056.657   112463410.3991        786.347          27.000    21401067.749    83982387.316         586.718          11.000  
> 2021 09 12 11 03 49.9997532  0  7                     
C03  36477718.901   189948982.254        -369.095          32.000  
C07  37851462.078   197102500.544        1032.380          29.000  
G10  20324985.805   106808509.851       -1434.224          30.000    20324992.401    79759631.935       -1072.167          30.000  
G23  22149457.050   116396154.637       -3403.622          22.000                                                                  
G25  20938347.983   110031759.112       -1399.482          20.000                                                                  
G31  21333603.354   112108822.055         617.903          23.000                                                                  
G32  21400815.624   112462151.378         786.363          26.000    21400828.215    83981447.381         583.549          11.000  
> 2021 09 12 11 03 50.9997530  0  6                     
C03  36477730.892   189949038.403        -368.243          29.000  
C07  37851203.657   197101155.735        1031.706          31.000  
G10  20325198.658   106809629.105       -1434.239          31.000    20325206.452    79760468.158       -1072.137          25.000  
G23  22150044.044   116399243.405       -3405.018          23.000                                                                  
G25  20938552.442   110032843.212       -1399.519          26.000                                                                  
G32  21400605.769   112461051.370         783.357          26.000    21400618.360    83980623.091         585.993          10.000  
> 2021 09 12 11 03 51.9997527  0  6                     
C07  37850914.957   197099655.227        1032.678          28.000  
G10  20325381.831   106810591.230       -1435.271          30.000    20325390.225    79761187.987       -1074.888          22.000  
G23  22150599.559   116402175.232       -3403.896          27.000                                                                  
G25  20938730.219   110033769.782       -1399.773          24.000                                                                  
G31  21333213.923   112106796.6951        617.884          23.000                                                                  
G32  21400368.033   112459795.680         782.615          22.000                                                                  
> 2021 09 12 11 03 52.9997524  0  6                     
C03  36477693.119   189948834.7631       -366.410          35.000  
C07  37850626.556   197098154.670        1031.961          28.000  
G10  20325564.105   106811554.204       -1435.467          36.000    20325572.799    79761907.369       -1071.478          20.000  
G23  22151157.173   116405107.352       -3404.889          26.000                                                                  
G25  20938905.297   110034697.437       -1401.204          22.000                                                                  
G31  21333004.069   112105705.525         618.534          24.000                                                                  
> 2021 09 12 11 03 53.9997522  0  5                     
C03  36477704.511   189948888.872        -366.528          38.000  
C07  37850368.435   197096810.711        1032.100          25.000  
G10  20325777.857   106812675.423       -1436.816          34.000    20325784.752    79762742.828       -1071.572          26.000  
G23  22151743.267   116408197.070       -3405.613          23.000                                                                  
G25  20939108.857   110035783.207       -1400.383          27.000                                                                  
> 2021 09 12 11 03 54.9997519  0  6                     
C03  36477686.223   189948787.387        -367.140          37.000  
C07  37850081.834   197095310.417        1031.772          24.000  
G10  20325959.531   106813639.561       -1436.951          30.000    20325966.726    79763461.473       -1072.322          23.000  
G23  22152302.980   116411130.327       -3406.064          25.000                                                                  
G25  20939282.736   110036712.111       -1402.190          28.000                                                                  
G31  21332613.439   112103679.3751        619.265          23.000                                                                  
> 2021 09 12 11 03 55.9997517  0  6                     
C03  36477696.716   189948843.580        -369.719          34.000  
C07  37849824.312   197093965.942        1032.203          25.000  
G10  20326171.184   106814761.710       -1437.472          31.000    20326181.377    79764299.807       -1074.550          26.000  
G25  20939487.195   110037799.933       -1404.257          28.000                                                                  
G31  21332433.564   112102744.725         620.266          27.000                                                                  
G32  21399458.163   112455091.3631        780.843          25.000                                                                  
> 2021 09 12 11 03 56.9997517  0  7                     
C03  36477766.867   189949213.108        -369.612          33.000  
C07  37849625.549   197092932.711        1033.327          27.000  
G10  20326443.396   106816199.874       -1439.593          31.000    20326456.887    79765375.112       -1076.391          26.000  
G23  22153537.225   116417621.1981      -3405.075          21.000                                                                  
G25  20939752.811   110039203.924       -1403.840          27.000                                                                  
G31  21332314.846   112102124.725         619.319          23.000                                                                  
G32  21399306.768   112454312.011         778.143          25.000                                                                  
> 2021 09 12 11 03 57.9997514  0  7                     
C03  36477747.981   189949114.269        -369.691          33.000  
C07  37849338.348   197091432.257        1030.590          26.000  
C09  37725598.112   196446991.3841       -370.489          31.000  
G10  20326628.068   106817167.251       -1439.928          29.000    20326642.158    79766098.564       -1076.639          24.000  
G25  20939930.288   110040134.730       -1403.228          25.000                                                                  
G31  21332107.989   112101034.125         617.298          25.000                                                                  
G32  21399063.637   112453060.741         777.524          24.000                                                                  
> 2021 09 12 11 03 58.9997514  0  8                     
C03  36477819.931   189949483.907        -369.826          35.000  
C07  37849140.485   197090402.401        1030.489          31.000  
C09  37725669.462   196447361.686        -369.759          26.000  
G10  20326900.580   106818607.167       -1439.814          33.000    20326917.968    79767175.306       -1077.350          28.000  
G23  22154744.490   116423958.7501      -3406.969          20.000                                                                  
G25  20940197.703   110041537.788       -1403.802          24.000                                                                  
G31  21331991.370   112100416.795         617.984          26.000                                                                  
G32  21398912.541   112452283.649         776.696          25.000                                                                  
> 2021 09 12 11 03 59.9997512  0  7                     
C03  36477831.623   189949541.415        -370.003          34.000  
C07  37848882.964   197089059.963        1029.969          28.000  
C09  37725681.154   196447419.475        -369.878          26.000  
G10  20327113.432   106819731.751       -1439.966          31.000    20327129.921    79768015.521       -1075.429          21.000  
G25  20940403.960   110042627.404       -1406.016          23.000                                                                  
G31  21331812.394   112099482.991         618.465          25.000                                                                  
G32  21398702.087   112451189.292         780.899          23.000                                                                  
> 2021 09 12 11 04 00.9997509  0  7                     
C03  36477812.436   189949442.748        -369.695          32.000  
C07  37848595.762   197087562.220        1029.238          22.000  
C09  37725662.267   196447321.074        -370.021          30.000  
G23  22155895.992   116429990.0931      -3411.237          19.000                                                                  
G25  20940577.840   110043561.308       -1406.869          29.000                                                                  
G31  21331604.038   112098391.978         618.027          26.000                                                                  
G32  21398461.653   112449935.513         780.422          26.000                                                                  
> 2021 09 12 11 04 01.9997507  0  8                     
C03  36477823.828   189949500.175        -369.910          35.000  
C07  37848339.440   197086220.546        1030.214          26.000  
C09  37725673.360   196447378.470        -370.023          29.000  
G10  20327514.255   106821826.8031      -1442.211          31.000                                                                  
G23  22156487.483   116433085.670       -3410.424          23.000                                                                  
G25  20940786.195   110044653.146       -1407.225          25.000                                                                  
G31  21331422.364   112097458.707         617.782          24.000                                                                  
G32  21398252.098   112448574.165         780.275          23.000                                                                  
> 2021 09 12 11 04 02.9997504  0  7                     
C03  36477804.342   189949401.556        -369.830          32.000  
C07  37848050.440   197084721.473        1031.220          29.000  
C09  37725655.372   196447280.013        -369.373          30.000  
G10  20327698.027   106822796.717       -1443.321          29.000                                                                  
G23  22157048.694   116436022.123       -3408.022          21.000                                                                  
G25  20940961.874   110045587.784       -1407.529          28.000                                                                  
G31  21331211.609   112096369.804         615.080          26.000                                                                  
> 2021 09 12 11 04 03.9997501  0  7                     
C03  36477785.754   189949303.048        -370.087          33.000  
C09  37725640.383   196447180.987        -369.799          27.000  
G10  20327882.400   106823767.659       -1444.117          34.000                                                                  
G23  22157608.107   116438957.788       -3408.345          20.000                                                                  
G25  20941137.852   110046522.588       -1407.732          31.000                                                                  
G31  21330999.656   112095281.878         615.712          27.000                                                                  
G32  21397775.129   112446069.4351        779.214          23.000                                                                  
> 2021 09 12 11 04 04.9997499  0  7                     
C03  36477797.147   189949360.794        -370.170          34.000  
C09  37725654.773   196447238.649        -370.056          31.000  
G10  20328097.651   106824897.589       -1445.495          34.000                                                                  
G23  22158198.998   116442051.395       -3409.796          24.000                                                                  
G25  20941344.109   110047615.846       -1409.282          26.000                                                                  
G31  21330819.481   112094351.225         615.683          32.000                                                                  
G32  21397563.775   112444974.438         781.535          24.000                                                                  
> 2021 09 12 11 04 05.9997496  0  5                     
C03  36477778.559   189949262.519        -370.254          36.000  
G10  20328281.723   106825869.231       -1443.940          34.000                                                                  
G25  20941525.484   110048552.947       -1410.363          20.000                                                                  
G31  21330608.427   112093262.675         616.260          35.000                                                                  
G32  21397322.742   112443719.375         782.692          25.000                                                                  
> 2021 09 12 11 04 06.9997494  0  6                     
C03  36477790.251   189949320.553        -370.472          33.000  
G10  20328493.377   106826998.443       -1444.995          33.000                                                                  
G23  22159346.604   116448083.3131      -3410.382          21.000                                                                  
G25  20941736.238   110049649.237       -1412.239          23.000                                                                  
G31  21330435.747                         618.982          36.000                                                                  
G32  21397111.388   112442622.159         781.296          25.000                                                                  
> 2021 09 12 11 04 07.9997491  0  7                     
C03  36477772.264   189949222.577        -370.518          34.000  
C09  37725625.993   196447099.2191       -369.229          29.000  
G10  20328686.743   106827971.883       -1447.348          37.000                                                                  
G23  22159907.515   116451021.971       -3412.083          22.000                                                                  
G25  20941916.113   110050589.547       -1413.850          24.000                                                                  
G31  21330227.990   112091105.9771        615.819          36.000                                                                  
G32  21396870.355   112441369.200         779.399          26.000                                                                  
> 2021 09 12 11 04 08.9997491  0  6                     
C03  36477845.113   189949592.864        -370.252          34.000  
G10  20328963.152                       -1444.975          40.000                                                                  
G23  22160555.067   116454433.138       -3411.010          21.000                                                                  
G25  20942183.828   110052003.256       -1415.088          24.000                                                                  
G31  21330111.071   112090490.307         615.244          36.000                                                                  
G32  21396721.058   112440590.529         778.132          26.000                                                                  
> 2021 09 12 11 04 09.9997489  0  5                     
C03  36477855.906   189949650.667        -370.089          38.000  
G10  20329177.803                       -1451.358          35.000                                                                  
G25  20942393.383   110053103.007       -1415.242          22.000                                                                  
G31  21329929.397   112089560.594         613.891          36.000                                                                  
G32  21396510.604   112439496.978         780.606          26.000                                                                  
> 2021 09 12 11 04 10.9997486  0  5                     
C03  36477836.719   189949552.238        -370.113          37.000  
G10  20329363.974                       -1450.158          33.000                                                                  
G23  22161709.868   116460460.9411      -3408.684          22.000                                                                  
G25  20942572.659   110054044.959       -1414.572          25.000                                                                  
G32  21396269.571   112438243.623         780.236          27.000                                                                  
> 2021 09 12 11 04 11.9997484  0  5                     
C03  36477847.811   189949609.736        -369.392          35.000  
G10  20329578.925   106832659.9951      -1446.252          34.000                                                                  
G23  22162298.360   116463556.273       -3410.813          24.000                                                                  
G31  21329548.361   112087544.7961        613.142          35.000                                                                  
G32  21396058.817   112437148.070         779.967          25.000                                                                  
> 2021 09 12 11 04 12.9997484  0  6                     
C03  36477917.363   189949979.170        -369.663          36.000  
G10  20329855.034   106834107.393       -1448.548          32.000                                                                  
G23  22162942.314   116466966.390       -3410.878          24.000                                                                  
G25  20943054.125   110056558.8691      -1414.487          23.000                                                                  
G31  21329432.941   112086932.352         610.489          38.000                                                                  
G32  21395909.520   112436367.895         781.115          25.000                                                                  
> 2021 09 12 11 04 13.9997481  0  6                     
C03  36477898.776   189949880.074        -368.171          36.000  
G10  20330042.105   106835084.600       -1449.519          34.000                                                                  
G23  22163503.526   116469904.544       -3411.542          23.000                                                                  
G25  20943234.900   110057501.340       -1415.744          23.000                                                                  
G31  21329228.482   112085848.265         611.959          35.000                                                                  
G32  21395670.286   112435114.342         780.336          27.000                                                                  
> 2021 09 12 11 04 14.9997478  0  5                     
C03  36477878.390   189949779.836        -368.399          37.000  
G10  20330226.177   106836061.159       -1449.237          31.000                                                                  
G23  22164063.838   116472842.486       -3410.229          23.000                                                                  
G31  21329018.028   112084763.576         609.636          36.000                                                                  
G32  21395431.051   112433861.475         779.837          26.000                                                                  
> 2021 09 12 11 04 15.9997476  0  8                     
C03  36477891.881   189949836.602        -370.243          35.000  
C09  37725707.836   196447702.8821       -365.859          24.000  
C23  23207395.854   120846968.6611       1305.043          35.000  
G10  20330440.529   106837195.738       -1450.182          32.000                                                                  
G23  22164654.129   116475936.675       -3408.473          19.000                                                                  
G25  20943625.530   110059547.4551      -1418.248          23.000                                                                  
G31  21328843.249   112083836.760         611.903          36.000                                                                  
G32  21395219.997   112432766.671         780.218          28.000                                                                  
> 2021 09 12 11 04 16.9997473  0  4                     
C03  36477874.793   189949737.782        -368.504          34.000  
C23  23207051.093   120845195.799        1304.656          38.000  
G10  20330626.700   106838171.915       -1449.305          31.000                                                                  
G31  21328636.092   112082752.105         612.415          38.000                                                                  
> 2021 09 12 11 04 17.9997471  0  6                     
C03  36477884.086   189949794.207        -369.017          33.000  
C23  23206738.709                        1302.136          40.000  
G10  20330840.752   106839306.731       -1449.705          30.000                                                                  
G25  20944027.252   110061596.8731      -1421.217          20.000                                                                  
G31  21328456.817   112081825.648         610.962          38.000                                                                  
G32  21394776.604   112430419.0121        779.203          24.000                                                                  
> 2021 09 12 11 04 18.9997468  0  6                     
C03  36477864.000   189949694.917        -369.319          32.000  
C23  23206398.445   120841805.4591       1303.826          39.000  
G23  22166385.730   116484901.0071      -3407.648          20.000                                                                  
G25  20944206.228   110062544.494       -1419.253          21.000                                                                  
G31  21328249.060                         609.696          40.000                                                                  
G32  21394538.869   112429167.366         779.281          26.000                                                                  
> 2021 09 12 11 04 19.9997468  0  6                     
C03  36477933.552   189950063.496        -366.739          27.000  
C09  37725716.830   196447907.4381       -362.565          24.000  
C23  23206152.015   120840502.738        1304.039          39.000  
G10  20331304.231   106841736.2781      -1452.986          30.000                                                                  
G23  22167035.381   116488310.013       -3409.612          21.000                                                                  
G31  21328135.739                         612.030          36.000                                                                  
> 2021 09 12 11 04 20.9997466  0  5                     
C23  23205841.130   120838888.144        1303.800          42.000  
G10  20331522.180   106842873.768       -1451.505          27.000                                                                  
G23  22167625.672   116491404.573       -3409.933          25.000                                                                  
G31  21327957.662   112079173.3141        607.116          38.000                                                                  
G32  21394179.718   112427293.6151        778.890          24.000                                                                  
> 2021 09 12 11 04 21.9997463  0  6                     
C13  37549405.288   195529762.9901      -2052.505          29.000  
C23  23205499.967   120837119.332        1299.789          38.000  
G10  20331711.649   106843854.401       -1454.531          29.000                                                                  
G23  22168188.383   116494616.852       -3411.145          26.000                                                                  
G31  21327751.705   112078093.274         608.141          42.000                                                                  
G32  21393940.783   112426040.790         781.301          25.000                                                                  
> 2021 09 12 11 04 22.9997460  0  4                     
C23  23205160.302   120835349.911        1302.244          34.000  
G23  22168746.896   116497556.292       -3412.144          22.000                                                                  
G31  21327548.146   112077012.133         611.547          40.000                                                                  
G32  21393700.349   112424786.929         780.627          26.000                                                                  
> 2021 09 12 11 04 23.9997458  0  3                     
C23  23204849.417   120833734.885        1302.371          31.000  
G31  21327373.666   112076088.946         607.183          34.000                                                                  
G32  21393491.094   112423690.927         779.210          23.000                                                                  
> 2021 09 12 11 04 24.9997455  0  6                     
C13  37550348.735   195534674.0901      -2053.190          20.000  
C23  23204510.951   120831965.816        1302.358          38.000  
G10  20332310.634   106846960.4201      -1456.936          26.000                                                                  
G23  22169898.399   116503593.6521      -3413.792          22.000                                                                  
G31  21327166.510   112075008.587         607.220          35.000                                                                  
G32  21393249.162   112422439.142         779.032          30.000                                                                  
> 2021 09 12 11 04 25.9997453  0  7                     
C13  37550684.802   195536414.355       -2052.649          20.000  
C23  23204201.266   120830351.070        1302.231          35.000  
G10  20332529.483   106848103.265       -1458.345          29.000                                                                  
G23  22170487.491   116506693.341       -3414.908          23.000                                                                  
G25  20945611.355                       -1422.346          36.000                                                                  
G31  21326995.628                         606.798          36.000                                                                  
G32  21393038.108   112421346.369         778.327          28.000                                                                  
> 2021 09 12 11 04 26.9997450  0  7                     
C13  37550990.590   195537998.666       -2053.102          24.000  
C23  23203855.905   120828580.883        1299.627          38.000  
G10  20332718.052   106849089.217       -1459.382          29.000                                                                  
G23  22171046.304   116509636.017       -3414.785          25.000                                                                  
G25  20945793.029   110070885.0611      -1425.043          34.000                                                                  
G31  21326786.673   112073037.2611        610.778          36.000                                                                  
G32  21392799.773   112420095.958         778.173          27.000                                                                  
> 2021 09 12 11 04 27.9997450  0  7                     
C13  37551385.417   195540052.660       -2054.421          26.000  
C23  23203606.477                        1300.604          37.000  
G10  20332994.161   106850548.398       -1459.271          29.000                                                                  
G23  22171698.053   116513052.946       -3416.311          23.000                                                                  
G25  20946063.142   110072309.924       -1425.129          31.000                                                                  
G31  21326676.049                         598.263          34.000                                                                  
G32  21392651.675   112419317.800         777.596          23.000                                                                  
> 2021 09 12 11 04 28.9997448  0  7                     
C03  36477972.525   189950266.9951       -374.507          34.000  
C13  37551717.887   195541795.941       -2055.693          29.000  
C23  23203288.697   120825655.1661       1304.809          37.000  
G23  22172285.046   116516154.359       -3418.258          22.000                                                                  
G25  20946274.496   110073419.466       -1424.831          28.000                                                                  
G31  21326504.568   112071532.3851        594.045          30.000                                                                  
G32  21392443.320   112418225.335         776.400          28.000                                                                  
> 2021 09 12 11 04 29.9997448  0  4                     
C03  36478044.176   189950640.719        -373.225          34.000  
C13  37552110.615   195543851.994       -2056.549          32.000  
G31  21326393.645   112070934.194         601.483          26.000                                                                  
G32  21392293.423   112417448.515         777.401          30.000                                                                  
> 2021 09 12 11 04 30.9997445  0  5                     
C03  36478026.188   189950545.316        -372.763          37.000  
C13  37552414.904   195545440.941       -2058.555          33.000  
G25  20946730.180   110075798.0751      -1426.722          28.000                                                                  
G31  21326186.788   112069857.792         605.692          27.000                                                                  
G32  21392052.390   112416198.319         777.641          32.000                                                                  
> 2021 09 12 11 04 31.9997443  0  5                     
C03  36478037.880   189950605.506        -372.481          36.000  
C13  37552749.473   195547186.100       -2056.903          30.000  
C23  23202398.913   120820975.9771       1296.121          35.000  
G10  20333883.945                       -1459.156          42.000                                                                  
G32  21391845.833   112415106.693         774.243          31.000                                                                  
> 2021 09 12 11 04 32.9997440  0  7                     
C03  36478019.293   189950509.644        -372.020          35.000  
C13  37553054.361   195548773.335       -2055.064          30.000  
C23  23202061.647   120819210.390        1298.282          35.000  
G10  20334072.515                       -1459.839          43.000                                                                  
G23  22174642.015   116528564.6511      -3418.026          23.000                                                                  
G25  20947129.804   110077866.4261      -1430.449          23.000                                                                  
G32  21391609.297   112413859.424         774.407          33.000                                                                  
> 2021 09 12 11 04 33.9997437  0  7                     
C03  36478000.706   189950412.791        -371.460          35.000  
C13  37553357.751   195550359.800       -2054.929          31.000  
C23  23201723.181                        1295.732          38.000  
G10  20334260.484   106857260.8811      -1463.401          41.000                                                                  
G23  22175200.228   116531509.150       -3415.463          23.000                                                                  
G31  21325609.088   112066780.9491        604.985          24.000                                                                  
G32  21391370.662   112412612.283         774.282          37.000                                                                  
> 2021 09 12 11 04 34.9997435  0  8                     
C03  36478011.498   189950471.437        -370.673          35.000  
C13  37553692.919   195552102.416       -2051.515          37.000  
C23  23201410.198   120815850.2561       1299.842          41.000  
G10  20334478.733                       -1466.056          42.000                                                                  
G23  22175783.624   116534608.850       -3414.679          22.000                                                                  
G25  20947529.427   110079941.8281      -1430.788          21.000                                                                  
G31  21325435.508   112065861.085         604.820          25.000                                                                  
G32  21391164.105   112411521.830         775.902          34.000                                                                  
> 2021 09 12 11 04 35.9997432  0  7                     
C03  36477992.012   189950373.433        -370.353          32.000  
C13  37553997.209   195553687.286       -2055.245          33.000  
C23  23201070.833                        1298.871          39.000  
G10  20334668.202   106859397.7551      -1460.809          42.000                                                                  
G23  22176340.639   116537553.070       -3419.604          28.000                                                                  
G25  20947711.101   110080900.970       -1431.979          23.000                                                                  
G32  21390927.569   112410273.188         774.635          34.000                                                                  
> 2021 09 12 11 04 36.9997430  0  7                     
C03  36478001.905   189950431.279        -370.060          32.000  
C13  37554332.077   195555431.426       -2057.731          30.000  
C23  23200760.847   120812455.5641       1297.372          39.000  
G10  20334887.950                       -1461.080          41.000    20334895.445    79798497.8371      -1093.013          36.000  
G23  22176927.333   116540658.260       -3421.006          25.000                                                                  
G31  21325063.166   112063865.7501        603.381          25.000                                                                  
G32  21390721.612   112409183.522         774.483          34.000                                                                  
> 2021 09 12 11 04 37.9997427  0  6                     
C03  36477982.718   189950332.712        -369.767          37.000  
C13  37554637.865   195557021.275       -2058.281          29.000  
C23  23200423.881   120810688.658        1297.388          32.000  
G10  20335076.819   106861552.5341      -1468.889          42.000    20335084.614    79799239.005       -1093.537          37.000  
G31  21324859.607   112062791.253         602.025          27.000                                                                  
G32  21390483.876   112407935.624         776.034          31.000                                                                  
> 2021 09 12 11 04 38.9997427  0  6                     
C03  36478053.469   189950702.072        -369.340          34.000  
C13  37555032.692   195559079.244       -2057.619          32.000  
C23  23200175.952   120809391.783        1295.866          27.000  
G10  20335355.326                       -1467.958          42.000    20335363.421    79800333.284       -1095.427          38.000  
G25  20948386.534   110084418.3521      -1437.541          18.000                                                                  
G32  21390336.978   112407159.123         777.090          31.000                                                                  
> 2021 09 12 11 04 39.9997425  0  6                     
C03  36478063.662   189950758.893        -369.019          32.000  
G10  20335574.475   106864165.3341      -1465.995          45.000    20335582.269    79801192.993       -1094.956          38.000  
G23  22178726.087   116550133.2131      -3420.886          21.000                                                                  
G25  20948602.684   110085538.937       -1435.289          19.000                                                                  
G31  21324576.903   112061275.1451        600.599          25.000                                                                  
G32  21390133.419   112406068.525         774.232          27.000                                                                  
> 2021 09 12 11 04 40.9997422  0  5                     
C03  36478044.775   189950659.357        -368.927          34.000  
C23  23199531.099   120806020.4901       1295.119          27.000  
G10  20335763.944   106865159.717       -1465.312          44.000    20335771.738    79801935.506       -1095.512          38.000  
G25  20948785.558   110086500.299       -1434.749          19.000                                                                  
G31  21324376.941   112060202.436         600.157          23.000                                                                  
> 2021 09 12 11 04 41.9997420  0  6                     
C03  36478056.767   189950715.857        -368.811          33.000  
C23  23199223.812   120804412.164        1296.903          25.000  
G10  20335981.893   106866312.420       -1469.761          42.000    20335990.587    79802796.251       -1096.158          39.000  
G23  22179882.387   116556184.2111      -3420.487          23.000                                                                  
G25  20948996.611   110087619.521       -1433.295          20.000                                                                  
G32  21389684.629   112403728.6431        777.728          25.000                                                                  
> 2021 09 12 11 04 42.9997417  0  5                     
C03  36478038.479   189950616.226        -369.031          33.000  
C23  23198886.845   120802647.350        1295.664          24.000  
G10  20336172.561                       -1469.442          44.000    20336180.056    79803539.336       -1097.228          37.000  
G23  22180442.399   116559132.313       -3421.056          23.000                                                                  
G25  20949176.787   110088579.543       -1432.802          20.000                                                                  
> 2021 09 12 11 04 43.9997414  0  7                     
C03  36478019.892   189950516.790        -369.111          33.000  
C23  23198550.178   120800883.196        1295.320          23.000  
G10  20336361.730   106868303.7621      -1465.891          43.000    20336369.824    79804282.907       -1097.263          38.000  
G23  22181003.911   116562080.934       -3420.803          23.000                                                                  
G25  20949358.461   110089539.510       -1432.234          20.000                                                                  
G31  21323807.635   112057140.4311        600.819          27.000                                                                  
G32  21389209.159   112401228.8581        776.998          26.000                                                                  
> 2021 09 12 11 04 44.9997414  0  3                     
C03  36478090.943   189950885.780        -369.232          34.000  
C23  23198304.348   120799586.693        1296.528          25.000  
G10  20336642.036   106869771.584       -1469.245          44.000    20336649.830    79805380.587       -1095.890          40.000  
> 2021 09 12 11 04 45.9997412  0  6                     
C03  36478102.635   189950942.644        -369.274          34.000  
C07  37836791.135                        1029.379          37.000  
C23  23197996.161   120797977.122        1296.926          27.000  
G10  20336862.683                       -1469.386          44.000    20336868.679    79806242.930       -1097.744          39.000  
G25  20949839.328   110092092.5001      -1434.458          21.000                                                                  
G32  21388849.108   112399360.8531        777.154          26.000                                                                  
> 2021 09 12 11 04 46.9997409  0  6                     
C03  36478084.048   189950843.645        -369.693          33.000  
C07  37836503.034   197024604.0211       1028.311          39.000  
C23  23197658.295   120796212.272        1295.652          29.000  
G10  20337050.053   106871933.3531      -1469.744          43.000    20337058.747    79806987.822       -1100.811          39.000  
G23  22182811.059   116571550.8501      -3420.007          24.000                                                                  
G25  20950021.302   110093055.192       -1435.531          21.000                                                                  
> 2021 09 12 11 04 47.9997407  0  7                     
C03  36478095.440   189950901.021        -369.954          32.000  
C07  37836244.313   197023263.417        1029.730          36.000  
C23  23197351.008   120794604.961        1295.386          27.000  
G10  20337270.700   106873089.049       -1472.946          44.000    20337278.795    79807850.965       -1100.151          39.000  
G23  22183404.049   116574657.381       -3422.289          23.000                                                                  
G25  20950237.153   110094175.203       -1435.478          21.000                                                                  
G32  21388396.121   112397020.6191        775.808          25.000                                                                  
> 2021 09 12 11 04 48.9997404  0  8                     
C03  36478078.052   189950802.598        -370.163          34.000  
C07  37835957.112   197021766.867        1027.746          34.000  
C23  23197013.742   120792842.787        1293.911          27.000  
G10  20337461.069   106874087.450       -1470.938          44.000    20337469.163    79808596.824       -1100.225          38.000  
G23  22183963.462   116577607.346       -3423.801          21.000                                                                  
G25  20950420.925   110095139.201       -1437.474          23.000                                                                  
G31  21322934.340   112052571.6791        595.625          22.000                                                                  
G32  21388155.088   112395771.533         777.529          26.000                                                                  
> 2021 09 12 11 04 49.9997404  0  6                     
C03  36478150.002   189951172.568        -369.835          31.000  
C07  37835760.748   197020738.952        1026.490          33.000  
C23  23196766.713   120791550.264        1291.186          25.000  
G10  20337740.475                       -1469.613          44.000    20337749.769    79809696.156       -1104.656          39.000  
G25  20950695.535   110096576.932       -1438.667          24.000                                                                  
G32  21388006.391   112394994.291         776.911          24.000                                                                  
> 2021 09 12 11 04 50.9997402  0  7                     
C03  36478161.394   189951230.124        -369.985          31.000  
C07  37835503.826   197019399.199        1028.478          33.000  
C23  23196458.226   120789946.493        1291.678          27.000  
G10  20337960.223   106876705.6791      -1473.984          39.000    20337969.816    79810561.056       -1100.427          40.000  
G23  22185209.399   116584138.4171      -3420.079          23.000                                                                  
G25  20950911.086   110097700.457       -1439.252          25.000                                                                  
G32  21387794.738   112393620.137         779.195          24.000                                                                  
> 2021 09 12 11 04 51.9997399  0  6                     
C03  36478142.208   189951131.547        -369.891          33.000  
C07  37835216.025   197017902.271        1029.008          33.000  
C23  23196118.561   120788185.832        1292.561          29.000  
G10  20338150.292   106877707.161       -1474.537          38.000    20338159.885    79811309.083       -1102.392          35.000  
G23  22185773.009   116587084.846       -3419.238          21.000                                                                  
G25  20951095.458   110098667.290       -1439.836          27.000                                                                  
> 2021 09 12 11 04 52.9997396  0  7                     
C03  36478125.719   189951033.387        -369.951          29.000  
C07  37834927.325   197016406.172        1028.579          33.000  
C23  23195778.597   120786423.902        1293.316          27.000  
G10  20338340.960   106878708.499       -1474.126          28.000    20338349.953    79812057.175       -1101.561          30.000  
G23  22186337.518   116590031.997       -3420.271          22.000                                                                  
G25  20951279.531   110099634.984       -1440.896          24.000                                                                  
G32  21387319.867   112391117.4961        776.711          26.000                                                                  
