     3.04           OBSERVATION DATA    M: Mixed            RINEX VERSION / TYPE
Higeo_Hi1105        Huawei CBG          20210720 020104 UTC PGM / RUN BY / DATE 
************************************************************COMMENT             
* If you have any problem,                                 *COMMENT             
*     please contact with LBS Technology Group, thanks.    *COMMENT             
*                                                          *COMMENT             
* Version Higeo2RinexV1.1 2020.07.21                       *COMMENT             
* Fuction:  Convert Higeo Log to Rinex file                *COMMENT             
*                                                          *COMMENT             
* Note that the verision support B1C B2A signal            *COMMENT             
*     BDS: C1D L1D D1D S1D indicate BDS B1C                *COMMENT             
*     BDS: C5D L5D D5D S5D indicate BDS B2A                *COMMENT             
*     Reference: RINEX V3.04                               *COMMENT             
*                                                          *COMMENT             
* Copyright(C) Huawei Technologies Co., Ltd. 2019 - 2020   *COMMENT             
*     All rights reserved.                                 *COMMENT             
************************************************************COMMENT             
                                                            MARKER NAME         
                                                            MARKER NUMBER       
                                                            MARKER TYPE         
                                                            OBSERVER / AGENCY   
                                                            REC # / TYPE / VERS 
                                                            ANT # / TYPE        
        0.0000        0.0000        0.0000                  APPROX POSITION XYZ 
        0.0000        0.0000        0.0000                  ANTENNA: DELTA H/E/N
G    8 C1C L1C D1C S1C C5I L5I D5I S5I                      SYS / # / OBS TYPES 
R    4 C1C L1C D1C S1C                                      SYS / # / OBS TYPES 
E    8 C1C L1C D1C S1C C5I L5I D5I S5I                      SYS / # / OBS TYPES 
J    8 C1C L1C D1C S1C C5I L5I D5I S5I                      SYS / # / OBS TYPES 
C   12 C2I L2I D2I S2I C1D L1D D1D S1D C5D L5D D5D S5D      SYS / # / OBS TYPES 
  2021     5    17     7    35   51.0000000     GPS         TIME OF FIRST OBS   
  2021     5    17     8     1   16.0000000     GPS         TIME OF LAST OBS    
G                                                           SYS / PHASE SHIFT   
R                                                           SYS / PHASE SHIFT   
E                                                           SYS / PHASE SHIFT   
J                                                           SYS / PHASE SHIFT   
C                                                           SYS / PHASE SHIFT   
  0                                                         GLONASS SLOT / FRQ #
 C1C    0.000 C1P    0.000 C2C    0.000 C2P    0.000        GLONASS COD/PHS/BIS 
                                                            END OF HEADER       
> 2021  5 17  7 35 51.0000000  0 11                     
G 2  22983880.610     -141597.139       -2474.737          25.000                                                                  
G 6  20859866.833     -136509.355       -1357.642          25.000                                                                  
G12  24725134.014      -17116.590       -4187.697          27.000                                                                  
G14  22014415.760       10603.772        2340.672          25.000                                                                  
G19  20577197.627      -37414.747       -1319.579          25.000                                                                  
G28  21133748.415      119626.145         977.375          30.000                                                                  
R12  21026572.447     -113128.346       -1461.514          28.000  
R21  20661690.192        2336.439         348.499          23.000  
R22  21061137.821       -6998.380       -1640.387          19.000  
C20  23641928.908      -74496.589       -1994.406          22.000                                                                                                                                  
C29  22048356.453      -82700.397        -615.767          23.000                                                                                                                                  
> 2021  5 17  7 35 52.0000000  0 12                     
G 2  22983411.104     -144073.668       -2477.560          24.000                                                                  
G 6  20859607.523     -137867.256       -1358.571          25.000                                                                  
G12  24724338.412      -21302.699       -4186.385          26.000                                                                  
G14  22014862.184       12945.546        2340.797          25.000                                                                  
G17  21262464.889       -1809.994        -288.531          15.000                                                                  
G19  20576945.664      -38733.725       -1318.749          25.000                                                                  
G28  21133935.337      120603.743         976.696          25.000                                                                  
R12  21026276.277     -114721.647       -1461.622          24.000  
R21  20661745.457        2684.928         347.972          22.000  
R22  21060802.837       -8786.754       -1640.094          17.000  
C20  23641545.946      -76489.861       -1993.274          28.000                                                                                                                                  
C29  22048238.564      -83316.464        -616.010          24.000                                                                                                                                  
> 2021  5 17  7 35 53.0000000  0 12                     
G 2  22982940.031     -146549.401       -2474.390          18.000                                                                  
G 6  20859349.100     -139224.316       -1358.578          23.000                                                                  
G12  24723542.680      -25488.894       -4186.704          24.000                                                                  
G14  22015307.651       15288.028        2341.658          20.000                                                                  
G17  21262409.282       -2102.500        -292.573          16.000                                                                  
G19  20576693.256      -40053.057       -1318.422          25.000                                                                  
G28  21134121.797      121582.079         979.180          25.000                                                                  
R12  21025980.129     -116313.567       -1458.655          28.000  
R21  20661803.087        3032.740         346.937          25.000  
R22  21060467.662      -10576.754       -1643.040          17.000  
C20  23641162.477      -78483.398       -1991.904          27.000                                                                                                                                  
C29  22048121.063      -83930.014        -612.715          23.000                                                                                                                                  
> 2021  5 17  7 35 54.0000000  0 12                     
G 2  22982468.229     -149027.837       -2479.509          19.000                                                                  
G 6  20859089.551     -140582.540       -1358.802          21.000                                                                  
G12  24722745.286      -29675.930       -4187.537          26.000                                                                  
G14  22015753.009       17627.966        2340.980          18.000                                                                  
G17  21262354.335       -2396.078        -293.210          17.000                                                                  
G19  20576442.449      -41371.838       -1318.377          29.000                                                                  
G28  21134307.205      122559.549         979.329          27.000                                                                  
R12  21094511.548     -117904.073       -1457.865          20.000  
R21  20661866.401        3378.633         347.175          21.000  
R22  21060135.175      -12367.363       -1641.669          17.000  
C20  23640779.685      -80474.225       -1992.229          29.000                                                                                                                                  
C29  22048003.801      -84543.729        -614.583          22.000                                                                                                                                  
> 2021  5 17  7 35 55.0000000  0 12                     
G 2  22982001.056     -151503.639          -0.003          22.000                                                                  
G 6  20858830.648     -141943.162       -1360.787          18.000                                                                  
G12  24721947.682      -33861.868       -4185.478          26.000                                                                  
G14  22016198.520       19968.821        2339.110          14.000                                                                  
G17  21262296.099       -2688.404        -291.708          17.000                                                                  
G19  20576193.487      -42689.925       -1317.117          28.000                                                                  
G28  21134492.625      123539.050         980.296          28.000                                                                  
R12  21094211.522     -119497.615       -1465.058          17.000  
R21  20661929.470        3725.598         346.893          21.000  
R22  21059799.891      -14157.444       -1640.954          18.000  
C20  23640397.429      -82463.992       -1988.987          31.000                                                                                                                                  
C29  22047886.436      -85158.513        -614.259          21.000                                                                                                                                  
> 2021  5 17  7 35 56.0000000  0 12                     
G 2  22981532.282     -153977.036       -2473.201          23.000                                                                  
G 6  20858572.229     -143301.378       -1356.392          18.000                                                                  
G12  24721149.885      -38047.368       -4184.244          26.000                                                                  
G14  22016631.879       22308.803        2339.257          15.000                                                                  
G17  21262240.756       -2979.235        -290.441          17.000                                                                  
G19  20575942.322      -44008.603       -1319.890          24.000                                                                  
G28  21134678.029      124517.838         980.125          27.000                                                                  
R12  21093913.350     -121090.505       -1459.079          17.000  
R21  20661994.669        4072.526         346.885          22.000  
R22  21059462.762      -15943.589       -1637.400          18.000  
C20  23640015.108      -84455.595       -1990.105          32.000                                                                                                                                  
C29  22047769.061      -85771.938        -613.777          19.000                                                                                                                                  
> 2021  5 17  7 35 57.0000000  0 12                     
G 2  22981063.447     -156450.354          -0.003          22.000                                                                  
G 6  20858308.112     -144658.964       -1358.708          18.000                                                                  
G12  24720354.280      -42232.961       -4185.825          27.000                                                                  
G14  22017077.233       24649.062        2340.170          16.000                                                                  
G17  21262185.622       -3269.156        -288.098          14.000                                                                  
G19  20575691.101      -45328.058       -1319.059          21.000                                                                  
G28  21134863.546      125499.864         979.335          27.000                                                                  
R12  21093616.635     -122679.188       -1456.082          18.000  
R21  20662056.652        4419.978         348.376          24.000  
R22  21059128.058      -17730.069       -1639.611          18.000  
C20  23639633.171      -86444.997       -1990.355          33.000                                                                                                                                  
C29  22047651.119      -86386.393        -614.966          17.000                                                                                                                                  
> 2021  5 17  7 35 58.0000000  0 12                     
G 2  22980594.438     -158923.384       -2472.796          23.000                                                                  
G 6  20858051.224     -146016.557       -1356.509          17.000                                                                  
G12  24719558.447      -46419.038       -4185.890          26.000                                                                  
G14  22017522.744       26989.982        2341.324          16.000                                                                  
G17  21262121.340       -3557.433           0.015          12.000                                                                  
G19  20575439.993      -46646.998       -1318.148          21.000                                                                  
G28  21135048.924      126479.923         981.549          28.000                                                                  
R12  21093324.907     -124265.349       -1453.812          18.000  
R21  20662120.459        4765.669         344.599          22.000  
R22  21058788.616      -19518.798       -1642.988          19.000  
C20  23639250.819      -88434.630       -1989.276          32.000                                                                                                                                  
C29  22047532.890      -87002.535        -614.967          17.000                                                                                                                                  
> 2021  5 17  7 35 59.0000000  0 12                     
G 2  22980122.501     -161396.556       -2472.718          27.000                                                                  
G 6  20857800.379     -147375.204       -1356.711          37.000                                                                  
G12  24718761.956      -50604.040       -4184.520          25.000                                                                  
G14  22017986.592       29331.023        2341.394          21.000                                                                  
G17  21262066.470       -3846.390           0.015          14.000                                                                  
G19  20575188.523      -47966.056       -1317.730          32.000                                                                  
G28  21135234.957      127459.403         979.880          26.000                                                                  
R12  21093027.451     -125850.620       -1455.322          30.000  
R21  20662184.620        5110.649         345.411          23.000  
R22  21058440.737      -21308.529       -1639.698          25.000  
C20  23638868.376      -90424.447       -1990.509          26.000                                                                                                                                  
C29  22047414.564      -87619.300        -616.822          33.000                                                                                                                                  
> 2021  5 17  7 36  0.0000000  0 12                     
G 2  22979646.511     -163870.072       -2475.451          24.000                                                                  
G 6  20857543.281     -148729.864       -1353.559          35.000                                                                  
G12  24717962.494      -54788.616       -4186.689          28.000                                                                  
G14  22018445.245       31672.693        2342.559          21.000                                                                  
G17  21262011.402       -4136.288           0.015          14.000                                                                  
G19  20574936.424      -49282.623       -1316.425          31.000                                                                  
G28  21135421.046      128440.732         984.014          24.000                                                                  
R12  21092726.975     -127435.791       -1453.916          28.000  
R21  20662247.911        5457.171         346.952          21.000  
R22  21058108.223      -23094.835       -1637.120          25.000  
C20  23638486.761      -92414.124       -1989.760          27.000                                                                                                                                  
C29  22047296.426      -88234.502        -614.965          31.000                                                                                                                                  
> 2021  5 17  7 36  1.0000000  0 12                     
G 2  22979175.735     -166344.638       -2474.417          24.000                                                                  
G 6  20857285.613     -150082.505       -1353.379          27.000                                                                  
G12  24717166.215      -58974.696       -4189.644          28.000                                                                  
G14  22018881.940       34015.805        2343.023          23.000                                                                  
G17  21261956.263       -4426.174           0.015          16.000                                                                  
G19  20574687.031      -50596.574       -1317.487          28.000                                                                  
G28  21135608.121      129424.106         983.156          26.000                                                                  
R12  21092433.851     -129019.156       -1457.304          30.000  
R21  20662312.578        5804.056         347.255          22.000  
R22  21057774.816      -24878.333       -1637.601          18.000  
C20  23638103.869      -94401.894       -1985.207          30.000                                                                                                                                  
C29  22047179.174      -88849.418        -616.425          25.000                                                                                                                                  
> 2021  5 17  7 36  2.0000000  0 12                     
G 2  22978704.614     -168817.836       -2471.175          22.000                                                                  
G 6  20857026.539     -151440.100       -1360.081          24.000                                                                  
G12  24716371.107      -63165.547       -4188.009          28.000                                                                  
G14  22019327.651       36358.035        2342.505          20.000                                                                  
G17  21261901.334       -4715.171           0.015          17.000                                                                  
G19  20574434.946      -51914.146       -1316.827          29.000                                                                  
G28  21135795.327      130407.271         983.222          25.000                                                                  
R12  21092136.386     -130608.831       -1455.908          26.000  
R21  20662378.038        6151.103         347.972          23.000  
R22  21057440.456      -26663.301          -0.004          19.000  
C20  23637722.900      -96389.257       -1988.073          26.000                                                                                                                                  
C29  22047061.084      -89466.482        -617.169          25.000                                                                                                                                  
> 2021  5 17  7 36  3.0000000  0 12                     
G 2  22978233.790     -171289.259       -2472.236          23.000                                                                  
G 6  20856769.137     -152798.104       -1356.319          28.000                                                                  
G12  24715576.135      -67354.124       -4187.813          25.000                                                                  
G14  22019769.320       38699.911        2342.198          20.000                                                                  
G17  21261845.302       -5003.536        -287.591          16.000                                                                  
G19  20574186.006      -53231.310       -1317.190          28.000                                                                  
G28  21135981.508      131388.959         982.889          24.000                                                                  
R12  21091841.259     -132191.716       -1450.511          28.000  
R21  20662442.983        6499.396         350.867          20.000  
R22  21057152.301      -28449.472       -1637.799          20.000  
C20  23637342.825      -98377.804       -1987.821          26.000                                                                                                                                  
C29  22046942.222      -90083.527        -615.819          24.000                                                                                                                                  
> 2021  5 17  7 36  4.0000000  0 12                     
G 2  22977764.998     -173760.849       -2470.979          22.000                                                                  
G 6  20856511.132     -154153.902       -1355.816          27.000                                                                  
G12  24714781.292      -71540.347       -4185.787          25.000                                                                  
G14  22020216.397       41042.499        2342.246          21.000                                                                  
G17  21261793.549       -5291.668        -287.491          18.000                                                                  
G19  20573934.963      -54550.610       -1317.706          27.000                                                                  
G28  21136169.294      132371.434         983.026          26.000                                                                  
R12  21091547.389     -133774.947       -1453.379          30.000  
R21  20662509.259        6850.297         350.030          22.000  
R22  21056804.182      -30234.661       -1638.006          20.000  
C20  23636962.472     -100366.109       -1988.000          26.000                                                                                                                                  
C29  22046823.312      -90700.438        -616.553          25.000                                                                                                                                  
> 2021  5 17  7 36  5.0000000  0 12                     
G 2  22977295.225     -176232.972       -2472.916          22.000                                                                  
G 6  20856251.849     -155510.360       -1355.407          25.000                                                                  
G12  24713984.731      -75727.275       -4187.707          26.000                                                                  
G14  22020662.960       43386.430        2346.279          20.000                                                                  
G17  21261743.823       -5580.024        -287.836          19.000                                                                  
G19  20573681.569      -55868.381       -1315.976          28.000                                                                  
G28  21136358.363      133355.042         985.843          26.000                                                                  
R12  21091250.883     -135359.189       -1451.780          29.000  
R21  20662574.580        7199.619         348.998          18.000  
R22  21056470.429      -32020.458       -1638.744          21.000  
C20  23636581.834     -102353.929       -1986.956          24.000                                                                                                                                  
C29  22046705.318      -91314.518        -614.084          23.000                                                                                                                                  
> 2021  5 17  7 36  6.0000000  0 12                     
G 2  22976824.746     -178706.193       -2472.924          18.000                                                                  
G 6  20855994.006     -156865.377       -1355.712          26.000                                                                  
G12  24713189.400      -79913.471       -4184.714          24.000                                                                  
G14  22021107.550       45733.305        2346.661          18.000                                                                  
G17  21261694.849       -5867.972        -287.884          18.000                                                                  
G19  20573431.560      -57184.818       -1315.947          29.000                                                                  
G28  21136546.153      134339.093         984.176          23.000                                                                  
R12  21090956.577     -136940.212       -1449.700          30.000  
R21  20662639.835        7548.204         346.071          20.000  
R22  21056134.373      -33806.060       -1637.155          19.000  
C20  23636201.058     -104340.422       -1985.483          25.000                                                                                                                                  
C29  22046587.345      -91929.035        -615.830          25.000                                                                                                                                  
> 2021  5 17  7 36  7.0000000  0 12                     
G 2  22976354.401     -181179.208       -2471.873          19.000                                                                  
G 6  20855740.573     -158219.137       -1352.415          25.000                                                                  
G12  24712393.973      -84098.577       -4187.023          26.000                                                                  
G14  22021552.020       48079.437        2345.976          22.000                                                                  
G17  21261640.177       -6155.628        -287.585          18.000                                                                  
G19  20573180.993      -58500.424       -1317.547          27.000                                                                  
G28  21136734.563      135324.543         985.991          26.000                                                                  
R12  21090662.431     -138520.499       -1450.160          30.000  
R21  20662705.186        7893.803         344.768          19.000  
R22  21055795.364      -35589.326       -1636.467          20.000  
C20  23635820.324     -106326.706       -1986.559          25.000                                                                                                                                  
C29  22046468.719      -92544.724        -615.650          24.000                                                                                                                                  
> 2021  5 17  7 36  8.0000000  0 12                     
G 2  22975883.154     -183652.473       -2473.100          18.000                                                                  
G 6  20855483.458     -159573.350       -1353.948          26.000                                                                  
G12  24711599.435      -88286.327       -4187.519          26.000                                                                  
G14  22021998.203       50424.625        2344.796          25.000                                                                  
G17  21261583.580       -6442.872        -286.589          17.000                                                                  
G19  20572932.943      -59816.402       -1315.449          29.000                                                                  
G28  21136922.611      136309.120         984.513          27.000                                                                  
R12  21090366.354     -140100.476       -1449.976          30.000  
R21  20662772.387        8239.987         346.996          22.000  
R22  21055465.685      -37373.117       -1637.241          22.000  
C20  23635439.203     -108313.441       -1985.887          25.000                                                                                                                                  
C29  22046350.171      -93160.163        -613.254          25.000                                                                                                                                  
> 2021  5 17  7 36  9.0000000  0 12                     
G 2  22975412.993     -186125.768       -2474.647          18.000                                                                  
G 6  20855226.623     -160926.326       -1353.710          27.000                                                                  
G12  24710803.586      -92472.155       -4183.068          27.000                                                                  
G14  22022443.295       52769.091        2344.754          27.000                                                                  
G17  21261529.275       -6728.564        -284.899          17.000                                                                  
G19  20572683.292      -61133.379       -1316.153          29.000                                                                  
G28  21137110.284      137292.575         985.044          25.000                                                                  
R12  21090072.819     -141678.645       -1447.420          31.000  
R21  20662838.450        8587.118         348.247          21.000  
R22  21055131.793      -39157.374       -1636.516          22.000  
C20  23635058.025     -110298.919       -1985.011          24.000                                                                                                                                  
C29  22046231.732      -93775.803        -616.211          23.000                                                                                                                                  
> 2021  5 17  7 36 10.0000000  0 12                     
G 2  22974940.720     -188598.485       -2470.375          19.000                                                                  
G 6  20854969.294     -162279.225       -1351.417          27.000                                                                  
G12  24710006.820      -96656.194       -4185.955          26.000                                                                  
G14  22022888.175       55112.405        2344.916          25.000                                                                  
G17  21261475.131       -7013.552        -285.121          17.000                                                                  
G19  20572434.305      -62449.643       -1315.545          30.000                                                                  
G28  21137300.129      138277.806         983.089          27.000                                                                  
R12  21089778.286     -143255.909       -1446.333          29.000  
R21  20662905.336        8933.555         346.010          21.000  
R22  21054797.517      -40940.394       -1635.955          20.000  
C20  23634677.440     -112283.981       -1985.210          23.000                                                                                                                                  
C29  22046113.319      -94391.959        -615.695          24.000                                                                                                                                  
> 2021  5 17  7 36 11.0000000  0 12                     
G 2  22974470.471     -191069.261       -2472.413          18.000                                                                  
G 6  20854711.591     -163631.629       -1353.026          26.000                                                                  
G12  24709210.181     -100841.117       -4184.609          26.000                                                                  
G14  22023334.412       57457.842        2345.926          24.000                                                                  
G17  21261422.558       -7299.208        -287.736          16.000                                                                  
G19  20572184.261      -63766.115       -1316.510          30.000                                                                  
G28  21137488.709      139263.802         988.236          25.000                                                                  
R12  21089482.862     -144833.393       -1448.150          30.000  
R21  20662971.499        9279.221         345.983          20.000  
R22  21054462.664      -42725.541       -1638.958          20.000  
C20  23634296.030     -114270.360       -1987.444          23.000                                                                                                                                  
C29  22045995.098      -95006.950        -614.030          25.000                                                                                                                                  
> 2021  5 17  7 36 12.0000000  0 12                     
G 2  22973999.385     -193542.069       -2471.674          18.000                                                                  
G 6  20854455.135     -164984.591       -1353.484          26.000                                                                  
G12  24708414.264     -105026.152       -4185.448          27.000                                                                  
G14  22023781.542       59804.305        2347.037          24.000                                                                  
G17  21261367.598       -7588.231        -288.187          14.000                                                                  
G19  20571931.434      -65081.518       -1316.822          29.000                                                                  
G28  21137676.541      140251.613         988.337          23.000                                                                  
R12  21089188.206     -146410.662       -1446.191          29.000  
R21  20663037.487        9627.082         350.768          19.000  
R22  21054129.103      -44510.751       -1636.307          20.000  
C20  23633914.952     -116256.921       -1985.586          24.000                                                                                                                                  
C29  22045876.711      -95623.170        -617.650          26.000                                                                                                                                  
> 2021  5 17  7 36 13.0000000  0 12                     
G 2  22973528.955     -196014.109       -2472.697          18.000                                                                  
G 6  20854195.651     -166338.309       -1354.195          25.000                                                                  
G12  24707615.473     -109212.519       -4186.923          25.000                                                                  
G14  22024227.406       62150.601        2345.470          22.000                                                                  
G17  21261303.910       -7874.957           0.015          15.000                                                                  
G19  20571681.098      -66397.071       -1313.632          30.000                                                                  
G28  21137865.500      141239.867         988.782          24.000                                                                  
R12  21088892.190     -147986.777       -1445.751          30.000  
R21  20663104.312        9975.149         347.845          19.000  
R22  21053794.308      -46296.062       -1636.917          21.000  
C20  23633534.608     -118242.337       -1985.165          24.000                                                                                                                                  
C29  22045757.531      -96238.898        -614.305          25.000                                                                                                                                  
> 2021  5 17  7 36 14.0000000  0 12                     
G 2  22973052.992     -198485.496       -2470.068          28.000                                                                  
G 6  20853937.341     -167692.133       -1352.131          26.000                                                                  
G12  24706818.969     -113396.242       -4181.924          29.000                                                                  
G14  22024674.838       64495.713        2344.450          20.000                                                                  
G17  21261249.249       -8162.773           0.015          15.000                                                                  
G19  20571431.971      -67711.408       -1313.666          22.000                                                                  
G28  21138054.373      142229.166         988.199          22.000                                                                  
R12  21088595.283     -149562.731       -1443.365          25.000  
R21  20663169.865       10324.730         351.293          17.000  
R22  21053459.068      -48081.262       -1638.176          19.000  
C20  23633153.072     -120226.961       -1985.171          26.000                                                                                                                                  
C29  22045639.314      -96853.387        -617.572          21.000                                                                                                                                  
> 2021  5 17  7 36 15.0000000  0 12                     
G 2  22972584.362     -200956.446       -2474.101          18.000                                                                  
G 6  20853682.647     -169045.132       -1352.118          26.000                                                                  
G12  24706020.842     -117581.858       -4188.290          22.000                                                                  
G14  22025120.829       66839.090        2343.924          17.000                                                                  
G17  21261194.438       -8451.063           0.015          17.000                                                                  
G19  20571182.752      -69026.285       -1314.852          24.000                                                                  
G28  21138241.609      143216.886         987.725          29.000                                                                  
R12  21088298.978     -151136.268       -1443.073          25.000  
R21  20663235.150       10673.194         346.280          19.000  
R22  21053125.014      -49866.477       -1636.633          18.000  
C20  23632770.489     -122211.514       -1982.360          37.000                                                                                                                                  
C29  22045521.067      -97469.578        -615.378          19.000                                                                                                                                  
> 2021  5 17  7 36 16.0000000  0 12                     
G 2  22972112.940     -203429.947       -2472.986          21.000                                                                  
G 6  20853425.572     -170397.518       -1352.300          30.000                                                                  
G12  24705226.554     -121767.994       -4184.918          27.000                                                                  
G14  22025567.417       69185.828        2346.855          23.000                                                                  
G17  21261135.845       -8741.167        -290.906          15.000                                                                  
G19  20570932.848      -70340.424       -1315.327          24.000                                                                  
G28  21138426.878      144207.249         990.485          28.000                                                                  
R12  21088004.375     -152709.394       -1442.307          30.000  
R21  20663303.319       11020.969         348.223          22.000  
R22  21052789.438      -51650.318       -1637.879          22.000  
C20  23632388.826     -124193.124       -1981.706          28.000                                                                                                                                  
C29  22045403.100      -98084.584        -615.834          24.000                                                                                                                                  
> 2021  5 17  7 36 17.0000000  0 12                     
G 2  22971643.464     -205901.579       -2470.554          18.000                                                                  
G 6  20853168.135     -171748.971       -1351.671          30.000                                                                  
G12  24704428.876     -125953.738       -4186.557          27.000                                                                  
G14  22025967.182       71532.782        2347.475          25.000                                                                  
G17  21261080.244       -9033.239        -292.891          14.000                                                                  
G19  20570681.098      -71654.653       -1314.087          24.000                                                                  
G28  21138614.071      145196.049         988.730          27.000                                                                  
R12  21087708.821     -154282.348       -1444.193          32.000  
R21  20663370.817       11368.834         347.716          25.000  
R22  21052455.009      -53434.964       -1636.281          19.000  
C20  23632006.723     -126175.615       -1981.878          30.000                                                                                                                                  
C29  22045285.712      -98699.016        -611.791          21.000                                                                                                                                  
> 2021  5 17  7 36 18.0000000  0 12                     
G 2  22971173.193     -208371.813       -2470.338          18.000                                                                  
G 6  20852907.852     -173100.301       -1352.182          30.000                                                                  
G12  24703631.255     -130139.537       -4185.621          27.000                                                                  
G14  22026415.806       73880.675        2348.092          23.000                                                                  
G17  21261024.700       -9324.986        -291.166          15.000                                                                  
G19  20570432.987      -72967.866       -1311.634          28.000                                                                  
G28  21138800.553      146185.321         991.124          25.000                                                                  
R12  21087415.526     -155853.429       -1439.766          32.000  
R21  20663435.810       11716.377         346.330          25.000  
R22  21052119.171      -55218.507       -1635.277          19.000  
C20  23631626.007     -128156.471       -1981.344          27.000                                                                                                                                  
C29  22045168.141      -99313.461        -614.714          22.000                                                                                                                                  
> 2021  5 17  7 36 19.0000000  0 12                     
G 2  22970701.361     -210841.411       -2470.305          20.000                                                                  
G 6  20852650.454     -174450.598       -1348.911          29.000                                                                  
G12  24702836.181     -134323.600       -4183.001          28.000                                                                  
G14  22026860.400       76228.832        2347.140          25.000                                                                  
G17  21260967.895       -9617.179           0.015          14.000                                                                  
G19  20570182.812      -74282.434       -1316.562          28.000                                                                  
G28  21138988.108      147174.926         987.195          24.000                                                                  
R12  21087123.601     -157424.357       -1443.021          32.000  
R21  20663503.225       12063.698         349.157          27.000  
R22  21051783.651      -57002.288       -1638.998          19.000  
C20  23631245.388     -130137.654       -1980.565          24.000                                                                                                                                  
C29  22045049.986      -99928.587        -615.936          23.000                                                                                                                                  
> 2021  5 17  7 36 20.0000000  0 12                     
G 2  22970230.733     -213310.872       -2469.893          18.000                                                                  
G 6  20852393.278     -175800.500       -1350.779          29.000                                                                  
G12  24702040.802     -138509.714       -4188.038          27.000                                                                  
G14  22027309.323       78577.417        2348.643          24.000                                                                  
G17  21260912.349       -9909.316           0.015          13.000                                                                  
G19  20569930.745      -75596.326       -1312.266          28.000                                                                  
G28  21139175.427      148164.100         991.582          26.000                                                                  
R12  21086830.861     -158995.093       -1441.912          30.000  
R21  20663567.115       12412.578         349.068          25.000  
R22  21051449.724      -58785.981       -1634.934          20.000  
C20  23630864.140     -132118.423       -1980.423          24.000                                                                                                                                  
C29  22044932.210     -100544.664        -615.720          24.000                                                                                                                                  
> 2021  5 17  7 36 21.0000000  0 12                     
G 2  22969760.969     -215781.643       -2471.385          22.000                                                                  
G 6  20852134.131     -177151.199       -1351.105          28.000                                                                  
G12  24701243.333     -142695.761       -4182.738          27.000                                                                  
G14  22027757.992       80925.245        2347.981          23.000                                                                  
G17  21260856.753      -10201.537           0.015          15.000                                                                  
G19  20569680.657      -76910.148       -1315.696          26.000                                                                  
G28  21139366.494      149155.595         991.885          28.000                                                                  
R12  21086538.696     -160565.472       -1438.731          30.000  
R21  20663631.148       12760.167         346.805          23.000  
R22  21051114.605      -60569.915       -1636.923          20.000  
C20  23630483.088     -134099.569       -1982.023          27.000                                                                                                                                  
C29  22044813.806     -101159.811        -613.875          24.000                                                                                                                                  
> 2021  5 17  7 36 22.0000000  0 12                     
G 2  22969291.423     -218253.472       -2472.313          24.000                                                                  
G 6  20851875.406     -178501.286       -1347.584          28.000                                                                  
G12  24700445.800     -146879.802       -4185.107          28.000                                                                  
G14  22028207.785       83272.419        2346.495          22.000                                                                  
G17  21260801.008      -10494.699           0.015          11.000                                                                  
G19  20569428.904      -78225.160       -1314.949          27.000                                                                  
G28  21139555.746      150148.602         992.297          27.000                                                                  
R12  21086247.557     -162132.880       -1438.150          28.000  
R21  20663695.082       13107.359         348.318          25.000  
R22  21050781.036      -62353.284       -1635.716          21.000  
C20  23630101.535     -136081.972       -1981.120          24.000                                                                                                                                  
C29  22044695.812     -101772.987        -612.845          24.000                                                                                                                                  
> 2021  5 17  7 36 23.0000000  0 12                     
G 2  22968820.765     -220724.188       -2469.721          23.000                                                                  
G 6  20851619.753     -179851.350       -1349.969          26.000                                                                  
G12  24699650.530     -151064.653       -4187.280          27.000                                                                  
G14  22028655.667       85618.910          -0.008          19.000                                                                  
G17  21260745.119      -10788.644           0.015          14.000                                                                  
G19  20569179.702      -79538.598       -1311.745          26.000                                                                  
G28  21139744.832      151140.039         991.494          28.000                                                                  
R12  21085953.817     -163700.850       -1439.120          25.000  
R21  20663759.870       13454.078         346.729          22.000  
R22  21050445.421      -64136.273       -1635.690          22.000  
C20  23629720.718     -138063.360       -1980.322          25.000                                                                                                                                  
C29  22044577.822     -102386.925        -613.057          25.000                                                                                                                                  
> 2021  5 17  7 36 24.0000000  0 12                     
G 2  22968351.890     -223193.731       -2468.327          25.000                                                                  
G 6  20851362.760     -181200.870       -1348.926          27.000                                                                  
G12  24698854.723     -155249.720       -4185.432          27.000                                                                  
G14  22029105.287       87966.366        2348.734          20.000                                                                  
G17  21260689.152      -11082.840           0.015          15.000                                                                  
G19  20568929.780      -80850.362       -1312.475          26.000                                                                  
G28  21139935.720      152134.123         996.564          27.000                                                                  
R12  21085659.698     -165269.080       -1437.941          21.000  
R21  20663825.073       13801.573         347.205          23.000  
R22  21050111.899      -65919.329       -1637.673          22.000  
C20  23629339.658     -140043.622       -1980.053          25.000                                                                                                                                  
C29  22044460.605     -102999.713        -613.162          25.000                                                                                                                                  
> 2021  5 17  7 36 25.0000000  0 12                     
G 2  22967881.568     -225662.752       -2468.241          24.000                                                                  
G 6  20851104.943     -182548.537       -1346.370          26.000                                                                  
G12  24698061.076     -159434.057       -4185.116          27.000                                                                  
G14  22029553.849       90314.044        2347.792          20.000                                                                  
G17  21260633.543      -11374.947           0.015          15.000                                                                  
G19  20568680.221      -82163.026       -1310.928          24.000                                                                  
G28  21140124.819      153129.564         994.260          29.000                                                                  
R12  21085366.796     -166834.314       -1435.368          18.000  
R21  20663889.534       14149.258         347.907          20.000  
R22  21049775.411      -67703.807       -1636.708          22.000  
C20  23628958.585     -142023.730       -1980.065          29.000                                                                                                                                  
C29  22044343.309     -103612.563        -613.760          24.000                                                                                                                                  
> 2021  5 17  7 36 26.0000000  0 12                     
G 2  22967411.734     -228131.343       -2470.001          19.000                                                                  
G 6  20850847.048     -183896.241       -1348.582          28.000                                                                  
G12  24697265.132     -163619.033       -4185.421          27.000                                                                  
G14  22030004.739       92662.452        2348.885          22.000                                                                  
G17  21260583.581      -11664.967        -288.710          17.000                                                                  
G19  20568431.028      -83474.651       -1313.194          25.000                                                                  
G28  21140312.243      154122.221         991.409          24.000                                                                  
R12  21085074.065     -168398.033       -1434.845          19.000  
R21  20726772.056       14497.141         346.830          21.000  
R22  21049440.982      -69488.457       -1637.741          20.000  
C20  23628577.926     -144003.685       -1979.978          32.000                                                                                                                                  
C29  22044224.643     -104227.121        -615.374          23.000                                                                                                                                  
> 2021  5 17  7 36 27.0000000  0 12                     
G 2  22966940.813     -230601.431       -2470.165          25.000                                                                  
G 6  20850593.528     -185243.642       -1344.710          32.000                                                                  
G12  24696468.763     -167804.539       -4185.311          20.000                                                                  
G14  22030453.858       95011.234        2349.889          22.000                                                                  
G17  21260528.761      -11953.602        -289.944          14.000                                                                  
G19  20568181.923      -84787.529       -1312.261          25.000                                                                  
G28  21140500.348      155115.292         994.393          28.000                                                                  
R12  21084782.454     -169961.665       -1434.291          19.000  
R21  20726835.885       14844.038         346.631          22.000  
R22  21049106.587      -71272.026       -1634.802          21.000  
C20  23628198.615     -145981.040       -1975.459          26.000                                                                                                                                  
C29  22044106.204     -104844.044        -615.007          24.000                                                                                                                                  
> 2021  5 17  7 36 28.0000000  0 12                     
G 2  22966470.888     -233070.563       -2468.931          26.000                                                                  
G 6  20850340.073     -186591.493       -1348.725          31.000                                                                  
G12  24695672.363     -171989.761       -4184.919          17.000                                                                  
G14  22030902.492       97362.606          -0.008          19.000                                                                  
G17  21260473.806      -12242.773        -289.826          13.000                                                                  
G19  20567931.443      -86100.253       -1314.926          25.000                                                                  
G28  21140689.000      156109.715         993.529          28.000                                                                  
R12  21084478.724     -171525.778       -1434.971          23.000  
R21  20726896.838       15190.970         348.843          20.000  
R22  21048772.241      -73053.373       -1634.530          18.000  
C20  23627819.194     -147958.208       -1981.067          29.000                                                                                                                                  
C29  22043988.921     -105458.344        -613.251          28.000                                                                                                                                  
> 2021  5 17  7 36 29.0000000  0 12                     
G 2  22965999.243     -235538.571       -2468.585          27.000                                                                  
G 6  20850085.472     -187940.471       -1347.334          32.000                                                                  
G12  24694875.872     -176175.561       -4186.277          15.000                                                                  
G14  22031351.443       99713.644        2348.379          20.000                                                                  
G17  21260418.860      -12531.980        -288.072          14.000                                                                  
G19  20567682.023      -87414.463       -1312.399          25.000                                                                  
G28  21140878.527      157102.834         993.354          29.000                                                                  
R12  21084181.346     -173089.649       -1435.065          20.000  
R21  20726957.474       15538.471         346.965          24.000  
R22  21048438.956      -74833.541       -1633.569          17.000  
C20  23627439.321     -149939.332       -1979.236          27.000                                                                                                                                  
C29  22043870.953     -106071.485        -614.170          25.000                                                                                                                                  
> 2021  5 17  7 36 30.0000000  0 12                     
G 2  22965529.121     -238005.338       -2469.118          23.000                                                                  
G 6  20849829.827     -189286.866       -1346.150          29.000                                                                  
G12  24694082.933     -180360.619       -4184.576          18.000                                                                  
G14  22031799.327      102062.990        2352.826          19.000                                                                  
G17  21260364.467      -12818.141        -280.878          13.000                                                                  
G19  20567432.228      -88726.528       -1312.592          25.000                                                                  
G28  21141068.703      158097.791         997.695          27.000                                                                  
R12  21083886.782     -174653.476       -1435.019          20.000  
R21  20727020.914       15885.906         347.803          24.000  
R22  21048105.491      -76614.239       -1633.204          16.000  
C20  23627059.259     -151918.533       -1978.877          25.000                                                                                                                                  
C29  22043753.003     -106685.613        -612.793          25.000                                                                                                                                  
> 2021  5 17  7 36 31.0000000  0 12                     
G 2  22965062.930     -240473.832       -2466.518          26.000                                                                  
G 6  20849574.113     -190632.792       -1347.453          31.000                                                                  
G12  24693294.721     -184546.158       -4185.253          17.000                                                                  
G14  22032247.459      104415.508        2352.833          24.000                                                                  
G17  21260310.987      -13099.437        -280.061          12.000                                                                  
G19  20567181.399      -90038.095       -1312.652          25.000                                                                  
G28  21141259.962      159093.939         994.673          29.000                                                                  
R12  21083592.297     -176216.441       -1433.876          18.000  
R21  20727084.956       16234.659         348.642          24.000  
R22  21047772.139      -78393.792       -1632.319          15.000  
C20  23626679.844     -153896.544       -1976.251          25.000                                                                                                                                  
C29  22043634.878     -107296.915        -611.301          24.000                                                                                                                                  
> 2021  5 17  7 36 32.0000000  0 12                     
G 2  22964593.545     -242941.155       -2466.748          25.000                                                                  
G 6  20849320.034     -191978.034       -1344.675          29.000                                                                  
G12  24692498.443     -188730.602       -4184.371          17.000                                                                  
G14  22032696.373      106767.141        2350.672          24.000                                                                  
G17  21260257.613      -13380.217        -279.211          15.000                                                                  
G19  20566932.791      -91350.139       -1312.109          25.000                                                                  
G28  21141449.572      160088.191         995.532          29.000                                                                  
R12  21083299.281     -177781.512       -1434.718          18.000  
R21  20727146.760       16583.440         347.087          23.000  
R22  21047445.829      -80173.364          -0.004          12.000  
C20  23626300.493     -155874.152       -1975.853          25.000                                                                                                                                  
C29  22043517.289     -107910.011        -612.650          24.000                                                                                                                                  
> 2021  5 17  7 36 33.0000000  0 12                     
G 2  22964125.701     -245407.450       -2467.819          25.000                                                                  
G 6  20849060.821     -193325.505       -1347.984          30.000                                                                  
G12  24691695.329     -192914.514       -4182.607          16.000                                                                  
G14  22033142.654      109119.147        2351.642          26.000                                                                  
G17  21260204.067      -13661.897        -283.366          14.000                                                                  
G19  20566682.647      -92662.176       -1311.923          27.000                                                                  
G28  21141638.959      161084.387         998.273          29.000                                                                  
R12  21083007.112     -179342.631       -1431.151          17.000  
R21  20727211.296       16930.234         347.193          24.000  
R22  21047112.377      -81953.341          -0.004          14.000  
C20  23625920.510     -157851.499       -1977.529          23.000                                                                                                                                  
C29  22043399.784     -108522.476        -612.778          24.000                                                                                                                                  
> 2021  5 17  7 36 34.0000000  0 12                     
G 2  22963655.456     -247874.657       -2467.325          25.000                                                                  
G 6  20848804.099     -194672.146       -1345.676          29.000                                                                  
G12  24690899.449     -197096.997       -4182.799          17.000                                                                  
G14  22033590.008      111473.317        2354.600          24.000                                                                  
G17  21260149.588      -13948.627        -286.668          13.000                                                                  
G19  20566433.794      -93972.348       -1311.506          27.000                                                                  
G28  21141828.791      162081.807         997.670          30.000                                                                  
R12  21082713.870     -180904.354       -1433.023          15.000  
R21  20727274.998       17278.851         349.878          23.000  
R22  21046778.698      -83734.614          -0.004          11.000  
C20  23625541.090     -159827.797       -1976.078          22.000                                                                                                                                  
C29  22043282.353     -109135.086        -613.032          23.000                                                                                                                                  
> 2021  5 17  7 36 35.0000000  0 12                     
G 2  22963186.604     -250341.712       -2466.811          23.000                                                                  
G 6  20848547.338     -196017.519       -1344.435          30.000                                                                  
G12  24690103.027     -201281.959       -4186.309          17.000                                                                  
G14  22034037.438      113825.445        2352.171          23.000                                                                  
G17  21260095.320      -14234.178        -285.412          15.000                                                                  
G19  20566183.563      -95284.853       -1314.850          28.000                                                                  
G28  21142017.446      163078.692         995.818          30.000                                                                  
R12  21082421.662     -182465.361       -1432.652          15.000  
R21  20727338.307       17627.199         348.553          25.000  
R22  21046445.151      -85515.500          -0.004          12.000  
C20  23625161.347     -161804.175       -1976.972          21.000                                                                                                                                  
C29  22043164.136     -109749.098        -613.613          23.000                                                                                                                                  
> 2021  5 17  7 36 36.0000000  0 12                     
G 2  22962715.963     -252809.676       -2467.857          22.000                                                                  
G 6  20848292.094     -197363.376       -1345.287          29.000                                                                  
G12  24689316.788     -205467.023       -4184.205          17.000                                                                  
G14  22034485.466      116178.103        2352.227          23.000                                                                  
G17  21260041.325      -14518.213        -282.509          12.000                                                                  
G19  20565933.411      -96598.428       -1311.380          28.000                                                                  
G28  21142206.375      164075.726         998.235          30.000                                                                  
R12  21082125.379     -184025.856           0.006          17.000  
R21  20727399.575       17975.276         348.627          24.000  
R22  21046111.904      -87294.516          -0.004          13.000  
C20  23624781.255     -163780.727       -1975.568          21.000                                                                                                                                  
C29  22043046.548     -110363.058        -614.594          24.000                                                                                                                                  
> 2021  5 17  7 36 37.0000000  0 12                     
G 2  22962245.972     -255277.225       -2467.644          24.000                                                                  
G 6  20848037.004     -198709.042       -1345.673          29.000                                                                  
G12  24688520.520     -209651.629       -4185.525          16.000                                                                  
G14  22034933.592      118530.473        2352.628          21.000                                                                  
G17  21259987.190      -14803.116        -287.391          13.000                                                                  
G19  20565685.068      -97910.100       -1311.771          28.000                                                                  
G28  21142396.560      165073.311         997.663          28.000                                                                  
R12  21081833.097     -185587.336           0.006          17.000  
R21  20664643.022       18323.140         348.097          24.000  
R22  21045778.814      -89073.034          -0.004          12.000  
C20  23624401.875     -165756.045       -1975.719          21.000                                                                                                                                  
C29  22042928.628     -110977.986        -613.404          25.000                                                                                                                                  
> 2021  5 17  7 36 38.0000000  0 12                     
G 2  22961776.696     -257745.664       -2468.756          22.000                                                                  
G 6  20847779.135     -200055.729       -1345.169          28.000                                                                  
G12  24687727.211     -213837.977       -4186.427          15.000                                                                  
G14  22035382.811      120883.265        2353.634          22.000                                                                  
G17  21259932.584      -15090.454        -288.959          15.000                                                                  
G19  20565435.326      -99221.469       -1310.600          28.000                                                                  
G28  21142587.200      166071.447        1000.550          29.000                                                                  
R12  21081541.251     -187146.598           0.006          16.000  
R21  20664704.076       18671.714         350.041          24.000  
R22  21045445.725      -90851.526          -0.004          12.000  
C20  23624022.245     -167732.110       -1974.319          23.000                                                                                                                                  
C29  22042811.219     -111590.639        -611.817          23.000                                                                                                                                  
> 2021  5 17  7 36 39.0000000  0 12                     
G 2  22961307.573     -260213.528       -2467.983          20.000                                                                  
G 6  20847521.832     -201400.182       -1341.541          29.000                                                                  
G12  24686933.757     -218023.677       -4185.099          19.000                                                                  
G14  22035831.232      123236.842        2354.136          22.000                                                                  
G17  21259877.589      -15379.885        -288.692          15.000                                                                  
G19  20565186.613     -100532.980       -1309.939          25.000                                                                  
G28  21142776.918      167071.917        1001.153          28.000                                                                  
R12  21081254.779     -188704.856       -1428.137          17.000  
R21  20664768.938       19020.421         346.617          20.000  
R22  21045112.713      -92629.546          -0.004          15.000  
C20  23623642.838     -169706.375       -1974.785          24.000                                                                                                                                  
C29  22042693.316     -112203.385        -613.576          24.000                                                                                                                                  
> 2021  5 17  7 36 40.0000000  0 12                     
G 2  22960837.870     -262681.074       -2466.589          19.000                                                                  
G 6  20847264.678     -202743.457       -1342.378          27.000                                                                  
G12  24686123.868     -222208.458       -4184.409          23.000                                                                  
G14  22036284.178      125592.036        2353.541          28.000                                                                  
G17  21259822.783      -15668.339        -290.668          14.000                                                                  
G19  20564937.328     -101843.435       -1312.196          27.000                                                                  
G28  21142968.884      168073.024        1001.216          22.000                                                                  
R12  21080963.400     -190261.640       -1429.456          17.000  
R21  20664833.574       19366.761         345.673          19.000  
R22  21044779.283      -94409.495          -0.004          17.000  
C20  23623264.234     -171680.399       -1974.730          30.000                                                                                                                                  
C29  22042575.327     -112818.015        -613.942          20.000                                                                                                                                  
> 2021  5 17  7 36 41.0000000  0 11                     
G 2  22960370.732     -265147.205       -2465.072          28.000                                                                  
G 6  20847008.917     -204086.382       -1342.874          20.000                                                                  
G12  24685327.674     -226392.687       -4184.225          18.000                                                                  
G14  22036736.560      127947.355        2353.273          28.000                                                                  
G19  20564687.224     -103154.437       -1310.038          29.000                                                                  
G28  21143159.026      169072.893         999.822          21.000                                                                  
R12  21080671.143     -191818.744       -1427.415          24.000  
R21  20664896.238       19714.366         348.515          21.000  
R22  21044445.888      -96189.929          -0.004          19.000  
C20  23622885.791     -173655.203       -1972.596          30.000                                                                                                                                  
C29  22042457.908     -113431.958        -613.974          22.000                                                                                                                                  
> 2021  5 17  7 36 42.0000000  0 11                     
G 2  22959902.307     -267609.063       -2463.133          21.000                                                                  
G 6  20846755.466     -205431.108       -1344.475          29.000                                                                  
G12  24684518.545     -230576.251       -4182.883          21.000                                                                  
G14  22037185.587      130299.553        2352.043          21.000                                                                  
G19  20564439.047     -104462.321           0.003          24.000                                                                  
G28  21143352.492      170072.328         999.993          29.000                                                                  
R12  21080405.294     -193375.704       -1428.773          21.000  
R21  20664961.624       20062.393         346.410          17.000  
R22  21044110.674      -97970.227       -1633.273          17.000  
C20  23622506.759     -175627.629       -1972.146          28.000                                                                                                                                  
C29  22042339.901     -114046.801        -614.071          25.000                                                                                                                                  
> 2021  5 17  7 36 43.0000000  0 10                     
G 2  22959432.504     -270074.513       -2466.637          28.000                                                                  
G 6  20846500.018     -206776.620       -1345.717          37.000                                                                  
G12  24683713.685     -234759.546       -4184.712          30.000                                                                  
G14  22037636.185      132651.141        2350.459          22.000                                                                  
G19  20564188.135     -105772.503       -1309.426          35.000                                                                  
G28  21143541.757      171072.986        1000.144          31.000                                                                  
R12  21080101.232     -194932.191       -1424.450          31.000  
R21  20665025.522       20410.103         347.872          18.000  
R22  21043768.458      -99751.697       -1635.404          20.000  
C20  23622128.465     -177600.074       -1971.616          24.000                                                                                                                                  
> 2021  5 17  7 36 44.0000000  0 11                     
G 2  22958964.223     -272537.061       -2463.780          23.000                                                                  
G 6  20846244.748     -208114.926       -1336.355          21.000                                                                  
G12  24682917.625     -238941.598       -4181.257          27.000                                                                  
G14  22038084.106      135003.838        2356.087          30.000                                                                  
G19  20563937.224     -107081.958       -1308.307          33.000                                                                  
G28  21143732.859      172075.385        1003.062          20.000                                                                  
R12  21079810.390     -196481.022       -1420.500          22.000  
R21  20665090.262       20758.987         348.775          18.000  
R22  21043423.590     -101533.847       -1634.464          21.000  
C20  23621749.324     -179572.553       -1975.606          26.000                                                                                                                                  
C29  22042103.878     -115272.180        -612.378          28.000                                                                                                                                  
> 2021  5 17  7 36 45.0000000  0 11                     
G 2  22958494.035     -275000.484       -2462.410          22.000                                                                  
G 6  20845989.296     -209455.091       -1341.639          20.000                                                                  
G12  24682123.922     -243124.588       -4183.364          24.000                                                                  
G14  22038535.083      137360.072        2356.487          32.000                                                                  
G19  20563690.435     -108391.672       -1307.820          31.000                                                                  
G28  21143923.543      173077.419        1001.384          18.000                                                                  
R12  21079520.323     -198030.374       -1423.361          17.000  
R21  20665155.574       21108.682         352.417          18.000  
R22  21043085.069     -103314.905       -1632.963          18.000  
C20  23621369.677     -181547.181       -1974.193          28.000                                                                                                                                  
C29  22041986.421     -115886.327        -614.010          29.000                                                                                                                                  
> 2021  5 17  7 36 46.0000000  0 11                     
G 2  22958024.145     -277464.288       -2464.994          24.000                                                                  
G 6  20845734.297     -210796.088       -1340.754          20.000                                                                  
G12  24681328.351     -247307.549       -4182.507          22.000                                                                  
G14  22038983.035      139716.093        2355.367          31.000                                                                  
G19  20563441.106     -109702.143       -1310.234          32.000                                                                  
G28  21144113.786      174077.135         998.382          19.000                                                                  
R12  21079229.830     -199582.524       -1423.287          15.000  
R21  20665220.389       21460.469         351.061          16.000  
R22  21042751.822     -105094.284       -1633.228          17.000  
C20  23620990.165     -183520.232       -1972.268          25.000                                                                                                                                  
C29  22041868.506     -116502.064        -615.442          28.000                                                                                                                                  
> 2021  5 17  7 36 47.0000000  0 12                     
G 2  22957552.797     -279930.237       -2466.263          27.000                                                                  
G 6  20845478.735     -212136.380       -1340.378          19.000                                                                  
G12  24680535.040     -251490.185       -4182.379          21.000                                                                  
G14  22039432.341      142072.516        2357.492          32.000                                                                  
G17  21259478.054        -951.539        -283.800          18.000                                                                  
G19  20563191.469     -111011.698       -1310.465          32.000                                                                  
G28  21144294.958      175074.490         997.835          17.000                                                                  
R12  21078933.813     -201134.762       -1424.831          17.000  
R21  20665285.840       21810.535         348.231          18.000  
R22  21042411.879     -106875.466       -1633.830          17.000  
C20  23620611.596     -185492.667       -1972.443          25.000                                                                                                                                  
C29  22041750.267     -117116.448        -613.551          29.000                                                                                                                                  
> 2021  5 17  7 36 48.0000000  0 12                     
G 2  22957084.202     -282393.407       -2460.988          19.000                                                                  
G 6  20845225.922     -213476.760       -1341.120          28.000                                                                  
G12  24679738.937     -255671.293       -4180.111          20.000                                                                  
G14  22039883.927      144429.144        2357.956          30.000                                                                  
G17  21259411.189       -1233.658        -281.168          15.000                                                                  
G19  20562940.897     -112322.868       -1312.123          20.000                                                                  
G28  21144484.712      176071.620         998.142          24.000                                                                  
R12  21078665.402     -202685.565       -1419.250          27.000  
R21  20665342.161       22159.285         348.842          19.000  
R22  21042076.525     -108655.769       -1635.244          20.000  
C20  23620233.131     -187464.330       -1970.961          28.000                                                                                                                                  
C29  22041633.168     -117728.123        -611.874          25.000                                                                                                                                  
> 2021  5 17  7 36 49.0000000  0 12                     
G 2  22956615.476     -284856.605       -2464.679          17.000                                                                  
G 6  20844968.088     -214819.867       -1342.152          27.000                                                                  
G12  24678942.045     -259853.940       -4184.749          17.000                                                                  
G14  22040334.241      146784.451        2353.663          28.000                                                                  
G17  21259358.163       -1512.500        -281.286          14.000                                                                  
G19  20562691.861     -113632.873       -1308.662          25.000                                                                  
G28  21144680.381      177071.793        1001.107          24.000                                                                  
R12  21078382.953     -204233.524       -1420.822          26.000  
R21  20665434.760       22508.343         348.420          25.000  
R22  21041742.850     -110436.659       -1631.790          17.000  
C20  23619854.405     -189435.518       -1969.834          26.000                                                                                                                                  
C29  22041515.636     -118339.781        -613.829          25.000                                                                                                                                  
> 2021  5 17  7 36 50.0000000  0 12                     
G 2  22956135.597     -287321.512       -2466.982          17.000                                                                  
G 6  20844713.338     -216160.698       -1341.618          28.000                                                                  
G12  24678146.237     -264037.843       -4182.878          20.000                                                                  
G14  22040784.537      149141.485        2357.914          29.000                                                                  
G17  21259304.320       -1795.713        -284.770          16.000                                                                  
G19  20562439.614     -114944.701       -1312.430          23.000                                                                  
G28  21144875.479      178073.936        1002.764          22.000                                                                  
R12  21078093.567     -205781.009       -1418.938          27.000  
R21  20665507.580       22856.063         349.134          23.000  
R22  21041409.765     -112215.039       -1631.492          15.000  
C20  23619476.381     -191405.694       -1968.715          28.000                                                                                                                                  
C29  22041397.847     -118953.367        -613.494          27.000                                                                                                                                  
> 2021  5 17  7 36 51.0000000  0 12                     
G 2  22955666.260     -289787.823       -2466.527          15.000                                                                  
G 6  20844455.520     -217502.056       -1341.289          30.000                                                                  
G12  24677351.268     -268220.817       -4182.825          21.000                                                                  
G14  22041235.525      151498.121        2356.643          30.000                                                                  
G17  21259262.967       -2076.793        -277.332          14.000                                                                  
G19  20562189.348     -116256.491       -1311.467          24.000                                                                  
G28  21145067.549      179076.332        1003.578          21.000                                                                  
R12  21077802.035     -207327.244       -1419.039          29.000  
R21  20665580.539       23204.684         347.805          24.000  
R22  21041076.754     -113994.835       -1633.744          18.000  
C20  23619098.383     -193375.109       -1969.749          27.000                                                                                                                                  
C29  22041279.386     -119567.316        -614.401          25.000                                                                                                                                  
> 2021  5 17  7 36 52.0000000  0 12                     
G 2  22955197.050     -292253.509       -2464.675          14.000                                                                  
G 6  20844201.254     -218844.666       -1345.506          30.000                                                                  
G12  24676553.883     -272403.874       -4184.485          20.000                                                                  
G14  22041685.097      153853.992        2356.105          29.000                                                                  
G17  21259210.145       -2354.477        -278.277          14.000                                                                  
G19  20561937.804     -117567.118       -1310.498          24.000                                                                  
G28  21145258.140      180079.862        1002.935          22.000                                                                  
R12  21077509.709     -208874.522       -1418.418          27.000  
R21  20665642.837       23551.537         346.303          23.000  
R22  21040743.019     -115776.527       -1634.582          18.000  
C20  23618719.914     -195345.016       -1969.294          28.000                                                                                                                                  
C29  22041161.096     -120180.803        -612.829          27.000                                                                                                                                  
> 2021  5 17  7 36 53.0000000  0 12                     
G 2  22954728.049     -294718.182          -0.002          12.000                                                                  
G 6  20843945.750     -220188.129       -1340.880          30.000                                                                  
G12  24675757.920     -276587.606       -4183.385          19.000                                                                  
G14  22042133.339      156211.937        2360.032          30.000                                                                  
G17  21259157.396       -2631.873        -276.424          13.000                                                                  
G19  20561689.122     -118877.127       -1309.207          24.000                                                                  
G28  21145445.691      181083.323        1005.917          25.000                                                                  
R12  21077217.994     -210420.880       -1419.157          28.000  
R21  20665707.961       23898.358         348.132          25.000  
R22  21040407.512     -117558.482       -1634.693          17.000  
C20  23618341.890     -197313.629       -1965.673          27.000                                                                                                                                  
C29  22041043.634     -120793.369        -614.134          26.000                                                                                                                                  
> 2021  5 17  7 36 54.0000000  0 12                     
G 2  22954258.804     -297184.365          -0.002          16.000                                                                  
G 6  20843690.938     -221527.684       -1340.443          25.000                                                                  
G12  24674961.851     -280771.379       -4184.923          19.000                                                                  
G14  22042580.076      158571.195        2358.143          30.000                                                                  
G17  21259104.989       -2907.411        -275.432          13.000                                                                  
G19  20561439.527     -120186.774       -1310.682          24.000                                                                  
G28  21145637.910      182089.063        1004.981          25.000                                                                  
R12  21076927.356     -211967.127       -1417.763          28.000  
R21  20665772.164       24244.777         347.595          21.000  
R22  21040087.912     -119339.914       -1633.628          22.000  
C20  23617964.293     -199280.848       -1967.406          25.000                                                                                                                                  
C29  22040924.972     -121408.370        -615.370          28.000                                                                                                                                  
> 2021  5 17  7 36 55.0000000  0 12                     
G 2  22953792.089     -299651.912       -2468.078          17.000                                                                  
G 6  20843435.280     -222867.648       -1338.667          28.000                                                                  
G12  24674164.239     -284956.014       -4184.801          24.000                                                                  
G14  22043029.301      160929.782        2357.806          21.000                                                                  
G17  21259053.100       -3180.082        -271.734          15.000                                                                  
G19  20561191.251     -121496.391       -1308.117          25.000                                                                  
G28  21145830.194      183093.283        1004.857          22.000                                                                  
R12  21076636.169     -213510.112       -1414.220          33.000  
R21  20665837.031       24591.478         344.759          18.000  
R22  21039740.356     -121121.762       -1633.574          23.000  
C20  23617586.265     -201250.312       -1969.850          25.000                                                                                                                                  
C29  22040806.546     -122025.027        -616.905          21.000                                                                                                                                  
> 2021  5 17  7 36 56.0000000  0 11                     
G 2  22953319.594     -302119.239       -2465.842          21.000                                                                  
G 6  20843179.099     -224207.491       -1341.011          29.000                                                                  
G12  24673364.471     -289139.587       -4180.988          25.000                                                                  
G14  22043477.355      163288.450        2358.555          32.000                                                                  
G17  21259001.408       -3451.856        -270.914          13.000                                                                  
G19  20560944.230     -122805.234       -1308.571          29.000                                                                  
G28  21146022.251      184097.586        1002.965          20.000                                                                  
R12  21076342.874     -215051.260       -1414.572          27.000  
R21  20665899.918       24937.582         346.398          19.000  
R22  21039404.081     -122903.325       -1635.279          29.000  
C29  22040688.962     -122639.672        -612.419          24.000                                                                                                                                  
> 2021  5 17  7 36 57.0000000  0 12                     
G 2  22952848.844     -304584.707       -2462.894          25.000                                                                  
G 6  20842923.547     -225546.912       -1338.382          29.000                                                                  
G12  24672566.628     -293320.418       -4180.714          25.000                                                                  
G14  22043928.204      165646.680        2360.681          31.000                                                                  
G17  21258949.734       -3723.621        -273.907          12.000                                                                  
G19  20560694.069     -124111.251       -1304.215          29.000                                                                  
G28  21146211.699      185101.785        1005.839          22.000                                                                  
R12  21076052.799     -216591.125       -1411.833          28.000  
R21  20665964.514       25283.995         348.538          20.000  
R22  21039074.796     -124683.668       -1632.422          28.000  
C20  23616829.078     -205192.620       -1969.529          16.000                                                                                                                                  
C29  22040571.767     -123252.628        -612.615          25.000                                                                                                                                  
> 2021  5 17  7 36 58.0000000  0 12                     
G 2  22952380.070     -307048.517       -2463.444          24.000                                                                  
G 6  20842667.968     -226886.642       -1341.035          27.000                                                                  
G12  24671767.588     -297501.354       -4182.576          25.000                                                                  
G14  22044377.667      168007.439        2360.821          30.000                                                                  
G17  21258897.789       -3996.679        -272.067          12.000                                                                  
G19  20560447.489     -125415.236       -1305.404          27.000                                                                  
G28  21146403.442      186109.434        1008.586          22.000                                                                  
R12  21075763.353     -218131.487       -1413.733          28.000  
R21  20666029.721       25633.678         350.572          21.000  
R22  21038740.441     -126463.642       -1632.586          29.000  
C20  23616450.940     -207161.826       -1969.195          15.000                                                                                                                                  
C29  22040454.794     -123865.187        -612.640          25.000                                                                                                                                  
> 2021  5 17  7 36 59.0000000  0 12                     
G 2  22951912.814     -309511.825       -2463.370          23.000                                                                  
G 6  20842411.315     -228225.930       -1337.884          29.000                                                                  
G12  24670970.107     -301683.738       -4182.435          25.000                                                                  
G14  22044825.811      170366.423        2358.939          30.000                                                                  
G17  21258846.357       -4267.296        -269.212          11.000                                                                  
G19  20560199.217     -126722.402       -1310.161          28.000                                                                  
G28  21146594.195      187116.811        1006.711          23.000                                                                  
R12  21075473.535     -219672.052       -1412.244          28.000  
R21  20666095.329       25983.988         349.651          22.000  
R22  21038405.968     -128243.154       -1632.034          28.000  
C20  23616073.278     -209128.538       -1965.720          17.000                                                                                                                                  
C29  22040338.187     -124476.810        -610.220          25.000                                                                                                                                  
> 2021  5 17  7 37  0.0000000  0 12                     
G 2  22951443.469     -311974.973       -2463.142          24.000                                                                  
G 6  20842155.718     -229564.796       -1338.665          29.000                                                                  
G12  24670172.233     -305867.177       -4184.438          26.000                                                                  
G14  22045276.317      172725.874        2358.458          30.000                                                                  
G17  21258795.128       -4536.797        -270.121          14.000                                                                  
G19  20559951.372     -128030.067       -1307.339          29.000                                                                  
G28  21146786.086      188124.839        1009.063          20.000                                                                  
R12  21075184.791     -221209.923       -1411.627          28.000  
R21  20666159.140       26333.200         348.767          22.000  
R22  21038073.865     -130023.356       -1634.196          28.000  
C20  23615701.043     -211093.349       -1964.981          18.000                                                                                                                                  
C29  22040221.746     -125087.182        -611.318          24.000                                                                                                                                  
> 2021  5 17  7 37  1.0000000  0 11                     
G 2  22950974.006     -314438.936       -2464.944          25.000                                                                  
G 6  20841900.353     -230902.630       -1338.559          27.000                                                                  
G12  24669376.038     -310049.631       -4180.979          27.000                                                                  
G14  22045725.252      175085.201        2360.329          30.000                                                                  
G19  20559701.642     -129337.578       -1304.302          29.000                                                                  
G28  21146978.441      189134.259        1009.275          17.000                                                                  
R12  21074896.696     -222749.589       -1412.232          28.000  
R21  20666224.269       26682.348         349.346          22.000  
R22  21037738.812     -131804.606       -1635.173          27.000  
C20  23615326.941     -213059.162       -1964.738          20.000                                                                                                                                  
C29  22040104.925     -125699.579        -612.355          23.000                                                                                                                                  
> 2021  5 17  7 37  2.0000000  0 11                     
G 2  22950505.650     -316902.568       -2462.986          23.000                                                                  
G 6  20841644.979     -232241.024       -1339.383          24.000                                                                  
G12  24668580.235     -314231.309       -4181.751          26.000                                                                  
G14  22046174.297      177447.559        2363.230          27.000                                                                  
G19  20559452.698     -130644.051       -1306.819          29.000                                                                  
G28  21147170.285      190142.230        1009.563          17.000                                                                  
R12  21074608.480     -224286.454       -1410.260          30.000  
R21  20666289.284       27032.150         349.976          25.000  
R22  21037406.647     -133586.148       -1634.149          29.000  
C20  23614950.457     -215024.822       -1966.659          17.000                                                                                                                                  
C29  22039987.581     -126311.857        -611.950          22.000                                                                                                                                  
> 2021  5 17  7 37  3.0000000  0 11                     
G 2  22950038.940     -319365.704       -2462.577          24.000                                                                  
G 6  20841387.733     -233580.107       -1339.190          24.000                                                                  
G12  24667782.627     -318412.425       -4177.767          27.000                                                                  
G14  22046623.461      179809.846        2360.722          29.000                                                                  
G19  20559203.727     -131952.056       -1307.107          29.000                                                                  
G28  21147352.845      191151.675        1008.837          17.000                                                                  
R12  21074318.906     -225822.969       -1410.302          30.000  
R21  20666353.078       27382.709         350.773          24.000  
R22  21037071.620     -135365.475       -1631.367          30.000  
C20  23614572.699     -216992.090       -1966.576          16.000                                                                                                                                  
C29  22039870.024     -126924.355        -613.038          23.000                                                                                                                                  
> 2021  5 17  7 37  4.0000000  0 11                     
G 2  22949572.090     -321828.059       -2463.874          25.000                                                                  
G 6  20841133.847     -234917.523       -1337.325          24.000                                                                  
G12  24666987.519     -322588.907       -4178.256          28.000                                                                  
G14  22047074.634      182170.193        2360.522          30.000                                                                  
G19  20558955.102     -133258.414       -1305.256          28.000                                                                  
G28  21147546.001      192160.568        1008.736          18.000                                                                  
R12  21074029.630     -227360.033       -1411.432          29.000  
R21  20666418.429       27733.599         350.284          23.000  
R22  21036739.399     -137143.253       -1631.604          30.000  
C20  23614195.177     -218958.104       -1967.254          15.000                                                                                                                                  
C29  22039752.117     -127538.375        -614.351          23.000                                                                                                                                  
> 2021  5 17  7 37  5.0000000  0 11                     
G 2  22949104.686     -324291.357       -2461.649          25.000                                                                  
G 6  20840878.482     -236254.959       -1338.522          23.000                                                                  
G12  24666192.777     -326770.230       -4183.343          26.000                                                                  
G14  22047522.174      184532.088        2360.495          31.000                                                                  
G19  20558706.314     -134564.080       -1307.656          27.000                                                                  
G28  21147740.475      193169.934        1009.689          18.000                                                                  
R12  21073744.860     -228895.959       -1407.542          30.000  
R21  20666482.083       28083.325         350.126          23.000  
R22  21036406.501     -138923.882       -1633.432          30.000  
C20  23613817.484     -220925.018       -1966.949          16.000                                                                                                                                  
C29  22039634.550     -128151.373        -612.979          24.000                                                                                                                                  
> 2021  5 17  7 37  6.0000000  0 11                     
G 2  22948637.853     -326753.346       -2462.821          26.000                                                                  
G 6  20840624.194     -237593.635       -1337.547          27.000                                                                  
G12  24665395.849     -330952.551       -4181.787          26.000                                                                  
G14  22047972.970      186893.016        2360.832          29.000                                                                  
G19  20558458.901     -135869.820       -1304.667          28.000                                                                  
G28  21147933.426      194179.905        1008.544          18.000                                                                  
R12  21073459.649     -230430.443       -1406.927          30.000  
R21  20666547.792       28432.532         348.438          19.000  
R22  21036074.362     -140703.535       -1632.440          30.000  
C20  23613439.146     -222892.946       -1967.285          18.000                                                                                                                                  
C29  22039516.648     -128763.834        -611.750          23.000                                                                                                                                  
> 2021  5 17  7 37  7.0000000  0 11                     
G 2  22948171.185     -329215.069       -2459.485          27.000                                                                  
G 6  20840368.545     -238932.346       -1339.320          26.000                                                                  
G12  24664599.767     -335134.137       -4179.634          28.000                                                                  
G14  22048422.382      189256.265        2363.571          28.000                                                                  
G19  20558210.516     -137174.910       -1306.809          29.000                                                                  
G28  21148118.914      195189.486        1010.755          17.000                                                                  
R12  21073172.458     -231963.928       -1406.486          29.000  
R21  20666612.209       28780.932         347.863          19.000  
R22  21035740.391     -142482.534       -1633.596          28.000  
C20  23613061.449     -224858.223       -1964.653          16.000                                                                                                                                  
C29  22039399.195     -129376.118        -611.452          23.000                                                                                                                                  
> 2021  5 17  7 37  8.0000000  0 11                     
G 2  22947703.619     -331674.034       -2460.052          28.000                                                                  
G 6  20840114.340     -240269.124       -1335.822          28.000                                                                  
G12  24663806.195     -339314.297       -4180.583          27.000                                                                  
G14  22048874.406      191620.719        2364.779          30.000                                                                  
G19  20557961.615     -138481.298       -1305.216          28.000                                                                  
G28  21148306.150      196200.383        1011.176          18.000                                                                  
R12  21072889.799     -233495.350       -1403.766          30.000  
R21  20666677.120       29128.523         346.984          16.000  
R22  21035404.719     -144262.292       -1633.048          27.000  
C20  23612684.743     -226820.010       -1961.824          16.000                                                                                                                                  
C29  22039282.174     -129987.034        -611.299          24.000                                                                                                                                  
> 2021  5 17  7 37  9.0000000  0 11                     
G 2  22947237.489     -334135.481       -2462.015          28.000                                                                  
G 6  20839860.659     -241607.501       -1338.393          28.000                                                                  
G12  24663011.593     -343494.404       -4179.807          28.000                                                                  
G14  22049322.527      193983.451        2363.650          30.000                                                                  
G19  20557711.646     -139786.353       -1304.092          29.000                                                                  
G28  21148498.613      197211.707        1010.323          18.000                                                                  
R12  21072604.519     -235026.127       -1404.897          30.000  
R21  20666742.026       29475.720         348.990          18.000  
R22  21035072.358     -146041.907       -1631.953          27.000  
C20  23612308.285     -228780.549       -1961.364          16.000                                                                                                                                  
C29  22039164.978     -130598.205        -612.494          25.000                                                                                                                                  
> 2021  5 17  7 37 10.0000000  0 11                     
G 2  22946769.754     -336597.629       -2464.102          28.000                                                                  
G 6  20839605.259     -242943.590       -1336.635          27.000                                                                  
G12  24662217.164     -347674.474       -4180.577          29.000                                                                  
G14  22049770.206      196347.584        2365.050          30.000                                                                  
G19  20557464.067     -141090.431       -1304.282          29.000                                                                  
G28  21148693.828      198223.057        1011.837          18.000                                                                  
R12  21072315.530     -236556.871       -1403.935          30.000  
R21  20666807.194       29825.677         351.059          18.000  
R22  21034737.672     -147821.024       -1632.148          27.000  
C20  23611930.156     -230742.979       -1959.052          13.000                                                                                                                                  
C29  22039047.621     -131210.008        -612.020          25.000                                                                                                                                  
> 2021  5 17  7 37 11.0000000  0 11                     
G 2  22946301.337     -339061.393       -2461.725          25.000                                                                  
G 6  20839350.971     -244281.345       -1337.394          28.000                                                                  
G12  24661421.655     -351855.498       -4179.515          27.000                                                                  
G14  22050218.701      198711.357        2362.942          32.000                                                                  
G19  20557215.965     -142395.890       -1305.830          27.000                                                                  
G28  21148886.867      199234.548        1011.691          18.000                                                                  
R12  21072028.971     -238087.045       -1402.851          33.000  
R21  20666873.339       30179.882         357.881          16.000  
R22  21034403.238     -149600.133       -1632.601          28.000  
C20  23611553.772     -232703.499       -1962.230          20.000                                                                                                                                  
C29  22038929.662     -131822.599        -612.156          22.000                                                                                                                                  
> 2021  5 17  7 37 12.0000000  0 11                     
G 2  22945833.837     -341523.456       -2460.670          27.000                                                                  
G 6  20839095.287     -245618.757       -1337.185          25.000                                                                  
G12  24660624.736     -356036.313       -4179.744          30.000                                                                  
G14  22050667.035      201076.022        2364.020          31.000                                                                  
G19  20556967.444     -143701.710       -1306.237          27.000                                                                  
G28  21149079.374      200245.936        1011.095          16.000                                                                  
R12  21071741.152     -239616.279       -1402.651          32.000  
R21  20666940.256       30537.356         356.098          13.000  
R22  21034070.881     -151378.940       -1632.197          25.000  
C20  23611176.089     -234665.929       -1962.362          19.000                                                                                                                                  
C29  22038811.598     -132436.024        -612.377          22.000                                                                                                                                  
> 2021  5 17  7 37 13.0000000  0 11                     
G 2  22945366.084     -343983.861       -2459.531          28.000                                                                  
G 6  20838841.615     -246954.472       -1336.161          24.000                                                                  
G12  24659829.706     -360215.865       -4179.970          30.000                                                                  
G14  22051117.272      203437.541        2360.132          30.000                                                                  
G19  20556719.642     -145006.920       -1305.913          29.000                                                                  
G28  21149271.767      201256.952        1011.736          17.000                                                                  
R12  21071453.062     -241145.934       -1403.082          30.000  
R21  20666999.888       30891.840         353.479          13.000  
R22  21033737.330     -153158.581       -1632.474          24.000  
C20  23610798.431     -236625.743       -1958.300          17.000                                                                                                                                  
C29  22038693.835     -133047.141        -610.821          24.000                                                                                                                                  
> 2021  5 17  7 37 14.0000000  0 11                     
G 2  22944897.594     -346443.867       -2462.443          27.000                                                                  
G 6  20838587.117     -248290.123       -1336.894          20.000                                                                  
G12  24659034.545     -364395.837       -4177.027          30.000                                                                  
G14  22051567.137      205800.131        2364.306          30.000                                                                  
G19  20556471.584     -146311.272       -1299.848          29.000                                                                  
G28  21149460.661      202269.461        1012.456          16.000                                                                  
R12  21071167.742     -242674.279       -1402.649          29.000  
R21  20667066.129       31246.164         354.847          13.000  
R22  21033404.384     -154938.293       -1633.727          26.000  
C20  23610421.846     -238586.932       -1963.598          13.000                                                                                                                                  
C29  22038576.177     -133657.839        -610.416          21.000                                                                                                                                  
> 2021  5 17  7 37 15.0000000  0 11                     
G 2  22944429.614     -348907.086       -2460.226          30.000                                                                  
G 6  20838331.852     -249626.668       -1336.090          21.000                                                                  
G12  24658240.039     -368573.485       -4179.595          30.000                                                                  
G14  22052019.316      208164.307        2364.708          32.000                                                                  
G19  20556224.049     -147612.984       -1302.417          28.000                                                                  
G28  21149653.193      203280.975        1011.439          17.000                                                                  
R12  21070881.689     -244199.618       -1399.401          28.000  
R21  20667132.374       31601.082          -0.004          10.000  
R22  21033071.818     -156718.623       -1632.569          29.000  
C20  23610042.858     -240551.717       -1963.338          11.000                                                                                                                                  
C29  22038458.353     -134268.655        -611.468          21.000                                                                                                                                  
> 2021  5 17  7 37 16.0000000  0 11                     
G 2  22943962.245     -351365.564       -2456.954          28.000                                                                  
G 6  20838078.097     -250960.584       -1332.581          20.000                                                                  
G12  24657448.185     -372753.961       -4178.099          30.000                                                                  
G14  22052470.040      210527.672        2362.723          31.000                                                                  
G19  20555976.234     -148917.459       -1306.925          27.000                                                                  
G28  21149863.560      204294.639        1014.912          22.000                                                                  
R12  21070597.460     -245724.421       -1396.749          30.000  
R21  20667198.763       31956.188          -0.004          14.000  
R22  21032738.815     -158497.281       -1630.822          28.000  
C20  23609665.968     -242514.416       -1965.247          13.000                                                                                                                                  
C29  22038340.346     -134881.083        -611.510          20.000                                                                                                                                  
> 2021  5 17  7 37 17.0000000  0 11                     
G 2  22943494.832     -353825.886       -2460.652          27.000                                                                  
G 6  20837825.279     -252293.830       -1332.625          24.000                                                                  
G12  24656651.995     -376931.089       -4178.504          30.000                                                                  
G14  22052919.353      212892.736        2366.849          31.000                                                                  
G19  20555728.171     -150222.225       -1302.614          27.000                                                                  
G28  21150054.771      205309.721        1015.195          25.000                                                                  
R12  21070310.221     -247249.591       -1399.603          28.000  
R21  20667264.856       32309.687          -0.004          17.000  
R22  21032406.768     -160275.537       -1632.983          29.000  
C20  23609288.215     -244480.890       -1964.759          15.000                                                                                                                                  
C29  22038222.880     -135492.904        -610.733          23.000                                                                                                                                  
> 2021  5 17  7 37 18.0000000  0 11                     
G 2  22943026.625     -356287.477       -2462.236          30.000                                                                  
G 6  20837574.145     -253626.224       -1332.158          32.000                                                                  
G12  24655855.576     -381112.204       -4183.151          26.000                                                                  
G14  22053371.420      215259.609        2373.442          22.000                                                                  
G19  20555479.301     -151525.092       -1303.512          27.000                                                                  
G28  21150246.555      206325.566        1014.763          22.000                                                                  
R12  21070024.892     -248773.492       -1397.756          31.000  
R21  20667350.606       32661.344         349.711          18.000  
R22  21032073.251     -162054.676       -1631.026          28.000  
C20  23608911.273     -246443.870       -1961.435          16.000                                                                                                                                  
C29  22038105.480     -136104.985        -611.719          19.000                                                                                                                                  
> 2021  5 17  7 37 19.0000000  0 11                     
G 2  22942556.538     -358748.066       -2460.788          26.000                                                                  
G 6  20837324.495     -254959.020       -1332.221          33.000                                                                  
G12  24655060.700     -385292.706       -4178.840          22.000                                                                  
G14  22053823.095      217632.865        2372.402          18.000                                                                  
G19  20555232.036     -152827.906       -1302.827          22.000                                                                  
G28  21150440.942      207340.947        1015.209          23.000                                                                  
R12  21069739.372     -250298.593       -1399.126          25.000  
R21  20667402.490       33010.900         350.351          21.000  
R22  21031739.297     -163831.531       -1630.172          21.000  
C20  23608534.802     -248404.412       -1958.552          26.000                                                                                                                                  
C29  22037988.175     -136716.243        -611.237          17.000                                                                                                                                  
> 2021  5 17  7 37 20.0000000  0 11                     
G 2  22942085.640     -361207.772       -2459.279          28.000                                                                  
G 6  20837072.197     -256291.246       -1331.888          32.000                                                                  
G12  24654266.530     -389471.678       -4179.125          24.000                                                                  
G14  22054274.256      220003.581          -0.009          17.000                                                                  
G19  20554984.955     -154130.829       -1302.699          24.000                                                                  
G28  21150633.732      208355.821        1014.377          19.000                                                                  
R12  21069452.080     -251822.347       -1398.116          25.000  
R21  20667470.258       33360.652         349.021          20.000  
R22  21031406.435     -165609.340       -1631.729          22.000  
C20  23608157.537     -250362.789       -1956.696          25.000                                                                                                                                  
C29  22037870.621     -137327.087        -610.553          18.000                                                                                                                                  
> 2021  5 17  7 37 21.0000000  0 11                     
G 2  22941617.175     -363666.815       -2459.681          30.000                                                                  
G 6  20836818.987     -257624.343       -1332.531          34.000                                                                  
G12  24653471.962     -393651.742       -4179.836          27.000                                                                  
G14  22054727.630      222371.871          -0.009          18.000                                                                  
G19  20554738.580     -155434.522       -1304.397          26.000                                                                  
G28  21150826.993      209371.348        1015.569          15.000                                                                  
R12  21069162.101     -253345.655       -1396.458          25.000  
R21  20667528.555       33710.360         350.371          19.000  
R22  21031073.105     -167388.120       -1631.828          24.000  
C20  23607783.627     -252320.614       -1956.410          27.000                                                                                                                                  
C29  22037753.085     -137939.368        -614.068          17.000                                                                                                                                  
> 2021  5 17  7 37 22.0000000  0 11                     
G 2  22941150.705     -366125.830       -2458.411          30.000                                                                  
G 6  20836566.274     -258956.719       -1332.143          34.000                                                                  
G12  24652675.257     -397830.787       -4180.086          19.000                                                                  
G14  22055183.654      224739.357        2367.427          17.000                                                                  
G19  20554490.578     -156739.420       -1302.248          25.000                                                                  
G28  21151020.337      210387.507        1017.975          14.000                                                                  
R12  21068875.027     -254867.996       -1396.970          27.000  
R21  20667593.937       34060.441         350.470          17.000  
R22  21030738.790     -169166.854       -1631.720          26.000  
C20  23607408.626     -254275.751       -1954.008          22.000                                                                                                                                  
C29  22037634.236     -138553.842        -613.268          20.000                                                                                                                                  
> 2021  5 17  7 37 23.0000000  0 11                     
G 2  22940681.178     -368585.226       -2459.182          32.000                                                                  
G 6  20836313.103     -260287.891       -1330.586          32.000                                                                  
G12  24651879.607     -402012.008       -4180.524          17.000                                                                  
G14  22055634.492      227108.366        2368.617          17.000                                                                  
G19  20554244.099     -158041.099       -1301.612          22.000                                                                  
G28  21151206.487      211405.165        1017.189          17.000                                                                  
R12  21068589.586     -256389.247       -1394.628          28.000  
R21  20667658.817       34410.756         351.035          15.000  
R22  21030404.094     -170945.227       -1632.370          27.000  
C20  23607033.703     -256230.039       -1954.109          22.000                                                                                                                                  
C29  22037516.844     -139164.429        -610.393          19.000                                                                                                                                  
> 2021  5 17  7 37 24.0000000  0 11                     
G 2  22940212.701     -371044.608       -2457.551          30.000                                                                  
G 6  20836059.748     -261620.086       -1331.393          33.000                                                                  
G12  24651084.167     -406192.280       -4180.058          25.000                                                                  
G14  22056084.745      229474.132        2364.101          20.000                                                                  
G19  20553996.708     -159343.591       -1302.770          20.000                                                                  
G28  21151403.901      212421.431        1015.893          18.000                                                                  
R12  21068306.430     -257909.874       -1395.403          30.000  
R21  20667724.543       34761.750         351.097          13.000  
R22  21030069.862     -172723.851       -1631.881          25.000  
C20  23606657.861     -258186.725       -1958.884          20.000                                                                                                                                  
C29  22037399.575     -139774.218        -610.714          19.000                                                                                                                                  
> 2021  5 17  7 37 25.0000000  0 11                     
G 2  22939744.717     -373503.022       -2455.960          32.000                                                                  
G 6  20835807.445     -262951.246       -1330.788          35.000                                                                  
G12  24650287.113     -410371.889       -4178.766          23.000                                                                  
G14  22056502.952      231839.704          -0.009          22.000                                                                  
G19  20553750.495     -160646.958       -1304.065          22.000                                                                  
G28  21151597.538      213438.748        1018.232          18.000                                                                  
R12  21068023.029     -259428.100       -1391.717          31.000  
R21  20667778.464       35112.291          -0.004          17.000  
R22  21029735.328     -174502.542       -1630.890          23.000  
C20  23606281.630     -260144.878       -1957.228          22.000                                                                                                                                  
C29  22037282.148     -140384.743        -612.340          17.000                                                                                                                                  
> 2021  5 17  7 37 26.0000000  0 11                     
G 2  22939277.753     -375961.299       -2458.168          31.000                                                                  
G 6  20835552.722     -264282.870       -1331.651          32.000                                                                  
G12  24649480.143     -414550.536       -4178.469          19.000                                                                  
G14  22056939.668      234206.446        2368.054          23.000                                                                  
G19  20553502.061     -161949.890       -1302.081          20.000                                                                  
G28  21151791.344      214457.130        1017.923          20.000                                                                  
R12  21067739.852     -260946.081       -1391.084          30.000  
R21  20667843.815       35461.700          -0.004          14.000  
R22  21029401.977     -176280.769       -1631.273          24.000  
C20  23605906.057     -262101.684       -1953.720          22.000                                                                                                                                  
C29  22037164.542     -140997.603        -613.967          19.000                                                                                                                                  
> 2021  5 17  7 37 27.0000000  0 11                     
G 2  22938810.663     -378419.222       -2458.470          31.000                                                                  
G 6  20835298.988     -265613.969       -1330.456          33.000                                                                  
G12  24648689.916     -418728.306       -4178.024          18.000                                                                  
G14  22057384.462      236574.525        2368.832          26.000                                                                  
G19  20553255.058     -163250.969       -1298.878          20.000                                                                  
G28  21151967.940      215474.530        1017.797          19.000                                                                  
R12  21067455.740     -262461.716       -1391.141          30.000  
R21  20667909.454       35812.754          -0.004          17.000  
R22  21029069.554     -178058.292       -1631.013          24.000  
C20  23605530.965     -264057.013       -1954.334          20.000                                                                                                                                  
C29  22037047.054     -141610.805        -611.914          20.000                                                                                                                                  
> 2021  5 17  7 37 28.0000000  0 11                     
G 2  22938343.447     -380878.278       -2458.138          31.000                                                                  
G 6  20835045.088     -266944.490       -1331.687          32.000                                                                  
G12  24647897.901     -422906.499          -0.012          18.000                                                                  
G14  22057833.567      238943.167          -0.009          26.000                                                                  
G19  20553007.911     -164551.341       -1301.957          20.000                                                                  
G28  21152168.670      216494.413        1018.699          19.000                                                                  
R12  21067175.717     -263978.904       -1391.256          31.000  
R21  20667962.826       36161.874         348.159          15.000  
R22  21028736.408     -179836.168       -1630.684          23.000  
C20  23605155.585     -266012.093       -1954.097          25.000                                                                                                                                  
C29  22036929.549     -142220.581        -608.139          19.000                                                                                                                                  
> 2021  5 17  7 37 29.0000000  0 11                     
G 2  22937877.391     -383336.863       -2458.302          32.000                                                                  
G 6  20834794.269     -268274.636       -1329.751          33.000                                                                  
G12  24647102.756     -427085.097          -0.012          17.000                                                                  
G14  22058282.511      241311.117        2367.158          23.000                                                                  
G19  20552760.062     -165853.814       -1302.471          20.000                                                                  
G28  21152360.296      217514.868        1021.693          18.000                                                                  
R12  21066893.215     -265495.996       -1392.992          31.000  
R21  20668027.727       36509.696         347.942          17.000  
R22  21028404.252     -181612.500       -1629.997          20.000  
C20  23604780.523     -267968.091       -1957.153          28.000                                                                                                                                  
C29  22036812.637     -142830.161        -610.449          19.000                                                                                                                                  
> 2021  5 17  7 37 30.0000000  0 11                     
G 2  22937407.321     -385795.775       -2459.024          27.000                                                                  
G 6  20834539.471     -269605.728       -1329.953          29.000                                                                  
G12  24646307.888     -431262.231          -0.012          20.000                                                                  
G14  22058731.820      243678.417        2368.092          20.000                                                                  
G19  20552510.454     -167156.103       -1301.601          21.000                                                                  
G28  21152558.744      218536.587        1020.965          20.000                                                                  
R12  21066610.172     -267014.001       -1391.626          22.000  
R21  20668084.240       36858.424         349.069          15.000  
R22  21028071.459     -183389.406       -1629.883          19.000  
C20  23604405.195     -269923.737       -1954.549          23.000                                                                                                                                  
C29  22036695.258     -143441.522        -611.200          19.000                                                                                                                                  
> 2021  5 17  7 37 31.0000000  0 11                     
G 2  22936939.271     -388255.307       -2459.438          20.000                                                                  
G 6  20834286.291     -270935.473       -1331.961          21.000                                                                  
G12  24645520.170     -435438.094       -4175.083          19.000                                                                  
G14  22059182.692      246046.341        2368.971          20.000                                                                  
G19  20552262.583     -168458.934       -1305.956          17.000                                                                  
G28  21152763.199      219557.610        1020.568          24.000                                                                  
R12  21066328.927     -268529.468       -1389.476          21.000  
R21  20668149.259       37206.419         345.853          17.000  
R22  21027738.395     -185168.082          -0.004          15.000  
C20  23604029.666     -271879.704       -1955.368          17.000                                                                                                                                  
C29  22036577.992     -144053.300        -611.272          20.000                                                                                                                                  
> 2021  5 17  7 37 32.0000000  0 11                     
G 2  22936470.916     -390714.085       -2458.034          30.000                                                                  
G 6  20834033.072     -272267.146       -1331.213          29.000                                                                  
G12  24644728.195     -439615.303       -4177.025          22.000                                                                  
G14  22059635.611      248414.640        2366.821          19.000                                                                  
G19  20552014.900     -169762.658       -1302.874          21.000                                                                  
G28  21152964.758      220578.431        1021.032          23.000                                                                  
R12  21066047.063     -270044.722       -1389.211          28.000  
R21  20668214.109       37552.906         347.151          18.000  
R22  21027410.441     -186950.437       -1633.659          19.000  
C20  23603654.809     -273833.621       -1951.554          28.000                                                                                                                                  
C29  22036460.727     -144665.114        -611.408          23.000                                                                                                                                  
> 2021  5 17  7 37 33.0000000  0 10                     
G 2  22936003.809     -393171.222       -2457.030          25.000                                                                  
G 6  20833782.016     -273597.524       -1327.420          30.000                                                                  
G12  24643925.199     -443791.817       -4176.436          19.000                                                                  
G14  22060086.889      250781.133        2366.570          18.000                                                                  
G19  20551766.806     -171064.393       -1300.337          28.000                                                                  
G28  21153159.742      221599.460        1020.097          18.000                                                                  
R12  21065762.947     -271561.829       -1390.323          29.000  
R21  20668273.897       37900.156         347.951          16.000  
R22  21027076.784     -188729.501       -1632.282          26.000  
C20  23603279.669     -275786.843       -1951.698          30.000                                                                                                                                  
> 2021  5 17  7 37 34.0000000  0 11                     
G 2  22935536.976     -395627.835       -2455.932          24.000                                                                  
G 6  20833529.365     -274924.400       -1326.349          21.000                                                                  
G12  24643145.608     -447968.128       -4176.740          29.000                                                                  
G14  22060546.100      253149.048        2369.377          28.000                                                                  
G19  20551519.664     -172365.151       -1299.766          30.000                                                                  
G28  21153353.682      222618.759        1020.456          16.000                                                                  
R12  21065480.690     -273074.389       -1386.141          25.000  
R21  20668338.843       38248.254         348.477          16.000  
R22  21026750.966     -190508.096       -1633.827          22.000  
C20  23602905.043     -277740.999       -1953.654          23.000                                                                                                                                  
C29  22036225.729     -145889.235        -611.798          22.000                                                                                                                                  
> 2021  5 17  7 37 35.0000000  0 11                     
G 2  22935074.026     -398084.938       -2458.532          20.000                                                                  
G 6  20833277.852     -276250.790       -1327.081          24.000                                                                  
G12  24642345.360     -452144.173       -4176.046          28.000                                                                  
G14  22061002.679      255516.915        2365.030          24.000                                                                  
G19  20551271.139     -173665.667       -1302.193          32.000                                                                  
G28  21153548.347      223641.394        1024.440          17.000                                                                  
R12  21065196.365     -274586.701       -1387.070          21.000  
R21  20668403.775       38596.068         347.983          15.000  
R22  21026417.628     -192288.796       -1634.052          20.000  
C20  23602529.959     -279694.093       -1954.553          25.000                                                                                                                                  
C29  22036108.634     -146500.064        -608.253          30.000                                                                                                                                  
> 2021  5 17  7 37 36.0000000  0 11                     
G 2  22934606.504     -400542.327       -2456.584          18.000                                                                  
G 6  20833027.333     -277579.183       -1327.790          21.000                                                                  
G12  24641551.325     -456321.792       -4178.344          20.000                                                                  
G14  22061460.095      257885.138        2370.168          32.000                                                                  
G19  20551024.009     -174964.748       -1297.589          29.000                                                                  
G28  21153763.173      224664.892        1024.693          20.000                                                                  
R12  21064913.501     -276098.207       -1387.296          18.000  
R21  20668470.670       38945.740         350.337          14.000  
R22  21026084.721     -194068.844       -1630.630          19.000  
C20  23602154.649     -281646.510       -1949.021          21.000                                                                                                                                  
C29  22035991.373     -147108.288        -609.532          32.000                                                                                                                                  
> 2021  5 17  7 37 37.0000000  0 11                     
G 2  22934139.100     -402998.810       -2456.507          18.000                                                                  
G 6  20832774.512     -278904.519       -1322.662          20.000                                                                  
G12  24640754.689     -460499.828       -4179.617          18.000                                                                  
G14  22061915.862      260256.162        2372.238          33.000                                                                  
G19  20550775.244     -176263.775       -1300.298          30.000                                                                  
G28  21153968.592      225688.765        1023.383          22.000                                                                  
R12  21064630.537     -277609.997       -1386.028          17.000  
R21  20668536.004       39295.162         347.610          13.000  
R22  21025752.683     -195846.360       -1631.117          17.000  
C20  23601780.752     -283596.557       -1950.248          20.000                                                                                                                                  
C29  22035873.379     -147718.470        -609.954          32.000                                                                                                                                  
> 2021  5 17  7 37 38.0000000  0 11                     
G 2  22933672.364     -405454.941       -2456.066          20.000                                                                  
G 6  20832523.046     -280226.114       -1320.013          15.000                                                                  
G12  24639957.299     -464679.121       -4179.934          19.000                                                                  
G14  22062372.264      262627.150        2370.468          33.000                                                                  
G19  20550527.922     -177563.907       -1299.176          29.000                                                                  
G28  21154149.878      226711.978        1023.178          23.000                                                                  
R12  21064347.656     -279120.449       -1385.956          12.000  
R21  20668592.107       39641.517          -0.004          13.000  
R22  21025419.441     -197626.096       -1634.720          16.000  
C20  23601406.458     -285546.273       -1949.846          17.000                                                                                                                                  
C29  22035755.206     -148329.962        -610.865          30.000                                                                                                                                  
> 2021  5 17  7 37 39.0000000  0 11                     
G 2  22933206.037     -407912.419       -2456.393          22.000                                                                  
G 6  20832271.965     -281545.769       -1319.744          13.000                                                                  
G12  24639160.328     -468858.792       -4177.669          20.000                                                                  
G14  22062823.431      264999.494        2373.195          31.000                                                                  
G19  20550281.037     -178862.918       -1299.761          29.000                                                                  
G28  21154336.687      227735.640        1023.775          25.000                                                                  
R12  21064067.885     -280630.820           0.006          17.000  
R21  20668656.969       39988.690          -0.004          17.000  
R22  21025085.470     -199409.317       -1635.760          15.000  
C20  23601031.897     -287497.074       -1950.472          19.000                                                                                                                                  
C29  22035637.347     -148939.545        -607.568          32.000                                                                                                                                  
> 2021  5 17  7 37 40.0000000  0 11                     
G 2  22932740.391     -410368.526          -0.002          20.000                                                                  
G 6  20832020.918     -282865.429           0.006          13.000                                                                  
G12  24638365.748     -473035.636       -4176.023          25.000                                                                  
G14  22063273.784      267370.729        2371.935          31.000                                                                  
G19  20550032.774     -180163.137       -1298.577          30.000                                                                  
G28  21154533.814      228758.262        1023.867          24.000                                                                  
R12  21063785.261     -282140.761           0.006          15.000  
R21  20668722.242       40337.167          -0.004          17.000  
R22  21024751.975     -201190.988       -1633.369          17.000  
C20  23600657.507     -289445.585       -1946.712          16.000                                                                                                                                  
C29  22035519.689     -149550.455        -609.952          31.000                                                                                                                                  
> 2021  5 17  7 37 41.0000000  0 11                     
G 2  22932275.626     -412824.048          -0.002          20.000                                                                  
G 6  20831769.733     -284185.437           0.006          13.000                                                                  
G12  24637569.076     -477213.356       -4178.824          25.000                                                                  
G14  22063726.554      269743.079        2373.398          32.000                                                                  
G19  20549785.120     -181462.277       -1296.473          30.000                                                                  
G28  21154729.557      229783.792        1026.538          23.000                                                                  
R12  21063503.811     -283649.894       -1385.010          18.000  
R21  20668802.068       40687.661         351.158          21.000  
R22  21024416.206     -202970.866       -1632.360          17.000  
C20  23600283.034     -291395.712       -1948.606          17.000                                                                                                                                  
C29  22035402.092     -150160.454        -609.913          31.000                                                                                                                                  
> 2021  5 17  7 37 42.0000000  0 11                     
G 2  22931808.126     -415281.072          -0.002          18.000                                                                  
G 6  20831518.521     -285505.790           0.006          18.000                                                                  
G12  24636777.240     -481390.244       -4175.016          27.000                                                                  
G14  22064178.567      272115.409        2372.973          23.000                                                                  
G19  20549539.614     -182761.001       -1298.916          28.000                                                                  
G28  21154925.859      230810.982        1028.899          23.000                                                                  
R12  21063223.286     -285157.662       -1380.885          28.000  
R21  20668878.639       41039.374         352.719          22.000  
R22  21024061.985     -204749.697       -1632.022          20.000  
C20  23599909.033     -293345.611       -1952.273          25.000                                                                                                                                  
C29  22035284.639     -150770.727        -609.286          24.000                                                                                                                                  
> 2021  5 17  7 37 43.0000000  0 11                     
G 2  22931341.132     -417735.663       -2453.992          17.000                                                                  
G 6  20831260.913     -286831.240       -1326.591          25.000                                                                  
G12  24635982.865     -485566.153       -4178.282          29.000                                                                  
G14  22064629.365      274487.561        2370.461          28.000                                                                  
G19  20549290.478     -184059.873       -1299.707          25.000                                                                  
G28  21155121.934      231841.158        1031.386          18.000                                                                  
R12  21062940.605     -286661.762       -1380.049          23.000  
R21  20668944.435       41391.850         352.563          18.000  
R22  21023729.632     -206527.785       -1632.246          17.000  
C20  23599539.249     -295297.402       -1949.503          24.000                                                                                                                                  
C29  22035167.160     -151381.362        -610.828          32.000                                                                                                                                  
> 2021  5 17  7 37 44.0000000  0 11                     
G 2  22930873.135     -420190.940       -2456.239          20.000                                                                  
G 6  20831012.034     -288156.455       -1326.043          26.000                                                                  
G12  24635189.808     -489744.803       -4176.305          30.000                                                                  
G14  22065081.813      276856.900        2369.364          24.000                                                                  
G19  20549043.431     -185359.647       -1297.848          33.000                                                                  
G28  21155318.079      232871.719        1028.743          18.000                                                                  
R12  21062658.065     -288167.770       -1381.471          20.000  
R21  20669010.476       41745.177         353.549          14.000  
R22  21023404.334     -208307.551       -1632.655          23.000  
C20  23599164.174     -297246.431       -1949.876          21.000                                                                                                                                  
C29  22035050.356     -151990.865        -610.749          35.000                                                                                                                                  
> 2021  5 17  7 37 45.0000000  0 11                     
G 2  22930406.049     -422645.911       -2455.005          18.000                                                                  
G 6  20830756.805     -289484.555       -1330.198          31.000                                                                  
G12  24634395.856     -493920.685       -4176.493          29.000                                                                  
G14  22065536.755      279227.484        2366.771          27.000                                                                  
G19  20548797.179     -186658.399       -1299.284          34.000                                                                  
G28  21155509.006      233900.769        1027.721          26.000                                                                  
R12  21062374.420     -289673.091       -1381.376          27.000  
R21  20669086.855       42098.440         351.868          16.000  
R22  21023077.526     -210086.114       -1631.255          28.000  
C20  23598789.701     -299193.950       -1948.441          33.000                                                                                                                                  
C29  22034933.165     -152602.457        -615.501          29.000                                                                                                                                  
> 2021  5 17  7 37 46.0000000  0 11                     
G 2  22929938.540     -425101.106       -2453.858          20.000                                                                  
G 6  20830503.463     -290809.913       -1324.220          28.000                                                                  
G12  24633600.973     -498098.877       -4177.012          26.000                                                                  
G14  22065987.765      281597.049        2371.236          22.000                                                                  
G19  20548552.134     -187957.194       -1294.202          32.000                                                                  
G28  21155697.608      234928.819        1029.142          29.000                                                                  
R12  21062092.084     -291176.874       -1378.599          34.000  
R21  20669153.367       42450.055         350.443          20.000  
R22  21022745.942     -211862.940       -1630.127          22.000  
C20  23598414.531     -301142.452       -1946.317          34.000                                                                                                                                  
C29  22034815.821     -153215.036        -609.309          28.000                                                                                                                                  
> 2021  5 17  7 37 47.0000000  0 11                     
G 2  22929468.981     -427555.474       -2454.671          31.000                                                                  
G 6  20830250.598     -292135.297       -1326.899          28.000                                                                  
G12  24632806.597     -502276.626       -4176.662          27.000                                                                  
G14  22066437.259      283967.441          -0.009          21.000                                                                  
G19  20548304.316     -189253.310       -1296.663          31.000                                                                  
G28  21155892.492      235957.399        1027.722          25.000                                                                  
R12  21061811.598     -292679.766       -1380.114          31.000  
R21  20669243.702       42800.600         350.736          25.000  
R22  21022413.580     -213639.450       -1628.421          25.000  
C20  23598040.468     -303089.753       -1946.509          30.000                                                                                                                                  
C29  22034698.826     -153823.783        -606.531          26.000                                                                                                                                  
> 2021  5 17  7 37 48.0000000  0 11                     
G 2  22929000.028     -430010.821       -2455.500          20.000                                                                  
G 6  20829998.391     -293460.153       -1321.829          25.000                                                                  
G12  24632012.192     -506453.153       -4177.734          22.000                                                                  
G14  22066888.040      286340.187        2374.069          27.000                                                                  
G19  20548055.022     -190550.113       -1291.851          28.000                                                                  
G28  21156087.655      236985.643        1029.076          30.000                                                                  
R12  21061532.334     -294180.553       -1376.276          23.000  
R21  20669307.435       43152.252         352.131          20.000  
R22  21022079.605     -215416.140       -1629.582          22.000  
C20  23597665.720     -305037.068       -1942.706          35.000                                                                                                                                  
C29  22034582.372     -154431.272        -608.091          26.000                                                                                                                                  
> 2021  5 17  7 37 49.0000000  0 12                     
G 2  22928534.103     -432464.136       -2452.237          20.000                                                                  
G 6  20829745.513     -294783.441       -1323.758          23.000                                                                  
G12  24631217.523     -510630.856       -4177.631          21.000                                                                  
G14  22067340.062      288714.053        2371.666          30.000                                                                  
G17  21256159.500        -794.071        -271.790          17.000                                                                  
G19  20547810.262     -191846.349       -1303.018          31.000                                                                  
G28  21156284.127      238015.299        1029.797          27.000                                                                  
R12  21061252.000     -295680.088       -1377.425          19.000  
R21  20669374.033       43505.450         351.485          19.000  
R22  21021746.821     -217192.245       -1630.515          20.000  
C20  23597291.805     -306981.249       -1945.339          32.000                                                                                                                                  
C29  22034465.050     -155040.309        -610.632          28.000                                                                                                                                  
> 2021  5 17  7 37 50.0000000  0 12                     
G 2  22928067.301     -434917.246       -2456.105          21.000                                                                  
G 6  20829491.840     -296109.028       -1325.165          30.000                                                                  
G12  24630422.878     -514808.570       -4177.903          17.000                                                                  
G14  22067791.480      291086.940        2373.812          25.000                                                                  
G17  21256108.064       -1064.860        -269.244          17.000                                                                  
G19  20547563.626     -193145.334       -1297.320          33.000                                                                  
G28  21156477.771      239043.691        1030.347          28.000                                                                  
R12  21060971.885     -297180.412       -1376.963          23.000  
R21  20669440.048       43858.476         355.673          17.000  
R22  21021414.552     -218970.111       -1630.000          26.000  
C20  23596917.481     -308929.025       -1948.023          31.000                                                                                                                                  
C29  22034348.295     -155650.732        -608.372          30.000                                                                                                                                  
> 2021  5 17  7 37 51.0000000  0 12                     
G 2  22927596.682     -437371.807       -2453.940          27.000                                                                  
G 6  20829238.769     -297434.008       -1322.385          32.000                                                                  
G12  24629628.769     -518986.052       -4176.564          23.000                                                                  
G14  22068241.377      293459.296        2374.707          23.000                                                                  
G17  21256061.158       -1331.747        -264.742          14.000                                                                  
G19  20547314.760     -194441.780       -1295.358          31.000                                                                  
G28  21156672.149      240072.106        1027.565          30.000                                                                  
R12  21060690.457     -298680.478       -1375.603          20.000  
R21  20669505.809       44214.144         355.999          18.000  
R22  21021079.132     -220747.123       -1630.469          26.000  
C20  23596543.235     -310874.988       -1944.512          29.000                                                                                                                                  
C29  22034231.208     -156260.614        -611.325          29.000                                                                                                                                  
> 2021  5 17  7 37 52.0000000  0 12                     
G 2  22927130.691     -439826.349       -2455.454          25.000                                                                  
G 6  20828985.218     -298757.045       -1321.606          30.000                                                                  
G12  24628831.876     -523162.814       -4176.478          27.000                                                                  
G14  22068693.689      295834.766        2375.596          20.000                                                                  
G17  21256009.884       -1601.390        -271.165          16.000                                                                  
G19  20547069.415     -195738.874       -1296.630          32.000                                                                  
G28  21156867.954      241100.700        1030.972          25.000                                                                  
R12  21060408.985     -300178.371       -1373.665          22.000  
R21  20669568.551       44569.346         353.798          20.000  
R22  21020747.648     -222523.317       -1630.361          26.000  
C20  23596169.141     -312819.659       -1945.288          27.000                                                                                                                                  
C29  22034113.987     -156870.555        -609.725          28.000                                                                                                                                  
> 2021  5 17  7 37 53.0000000  0 12                     
G 2  22926663.684     -442281.644       -2454.116          19.000                                                                  
G 6  20828731.795     -300078.603       -1323.185          33.000                                                                  
G12  24628037.582     -527338.820       -4174.847          27.000                                                                  
G14  22069147.275      298211.095        2376.518          22.000                                                                  
G17  21255958.498       -1872.055        -270.480          14.000                                                                  
G19  20546822.739     -197035.277       -1296.208          34.000                                                                  
G28  21157064.225      242130.677        1029.630          27.000                                                                  
R12  21060129.275     -301676.222       -1374.074          21.000  
R21  20669634.932       44922.055         352.188          19.000  
R22  21020413.450     -224299.682       -1630.443          24.000  
C20  23595794.965     -314764.560       -1943.799          29.000                                                                                                                                  
C29  22033997.781     -157480.694        -610.460          28.000                                                                                                                                  
> 2021  5 17  7 37 54.0000000  0 12                     
G 2  22926196.149     -444736.291       -2453.771          17.000                                                                  
G 6  20828481.036     -301401.842       -1325.843          32.000                                                                  
G12  24627243.264     -531512.785       -4174.796          26.000                                                                  
G14  22069600.895      300587.681        2377.043          24.000                                                                  
G17  21255905.877       -2143.786           0.015          13.000                                                                  
G19  20546575.470     -198332.341       -1296.027          30.000                                                                  
G28  21157259.114      243160.608        1031.786          27.000                                                                  
R12  21059849.526     -303171.358       -1372.573          18.000  
R21  20669701.042       45275.324         352.484          17.000  
R22  21020081.024     -226075.180       -1628.463          24.000  
C20  23595422.425     -316706.595       -1942.617          24.000                                                                                                                                  
C29  22033881.240     -158089.718        -607.840          28.000                                                                                                                                  
> 2021  5 17  7 37 55.0000000  0 12                     
G 2  22925729.208     -447190.245       -2455.319          17.000                                                                  
G 6  20828227.542     -302725.329       -1322.754          34.000                                                                  
G12  24626448.086     -535686.432       -4173.762          24.000                                                                  
G14  22070052.154      302965.190        2376.874          27.000                                                                  
G17  21255854.665       -2413.391           0.015          17.000                                                                  
G19  20546328.755     -199625.937       -1294.892          29.000                                                                  
G28  21157454.670      244192.956        1032.199          24.000                                                                  
R12  21059571.191     -304666.551       -1371.014          21.000  
R21  20669766.777       45627.073         351.483          18.000  
R22  21019749.282     -227849.986       -1629.169          25.000  
C20  23595048.693     -318649.529       -1943.863          28.000                                                                                                                                  
C29  22033765.244     -158697.682        -608.427          28.000                                                                                                                                  
> 2021  5 17  7 37 56.0000000  0 12                     
G 2  22925261.926     -449646.197       -2455.600          21.000                                                                  
G 6  20827976.758     -304049.003       -1323.690          35.000                                                                  
G12  24625650.640     -539860.489       -4176.220          27.000                                                                  
G14  22070504.745      305342.965        2378.604          18.000                                                                  
G17  21255802.866       -2685.638           0.015          16.000                                                                  
G19  20546082.023     -200922.252       -1295.489          34.000                                                                  
G28  21157649.964      245224.444        1030.331          29.000                                                                  
R12  21059288.497     -306161.554       -1372.574          29.000  
R21  20669831.037       45977.848         349.925          18.000  
R22  21019417.968     -229626.058       -1629.788          24.000  
C20  23594675.477     -320595.423       -1943.599          30.000                                                                                                                                  
C29  22033647.922     -159307.222        -609.631          27.000                                                                                                                                  
> 2021  5 17  7 37 57.0000000  0 12                     
G 2  22924784.104     -452101.099       -2451.795          28.000                                                                  
G 6  20827726.013     -305372.537       -1321.025          34.000                                                                  
G12  24624855.928     -544036.580       -4175.161          27.000                                                                  
G14  22070957.354      307721.319          -0.009          17.000                                                                  
G17  21255751.715       -2957.859        -274.630          17.000                                                                  
G19  20545836.647     -202219.136       -1296.646          34.000                                                                  
G28  21157846.711      246254.930        1031.563          27.000                                                                  
R12  21059009.084     -307657.441       -1371.388          27.000  
R21  20669896.458       46328.260         350.672          14.000  
R22  21019084.472     -231402.971       -1629.687          23.000  
C20  23594301.488     -322540.044       -1943.807          32.000                                                                                                                                  
C29  22033526.211     -159918.030        -610.098          27.000                                                                                                                                  
> 2021  5 17  7 37 58.0000000  0 12                     
G 2  22924319.701     -454554.045       -2453.406          28.000                                                                  
G 6  20827474.377     -306694.363       -1318.892          33.000                                                                  
G12  24624061.461     -548213.015       -4173.396          27.000                                                                  
G14  22071404.732      310099.928        2378.631          14.000                                                                  
G17  21255699.701       -3231.307        -272.679          16.000                                                                  
G19  20545590.848     -203514.910       -1295.620          35.000                                                                  
G28  21158044.308      247288.795        1033.307          28.000                                                                  
R12  21058729.946     -309150.828       -1371.015          28.000  
R21  20669961.861       46678.610         351.006          17.000  
R22  21018750.122     -233179.447       -1631.078          28.000  
C20  23593929.035     -324483.547       -1942.895          27.000                                                                                                                                  
C29  22033406.559     -160527.291        -610.101          28.000                                                                                                                                  
> 2021  5 17  7 37 59.0000000  0 12                     
G 2  22923853.174     -457005.758       -2451.475          24.000                                                                  
G 6  20827224.404     -308010.858       -1318.775          23.000                                                                  
G12  24623270.082     -552384.840       -4170.317          21.000                                                                  
G14  22071819.358      312479.322        2378.035          24.000                                                                  
G17  21255646.216       -3502.288        -271.933          13.000                                                                  
G19  20545346.755     -204806.502       -1294.674          33.000                                                                  
G28  21158241.565      248322.777        1034.794          20.000                                                                  
R12  21058450.302     -310642.702       -1369.267          22.000  
R21  20670010.382       47027.561         348.197          20.000  
R22  21018418.677     -234952.607       -1625.961          21.000  
C20  23593555.417     -326426.541       -1943.505          30.000                                                                                                                                  
C29  22033290.140     -161136.725        -609.949          27.000                                                                                                                                  
> 2021  5 17  7 38  0.0000000  0 12                     
G 2  22923387.886     -459457.319       -2452.958          23.000                                                                  
G 6  20826976.856     -309331.663       -1322.375          27.000                                                                  
G12  24622475.397     -556558.940       -4175.389          23.000                                                                  
G14  22072276.010      314856.212        2377.862          27.000                                                                  
G17  21255594.336       -3775.034        -274.207          17.000                                                                  
G19  20545098.845     -206103.065       -1297.376          31.000                                                                  
G28  21158437.793      249353.848        1028.861          18.000                                                                  
R12  21058175.104     -312135.221       -1370.343          19.000  
R21  20670089.937       47376.205         348.895          17.000  
R22  21018086.555     -236725.467       -1626.028          18.000  
C20  23593182.933     -328369.495       -1942.697          27.000                                                                                                                                  
C29  22033172.512     -161746.694        -610.152          24.000                                                                                                                                  
> 2021  5 17  7 38  1.0000000  0 12                     
G 2  22922923.149     -461910.269       -2453.173          23.000                                                                  
G 6  20826724.976     -310655.321       -1322.684          27.000                                                                  
G12  24621681.662     -560735.129       -4174.944          23.000                                                                  
G14  22072726.475      317233.893        2376.790          27.000                                                                  
G17  21255542.204       -4049.184        -273.405          18.000                                                                  
G19  20544850.428     -207398.261       -1297.907          28.000                                                                  
G28  21158634.077      250385.130        1032.691          20.000                                                                  
R12  21057895.708     -313628.165       -1369.137          16.000  
R21  20670155.707       47728.031         352.925          15.000  
R22  21017754.762     -238496.897       -1625.160          17.000  
C20  23592809.259     -330313.276       -1943.839          26.000                                                                                                                                  
C29  22033055.400     -162357.727        -611.604          22.000                                                                                                                                  
> 2021  5 17  7 38  2.0000000  0 13                     
G 2  22922456.748     -464363.537       -2454.156          24.000                                                                  
G 6  20826476.251     -311976.150       -1320.771          28.000                                                                  
G12  24620889.377     -564911.118       -4176.116          23.000                                                                  
G14  22073176.104      319610.236        2377.379          25.000                                                                  
G17  21255504.898       -4322.423        -273.316          20.000                                                                  
G19  20544605.044     -208694.656       -1295.924          29.000                                                                  
G28  21158822.060      251418.713        1034.431          20.000                                                                  
R 7  23026042.043      -22489.805       -4663.737          16.000  
R12  21057616.775     -315118.546       -1367.724          16.000  
R21  20670236.388       48081.533         354.641          13.000  
R22  21017434.747     -240269.936       -1627.062          17.000  
C20  23592436.282     -332256.113       -1941.383          27.000                                                                                                                                  
C29  22032938.060     -162967.161        -609.536          22.000                                                                                                                                  
> 2021  5 17  7 38  3.0000000  0 13                     
G 2  22921989.432     -466816.910       -2452.227          25.000                                                                  
G 6  20826225.706     -313298.221       -1320.106          19.000                                                                  
G12  24620096.929     -569087.495       -4176.896          24.000                                                                  
G14  22073629.073      321987.247        2376.595          21.000                                                                  
G17  21255457.359       -4595.102        -271.372          19.000                                                                  
G19  20544358.185     -209990.322       -1294.732          35.000                                                                  
G28  21159022.977      252454.272        1035.817          17.000                                                                  
R 7  23025171.115      -27151.986       -4662.117          14.000  
R12  21057342.362     -316608.148       -1365.892          18.000  
R21  20670302.882       48437.181         355.761          17.000  
R22  21017098.346     -242043.878       -1628.639          22.000  
C20  23318202.470     -334196.905       -1942.161          24.000                                                                                                                                  
C29  22032821.410     -163576.547        -609.708          29.000                                                                                                                                  
> 2021  5 17  7 38  4.0000000  0 13                     
G 2  22921523.166     -469270.403       -2453.443          22.000                                                                  
G 6  20825976.126     -314617.741       -1319.637          23.000                                                                  
G12  24619303.618     -573264.089       -4176.115          23.000                                                                  
G14  22074091.536      324365.014        2380.262          34.000                                                                  
G17  21255403.743       -4865.966        -271.124          17.000                                                                  
G19  20544110.388     -211285.911       -1295.216          29.000                                                                  
G28  21159244.460      253489.525        1033.917          24.000                                                                  
R 7  23024302.574      -31814.317       -4663.178          13.000  
R12  21057058.752     -318096.640       -1365.595          20.000  
R21  20670369.211       48791.430         352.995          20.000  
R22  21016773.925     -243819.123       -1627.833          18.000  
C20  23317829.367     -336139.295       -1940.551          20.000                                                                                                                                  
C29  22032705.680     -164186.353        -609.891          29.000                                                                                                                                  
> 2021  5 17  7 38  5.0000000  0 13                     
G 2  22921056.765     -471723.070       -2452.551          20.000                                                                  
G 6  20825724.779     -315938.598       -1320.812          25.000                                                                  
G12  24618510.394     -577438.721       -4173.446          24.000                                                                  
G14  22074546.117      326743.940        2378.476          28.000                                                                  
G17  21255350.276       -5137.927        -270.741          17.000                                                                  
G19  20543863.006     -212580.964       -1295.416          29.000                                                                  
G28  21159426.640      254524.143        1034.172          21.000                                                                  
R 7  23023430.927      -36480.180       -4666.386          13.000  
R12  21056780.526     -319583.131       -1364.483          20.000  
R21  20670457.360       49143.667         353.232          19.000  
R22  21016441.734     -245593.054       -1626.612          17.000  
C20  23317455.993     -338080.716       -1940.703          28.000                                                                                                                                  
C29  22032588.222     -164797.343        -609.202          29.000                                                                                                                                  
> 2021  5 17  7 38  6.0000000  0 13                     
G 2  22920591.272     -474174.334       -2450.363          22.000                                                                  
G 6  20825475.813     -317258.826       -1319.927          19.000                                                                  
G12  24617716.625     -581612.540       -4174.119          20.000                                                                  
G14  22075001.439      329121.071        2376.928          22.000                                                                  
G17  21255298.750       -5408.967        -273.718          17.000                                                                  
G19  20543618.206     -213876.117       -1296.332          26.000                                                                  
G28  21159623.588      255558.864        1036.074          17.000                                                                  
R 7  23022559.407      -41145.787       -4664.498          13.000  
R12  21056513.189     -321070.413       -1365.236          25.000  
R21  20670520.120       49495.392         351.125          22.000  
R22  21016118.172     -247366.136       -1627.108          18.000  
C20  23317083.797     -340022.400       -1942.570          21.000                                                                                                                                  
C29  22032471.864     -165408.058        -610.580          28.000                                                                                                                                  
> 2021  5 17  7 38  7.0000000  0 13                     
G 2  22920124.186     -476625.746       -2451.351          20.000                                                                  
G 6  20825224.435     -318579.861           0.006          17.000                                                                  
G12  24616923.140     -585786.233       -4172.333          23.000                                                                  
G14  22075450.137      331498.287        2377.834          24.000                                                                  
G17  21255246.726       -5682.333        -273.954          15.000                                                                  
G19  20543373.432     -215168.740       -1291.363          24.000                                                                  
G28  21159820.659      256594.614        1036.773          21.000                                                                  
R 7  23021687.873      -45811.103       -4664.951          14.000  
R12  21056234.011     -322558.382       -1363.880          17.000  
R21  20670585.672       49845.969         349.207          16.000  
R22  21015786.251     -249138.479       -1624.477          15.000  
C20  23316710.690     -341964.040       -1939.412          29.000                                                                                                                                  
C29  22032354.991     -166018.515        -612.039          20.000                                                                                                                                  
> 2021  5 17  7 38  8.0000000  0 13                     
G 2  22919657.559     -479077.551       -2452.573          19.000                                                                  
G 6  20824973.563     -319898.300           0.006          15.000                                                                  
G12  24616130.117     -589959.927       -4175.040          22.000                                                                  
G14  22075899.735      333875.181        2375.739          24.000                                                                  
G17  21255178.402       -5956.290        -274.249          16.000                                                                  
G19  20543126.591     -216460.991       -1292.964          22.000                                                                  
G28  21160011.613      257631.855        1038.305          22.000                                                                  
R 7  23020816.318      -50476.584       -4664.569          11.000  
R12  21055956.117     -324043.246       -1361.760          18.000  
R21  20670651.010       50196.355         350.066          14.000  
R22  21015454.435     -250909.961       -1626.188          17.000  
C20  23316338.621     -343902.142       -1938.571          30.000                                                                                                                                  
C29  22032237.857     -166628.523        -609.380          18.000                                                                                                                                  
> 2021  5 17  7 38  9.0000000  0 12                     
G 2  22919191.599     -481529.176       -2452.331          20.000                                                                  
G 6  20824721.491     -321215.026       -1316.129          14.000                                                                  
G12  24615336.665     -594134.860       -4174.870          21.000                                                                  
G14  22076350.555      336252.042        2376.990          20.000                                                                  
G17  21255126.161       -6231.021        -275.994          16.000                                                                  
G19  20542880.513     -217754.241       -1293.590          17.000                                                                  
G28  21160197.126      258669.743        1036.995          23.000                                                                  
R12  21055672.420     -325526.153       -1360.782          22.000  
R21  20670707.409       50546.999          -0.004          14.000  
R22  21015124.779     -252681.851       -1626.211          15.000  
C20  23315965.898     -345842.510       -1940.673          30.000                                                                                                                                  
C29  22032121.931     -167237.016        -607.590          21.000                                                                                                                                  
> 2021  5 17  7 38 10.0000000  0 12                     
G 2  22918726.987     -483980.907       -2451.301          20.000                                                                  
G 6  20824470.895     -322532.249       -1318.420          12.000                                                                  
G12  24614543.398     -598310.152       -4175.559          21.000                                                                  
G14  22076799.739      338631.047        2380.314          20.000                                                                  
G17  21255083.984       -6506.770        -274.780          17.000                                                                  
G19  20542634.505     -219047.002       -1291.325          16.000                                                                  
G28  21160399.413      259705.936        1036.452          22.000                                                                  
R12  21055407.962     -327010.476       -1361.180          20.000  
R21  20670773.279       50899.112          -0.004          13.000  
R22  21014792.658     -254455.123       -1626.108          16.000  
C20  23315594.060     -347781.555       -1936.804          30.000                                                                                                                                  
C29  22032005.891     -167846.185        -608.212          20.000                                                                                                                                  
> 2021  5 17  7 38 11.0000000  0 12                     
G 2  22918261.262     -486432.384       -2451.329          21.000                                                                  
G 6  20824219.931     -323851.228           0.006          12.000                                                                  
G12  24613749.551     -602485.333       -4176.566          20.000                                                                  
G14  22077251.408      341011.240        2381.120          17.000                                                                  
G17  21255031.541       -6782.336        -276.192          16.000                                                                  
G19  20542387.288     -220338.443       -1291.664          13.000                                                                  
G28  21160598.834      260742.437        1036.360          22.000                                                                  
R12  21055130.795     -328494.911       -1362.205          20.000  
R21  20670839.171       51252.095          -0.004          13.000  
R22  21014460.733     -256226.971       -1625.269          17.000  
C20  23315222.056     -349720.080       -1937.780          32.000                                                                                                                                  
C29  22031889.236     -168455.972        -609.063          22.000                                                                                                                                  
> 2021  5 17  7 38 12.0000000  0 13                     
G 2  22917794.949     -488883.409       -2451.841          21.000                                                                  
G 6  20823968.675     -325171.941           0.006          15.000                                                                  
G12  24612954.281     -606661.730       -4175.294          25.000                                                                  
G14  22077704.564      343392.561        2382.988          17.000                                                                  
G17  21254979.099       -7057.863        -275.021          17.000                                                                  
G19  20542141.537     -221630.066       -1291.100          15.000                                                                  
G28  21160797.937      261779.297        1037.367          23.000                                                                  
R 7  23017305.042      -69146.397       -4664.815          13.000  
R12  21054852.861     -329979.598       -1360.251          17.000  
R21  20670897.525       51608.458          -0.004          13.000  
R22  21014123.957     -257998.317       -1625.726          16.000  
C20  23314848.936     -351659.038       -1936.585          31.000                                                                                                                                  
C29  22031772.669     -169065.808        -609.971          22.000                                                                                                                                  
> 2021  5 17  7 38 13.0000000  0 13                     
G 2  22917328.849     -491334.987       -2451.350          23.000                                                                  
G 6  20823717.367     -326492.904           0.006          13.000                                                                  
G12  24612158.649     -610836.766       -4174.242          26.000                                                                  
G14  22078145.267      345775.228        2381.528          17.000                                                                  
G17  21254922.560       -7332.466        -274.376          16.000                                                                  
G19  20541895.791     -222921.439           0.003          11.000                                                                  
G28  21160995.910      262817.223        1037.779          23.000                                                                  
R 7  23016433.609      -73811.147       -4667.407          14.000  
R12  21054575.071     -331464.219       -1361.383          17.000  
R21  20670964.429       51966.644          -0.004          13.000  
R22  21013791.849     -259771.262       -1626.647          17.000  
C20  23314476.810     -353595.372       -1936.105          33.000                                                                                                                                  
C29  22031655.753     -169674.922        -607.668          23.000                                                                                                                                  
> 2021  5 17  7 38 14.0000000  0 13                     
G 2  22916863.539     -493785.908       -2451.004          21.000                                                                  
G 6  20823466.063     -327813.553           0.006          14.000                                                                  
G12  24611364.679     -615011.560       -4175.366          26.000                                                                  
G14  22078598.688      348157.752        2382.729          17.000                                                                  
G17  21254870.439       -7606.508        -273.424          15.000                                                                  
G19  20541650.000     -224213.438           0.003          13.000                                                                  
G28  21161194.759      263855.249        1038.263          22.000                                                                  
R 7  23015560.631      -78475.680       -4662.992          14.000  
R12  21054291.833     -332946.673       -1360.709          19.000  
R21  20671024.431       52326.898          -0.004          15.000  
R22  21013451.618     -261544.144       -1625.379          16.000  
C20  23314104.645     -355533.292       -1936.943          33.000                                                                                                                                  
C29  22031539.076     -170283.075        -607.529          22.000                                                                                                                                  
> 2021  5 17  7 38 15.0000000  0 13                     
G 2  22916398.360     -496235.352       -2447.032          18.000                                                                  
G 6  20823214.541     -329135.386           0.006          17.000                                                                  
G12  24610569.688     -619185.031       -4173.387          24.000                                                                  
G14  22079052.195      350540.926        2383.783          20.000                                                                  
G17  21254818.346       -7880.432        -273.514          14.000                                                                  
G19  20541404.127     -225505.644           0.003          17.000                                                                  
G28  21161392.989      264893.877        1039.601          23.000                                                                  
R 7  23014689.940      -83136.829       -4661.980          14.000  
R12  21054014.186     -334429.692       -1359.117          16.000  
R21  20671091.571       52686.173          -0.004          12.000  
R22  21013119.540     -263317.634       -1627.432          17.000  
C20  23313732.802     -357469.893       -1937.230          19.000                                                                                                                                  
C29  22031423.023     -170890.277        -606.504          19.000                                                                                                                                  
> 2021  5 17  7 38 16.0000000  0 13                     
G 2  22915933.032     -498680.647       -2446.004          17.000                                                                  
G 6  20822952.728     -330454.455       -1317.498          17.000                                                                  
G12  24609772.900     -623358.106       -4172.797          23.000                                                                  
G14  22079501.835      352923.687        2381.864          21.000                                                                  
G17  21254764.054       -8153.955           0.015          16.000                                                                  
G19  20541151.828     -226798.916       -1293.237          17.000                                                                  
G28  21161589.579      265932.943        1035.645          23.000                                                                  
R 7  23013819.047      -87798.916       -4663.000          13.000  
R12  21053736.972     -335911.065       -1358.995          19.000  
R21  20671158.711       53045.276          -0.004          12.000  
R22  21012787.415     -265091.196       -1627.620          15.000  
C20  23313361.135     -359405.554           0.025          19.000                                                                                                                                  
C29  22031306.722     -171497.456        -608.332          19.000                                                                                                                                  
> 2021  5 17  7 38 17.0000000  0 13                     
G 2  22915454.578     -501127.139       -2446.381          19.000                                                                  
G 6  20822699.653     -331772.506       -1318.403          17.000                                                                  
G12  24608979.497     -627532.341       -4176.326          25.000                                                                  
G14  22079971.566      355305.435        2382.173          19.000                                                                  
G17  21254711.680       -8429.533           0.015          14.000                                                                  
G19  20540905.986     -228091.139       -1291.838          16.000                                                                  
G28  21161787.984      266971.190        1039.083          24.000                                                                  
R 7  23012948.151      -92460.940       -4665.265          13.000  
R12  21053463.567     -337389.561       -1355.311          17.000  
R21  20671225.641       53403.450          -0.004          15.000  
R22  21012452.746     -266865.205       -1627.955          16.000  
C20  23312989.511     -361340.983           0.025          27.000                                                                                                                                  
C29  22031190.054     -172105.190        -607.612          19.000                                                                                                                                  
> 2021  5 17  7 38 18.0000000  0 13                     
G 2  22915004.807     -503575.680       -2450.221          20.000                                                                  
G 6  20822448.812     -333091.131       -1317.146          15.000                                                                  
G12  24608184.132     -631707.958       -4175.250          25.000                                                                  
G14  22080425.113      357688.884        2384.967          14.000                                                                  
G17  21254663.124       -8704.413           0.015          13.000                                                                  
G19  20540657.796     -229383.117       -1291.219          17.000                                                                  
G28  21161986.144      268009.748        1040.102          24.000                                                                  
R 7  23012076.408      -97127.569       -4665.526          11.000  
R12  21053186.950     -338867.011       -1356.324          16.000  
R21  20671292.331       53760.415          -0.004          17.000  
R22  21012120.511     -268639.220       -1626.777          16.000  
C20  23312614.475     -363278.107       -1935.722          30.000                                                                                                                                  
C29  22031073.155     -172713.397        -610.900          20.000                                                                                                                                  
> 2021  5 17  7 38 19.0000000  0 13                     
G 2  22914574.476     -506025.499       -2450.208          22.000                                                                  
G 6  20822198.215     -334408.461       -1317.403          18.000                                                                  
G12  24607390.031     -635883.018       -4174.951          25.000                                                                  
G14  22080879.336      360075.822        2388.209          13.000                                                                  
G17  21254611.110       -8977.639           0.015          15.000                                                                  
G19  20540412.046     -230674.869       -1291.677          15.000                                                                  
G28  21162185.404      269052.397        1042.068          24.000                                                                  
R 7  23011185.897     -101793.567       -4667.771          14.000  
R12  21052917.370     -340345.145       -1355.751          15.000  
R21  20671362.459       54116.538         353.821          18.000  
R22  21011788.870     -270412.224       -1626.625          13.000  
C20  23312243.540     -365214.271       -1936.506          32.000                                                                                                                                  
C29  22030955.929     -173324.383        -609.843          21.000                                                                                                                                  
> 2021  5 17  7 38 20.0000000  0 13                     
G 2  22914113.411     -508475.128       -2449.137          21.000                                                                  
G 6  20821946.003     -335726.593       -1318.451          17.000                                                                  
G12  24606595.805     -640056.422       -4173.875          24.000                                                                  
G14  22081298.145      362460.956        2383.355          19.000                                                                  
G17  21254559.125       -9250.888           0.015          13.000                                                                  
G19  20540166.273     -231966.508       -1292.778          14.000                                                                  
G28  21162384.271      270094.453        1041.305          25.000                                                                  
R 7  23010313.979     -106461.246       -4667.345          16.000  
R12  21052640.994     -341822.097       -1354.811          13.000  
R21  20671430.917       54468.700         352.904          19.000  
R22  21011456.609     -272186.322       -1628.414          11.000  
C20  23311872.152     -367149.372       -1935.723          32.000                                                                                                                                  
C29  22030838.611     -173933.491        -607.454          21.000                                                                                                                                  
> 2021  5 17  7 38 21.0000000  0 13                     
G 2  22913651.997     -510924.849       -2449.415          21.000                                                                  
G 6  20821695.263     -337044.634       -1317.775          16.000                                                                  
G12  24605803.103     -644230.503       -4173.896          25.000                                                                  
G14  22081736.550      364843.919        2383.134          18.000                                                                  
G17  21254507.355       -9523.119           0.015          14.000                                                                  
G19  20539922.367     -233259.472           0.003          15.000                                                                  
G28  21162583.897      271135.688        1042.717          25.000                                                                  
R 7  23009442.149     -111128.075       -4666.599          14.000  
R12  21052364.574     -343299.252       -1356.883          11.000  
R21  20671484.816       54821.198         352.387          19.000  
R22  21011124.043     -273961.711       -1628.854          14.000  
C20  23311500.885     -369083.606       -1931.739          32.000                                                                                                                                  
C29  22030721.904     -174540.809        -606.626          20.000                                                                                                                                  
> 2021  5 17  7 38 22.0000000  0 13                     
G 2  22913187.751     -513375.170       -2449.682          20.000                                                                  
G 6  20821473.816     -338360.969       -1315.591          20.000                                                                  
G12  24605008.806     -648402.222       -4171.321          19.000                                                                  
G14  22082199.266      367228.918        2385.798          17.000                                                                  
G17  21254455.728       -9794.683           0.015          12.000                                                                  
G19  20539676.586     -234551.137           0.003          14.000                                                                  
G28  21162782.633      272178.120        1041.703          23.000                                                                  
R 7  23008581.364     -115792.224       -4662.347          15.000  
R12  21052087.464     -344780.330           0.006          14.000  
R21  20671551.528       55173.549         350.324          20.000  
R22  21010776.644     -275736.218          -0.004          15.000  
C20  23311129.318     -371018.414       -1933.135          32.000                                                                                                                                  
C29  22030605.917     -175147.197        -606.866          19.000                                                                                                                                  
> 2021  5 17  7 38 23.0000000  0 13                     
G 2  22912719.248     -515824.333       -2448.053          20.000                                                                  
G 6  20821215.798     -339676.494       -1315.288          18.000                                                                  
G12  24604214.797     -652575.158       -4174.093          20.000                                                                  
G14  22082653.496      369615.760        2386.678          18.000                                                                  
G17  21254404.541      -10064.020           0.015          13.000                                                                  
G19  20539431.197     -235841.115           0.003          13.000                                                                  
G28  21162982.558      273220.194        1042.610          24.000                                                                  
R 7  23007709.639     -120458.969       -4665.299          13.000  
R12  21051810.481     -346260.725           0.006          15.000  
R21  20671612.277       55524.371         350.676          20.000  
R22  21010444.518     -277509.882          -0.004          17.000  
C20  23310758.750     -372952.017       -1933.712          33.000                                                                                                                                  
C29  22030489.559     -175754.998        -608.540          19.000                                                                                                                                  
> 2021  5 17  7 38 24.0000000  0 13                     
G 2  22912253.392     -518272.989       -2448.950          20.000                                                                  
G 6  20820965.550     -340991.722       -1315.882          17.000                                                                  
G12  24603419.942     -656750.458       -4174.410          21.000                                                                  
G14  22083107.398      372000.845        2383.638          20.000                                                                  
G17  21254353.241      -10333.701           0.015          13.000                                                                  
G19  20539189.608     -237131.861           0.003          17.000                                                                  
G28  21163181.486      274263.616        1043.634          24.000                                                                  
R 7  23006838.210     -125124.021       -4663.340          14.000  
R12  21051541.412     -347739.527           0.006          15.000  
R21  20671679.255       55874.823         350.670          21.000  
R22  21010108.955     -279284.516       -1628.794          18.000  
C20  23310387.632     -374886.034       -1933.329          35.000                                                                                                                                  
C29  22030373.022     -176362.647        -608.620          20.000                                                                                                                                  
> 2021  5 17  7 38 25.0000000  0 13                     
G 2  22911780.531     -520722.232          -0.002          25.000                                                                  
G 6  20820719.067     -342308.192       -1315.968          13.000                                                                  
G12  24602624.672     -660924.982       -4175.815          20.000                                                                  
G14  22083584.005      374383.647        2382.397          23.000                                                                  
G17  21254301.641      -10605.239           0.015          14.000                                                                  
G19  20538943.966     -238422.938           0.003          21.000                                                                  
G28  21163380.523      275306.328        1042.065          24.000                                                                  
R 7  23005966.231     -129789.562       -4667.335          13.000  
R12  21051264.852     -349217.051           0.006          16.000  
R21  20671745.042       56225.498         350.131          21.000  
R22  21009776.620     -281059.114       -1627.552          14.000  
C20  23310017.177     -376819.104       -1932.062          34.000                                                                                                                                  
C29  22030256.742     -176970.669        -608.151          19.000                                                                                                                                  
> 2021  5 17  7 38 26.0000000  0 14                     
G 2  22911310.265     -523172.121       -2450.383          23.000                                                                  
G 6  20820468.824     -343623.513       -1314.252          11.000                                                                  
G12  24601829.119     -665099.746       -4174.829          19.000                                                                  
G14  22084036.261      376767.022        2384.163          24.000                                                                  
G17  21254249.570      -10878.843           0.015          15.000                                                                  
G19  20538696.239     -239714.103       -1291.487          18.000                                                                  
G28  21163577.850      276349.306        1044.089          22.000                                                                  
R 5  23235704.424        3350.195        1290.028          17.000  
R 7  23005095.047     -134453.230       -4661.879          13.000  
R12  21050988.947     -350691.087           0.006          18.000  
R21  20671807.571       56575.878         350.412          20.000  
R22  21009444.573     -282831.618       -1626.621          15.000  
C20  23309645.928     -378751.496       -1930.581          34.000                                                                                                                                  
C29  22030139.957     -177579.211        -606.414          17.000                                                                                                                                  
> 2021  5 17  7 38 27.0000000  0 14                     
G 2  22910841.068     -525621.735       -2448.450          23.000                                                                  
G 6  20820218.283     -344940.717       -1318.709          16.000                                                                  
G12  24601034.647     -669273.953       -4174.126          20.000                                                                  
G14  22084488.917      379151.867        2387.005          26.000                                                                  
G17  21254197.590      -11152.014           0.015          14.000                                                                  
G19  20538450.597     -241005.106       -1291.168          16.000                                                                  
G28  21163776.542      277392.945        1044.209          22.000                                                                  
R 5  23235946.122        4641.997        1293.605          16.000  
R 7  23004224.054     -139115.823       -4662.911          14.000  
R12  21050717.740     -352163.227       -1349.543          17.000  
R21  20671872.512       56927.755         352.159          20.000  
R22  21009110.585     -284604.677          -0.004          15.000  
C20  23309275.094     -380684.024       -1931.942          34.000                                                                                                                                  
C29  22030023.546     -178186.084        -608.446          19.000                                                                                                                                  
> 2021  5 17  7 38 28.0000000  0 15                     
G 2  22910374.924     -528071.461       -2451.242          17.000                                                                  
G 3  23181775.504        2868.406        1942.221          18.000                                                                  
G 6  20819967.804     -346257.459           0.006          17.000                                                                  
G12  24600241.293     -673448.156       -4173.967          22.000                                                                  
G14  22084943.042      381537.351        2383.355          25.000                                                                  
G17  21254149.754      -11423.887           0.015          13.000                                                                  
G19  20538204.969     -242295.749       -1290.505          13.000                                                                  
G28  21163974.869      278437.510        1046.131          20.000                                                                  
R 5  23236185.293        5933.781        1290.568          15.000  
R 7  23003352.927     -143779.355       -4663.091          14.000  
R12  21050442.537     -353633.824       -1348.795          14.000  
R21  20671937.619       57280.325         352.745          17.000  
R22  21008778.180     -286379.130          -0.004          11.000  
C20  23308904.347     -382615.603       -1931.078          35.000                                                                                                                                  
C29  22029907.276     -178794.108        -608.277          21.000                                                                                                                                  
> 2021  5 17  7 38 29.0000000  0 15                     
G 2  22909908.545     -530521.643       -2448.268          17.000                                                                  
G 3  23182145.393        4812.070        1943.637          17.000                                                                  
G 6  20819717.944     -347573.195       -1315.965          19.000                                                                  
G12  24599447.191     -677622.271       -4174.180          21.000                                                                  
G14  22085395.668      383921.463        2384.975          24.000                                                                  
G17  21254098.475      -11693.892           0.015          14.000                                                                  
G19  20537963.275     -243586.379           0.003          14.000                                                                  
G28  21164173.343      279483.826        1045.058          18.000                                                                  
R 5  23236426.520        7223.337        1287.507          14.000  
R 7  23002482.623     -148438.199       -4657.603          15.000  
R12  21050156.842     -355103.980           0.006          12.000  
R21  20672003.851       57634.125         355.125          16.000  
R22  21008445.592     -288154.777          -0.004          13.000  
C20  23308533.464     -384547.282       -1931.236          35.000                                                                                                                                  
C29  22029790.782     -179402.229        -609.203          22.000                                                                                                                                  
> 2021  5 17  7 38 30.0000000  0 15                     
G 2  22909442.376     -532969.969       -2448.615          17.000                                                                  
G 3  23182515.883        6757.062        1946.792          18.000                                                                  
G 6  20819470.161     -348887.923       -1313.699          19.000                                                                  
G12  24598652.459     -681795.863       -4173.944          21.000                                                                  
G14  22085849.598      386307.318        2387.515          26.000                                                                  
G17  21254047.316      -11963.055           0.015          15.000                                                                  
G19  20537717.860     -244875.950           0.003          10.000                                                                  
G28  21164372.441      280529.721        1044.025          17.000                                                                  
R 5  23236666.722        8514.075        1291.053          14.000  
R 7  23001607.879     -153093.277       -4650.123          15.000  
R12  21049881.569     -356574.592           0.006          14.000  
R21  20672064.237       57988.983         354.235          15.000  
R22  21008112.328     -289934.113          -0.004          12.000  
C20  23308162.922     -386479.318       -1930.963          36.000                                                                                                                                  
C29  22029674.058     -180010.818        -606.982          20.000                                                                                                                                  
> 2021  5 17  7 38 31.0000000  0 15                     
G 2  22908976.224     -535419.649       -2449.917          16.000                                                                  
G 3  23182894.287        8700.211        1941.683          18.000                                                                  
G 6  20819217.230     -350201.100       -1313.100          19.000                                                                  
G12  24597859.026     -685969.828       -4174.449          20.000                                                                  
G14  22086303.900      388692.248        2383.695          27.000                                                                  
G17  21253991.619      -12232.605           0.015          15.000                                                                  
G19  20537473.021     -246162.429           0.003          13.000                                                                  
G28  21164561.344      281576.658        1048.129          17.000                                                                  
R 5  23236908.329        9805.132        1289.723          13.000  
R 7  23000738.732     -157745.545       -4651.826          13.000  
R12  21049606.436     -358044.645           0.006          14.000  
R21  20672130.208       58341.905         352.463          15.000  
R22  21007778.719     -291715.166          -0.004          12.000  
C20  23307792.279     -388410.119       -1929.650          36.000                                                                                                                                  
C29  22029557.194     -180618.602        -608.430          21.000                                                                                                                                  
> 2021  5 17  7 38 32.0000000  0 14                     
G 2  22908513.771     -537872.107       -2453.585          17.000                                                                  
G 3  23183257.714       10643.298        1942.990          17.000                                                                  
G 6  20818967.444     -351513.850       -1313.406          17.000                                                                  
G12  24597065.353     -690143.599       -4173.112          23.000                                                                  
G14  22086757.813      391077.734        2385.530          27.000                                                                  
G17  21253940.590      -12501.130           0.015          15.000                                                                  
G19  20537228.391     -247447.747           0.003          12.000                                                                  
G28  21164760.735      282624.234        1046.424          18.000                                                                  
R 5  23237149.888       11096.378        1293.482          13.000  
R 7  22999865.793     -162396.161           0.000          13.000  
R12  21049328.585     -359513.634           0.006          14.000  
R21  20672196.366       58695.335         353.537          17.000  
C20  23307421.497     -390340.501       -1930.867          36.000                                                                                                                                  
C29  22029440.312     -181226.631        -608.547          22.000                                                                                                                                  
> 2021  5 17  7 38 33.0000000  0 14                     
G 2  22908047.057     -540324.930       -2452.174          16.000                                                                  
G 3  23183627.371       12585.910        1943.438          16.000                                                                  
G 6  20818717.428     -352827.954       -1314.492          17.000                                                                  
G12  24596270.527     -694316.756       -4172.994          23.000                                                                  
G14  22087211.693      393462.743        2385.411          28.000                                                                  
G17  21253896.663      -12769.810        -266.734          14.000                                                                  
G19  20536983.578     -248734.150           0.003          14.000                                                                  
G28  21164959.183      283671.041        1045.921          14.000                                                                  
R 5  23237394.689       12388.988           0.002          14.000  
R 7  22998996.764     -167048.393           0.000          12.000  
R12  21049053.561     -360983.204           0.006          15.000  
R21  20672262.507       59048.343         353.201          17.000  
C20  23307050.662     -392271.379       -1927.842          35.000                                                                                                                                  
C29  22029322.850     -181835.284        -609.670          21.000                                                                                                                                  
> 2021  5 17  7 38 34.0000000  0 14                     
G 2  22907580.678     -542775.895       -2450.418          18.000                                                                  
G 3  23183997.316       14529.934        1945.229          16.000                                                                  
G 6  20818467.733     -354142.299       -1314.778          17.000                                                                  
G12  24595476.932     -698489.171       -4172.097          23.000                                                                  
G14  22087665.958      395847.918        2385.130          27.000                                                                  
G17  21253845.709      -13037.643        -268.864          16.000                                                                  
G19  20536738.355     -250023.013           0.003          13.000                                                                  
G28  21165158.312      284717.396        1045.990          16.000                                                                  
R 5  23237636.762       13683.073           0.002          16.000  
R 7  22998127.075     -171703.805           0.000          15.000  
R12  21048778.746     -362452.052           0.006          15.000  
R21  20672326.584       59401.903         352.707          17.000  
C20  23306680.352     -394200.721       -1928.132          36.000                                                                                                                                  
C29  22029205.218     -182445.592        -608.870          21.000                                                                                                                                  
> 2021  5 17  7 38 35.0000000  0 14                     
G 2  22907110.015     -545224.480       -2447.976          19.000                                                                  
G 3  23184366.939       16475.668        1947.376          14.000                                                                  
G 6  20818217.612     -355457.025       -1314.063          17.000                                                                  
G12  24594682.845     -702662.978       -4174.888          23.000                                                                  
G14  22088119.391      398234.365        2387.011          27.000                                                                  
G17  21253794.547      -13306.634        -268.115          15.000                                                                  
G19  20536492.901     -251313.130           0.003          14.000                                                                  
G28  21165354.426      285763.481        1047.344          17.000                                                                  
R 5  23237884.680       14978.918           0.002          14.000  
R 7  22997253.286     -176361.552           0.000          15.000  
R12  21048507.570     -363921.731           0.006          17.000  
R21  20672380.959       59754.222         353.009          17.000  
C20  23306309.709     -396129.413       -1928.019          35.000                                                                                                                                  
C29  22029088.498     -183053.889        -607.577          20.000                                                                                                                                  
> 2021  5 17  7 38 36.0000000  0 14                     
G 2  22906644.613     -547670.464       -2445.547          16.000                                                                  
G 3  23184737.377       18422.169        1945.792          15.000                                                                  
G 6  20817967.870     -356769.866       -1312.385          17.000                                                                  
G12  24593889.203     -706835.896       -4171.001          22.000                                                                  
G14  22088571.236      400620.882        2385.096          25.000                                                                  
G17  21253738.755      -13575.867        -269.633          14.000                                                                  
G19  20536247.390     -252603.472           0.003          15.000                                                                  
G28  21165536.502      286808.510        1043.994          19.000                                                                  
R 5  23238127.608       16277.685           0.002          13.000  
R 7  22996382.834     -181021.009           0.000          15.000  
R12  21048232.127     -365389.671       -1344.147          18.000  
R21  20672447.043       60107.783         353.185          17.000  
C20  23305939.328     -398059.150       -1928.438          33.000                                                                                                                                  
C29  22028971.076     -183662.626        -610.386          19.000                                                                                                                                  
> 2021  5 17  7 38 37.0000000  0 14                     
G 2  22906179.255     -550116.134       -2447.053          16.000                                                                  
G 3  23185100.202       20369.047        1946.223          14.000                                                                  
G 6  20817708.338     -358083.875       -1314.443          17.000                                                                  
G12  24593096.755     -711007.583       -4171.716          23.000                                                                  
G14  22089024.392      403006.982        2387.036          24.000                                                                  
G17  21253687.874      -13843.758        -267.943          14.000                                                                  
G19  20536001.818     -253894.258           0.003          15.000                                                                  
G28  21165752.287      287850.372        1042.032          19.000                                                                  
R 5  23238370.655       17577.398           0.002          15.000  
R 7  22995510.585     -185680.468       -4660.172          16.000  
R12  21047965.644     -366855.051       -1345.397          20.000  
R21  20672506.662       60460.630         352.504          17.000  
C20  23305568.934     -399987.746       -1928.446          34.000                                                                                                                                  
C29  22028853.418     -184272.395        -610.949          20.000                                                                                                                                  
> 2021  5 17  7 38 38.0000000  0 14                     
G 2  22905701.355     -552564.209       -2447.129          17.000                                                                  
G 3  23185470.605       22315.178        1947.493          15.000                                                                  
G 6  20817458.073     -359398.076       -1315.279          18.000                                                                  
G12  24592302.567     -715178.668       -4170.730          23.000                                                                  
G14  22089476.874      405393.739        2386.592          22.000                                                                  
G17  21253637.050      -14111.200        -267.133          16.000                                                                  
G19  20535756.216     -255185.217           0.003          14.000                                                                  
G28  21165951.350      288896.295        1047.700          19.000                                                                  
R 5  23238603.995       18876.846           0.002          13.000  
R 7  22994640.003     -190340.159       -4659.479          16.000  
R12  21047692.762     -368320.978       -1344.431          19.000  
R21  20672572.253       60811.738         351.195          18.000  
C20  23305198.497     -401915.724       -1928.472          34.000                                                                                                                                  
C29  22028736.183     -184882.773        -610.063          20.000                                                                                                                                  
> 2021  5 17  7 38 39.0000000  0 14                     
G 2  22905222.931     -555011.888       -2448.126          18.000                                                                  
G 3  23185841.126       24262.120        1948.613          14.000                                                                  
G 6  20817208.091     -360711.903       -1313.199          18.000                                                                  
G12  24591508.117     -719350.166       -4172.291          23.000                                                                  
G14  22089929.876      407780.561        2386.814          21.000                                                                  
G17  21253592.609      -14377.837           0.015          15.000                                                                  
G19  20535514.618     -256474.512       -1288.757          16.000                                                                  
G28  21166158.547      289943.694        1047.494          20.000                                                                  
R 5  23238847.286       20177.400           0.002          13.000  
R 7  22993769.420     -195000.548       -4661.183          15.000  
R12  21047432.230     -369784.180       -1341.424          19.000  
R21  20672631.156       61162.630         351.101          19.000  
C20  23304828.112     -403844.950       -1928.630          35.000                                                                                                                                  
C29  22028619.044     -185492.158        -609.084          20.000                                                                                                                                  
> 2021  5 17  7 38 40.0000000  0 14                     
G 2  22904758.949     -557459.492       -2449.228          20.000                                                                  
G 3  23186211.961       26210.406          -0.018          15.000                                                                  
G 6  20816952.250     -362024.545       -1312.987          18.000                                                                  
G12  24590714.055     -723522.252       -4171.800          22.000                                                                  
G14  22090384.002      410167.956        2387.850          19.000                                                                  
G17  21253541.846      -14645.054           0.015          14.000                                                                  
G19  20535269.386     -257763.281       -1288.895          16.000                                                                  
G28  21166356.694      290991.006        1049.288          19.000                                                                  
R 5  23239090.520       21477.869           0.002          13.000  
R 7  22992902.860     -199661.538           0.000          14.000  
R12  21047161.538     -371245.764       -1341.916          17.000  
R21  20672708.591       61513.517         351.275          21.000  
C20  23304458.136     -405772.809       -1925.621          32.000                                                                                                                                  
C29  22028501.896     -186101.673        -610.356          19.000                                                                                                                                  
> 2021  5 17  7 38 41.0000000  0 14                     
G 2  22904302.368     -559907.882       -2448.714          20.000                                                                  
G 3  23186582.787       28158.889          -0.018          17.000                                                                  
G 6  20816706.609     -363336.938       -1312.320          18.000                                                                  
G12  24589920.038     -727693.893       -4171.336          24.000                                                                  
G14  22090836.918      412555.042        2387.618          18.000                                                                  
G17  21253491.915      -14913.768           0.015          15.000                                                                  
G19  20535024.430     -259050.667       -1286.837          14.000                                                                  
G28  21166558.022      292039.963        1047.733          19.000                                                                  
R 5  23239333.567       22777.709           0.002          13.000  
R 7  22992032.421     -204321.575           0.000          15.000  
R12  21046887.906     -372707.733       -1340.981          17.000  
R21  20672767.394       61864.495         349.791          20.000  
C20  23304087.691     -407699.930       -1927.943          33.000                                                                                                                                  
C29  22028384.884     -186710.694        -608.451          21.000                                                                                                                                  
> 2021  5 17  7 38 42.0000000  0 14                     
G 2  22903837.211     -562355.435       -2444.996          19.000                                                                  
G 3  23186951.659       30107.239        1948.623          17.000                                                                  
G 6  20816467.869     -364650.505           0.006          18.000                                                                  
G12  24589123.259     -731866.280       -4172.233          23.000                                                                  
G14  22091291.163      414942.235        2387.272          17.000                                                                  
G17  21253440.821      -15182.573           0.015          14.000                                                                  
G19  20534785.620     -260337.448           0.003          13.000                                                                  
G28  21166759.816      293086.657        1046.941          17.000                                                                  
R 5  23239576.698       24078.070           0.002          12.000  
R 7  22991161.563     -208983.498           0.000          13.000  
R12  21046612.380     -374169.094       -1340.446          18.000  
R21  20672835.537       62215.080         351.666          20.000  
C20  23303717.537     -409626.694       -1925.611          33.000                                                                                                                                  
C29  22028267.788     -187319.569        -608.230          20.000                                                                                                                                  
> 2021  5 17  7 38 43.0000000  0 14                     
G 2  22903372.141     -564800.043       -2445.074          20.000                                                                  
G 3  23187322.459       32055.622        1948.340          15.000                                                                  
G 6  20816216.024     -365963.753       -1313.539          18.000                                                                  
G12  24588330.501     -736036.451       -4169.270          22.000                                                                  
G14  22091732.167      417329.059        2386.917          16.000                                                                  
G17  21253389.604      -15452.226           0.015          13.000                                                                  
G19  20534540.458     -261626.116           0.003          12.000                                                                  
G28  21166958.940      294135.732        1048.228          20.000                                                                  
R 5  23239820.190       25380.021           0.002          12.000  
R 7  22990291.949     -213645.928           0.000          14.000  
R12  21046339.302     -375628.459       -1338.994          17.000  
R21  20672901.263       62565.113         349.384          19.000  
C20  23303347.549     -411553.193       -1925.057          31.000                                                                                                                                  
C29  22028150.759     -187928.866        -610.890          20.000                                                                                                                                  
> 2021  5 17  7 38 44.0000000  0 14                     
G 2  22902904.724     -567244.673       -2445.032          17.000                                                                  
G 3  23187693.516       34005.514        1950.339          16.000                                                                  
G 6  20815965.445     -367277.758       -1312.882          19.000                                                                  
G12  24587536.356     -740206.105       -4170.404          21.000                                                                  
G14  22092186.534      419716.701        2388.092          15.000                                                                  
G17  21253337.815      -15724.706           0.015          14.000                                                                  
G19  20534295.204     -262915.096           0.003          16.000                                                                  
G28  21167160.085      295184.354        1048.497          22.000                                                                  
R 5  23240063.568       26680.802           0.002          11.000  
R 7  22989420.922     -218308.775           0.000          14.000  
R12  21046065.944     -377088.776       -1339.469          20.000  
R21  20672965.009       62918.142         355.593          17.000  
C20  23302977.185     -413478.166       -1924.170          32.000                                                                                                                                  
C29  22028033.493     -188538.803        -608.392          20.000                                                                                                                                  
> 2021  5 17  7 38 45.0000000  0 15                     
G 2  22902439.845     -569687.934       -2443.563          16.000                                                                  
G 3  23188063.186       35956.863        1951.749          17.000                                                                  
G 6  20815719.507     -368589.008       -1310.210          19.000                                                                  
G12  24586743.286     -744375.304       -4168.999          20.000                                                                  
G14  22092640.951      422104.490        2385.996          14.000                                                                  
G17  21253286.376      -15995.286           0.015          12.000                                                                  
G19  20534049.920     -264204.327           0.003          16.000                                                                  
G28  21167362.241      296233.282        1050.035          21.000                                                                  
R 5  23240306.554       27979.387           0.002          12.000  
R 7  22988542.050     -222971.332       -4661.444          15.000  
R12  21045785.440     -378546.352       -1336.321          22.000  
R21  20673031.267       63272.542         353.819          16.000  
R22  21003203.640       -5613.812       -1624.884          16.000  
C20  23302606.713     -415403.894       -1925.723          30.000                                                                                                                                  
C29  22027916.751     -189146.401        -607.872          20.000                                                                                                                                  
> 2021  5 17  7 38 46.0000000  0 14                     
G 2  22901969.121     -572130.766       -2441.514          16.000                                                                  
G 3  23188434.514       37908.028        1951.270          17.000                                                                  
G 6  20815470.280     -369898.970       -1311.708          17.000                                                                  
G12  24585950.983     -748543.820       -4168.835          19.000                                                                  
G14  22093094.683      424488.932          -0.009          15.000                                                                  
G17  21253234.946      -16265.859           0.015          11.000                                                                  
G19  20533804.654     -265493.177           0.003          17.000                                                                  
G28  21167561.885      297283.782        1051.292          23.000                                                                  
R 7  22987671.316     -227632.062       -4658.410          16.000  
R12  21045505.103     -380002.395       -1335.331          22.000  
R21  20673104.358       63626.050         351.826          16.000  
R22  21002872.029       -7384.262       -1627.251          14.000  
C20  23302236.070     -417329.753       -1920.606          32.000                                                                                                                                  
C29  22027799.939     -189754.105        -608.133          21.000                                                                                                                                  
> 2021  5 17  7 38 47.0000000  0 14                     
G 2  22901504.466     -574572.814       -2442.513          17.000                                                                  
G 3  23188805.755       39858.530        1950.174          18.000                                                                  
G 6  20815220.093     -371210.014       -1310.769          18.000                                                                  
G12  24585157.136     -752713.414       -4169.333          19.000                                                                  
G14  22093548.592      426874.231          -0.009          17.000                                                                  
G17  21253183.009      -16538.697           0.015          10.000                                                                  
G19  20533561.328     -266782.541       -1289.807          16.000                                                                  
G28  21167763.526      298335.438        1052.452          25.000                                                                  
R 7  22986801.039     -232290.881       -4659.045          16.000  
R12  21045234.498     -381458.145       -1334.686          20.000  
R21  20673169.940       63976.724         351.018          16.000  
R22  21002544.610       -9155.755       -1625.873          13.000  
C20  23301866.488     -419254.321       -1925.298          30.000                                                                                                                                  
C29  22027683.538     -190360.953        -608.488          22.000                                                                                                                                  
> 2021  5 17  7 38 48.0000000  0 14                     
G 2  22901039.749     -577014.821       -2442.437          18.000                                                                  
G 3  23189182.192       41809.870        1951.808          17.000                                                                  
G 6  20814970.730     -372520.807       -1310.745          18.000                                                                  
G12  24584362.630     -756883.353       -4169.368          19.000                                                                  
G14  22093995.726      429260.374        2386.874          19.000                                                                  
G17  21253130.886      -16812.843           0.015          12.000                                                                  
G19  20533315.826     -268072.789       -1289.270          13.000                                                                  
G28  21167964.932      299389.412        1054.365          23.000                                                                  
R 7  22985922.119     -236949.616       -4657.792          15.000  
R12  21044959.940     -382913.885       -1336.745          20.000  
R21  20673235.989       64329.685         353.411          17.000  
R22  21002212.502      -10929.039       -1628.022          14.000  
C20  23301496.984     -421178.870       -1924.267          30.000                                                                                                                                  
C29  22027567.075     -190968.114        -607.077          20.000                                                                                                                                  
> 2021  5 17  7 38 49.0000000  0 13                     
G 2  22900571.206     -579457.982       -2442.823          17.000                                                                  
G 3  23189544.463       43762.727        1953.037          17.000                                                                  
G 6  20814721.407     -373831.809       -1311.776          16.000                                                                  
G12  24583568.170     -761052.682       -4169.142          23.000                                                                  
G14  22094464.692      431647.243        2387.590          21.000                                                                  
G17  21253078.823      -17086.457           0.015          14.000                                                                  
G19  20533069.277     -269361.064       -1288.680          20.000                                                                  
G28  21168165.732      300444.450        1054.706          27.000                                                                  
R 7  22985052.330     -241605.489       -4655.633          15.000  
R12  21044686.862     -384371.245       -1336.033          21.000  
R21  20673326.150       64683.406         353.948          21.000  
R22  21001880.486      -12701.349       -1624.361          17.000  
C20  23301128.453     -423101.693       -1920.017          30.000                                                                                                                                  
> 2021  5 17  7 38 50.0000000  0 15                     
G 2  22900097.564     -581901.309       -2442.527          23.000                                                                  
G 3  23189915.948       45714.667        1952.966          14.000                                                                  
G 6  20814472.001     -375141.285       -1308.369          20.000                                                                  
G12  24582775.906     -765222.140       -4170.083          23.000                                                                  
G14  22094930.728      434035.660        2388.288          17.000                                                                  
G17  21253027.025      -17359.186           0.015          15.000                                                                  
G19  20532811.093     -270649.334       -1287.403          23.000                                                                  
G28  21168367.531      301502.470        1058.377          19.000                                                                  
R 6  21292924.329      -81864.707       -2254.944          26.000  
R 7  22984178.345     -246262.095           0.000          14.000  
R12  21044417.182     -385826.523       -1335.022          18.000  
R21  20673397.373       65036.402         351.353          18.000  
R22  21001537.323      -14470.271       -1624.331          20.000  
C20  23300760.206     -425023.030       -1920.549          26.000                                                                                                                                  
C29  22027334.786     -192182.477        -609.593          22.000                                                                                                                                  
> 2021  5 17  7 38 51.0000000  0 15                     
G 2  22899622.023     -584344.777       -2444.529          22.000                                                                  
G 3  23190287.817       47665.168          -0.018          14.000                                                                  
G 6  20814223.232     -376448.740       -1307.719          17.000                                                                  
G12  24581983.716     -769391.241          -0.012          20.000                                                                  
G14  22095392.128      436422.458        2386.238          20.000                                                                  
G17  21252976.428      -17628.596        -268.333          16.000                                                                  
G19  20532567.824     -271935.900       -1286.031          27.000                                                                  
G28  21168567.899      302559.795        1057.497          25.000                                                                  
R 6  21292463.600      -84323.890       -2254.683          21.000  
R 7  22983308.207     -250920.137           0.000          13.000  
R12  21044145.006     -387279.400       -1332.171          22.000  
R21  20673463.029       65387.918         354.390          18.000  
R22  21001206.074      -16239.209       -1623.935          17.000  
C20  23300391.330     -426945.717       -1920.935          33.000                                                                                                                                  
C29  22027217.957     -192789.930        -606.493          23.000                                                                                                                                  
> 2021  5 17  7 38 52.0000000  0 15                     
G 2  22899155.091     -586788.764       -2444.419          19.000                                                                  
G 3  23190658.578       49613.447          -0.018          14.000                                                                  
G 6  20813974.628     -377758.394       -1310.809          20.000                                                                  
G12  24581189.737     -773560.878       -4172.258          23.000                                                                  
G14  22095846.359      438809.418        2386.056          19.000                                                                  
G17  21252925.613      -17895.694        -265.950          17.000                                                                  
G19  20532321.384     -273222.909       -1286.053          28.000                                                                  
G28  21168767.032      303616.524        1055.660          27.000                                                                  
R 6  21292002.966      -86782.174       -2257.014          17.000  
R 7  22982438.362     -255577.061           0.000          12.000  
R12  21043871.352     -388730.413       -1331.428          23.000  
R21  20673529.148       65743.673         357.211          17.000  
R22  21000874.712      -18007.999       -1622.982          17.000  
C20  23300021.974     -428869.147       -1922.956          27.000                                                                                                                                  
C29  22027101.599     -193395.665        -605.833          23.000                                                                                                                                  
> 2021  5 17  7 38 53.0000000  0 15                     
G 2  22898690.108     -589232.388       -2444.701          20.000                                                                  
G 3  23191029.474       51562.187          -0.018          14.000                                                                  
G 6  20813725.319     -379068.631       -1308.795          23.000                                                                  
G12  24580393.351     -777730.540       -4167.235          28.000                                                                  
G14  22096311.519      441198.356        2392.906          21.000                                                                  
G17  21252875.190      -18160.914        -264.559          15.000                                                                  
G19  20532076.262     -274507.548       -1287.619          23.000                                                                  
G28  21168966.819      304671.202        1055.043          19.000                                                                  
R 6  21291542.063      -89241.732       -2254.240          14.000  
R 7  22981568.447     -260233.804           0.000          14.000  
R12  21043598.483     -390181.689       -1332.306          21.000  
R21  20673595.651       66099.521         355.243          17.000  
R22  21000534.490      -19778.076       -1622.593          19.000  
C20  23299653.434     -430788.932       -1915.360          20.000                                                                                                                                  
C29  22026985.132     -194000.833        -603.545          22.000                                                                                                                                  
> 2021  5 17  7 38 54.0000000  0 15                     
G 2  22898226.578     -591677.988       -2445.344          26.000                                                                  
G 3  23191400.400       53511.225          -0.018          12.000                                                                  
G 6  20813471.825     -380376.453       -1307.157          27.000                                                                  
G12  24579598.130     -781897.258       -4168.375          28.000                                                                  
G14  22096767.790      443590.469        2391.634          22.000                                                                  
G17  21252821.051      -18425.048           0.015          15.000                                                                  
G19  20531831.937     -275794.262       -1285.971          23.000                                                                  
G28  21169170.625      305725.923        1055.171          26.000                                                                  
R 6  21291081.634      -91698.923       -2258.226          13.000  
R 7  22980698.170     -264892.704           0.000          12.000  
R12  21043324.052     -391632.873       -1331.657          20.000  
R21  20673662.176       66455.952         356.667          17.000  
R22  21000190.895      -21547.658       -1623.292          18.000  
C20  23299285.243     -432707.248       -1918.941          17.000                                                                                                                                  
C29  22026869.153     -194605.757        -608.820          18.000                                                                                                                                  
> 2021  5 17  7 38 55.0000000  0 15                     
G 2  22897759.405     -594122.652       -2443.688          27.000                                                                  
G 3  23191771.178       55459.566          -0.018          12.000                                                                  
G 6  20813222.332     -381681.660       -1305.536          26.000                                                                  
G12  24578803.583     -786065.081       -4168.079          27.000                                                                  
G14  22097228.853      445982.830        2393.802          20.000                                                                  
G17  21252770.969      -18688.524           0.015          15.000                                                                  
G19  20531587.543     -277078.211       -1282.643          20.000                                                                  
G28  21169372.718      306779.492        1053.859          21.000                                                                  
R 6  21290620.202      -94161.291       -2258.151          15.000  
R 7  22979827.665     -269552.626           0.000          13.000  
R12  21043049.172     -393081.674       -1328.371          30.000  
R21  20673716.917       66812.774         359.119          16.000  
R22  20999859.402      -23317.589       -1624.091          20.000  
C20  23298916.686     -434626.070       -1917.453          20.000                                                                                                                                  
C29  22026752.464     -195213.866        -605.149          19.000                                                                                                                                  
> 2021  5 17  7 38 56.0000000  0 15                     
G 2  22897294.492     -596566.519       -2443.859          22.000                                                                  
G 3  23192142.319       57409.554          -0.018          11.000                                                                  
G 6  20812971.119     -382986.694       -1304.086          29.000                                                                  
G12  24578007.275     -790235.672       -4167.956          30.000                                                                  
G14  22097684.660      448378.045          -0.009          22.000                                                                  
G17  21252721.029      -18951.096           0.015          15.000                                                                  
G19  20531343.572     -278361.812       -1284.772          23.000                                                                  
G28  21169574.385      307835.481        1057.605          25.000                                                                  
R 6  21290159.552      -96619.869       -2255.378          14.000  
R 7  22978957.183     -274212.391           0.000          13.000  
R12  21042774.187     -394530.874       -1330.137          24.000  
R21  20673783.826       67170.892         357.647          18.000  
R22  20999511.824      -25086.801       -1621.705          25.000  
C20  23298549.124     -436544.304       -1917.840          25.000                                                                                                                                  
C29  22026636.555     -195817.711        -602.536          18.000                                                                                                                                  
