     3.04           OBSERVATION DATA    M: Mixed            RINEX VERSION / TYPE
Higeo_Hi1105        Huawei CBG          20210720 020012 UTC PGM / RUN BY / DATE 
************************************************************COMMENT             
* If you have any problem,                                 *COMMENT             
*     please contact with LBS Technology Group, thanks.    *COMMENT             
*                                                          *COMMENT             
* Version Higeo2RinexV1.1 2020.07.21                       *COMMENT             
* Fuction:  Convert Higeo Log to Rinex file                *COMMENT             
*                                                          *COMMENT             
* Note that the verision support B1C B2A signal            *COMMENT             
*     BDS: C1D L1D D1D S1D indicate BDS B1C                *COMMENT             
*     BDS: C5D L5D D5D S5D indicate BDS B2A                *COMMENT             
*     Reference: RINEX V3.04                               *COMMENT             
*                                                          *COMMENT             
* Copyright(C) Huawei Technologies Co., Ltd. 2019 - 2020   *COMMENT             
*     All rights reserved.                                 *COMMENT             
************************************************************COMMENT             
                                                            MARKER NAME         
                                                            MARKER NUMBER       
                                                            MARKER TYPE         
                                                            OBSERVER / AGENCY   
                                                            REC # / TYPE / VERS 
                                                            ANT # / TYPE        
        0.0000        0.0000        0.0000                  APPROX POSITION XYZ 
        0.0000        0.0000        0.0000                  ANTENNA: DELTA H/E/N
G    8 C1C L1C D1C S1C C5I L5I D5I S5I                      SYS / # / OBS TYPES 
R    4 C1C L1C D1C S1C                                      SYS / # / OBS TYPES 
E    8 C1C L1C D1C S1C C5I L5I D5I S5I                      SYS / # / OBS TYPES 
J    8 C1C L1C D1C S1C C5I L5I D5I S5I                      SYS / # / OBS TYPES 
C   12 C2I L2I D2I S2I C1D L1D D1D S1D C5D L5D D5D S5D      SYS / # / OBS TYPES 
  2021     5    17     7    41   26.0000000     GPS         TIME OF FIRST OBS   
  2021     5    17     8     0   57.0000000     GPS         TIME OF LAST OBS    
G                                                           SYS / PHASE SHIFT   
R                                                           SYS / PHASE SHIFT   
E                                                           SYS / PHASE SHIFT   
J                                                           SYS / PHASE SHIFT   
C                                                           SYS / PHASE SHIFT   
  0                                                         GLONASS SLOT / FRQ #
 C1C    0.000 C1P    0.000 C2C    0.000 C2P    0.000        GLONASS COD/PHS/BIS 
                                                            END OF HEADER       
> 2021  5 17  7 41 26.0000000  0 11                     
G 2  22809448.818      -46906.213       -2807.469          18.000                                                                  
G 6  20757868.158      -26422.532       -1650.619          23.000                                                                  
G12  24440763.699      -64860.634       -4538.402          21.000                                                                  
G14  22148095.157       38111.745        2045.877          20.000                                                                  
G19  20476638.825      -33722.658       -1641.038          28.000                                                                  
G28  21182190.750       15237.207         732.587          24.000                                                                  
R22  20931462.183      -37157.794       -1961.779          19.000  
E12  23954673.861       -6627.873       -1433.479          12.000                                                                  
E24  24494160.890      -12418.812       -1702.862          19.000                                                                  
E25  28331706.790       -9629.134       -3703.644          14.000                                                                  
E31  24307106.911        2400.236         910.817          15.000                                                                  
> 2021  5 17  7 41 27.0000000  0 10                     
G 2  22808914.960      -49711.759       -2805.595          17.000                                                                  
G 6  20757554.129      -28073.114       -1649.938          22.000                                                                  
G12  24439900.299      -69399.005       -4536.599          17.000                                                                  
G14  22148484.644       40158.511        2047.060          17.000                                                                  
G19  20476327.409      -35364.402       -1641.169          29.000                                                                  
G28  21182330.434       15971.429         734.982          25.000                                                                  
R22  20931061.474      -39302.497       -1962.856          20.000  
E24  24493837.830      -14118.772       -1698.516          22.000                                                                  
E25  28331001.976      -13333.291       -3703.052          13.000                                                                  
E31  24307280.108        3310.107         908.333          15.000                                                                  
> 2021  5 17  7 41 28.0000000  0  7                     
G 2  22808380.943      -52517.919       -2806.150          19.000                                                                  
G 6  20757240.781      -29722.666       -1650.030          24.000                                                                  
G14  22148874.375       42206.348        2048.244          18.000                                                                  
G17  21226776.579       -2008.486        -632.946          17.000                                                                  
G19  20476015.090      -37005.077       -1640.521          28.000                                                                  
G28  21182469.870       16705.449         735.043          24.000                                                                  
R22  20930660.245      -41451.770       -1974.164          20.000  
> 2021  5 17  7 41 29.0000000  0  9                     
G 2  22807866.685      -55323.538       -2805.070          20.000                                                                  
G 6  20756925.356      -31373.852       -1651.564          23.000                                                                  
G12  24438164.600       -6541.787       -4538.698          22.000                                                                  
G14  22149271.442       44254.014        2047.559          22.000                                                                  
G17  21226656.032       -2642.130        -632.312          17.000                                                                  
G19  20475702.374      -38646.774       -1639.204          30.000                                                                  
G28  21182609.411       17441.007         735.767          20.000                                                                  
R22  20930258.558      -43599.275       -1966.595          20.000  
E24  24493192.647       -1792.660       -1697.724          20.000                                                                  
> 2021  5 17  7 41 30.0000000  0 10                     
G 2  22807331.160      -58128.103       -2804.699          19.000                                                                  
G 6  20756611.214      -33023.243       -1647.292          28.000                                                                  
G12  24437322.691      -11080.026       -4537.542          25.000                                                                  
G14  22149679.836       46301.226        2044.767          19.000                                                                  
G17  21226527.826       -3272.487        -630.349          15.000                                                                  
G19  20475390.587      -40286.716       -1642.766          24.000                                                                  
G28  21182750.182       18178.578         734.784          20.000                                                                  
R22  20929854.512      -45748.235       -1963.508          16.000  
E12  23953571.378       -5130.432       -1435.546          19.000                                                                  
E24  24492865.699       -3489.979       -1697.390          25.000                                                                  
> 2021  5 17  7 41 31.0000000  0  9                     
G 2  22806790.491      -60934.173       -2804.579          20.000                                                                  
G 6  20756297.312      -34668.422       -1645.366          24.000                                                                  
G12  24436464.411      -15616.703       -4530.899          28.000                                                                  
G14  22150069.301       48347.939        2050.210          19.000                                                                  
G17  21226407.707       -3903.831        -631.350          13.000                                                                  
G19  20475077.718      -41927.834       -1641.410          26.000                                                                  
G28  21182890.577       18913.881         734.467          19.000                                                                  
R22  20929453.139      -47888.319       -1974.636          19.000  
E12  23953294.879       -6566.578       -1437.892          19.000                                                                  
> 2021  5 17  7 41 32.0000000  0 12                     
G 2  22806257.378      -63738.053       -2803.885          19.000                                                                  
G 6  20755982.965      -36314.365       -1646.329          30.000                                                                  
G12  24435600.270      -20150.010       -4535.027          26.000                                                                  
G14  22150468.338       50396.680        2049.008          25.000                                                                  
G17  21226287.508       -4535.696        -631.354          13.000                                                                  
G19  20474765.277      -43568.298       -1641.380          25.000                                                                  
G28  21183032.199       19648.042         733.889          19.000                                                                  
R22  20929049.677      -50042.796       -1978.429          20.000  
E12  23953019.327       -8004.762       -1436.113          20.000                                                                  
E24  24492216.887       -6884.980       -1697.251          18.000                                                                  
E31  24308153.950        4124.807         918.076          20.000                                                                  
C20  23223070.733       -1424.795       -2236.750          33.000                                                                                                                                  
> 2021  5 17  7 41 33.0000000  0 12                     
G 2  22805723.768      -66541.927       -2803.834          21.000                                                                  
G 6  20755669.251      -37961.752       -1645.386          25.000                                                                  
G12  24434732.429      -24687.008       -4536.909          30.000                                                                  
G14  22150859.654       52445.797        2048.803          22.000                                                                  
G19  20474454.106      -45208.302       -1637.519          25.000                                                                  
G28  21183171.962       20382.440         735.611          19.000                                                                  
R22  20928649.941      -52190.747       -1970.552          25.000  
E12  23952744.430       -9439.604       -1435.129          20.000                                                                  
E24  24491894.477       -8583.032       -1695.613          18.000                                                                  
E31  24308329.224        5043.786         921.039          18.000                                                                  
C20  23222640.999       -3663.480       -2240.638          21.000                                                                                                                                  
C29  22107439.593       -1151.673        -979.658          20.000                                                                                                                                  
> 2021  5 17  7 41 34.0000000  0 12                     
G 2  22805190.502      -69344.274       -2800.042          19.000                                                                  
G 6  20755357.709      -39605.494       -1641.631          25.000                                                                  
G12  24433866.958      -29225.771       -4537.865          24.000                                                                  
G14  22151249.767       54495.666        2050.285          19.000                                                                  
G19  20474141.677      -46848.064       -1639.349          20.000                                                                  
G28  21183310.824       21118.866         736.904          20.000                                                                  
R22  20928247.129      -54338.675       -1971.651          21.000  
E12  23952470.762      -10874.883       -1435.951          20.000                                                                  
E24  24491572.106      -10277.894       -1693.099          18.000                                                                  
E31  24308510.724        5966.166         921.962          18.000                                                                  
C20  23222211.288       -5901.532       -2236.531          18.000                                                                                                                                  
C29  22107253.578       -2129.708        -977.061          20.000                                                                                                                                  
> 2021  5 17  7 41 35.0000000  0 12                     
G 2  22804654.331      -72144.692       -2801.475          20.000                                                                  
G 6  20755044.810      -41250.384       -1645.475          26.000                                                                  
G12  24433000.133      -33759.327       -4529.095          28.000                                                                  
G14  22151639.983       56546.422        2050.406          18.000                                                                  
G19  20473829.742      -48487.266       -1638.406          19.000                                                                  
G28  21183449.462       21855.549         734.708          19.000                                                                  
R22  20927844.173      -56487.537       -1970.111          21.000  
E12  23952197.217      -12309.990       -1432.500          18.000                                                                  
E24  24491252.654      -11970.824       -1690.415          22.000                                                                  
E31  24308689.514        6887.598         921.384          18.000                                                                  
C20  23221781.778       -8138.374       -2235.801          20.000                                                                                                                                  
C29  22107066.032       -3106.826        -977.895          20.000                                                                                                                                  
> 2021  5 17  7 41 36.0000000  0 14                     
G 2  22804120.725      -74945.760       -2800.734          24.000                                                                  
G 6  20754733.647      -42893.634       -1642.011          30.000                                                                  
G12  24432137.536      -38290.354       -4536.059          25.000                                                                  
G14  22152029.278       58596.182        2049.818          20.000                                                                  
G19  20473517.886      -50125.678       -1638.580          23.000                                                                  
G28  21183590.460       22591.660         737.493          19.000                                                                  
R22  20927442.233      -58635.429       -1969.139          17.000  
E12  23951925.661      -13741.193       -1431.593          21.000                                                                  
E24  24490932.010      -13660.584       -1689.515          24.000                                                                  
E25  28324674.682      -46663.350       -3700.337          14.000                                                                  
E31  24308864.924        7810.849         924.525          16.000                                                                  
C20  23221352.267      -10374.946       -2237.003          20.000                                                                                                                                  
C29  22106877.103       -4084.712        -976.690          24.000                                                                                                                                  
C35  23820126.066       -1661.573       -2790.006          25.000                                                                                                                                  
> 2021  5 17  7 41 37.0000000  0 15                     
G 2  22803589.410      -77745.744       -2799.232          20.000                                                                  
G 6  20754421.181      -44536.558       -1643.828          19.000                                                                  
G12  24431275.784      -42828.309       -4540.629          26.000                                                                  
G14  22152418.911       60646.287        2049.427          20.000                                                                  
G19  20473206.631      -51763.600       -1637.685          22.000                                                                  
G28  21183731.047       23329.567         738.655          17.000                                                                  
R22  20927040.145      -60782.022       -1967.758          16.000  
E12  23951652.910      -15173.642       -1433.404          17.000                                                                  
E24  24490610.847      -15352.595       -1689.697          18.000                                                                  
E25  28323970.500      -50363.847       -3701.006          15.000                                                                  
E31  24309038.733        8732.595         920.640          16.000                                                                  
C 8  36148024.124       -3686.512        -804.391          17.000                                                                                                                                  
C20  23220922.581      -12612.651       -2235.870          21.000                                                                                                                                  
C29  22106689.111       -5062.917        -980.702          20.000                                                                                                                                  
C35  23819589.899       -4451.611       -2789.770          20.000                                                                                                                                  
> 2021  5 17  7 41 38.0000000  0 15                     
G 2  22803055.499      -80546.878       -2801.154          19.000                                                                  
G 6  20754106.136      -46179.431       -1642.104          26.000                                                                  
G12  24430412.555      -47366.786       -4537.501          24.000                                                                  
G14  22152808.070       62696.201        2050.510          20.000                                                                  
G19  20472894.521      -53403.896       -1640.673          22.000                                                                  
G28  21183871.770       24067.521         739.505          19.000                                                                  
R22  20926638.205      -62927.946       -1970.456          17.000  
E24  24490289.196      -17044.872       -1694.456          20.000                                                                  
E25  28323266.165      -54065.227       -3701.674          16.000                                                                  
E31  24309214.430        9650.205         916.621          19.000                                                                  
J 3  39363065.369      -47399.273       -1587.908          23.000                                                                  
C 8  36147871.924       -4491.320        -803.145          18.000                                                                                                                                  
C20  23220492.695      -14849.376       -2237.004          23.000                                                                                                                                  
C29  22106500.696       -6044.146        -980.833          20.000                                                                                                                                  
C35  23819054.869       -7241.191       -2787.828          20.000                                                                                                                                  
> 2021  5 17  7 41 39.0000000  0 16                     
G 2  22802522.656      -83347.311       -2799.517          19.000                                                                  
G 6  20753795.017      -47820.007       -1640.872          25.000                                                                  
G12  24429550.001      -51905.502       -4539.288          24.000                                                                  
G14  22153197.265       64746.814        2051.912          20.000                                                                  
G19  20472582.211      -55045.037       -1640.219          22.000                                                                  
G28  21184012.637       24805.824         739.759          19.000                                                                  
R22  20926234.093      -65074.016       -1968.327          17.000  
E24  24489967.375      -18737.856       -1687.807          21.000                                                                  
E25  28322561.713      -57767.327       -3702.249          15.000                                                                  
E31  24309389.102       10567.366         916.030          18.000                                                                  
J 3  39362762.764      -48986.697       -1587.380          19.000                                                                  
C 8  36147714.784       -5299.487        -810.850          17.000                                                                                                                                  
C10  35847647.673       -2277.193        -698.316          15.000                                                                                                                                  
C20  23220062.543      -17089.083       -2241.216          22.000                                                                                                                                  
C29  22106312.426       -7023.034        -978.984          24.000                                                                                                                                  
C35  23818518.969      -10030.815       -2792.629          19.000                                                                                                                                  
> 2021  5 17  7 41 40.0000000  0 17                     
G 2  22801990.481      -86148.405          -0.002          20.000                                                                  
G 6  20753484.841      -49461.281       -1641.771          20.000                                                                  
G12  24428687.164      -56444.206       -4537.235          22.000                                                                  
G14  22153587.851       66797.024        2050.170          18.000                                                                  
G19  20472270.616      -56683.236       -1637.972          27.000                                                                  
G28  21184153.792       25547.183         743.093          19.000                                                                  
R22  20925844.046      -67219.565       -1968.842          17.000  
E12  23950832.939      -19478.731       -1437.499          18.000                                                                  
E24  24489647.525      -20424.058       -1684.924          19.000                                                                  
E25  28321857.086      -61469.226       -3701.001          15.000                                                                  
E31  24309564.289       11484.666         916.574          17.000                                                                  
J 3  39362459.916      -50574.304       -1587.050          18.000                                                                  
C 8  36147558.723       -6112.358        -812.278          17.000                                                                                                                                  
C10  35847513.837       -2974.353        -697.342          14.000                                                                                                                                  
C20  23219632.338      -19330.038       -2239.562          22.000                                                                                                                                  
C29  22106124.443       -8002.206        -979.960          22.000                                                                                                                                  
C35  23817983.185      -12820.471       -2787.309          20.000                                                                                                                                  
> 2021  5 17  7 41 41.0000000  0 17                     
G 2  22801457.072      -88951.347          -0.002          17.000                                                                  
G 6  20753173.417      -51102.281       -1642.255          19.000                                                                  
G12  24427827.360      -60980.352       -4535.645          20.000                                                                  
G14  22153978.038       68847.558        2050.684          16.000                                                                  
G19  20471959.667      -58319.559       -1636.253          26.000                                                                  
G28  21184293.904       26288.751         740.360          20.000                                                                  
R22  20925442.429      -69363.654       -1966.469          17.000  
E12  23950559.537      -20916.346       -1438.209          18.000                                                                  
E24  24489327.061      -22112.573       -1689.039          19.000                                                                  
E25  28321152.778      -65170.621       -3702.244          14.000                                                                  
E31  24309738.608       12400.532         916.592          17.000                                                                  
J 3  39362157.957      -52161.132       -1587.367          20.000                                                                  
C 8  36147402.740       -6924.682        -813.116          17.000                                                                                                                                  
C10  35847379.933       -3671.020        -696.959          15.000                                                                                                                                  
C20  23219202.558      -21568.365       -2237.800          25.000                                                                                                                                  
C29  22105936.566       -8981.435        -977.953          22.000                                                                                                                                  
C35  23817447.550      -15608.073       -2786.993          21.000                                                                                                                                  
> 2021  5 17  7 41 42.0000000  0 17                     
G 2  22800926.690      -91753.777       -2803.990          19.000                                                                  
G 6  20752860.274      -52744.737       -1642.923          21.000                                                                  
G12  24426965.094      -65514.826       -4533.893          20.000                                                                  
G14  22154364.759       70897.877          -0.009          17.000                                                                  
G19  20471649.455      -59956.132       -1635.006          25.000                                                                  
G28  21184434.719       27028.509         741.238          20.000                                                                  
R22  20925040.935      -71507.122       -1965.931          17.000  
E12  23950285.770      -22355.277       -1440.539          15.000                                                                  
E24  24489006.212      -23800.685       -1688.661          19.000                                                                  
E25  28320448.330      -68872.720       -3701.899          13.000                                                                  
E31  24309914.856       13318.924         923.256          20.000                                                                  
J 3  39361855.170      -53748.681       -1586.262          24.000                                                                  
C 8  36147245.897       -7735.442        -809.308          16.000                                                                                                                                  
C10  35847245.917       -4369.118        -699.496          17.000                                                                                                                                  
C20  23218773.361      -23805.544       -2235.782          24.000                                                                                                                                  
C29  22105749.176       -9958.621        -977.254          19.000                                                                                                                                  
C35  23816912.461      -18395.414       -2788.681          20.000                                                                                                                                  
> 2021  5 17  7 41 43.0000000  0 18                     
G 2  22800393.782      -94556.098       -2801.098          19.000                                                                  
G 6  20752548.025      -54387.826       -1641.574          19.000                                                                  
G12  24426101.597      -70048.634       -4533.394          21.000                                                                  
G14  22154755.075       72948.693          -0.009          16.000                                                                  
G19  20471338.235      -61591.507       -1634.803          23.000                                                                  
G28  21184574.530       27770.293         741.557          20.000                                                                  
R22  20924636.779      -73650.142       -1967.611          17.000  
E12  23950017.442      -23798.379       -1443.633          12.000                                                                  
E24  24488685.590      -25489.751       -1688.104          20.000                                                                  
E25  28319744.070      -72573.705       -3700.322          13.000                                                                  
E31  24310095.173       14241.378         923.005          19.000                                                                  
J 3  39361553.717      -55335.592       -1588.407          22.000                                                                  
C 8  36147090.372       -8545.559        -809.810          17.000                                                                                                                                  
C10  35847111.831       -5067.579        -698.316          16.000                                                                                                                                  
C13  36569802.989       -3241.943       -1170.545          17.000                                                                                                                                  
C20  23218344.002      -26042.002       -2236.328          21.000                                                                                                                                  
C29  22105561.477      -10936.199        -976.841          20.000                                                                                                                                  
C35  23816377.283      -21183.477       -2787.253          17.000                                                                                                                                  
> 2021  5 17  7 41 44.0000000  0 18                     
G 2  22799861.075      -97355.133       -2800.861          17.000                                                                  
G 6  20752236.749      -56027.197       -1634.954          20.000                                                                  
G12  24425239.057      -74581.529       -4532.792          21.000                                                                  
G14  22155145.386       74999.663          -0.009          20.000                                                                  
G19  20471026.880      -63226.970       -1633.964          27.000                                                                  
G28  21184715.732       28513.624         744.757          20.000                                                                  
R22  20924235.031      -75795.214       -1968.960          14.000  
E12  23949742.989      -25240.743       -1441.766          14.000                                                                  
E24  24488364.471      -27176.969       -1690.668          18.000                                                                  
E25  28319071.958      -76273.774       -3700.682           9.000                                                                  
E31  24310272.110       15164.280         925.356          18.000                                                                  
J 3  39361251.449      -56924.485       -1589.077          23.000                                                                  
C 8  36146935.082       -9354.408        -808.632          17.000                                                                                                                                  
C10  35846978.805       -5767.581        -702.984          14.000                                                                                                                                  
C13  36569578.247       -4412.420       -1171.036          16.000                                                                                                                                  
C20  23217914.841      -28278.228       -2235.367          22.000                                                                                                                                  
C29  22105374.005      -11912.641        -977.275          20.000                                                                                                                                  
C35  23815842.011      -23971.086       -2788.164          18.000                                                                                                                                  
> 2021  5 17  7 41 45.0000000  0 18                     
G 2  22799328.813     -100156.199          -0.002          18.000                                                                  
G 6  20751925.578      -57664.305       -1639.096          21.000                                                                  
G12  24424375.867      -79116.256       -4536.503          17.000                                                                  
G14  22155504.731       77049.879        2049.985          23.000                                                                  
G19  20470716.938      -64860.694       -1633.267          27.000                                                                  
G28  21184857.721       29257.309         744.151          20.000                                                                  
R22  20923834.706      -77940.428          -0.003          16.000  
E12  23949468.894      -26681.246       -1439.324          14.000                                                                  
E24  24488043.037      -28869.013       -1691.386          18.000                                                                  
E25  28478477.435      -79974.369       -3700.995           8.000                                                                  
E31  24310446.171       16089.860         925.205          16.000                                                                  
J 3  39360948.204      -58513.113       -1587.739          19.000                                                                  
C 8  36146778.742      -10161.431        -805.297          16.000                                                                                                                                  
C10  35846843.793       -6470.709        -701.479          17.000                                                                                                                                  
C13  36569358.361       -5583.521       -1172.114          17.000                                                                                                                                  
C20  23217486.076      -30513.389       -2236.487          20.000                                                                                                                                  
C29  22105186.537      -12890.450        -977.307          19.000                                                                                                                                  
C35  23815307.597      -26760.796       -2790.935          19.000                                                                                                                                  
> 2021  5 17  7 41 46.0000000  0 18                     
G 2  22798796.114     -102955.641          -0.002          18.000                                                                  
G 6  20751612.671      -59304.722       -1641.366          25.000                                                                  
G12  24423511.686      -83653.328       -4536.683          17.000                                                                  
G14  22155865.732       79100.416        2049.758          25.000                                                                  
G19  20470404.475      -66494.835       -1635.241          27.000                                                                  
G28  21185000.647       30000.210         741.712          20.000                                                                  
R22  20923432.718      -80087.006          -0.003          17.000  
E12  23949195.271      -28119.134       -1436.661          15.000                                                                  
E24  24487722.228      -30558.958       -1688.264          19.000                                                                  
E25  28477773.070      -83675.874       -3701.542           8.000                                                                  
E31  24310620.316       17012.270         921.841          17.000                                                                  
J 3  39360646.184      -60100.330       -1587.956          18.000                                                                  
C 8  36146624.107      -10966.752        -804.682          14.000                                                                                                                                  
C10  35846709.231       -7171.656        -701.466          16.000                                                                                                                                  
C13  36569141.987       -6755.026       -1168.252          18.000                                                                                                                                  
C20  23217056.809      -32747.711       -2234.483          19.000                                                                                                                                  
C29  22104999.279      -13866.701        -975.962          18.000                                                                                                                                  
C35  23814771.857      -29550.702       -2790.320          17.000                                                                                                                                  
> 2021  5 17  7 41 47.0000000  0 18                     
G 2  22798264.406     -105755.757       -2799.409          23.000                                                                  
G 6  20751299.567      -60946.353       -1642.124          21.000                                                                  
G12  24422648.656      -88188.555       -4534.159          17.000                                                                  
G14  22156253.103       81150.656        2050.457          22.000                                                                  
G19  20470094.085      -68129.224       -1634.380          28.000                                                                  
G28  21185142.225       30742.947         743.301          19.000                                                                  
R22  20923032.580      -82234.200       -1969.534          16.000  
E12  23948924.286      -29554.959       -1435.181          15.000                                                                  
E24  24487401.484      -32248.238       -1686.439          18.000                                                                  
E25  28477068.735      -87377.143       -3701.414           8.000                                                                  
E31  24310795.607       17933.354         919.365          17.000                                                                  
J 3  39360344.051      -61686.781       -1587.033          19.000                                                                  
C 8  36146471.736      -11771.126        -805.419          14.000                                                                                                                                  
C10  35846572.856       -7872.646        -700.876          15.000                                                                                                                                  
C13  36568920.272       -7923.479       -1168.995          17.000                                                                                                                                  
C20  23216628.005      -34982.116       -2233.301          23.000                                                                                                                                  
C29  22104811.994      -14841.537        -973.141          16.000                                                                                                                                  
C35  23814236.013      -32339.900       -2788.849          17.000                                                                                                                                  
> 2021  5 17  7 41 48.0000000  0 18                     
G 2  22797725.229     -108555.457       -2799.773          21.000                                                                  
G 6  20750988.182      -62588.460       -1642.303          23.000                                                                  
G12  24421786.299      -92722.530       -4534.496          15.000                                                                  
G14  22156640.064       83202.230        2051.748          23.000                                                                  
G19  20469783.960      -69761.030       -1632.497          22.000                                                                  
G28  21185284.448       31486.491         742.741          19.000                                                                  
R22  20922630.501      -84381.111       -1969.777          13.000  
E12  23948651.404      -30988.946       -1432.408          15.000                                                                  
E24  24487080.322      -33936.387       -1687.418          18.000                                                                  
E25  28316254.777      -91078.193       -3700.565           9.000                                                                  
E31  24310981.103       18853.917         922.296          19.000                                                                  
J 3  39360042.001      -63273.211       -1585.771          20.000                                                                  
C 8  36146316.826      -12577.899        -807.385          16.000                                                                                                                                  
C10  35846438.190       -8574.157        -701.404          17.000                                                                                                                                  
C13  36568697.572       -9094.059       -1170.643          18.000                                                                                                                                  
C20  23216198.934      -37216.651       -2233.574          21.000                                                                                                                                  
C29  22104625.547      -15812.562        -970.550          14.000                                                                                                                                  
C35  23813700.426      -35128.952       -2790.017          17.000                                                                                                                                  
> 2021  5 17  7 41 49.0000000  0 18                     
G 2  22797195.995     -111354.283       -2797.244          25.000                                                                  
G 6  20750675.680      -64228.135       -1638.633          27.000                                                                  
G12  24420923.388      -97257.382       -4534.387          17.000                                                                  
G14  22157028.465       85255.028        2054.794          28.000                                                                  
G19  20469473.495      -71393.501       -1635.422          23.000                                                                  
G28  21185424.265       32230.658         745.260          24.000                                                                  
R22  20922224.779      -86526.278       -1967.472          17.000  
E12  23948379.220      -32419.400       -1429.587          18.000                                                                  
E24  24486765.686      -35623.238       -1685.379          27.000                                                                  
E25  28475660.276      -94778.676       -3700.520           8.000                                                                  
E31  24311143.761       19776.910         923.147          21.000                                                                  
J 3  39359741.037      -64856.664       -1582.261          19.000                                                                  
C 8  36146161.894      -13384.804        -805.699          22.000                                                                                                                                  
C10  35846299.152       -9276.132        -701.047          17.000                                                                                                                                  
C13  36568472.987      -10263.750       -1168.758          22.000                                                                                                                                  
C20  23215770.493      -39449.064       -2231.496          19.000                                                                                                                                  
C29  22104438.977      -16784.313        -972.096          17.000                                                                                                                                  
C35  23813164.473      -37919.886       -2791.664          20.000                                                                                                                                  
> 2021  5 17  7 41 50.0000000  0 18                     
G 2  22796666.114     -114151.091       -2796.231          22.000                                                                  
G 6  20750363.174      -65866.391       -1637.835          24.000                                                                  
G12  24420060.451     -101792.283       -4535.521          17.000                                                                  
G14  22157417.369       87307.439        2054.148          26.000                                                                  
G19  20469163.344      -73029.438       -1636.244          22.000                                                                  
G28  21185566.057       32975.402         744.504          19.000                                                                  
R22  20921822.931      -88670.377       -1965.975          20.000  
E12  23948107.258      -33848.803       -1429.242          19.000                                                                  
E24  24486440.169      -37307.270       -1683.368          24.000                                                                  
E25  28474956.068      -98479.279       -3700.435           8.000                                                                  
E31  24311321.910       20702.887         926.780          19.000                                                                  
J 3  39359439.658      -66440.732       -1585.209          19.000                                                                  
C 8  36146011.682      -14190.791        -806.438          19.000                                                                                                                                  
C10  35846164.661       -9976.814        -700.616          16.000                                                                                                                                  
C13  36568248.302      -11433.191       -1169.262          18.000                                                                                                                                  
C20  23215342.452      -41678.121       -2226.315          16.000                                                                                                                                  
C29  22104256.535      -17755.910           0.008          17.000                                                                                                                                  
C35  23812631.329      -40710.799       -2789.616          23.000                                                                                                                                  
> 2021  5 17  7 41 51.0000000  0 18                     
G 2  22796134.895     -116945.234       -2791.611          22.000                                                                  
G 6  20750049.446      -67503.495       -1636.611          29.000                                                                  
G12  24419209.994     -106327.022       -4534.009          21.000                                                                  
G14  22157807.567       89358.376        2049.482          20.000                                                                  
G19  20468853.259      -74663.647       -1634.528          24.000                                                                  
G28  21185708.970       33720.957         748.893          16.000                                                                  
R22  20921414.051      -90813.098       -1964.701          20.000  
E12  23947827.946      -35276.943       -1426.958          21.000                                                                  
E24  24486115.931      -38990.044       -1682.352          25.000                                                                  
E25  28474251.947     -102179.510       -3699.950           7.000                                                                  
E31  24311498.773       21631.901         930.459          17.000                                                                  
J 3  39359137.490      -68025.783       -1584.249          18.000                                                                  
C 8  36145857.034      -14996.339        -805.264          18.000                                                                                                                                  
C10  35846030.072      -10677.827        -701.135          14.000                                                                                                                                  
C13  36568023.752      -12601.313       -1167.652          21.000                                                                                                                                  
C20  23214914.957      -43904.226       -2225.231          17.000                                                                                                                                  
C29  22104069.779      -18728.625           0.008          16.000                                                                                                                                  
C35  23812092.783      -43498.559       -2785.384          22.000                                                                                                                                  
> 2021  5 17  7 41 52.0000000  0 19                     
G 2  22795601.839     -119737.565       -2793.036          22.000                                                                  
G 6  20749739.349      -69137.453       -1631.575          25.000                                                                  
G12  24418347.249     -110860.931       -4533.818          17.000                                                                  
G14  22158197.931       91408.861        2049.934          19.000                                                                  
G19  20468541.664      -76298.475       -1635.773          21.000                                                                  
G28  21185851.927       34470.754         748.094          18.000                                                                  
R22  20921012.875      -92955.195       -1965.599          18.000  
E12  23947556.150      -36706.984       -1432.139          18.000                                                                  
E24  24485796.016      -40671.702       -1680.602          24.000                                                                  
E25  28313438.233     -105879.277       -3699.619           9.000                                                                  
E31  24311676.036       22563.106         931.125          18.000                                                                  
J 3  39358838.477      -69609.576       -1585.203          18.000                                                                  
C 8  36145701.047      -15802.618        -807.057          17.000                                                                                                                                  
C10  35845892.574      -11379.488        -701.839          15.000                                                                                                                                  
C13  36567800.890      -13769.178       -1167.502          18.000                                                                                                                                  
C19  24578122.557      -12539.800       -4155.523          17.000                                                                                                                                  
C20  23214487.339      -46128.294       -2224.490          17.000                                                                                                                                  
C29  22103885.068      -19703.998        -976.203          15.000                                                                                                                                  
C35  23811557.184      -46285.124       -2788.202          23.000                                                                                                                                  
> 2021  5 17  7 41 53.0000000  0 19                     
G 2  22795071.007     -122530.763       -2793.944          21.000                                                                  
G 6  20749428.915      -70770.346       -1632.176          25.000                                                                  
G12  24417484.535     -115394.574       -4533.271          17.000                                                                  
G14  22158587.928       93460.205        2051.028          20.000                                                                  
G19  20468230.418      -77933.761       -1633.186          23.000                                                                  
G28  21185995.459       35218.533         747.018          18.000                                                                  
R22  20920609.670      -95098.482       -1967.348          17.000  
E12  23947283.660      -38139.229       -1430.605          18.000                                                                  
E24  24485476.511      -42352.228       -1681.753          20.000                                                                  
E25  28472843.854     -109579.582       -3699.644           8.000                                                                  
E31  24311857.567       23493.140         930.249          15.000                                                                  
J 3  39358537.028      -71193.747       -1585.520          20.000                                                                  
C 8  36145545.256      -16609.075        -806.177          20.000                                                                                                                                  
C10  35845757.838      -12081.299        -702.626          17.000                                                                                                                                  
C13  36567577.828      -14935.769       -1165.429          19.000                                                                                                                                  
C19  24577324.873      -16694.496       -4153.180          17.000                                                                                                                                  
C20  23214057.178      -48354.125       -2227.063          24.000                                                                                                                                  
C29  22103700.650      -20679.556        -975.468          18.000                                                                                                                                  
C35  23811023.873      -49073.352       -2788.878          19.000                                                                                                                                  
> 2021  5 17  7 41 54.0000000  0 19                     
G 2  22794540.691     -125324.764       -2793.577          22.000                                                                  
G 6  20749118.228      -72402.095       -1632.558          20.000                                                                  
G12  24416617.426     -119927.566       -4532.375          16.000                                                                  
G14  22158977.094       95511.488        2051.466          19.000                                                                  
G19  20467920.769      -79566.799       -1631.329          20.000                                                                  
G28  21186137.657       35965.503         747.275          16.000                                                                  
R22  20920208.036      -97243.110       -1967.409          17.000  
E12  23947011.415      -39570.108       -1432.626          17.000                                                                  
E24  24485156.801      -44033.869       -1680.924          21.000                                                                  
E25  28312030.166     -113279.233       -3699.550           9.000                                                                  
E31  24312034.800       24424.275         931.147          17.000                                                                  
J 3  39358234.603      -72780.418       -1588.045          18.000                                                                  
C 8  36145390.690      -17414.064        -805.213          17.000                                                                                                                                  
C10  35845622.968      -12783.880        -702.437          14.000                                                                                                                                  
C13  36567354.325      -16099.887       -1163.623          17.000                                                                                                                                  
C19  24576526.687      -20851.010       -4156.807          17.000                                                                                                                                  
C20  23213628.313      -50583.589       -2230.143          20.000                                                                                                                                  
C29  22103513.466      -21654.349        -974.531          17.000                                                                                                                                  
C35  23810489.629      -51859.915       -2786.958          25.000                                                                                                                                  
> 2021  5 17  7 41 55.0000000  0 22                     
G 2  22794008.119     -128119.147       -2793.865          24.000                                                                  
G 6  20748806.734      -74038.414       -1636.338          29.000                                                                  
G12  24415754.894     -124460.123       -4532.574          17.000                                                                  
G14  22159366.899       97564.436        2054.237          27.000                                                                  
G19  20467609.170      -81198.570       -1631.464          19.000                                                                  
G28  21186296.475       36713.647         747.278          17.000                                                                  
R22  20919801.332      -99387.748       -1967.397          19.000  
E12  23946741.879      -41000.365       -1428.480          18.000                                                                  
E24  24484837.187      -45716.344       -1682.828          20.000                                                                  
E25  28311326.164     -116978.760       -3699.426          10.000                                                                  
E31  24312216.404       25354.263         929.941          19.000                                                                  
J 3  39357931.196      -74369.250       -1588.583          19.000                                                                  
C 7  36663660.511        -199.800        -225.427          24.000                                                                                                                                  
C 8  36145236.334      -18218.104        -804.487          17.000                                                                                                                                  
C10  35845488.293      -13485.245        -700.472          14.000                                                                                                                                  
C13  36567130.810      -17263.903       -1162.814          20.000                                                                                                                                  
C19  24575728.562      -25007.236       -4156.087          19.000                                                                                                                                  
C20  23213200.316      -52814.887       -2231.672          22.000                                                                                                                                  
C26  24943463.954       -2657.966       -1539.984          17.000                                                                                                                                  
C29  22103326.215      -22629.658        -975.921          16.000                                                                                                                                  
C35  23809954.902      -54647.693       -2787.331          20.000                                                                                                                                  
C36  25942058.001        9029.999        2006.486          15.000                                                                                                                                  
> 2021  5 17  7 41 56.0000000  0 21                     
G 2  22793477.057     -130911.675       -2792.063          22.000                                                                  
G 6  20748496.056      -75671.914       -1632.950          27.000                                                                  
G12  24414892.393     -128992.975       -4533.935          20.000                                                                  
G14  22159759.141       99620.550        2057.175          21.000                                                                  
G19  20467298.582      -82830.756       -1631.770          20.000                                                                  
G28  21186438.184       37463.325         750.029          29.000                                                                  
R22  20919395.082     -101532.021       -1967.013          19.000  
E12  23946469.843      -42430.178       -1429.490          22.000                                                                  
E24  24484517.800      -47396.981       -1681.006          23.000                                                                  
E25  28310622.222     -120677.964       -3699.122          12.000                                                                  
E31  24312391.299       26283.994         927.895          18.000                                                                  
J 3  39357628.435      -75955.745       -1585.581          17.000                                                                  
C 7  36663610.713        -424.210        -223.597          18.000                                                                                                                                  
C 8  36145083.357      -19023.112        -805.622          17.000                                                                                                                                  
C10  35845353.905      -14185.422        -698.757          14.000                                                                                                                                  
C13  36566911.398      -18427.774       -1164.759          19.000                                                                                                                                  
C19  24574929.403      -29163.245       -4155.602          17.000                                                                                                                                  
C20  23212771.875      -55046.234       -2230.298          19.000                                                                                                                                  
C29  22103139.419      -23606.334        -976.659          17.000                                                                                                                                  
C35  23809420.811      -57433.304       -2785.198          25.000                                                                                                                                  
C36  25942442.949       11034.390        2002.779          14.000                                                                                                                                  
> 2021  5 17  7 41 57.0000000  0 23                     
G 2  22792945.239     -133703.887       -2792.942          20.000                                                                  
G 6  20748186.111      -77303.518       -1633.699          24.000                                                                  
G12  24413999.573     -133526.381       -4532.442          21.000                                                                  
G14  22160151.290      101677.043        2057.525          22.000                                                                  
G17  21223293.968       -3584.066        -624.905          17.000                                                                  
G19  20466988.240      -84463.746       -1632.688          18.000                                                                  
G28  21186583.540       38213.025         751.627          27.000                                                                  
R22  20919010.663     -103676.239       -1964.139          20.000  
E12  23946200.268      -43858.361       -1426.557          23.000                                                                  
E24  24484198.391      -49075.532       -1678.441          24.000                                                                  
E25  28309918.332     -124376.915       -3698.524          12.000                                                                  
E31  24312568.039       27213.476         928.745          18.000                                                                  
J 3  39357326.694      -77542.166       -1586.092          20.000                                                                  
C 7  36663569.362        -648.644        -222.294          19.000                                                                                                                                  
C 8  36144928.779      -19828.235        -803.974          18.000                                                                                                                                  
C10  35845217.376      -14883.652           0.007          14.000                                                                                                                                  
C13  36566688.014      -19591.163       -1164.441          17.000                                                                                                                                  
C19  24574131.381      -33318.952       -4155.509          17.000                                                                                                                                  
C20  23212343.611      -57277.156       -2230.793          19.000                                                                                                                                  
C26  24942869.425       -5738.768       -1540.555          17.000                                                                                                                                  
C29  22102954.107      -24583.994        -977.663          17.000                                                                                                                                  
C35  23808885.185      -60220.956       -2787.784          25.000                                                                                                                                  
C36  25942821.378       13036.892        2004.396          20.000                                                                                                                                  
> 2021  5 17  7 41 58.0000000  0 23                     
G 2  22792413.749     -136498.152       -2795.003          22.000                                                                  
G 6  20747874.481      -78935.922       -1633.214          27.000                                                                  
G12  24413156.952     -138058.312       -4530.185          20.000                                                                  
G14  22160541.860      103733.574        2056.705          26.000                                                                  
G17  21223174.988       -4209.711        -626.337          17.000                                                                  
G19  20466682.438      -86097.069       -1633.934          23.000                                                                  
G28  21186724.717       38963.490         752.016          23.000                                                                  
R22  20918613.295     -105817.097       -1962.832          19.000  
E12  23945929.458      -45286.531       -1428.652          23.000                                                                  
E24  24483878.738      -50754.441       -1678.475          23.000                                                                  
E25  28309214.526     -128075.381       -3698.303          12.000                                                                  
E31  24312750.302       28141.679         928.824          20.000                                                                  
J 3  39357022.712      -79130.448       -1589.781          22.000                                                                  
C 7  36663526.353        -872.846        -225.266          20.000                                                                                                                                  
C 8  36144774.772      -20631.963        -802.796          18.000                                                                                                                                  
C10  35845083.451      -15581.190           0.007          17.000                                                                                                                                  
C13  36566464.025      -20757.096       -1167.390          16.000                                                                                                                                  
C19  24573330.285      -37474.244       -4152.642          17.000                                                                                                                                  
C20  23211915.475      -59506.534       -2227.735          19.000                                                                                                                                  
C26  24942574.412       -7275.022       -1533.326          17.000                                                                                                                                  
C29  22102766.587      -25560.718        -976.459          17.000                                                                                                                                  
C35  23808350.274      -63008.003       -2787.805          22.000                                                                                                                                  
C36  25943206.204       15040.809        2003.709          17.000                                                                                                                                  
> 2021  5 17  7 41 59.0000000  0 23                     
G 2  22791881.204     -139291.899       -2792.259          19.000                                                                  
G 6  20747565.405      -80569.295       -1633.530          23.000                                                                  
G12  24412295.933     -142589.611       -4531.992          20.000                                                                  
G14  22160932.512      105788.452        2054.537          24.000                                                                  
G17  21223047.231       -4833.134        -620.457          18.000                                                                  
G19  20466373.212      -87730.045       -1630.283          19.000                                                                  
G28  21186869.964       39715.710         752.532          29.000                                                                  
R22  20918206.714     -107956.931       -1965.003          19.000  
E12  23945657.741      -46713.937       -1427.568          20.000                                                                  
E24  24483559.687      -52433.659       -1678.547          24.000                                                                  
E25  28308510.780     -131773.699       -3698.468          11.000                                                                  
E31  24312927.186       29070.742         928.764          21.000                                                                  
J 3  39356721.626      -80719.632       -1587.604          22.000                                                                  
C 7  36663483.344       -1098.404        -224.848          21.000                                                                                                                                  
C 8  36144621.005      -21436.923        -806.023          20.000                                                                                                                                  
C10  35844952.427      -16279.774        -699.436          15.000                                                                                                                                  
C13  36566240.039      -21923.527       -1165.409          16.000                                                                                                                                  
C19  24572533.006      -41626.109       -4151.568          16.000                                                                                                                                  
C20  23211487.478      -61733.924       -2226.579          18.000                                                                                                                                  
C26  24942280.223       -8807.202       -1533.060          18.000                                                                                                                                  
C29  22102582.448      -26536.531        -976.358          17.000                                                                                                                                  
C35  23807814.382      -65795.132       -2788.338          23.000                                                                                                                                  
C36  25943590.846       17043.723        2003.668          17.000                                                                                                                                  
> 2021  5 17  7 42  0.0000000  0 23                     
G 2  22791350.394     -142084.770       -2792.432          20.000                                                                  
G 6  20747254.259      -82202.762       -1631.784          24.000                                                                  
G12  24411434.583     -147121.351       -4530.225          23.000                                                                  
G14  22161322.514      107843.117        2054.038          21.000                                                                  
G17  21222932.267       -5456.325        -625.240          20.000                                                                  
G19  20466065.443      -89359.354       -1629.338          19.000                                                                  
G28  21187013.282       40467.748         755.674          24.000                                                                  
R22  20917804.050     -110099.258       -1966.558          20.000  
E12  23945386.246      -48141.962       -1427.623          24.000                                                                  
E24  24483241.360      -54110.991       -1676.970          24.000                                                                  
E25  28307807.039     -135471.877       -3697.959          11.000                                                                  
E31  24313104.437       30000.215         930.718          19.000                                                                  
J 3  39356419.693      -82308.977       -1589.904          20.000                                                                  
C 7  36663439.895       -1324.752        -227.084          21.000                                                                                                                                  
C 8  36144465.994      -22244.319        -807.821          19.000                                                                                                                                  
C10  35844817.989      -16979.941        -700.765          15.000                                                                                                                                  
C13  36566016.256      -23088.922       -1164.294          17.000                                                                                                                                  
C19  24571735.636      -45778.251       -4151.781          16.000                                                                                                                                  
C20  23211060.319      -63958.892       -2224.897          20.000                                                                                                                                  
C26  24941990.615      -10340.282       -1533.777          20.000                                                                                                                                  
C29  22102395.011      -27512.819        -976.013          17.000                                                                                                                                  
C35  23807279.018      -68581.023       -2782.080          23.000                                                                                                                                  
C36  25943978.219       19048.077        2004.050          16.000                                                                                                                                  
> 2021  5 17  7 42  1.0000000  0 23                     
G 2  22790820.414     -144876.411       -2791.328          22.000                                                                  
G 6  20746942.923      -83834.214       -1627.264          28.000                                                                  
G12  24410574.181     -151651.981       -4530.278          21.000                                                                  
G14  22161711.006      109897.682        2055.581          23.000                                                                  
G17  21222796.225       -6081.087        -625.287          21.000                                                                  
G19  20465755.388      -90988.864           0.003          17.000                                                                  
G28  21187157.111       41221.312         752.338          25.000                                                                  
R22  20917404.562     -112242.753       -1964.320          20.000  
E12  23945114.607      -49569.814       -1427.346          21.000                                                                  
E24  24482922.566      -55787.199       -1675.106          24.000                                                                  
E25  28307089.609     -139170.072       -3698.168          11.000                                                                  
E31  24313280.658       30931.500         930.486          20.000                                                                  
J 3  39356117.028      -83898.329       -1591.161          20.000                                                                  
C 7  36663398.984       -1551.073        -224.585          24.000                                                                                                                                  
C 8  36144313.069      -23051.037        -806.438          18.000                                                                                                                                  
C10  35844683.309      -17681.390        -702.163          15.000                                                                                                                                  
C13  36565793.975      -24254.474       -1166.568          17.000                                                                                                                                  
C19  24570934.975      -49930.160           0.022          18.000                                                                                                                                  
C20  23210632.998      -66184.242       -2226.237          20.000                                                                                                                                  
C26  24941698.555      -11873.290       -1533.092          18.000                                                                                                                                  
C29  22102210.779      -28490.430        -977.818          20.000                                                                                                                                  
C35  23806744.870      -71363.860       -2781.545          25.000                                                                                                                                  
C36  25944363.162       21052.453        2004.748          17.000                                                                                                                                  
> 2021  5 17  7 42  2.0000000  0 23                     
G 2  22790289.848     -147669.335       -2793.631          20.000                                                                  
G 6  20746631.721      -85465.834       -1634.661          23.000                                                                  
G12  24409710.760     -156182.176       -4529.813          22.000                                                                  
G14  22162102.571      111952.364        2056.783          23.000                                                                  
G17  21222685.290       -6706.086        -623.048          24.000                                                                  
G19  20465444.679      -92621.990           0.003          18.000                                                                  
G28  21187300.513       41973.965         754.769          24.000                                                                  
R22  20917005.109     -114383.923       -1965.426          19.000  
E12  23944842.834      -50998.065       -1426.971          19.000                                                                  
E24  24482603.785      -57463.459       -1675.037          23.000                                                                  
E25  28306385.850     -142868.321       -3698.292          10.000                                                                  
E31  24313457.725       31861.465         927.996          19.000                                                                  
J 3  39355814.092      -85487.388       -1584.591          23.000                                                                  
C 7  36663356.560       -1778.173          -0.064          18.000                                                                                                                                  
C 8  36144161.213      -23857.964        -806.450          20.000                                                                                                                                  
C10  35844548.154      -18383.145        -701.370          15.000                                                                                                                                  
C13  36565569.674      -25422.673       -1169.004          16.000                                                                                                                                  
C19  24570134.197      -54083.804           0.022          16.000                                                                                                                                  
C20  23210202.178      -68412.178       -2227.502          27.000                                                                                                                                  
C26  24941405.086      -13406.428       -1531.097          19.000                                                                                                                                  
C29  22102025.706      -29467.839        -977.932          23.000                                                                                                                                  
C35  23806211.164      -74146.633       -2784.743          22.000                                                                                                                                  
C36  25944748.236       23057.457        2006.211          19.000                                                                                                                                  
> 2021  5 17  7 42  3.0000000  0 23                     
G 2  22789759.008     -150461.694       -2792.213          18.000                                                                  
G 6  20746322.203      -87101.123       -1634.420          20.000                                                                  
G12  24408848.843     -160710.383       -4527.318          24.000                                                                  
G14  22162492.931      114009.805        2057.538          20.000                                                                  
G17  21222565.272       -7329.592        -622.889          24.000                                                                  
G19  20465153.593      -94255.585       -1632.730          17.000                                                                  
G28  21187443.845       42726.629         750.786          19.000                                                                  
R22  20916603.519     -116528.488       -1967.436          17.000  
E12  23944570.829      -52427.876       -1430.946          17.000                                                                  
E24  24482284.655      -59140.406       -1677.165          19.000                                                                  
E25  28305682.122     -146566.420       -3698.006          10.000                                                                  
E31  24313631.774       32790.789         929.869          20.000                                                                  
J 3  39355512.840      -87074.237       -1587.973          22.000                                                                  
C 7  36663312.844       -2005.844          -0.064          19.000                                                                                                                                  
C 8  36144006.247      -24664.990        -807.323          18.000                                                                                                                                  
C10  35844413.745      -19083.232        -700.631          16.000                                                                                                                                  
C13  36565343.340      -26591.726       -1168.784          17.000                                                                                                                                  
C19  24569336.360      -58238.536           0.022          21.000                                                                                                                                  
C20  23209773.923      -70640.897       -2228.113          20.000                                                                                                                                  
C26  24941110.443      -14939.800       -1534.105          20.000                                                                                                                                  
C29  22101839.504      -30446.322        -979.030          19.000                                                                                                                                  
C35  23805676.580      -76931.421       -2784.569          22.000                                                                                                                                  
C36  25945136.769       25062.047        2004.016          18.000                                                                                                                                  
> 2021  5 17  7 42  4.0000000  0 23                     
G 2  22789228.522     -153254.830       -2793.161          20.000                                                                  
G 6  20746010.883      -88732.556       -1628.846          24.000                                                                  
G12  24407987.843     -165237.523       -4527.339          24.000                                                                  
G14  22162881.785      116066.012        2053.736          25.000                                                                  
G17  21222446.615       -7952.810        -623.962          25.000                                                                  
G19  20464843.040      -95887.739       -1632.037          17.000                                                                  
G28  21187589.781       43479.916         754.554          27.000                                                                  
R22  20916201.627     -118673.995       -1967.814          18.000  
E12  23944299.151      -53858.090       -1429.494          17.000                                                                  
E24  24481966.477      -60816.119       -1674.056          21.000                                                                  
E25  28304978.416     -150264.428       -3697.654           9.000                                                                  
E31  24313811.646       33720.641         931.250          22.000                                                                  
J 3  39355210.485      -88660.953       -1586.733          23.000                                                                  
C 7  36663272.099       -2230.160        -224.119          21.000                                                                                                                                  
C 8  36143851.550      -25470.654        -804.118          15.000                                                                                                                                  
C10  35844280.226      -19784.846        -701.841          18.000                                                                                                                                  
C13  36565118.942      -27760.557       -1168.154          16.000                                                                                                                                  
C19  24568535.627      -62393.044           0.022          20.000                                                                                                                                  
C20  23209346.546      -72866.374       -2222.978          19.000                                                                                                                                  
C26  24940817.603      -16473.161       -1532.018          20.000                                                                                                                                  
C29  22101650.950      -31428.345        -982.580          17.000                                                                                                                                  
C35  23805142.061      -79714.948       -2780.634          22.000                                                                                                                                  
C36  25945521.712       27066.267        2004.768          20.000                                                                                                                                  
> 2021  5 17  7 42  5.0000000  0 23                     
G 2  22788697.394     -156047.312       -2791.581          17.000                                                                  
G 6  20745701.240      -90361.744       -1629.369          20.000                                                                  
G12  24407127.898     -169765.618       -4528.130          21.000                                                                  
G14  22163268.995      118122.098        2058.258          33.000                                                                  
G17  21222325.964       -8574.885        -622.106          27.000                                                                  
G19  20464544.119      -97517.978       -1628.137          16.000                                                                  
G28  21187732.189       44230.664         752.669          25.000                                                                  
R22  20915797.131     -120816.951       -1965.015          17.000  
E12  23944026.980      -55289.347       -1432.396          12.000                                                                  
E24  24481647.203      -62491.236       -1674.654          19.000                                                                  
E25  28304274.797     -153961.946       -3697.318          10.000                                                                  
E31  24313991.392       34653.822         933.512          22.000                                                                  
J 3  39354908.212      -90248.588       -1590.971          24.000                                                                  
C 7  36663232.423       -2454.908        -224.527          20.000                                                                                                                                  
C 8  36143696.627      -26274.585        -804.494          18.000                                                                                                                                  
C10  35844145.528      -20486.282        -702.003          17.000                                                                                                                                  
C13  36564894.899      -28927.465       -1167.312          16.000                                                                                                                                  
C19  24567729.621      -66545.768           0.022          18.000                                                                                                                                  
C20  23208919.631      -75089.578       -2221.965          19.000                                                                                                                                  
C26  24940524.509      -18004.410       -1531.789          18.000                                                                                                                                  
C29  22101462.666      -32408.881        -977.518          16.000                                                                                                                                  
C35  23804607.552      -82499.149       -2785.870          20.000                                                                                                                                  
C36  25945907.319       29070.203        2004.057          17.000                                                                                                                                  
> 2021  5 17  7 42  6.0000000  0 23                     
G 2  22788166.314     -158838.001       -2788.583          19.000                                                                  
G 6  20745391.984      -91991.751       -1631.014          20.000                                                                  
G12  24406267.001     -174293.490       -4528.021          19.000                                                                  
G14  22163656.401      120181.806        2058.698          29.000                                                                  
G17  21222206.205       -9197.102        -623.723          23.000                                                                  
G19  20464234.613      -99144.687       -1626.541          17.000                                                                  
G28  21187875.203       44984.513         758.066          28.000                                                                  
R22  20915395.876     -122958.977       -1965.816          17.000  
E12  23943754.905      -56718.784       -1429.608          19.000                                                                  
E24  24481328.689      -64165.181       -1673.419          18.000                                                                  
E25  28303571.274     -157659.011       -3697.160          10.000                                                                  
E31  24314170.340       35588.047         933.651          26.000                                                                  
J 3  39354605.774      -91838.437       -1589.322          20.000                                                                  
C 7  36663193.288       -2680.052        -225.275          23.000                                                                                                                                  
C 8  36143540.998      -27078.857        -803.008          18.000                                                                                                                                  
C10  35844010.522      -21189.580        -704.007          16.000                                                                                                                                  
C13  36564671.832      -30092.978       -1164.606          17.000                                                                                                                                  
C19  24566927.317      -70698.033       -4151.081          19.000                                                                                                                                  
C20  23208492.912      -77312.110       -2222.997          18.000                                                                                                                                  
C26  24940231.899      -19534.843       -1529.426          22.000                                                                                                                                  
C29  22101286.572      -33386.721        -976.554          21.000                                                                                                                                  
C35  23804073.277      -85283.359       -2784.150          17.000                                                                                                                                  
C36  25946292.139       31074.100        2004.267          18.000                                                                                                                                  
> 2021  5 17  7 42  7.0000000  0 23                     
G 2  22787635.382     -161628.384       -2791.201          17.000                                                                  
G 6  20745084.102      -93621.304       -1630.555          30.000                                                                  
G12  24405405.704     -178820.628       -4526.850          17.000                                                                  
G14  22164046.452      122241.640        2061.785          28.000                                                                  
G17  21222086.968       -9820.465        -621.832          20.000                                                                  
G19  20463924.925     -100772.197       -1628.996          18.000                                                                  
G28  21188020.389       45740.424         752.757          24.000                                                                  
R22  20914994.600     -125101.123       -1965.016          15.000  
E12  23943483.170      -58146.146       -1425.190          21.000                                                                  
E24  24481010.531      -65838.333       -1670.573          20.000                                                                  
E25  28302867.738     -161356.120       -3697.047           9.000                                                                  
E31  24314351.735       36523.721         935.766          25.000                                                                  
J 3  39354303.601      -93426.569       -1589.987          18.000                                                                  
C 7  36663149.904       -2906.768        -226.143          20.000                                                                                                                                  
C 8  36143386.799      -27882.191        -803.540          19.000                                                                                                                                  
C10  35843875.137      -21892.234        -701.476          19.000                                                                                                                                  
C13  36564447.806      -31257.628       -1164.835          19.000                                                                                                                                  
C19  24566130.330      -74848.200       -4151.358          17.000                                                                                                                                  
C20  23208066.076      -79533.786       -2222.220          18.000                                                                                                                                  
C26  24939939.385      -21064.428       -1529.317          23.000                                                                                                                                  
C29  22101098.731      -34363.401        -976.192          20.000                                                                                                                                  
C35  23803538.655      -88067.463       -2783.050          18.000                                                                                                                                  
C36  25946677.021       33078.048        2003.694          15.000                                                                                                                                  
> 2021  5 17  7 42  8.0000000  0 23                     
G 2  22787103.879     -164421.458       -2793.853          18.000                                                                  
G 6  20744773.262      -95251.183       -1629.586          29.000                                                                  
G12  24404544.189     -183347.950       -4528.045          18.000                                                                  
G14  22164435.488      124300.468        2061.170          26.000                                                                  
G17  21221968.363      -10441.970        -621.774          20.000                                                                  
G19  20463617.405     -102401.655       -1627.948          19.000                                                                  
G28  21188163.716       46494.497         755.293          29.000                                                                  
R22  20914599.745     -127241.696       -1963.172          19.000  
E12  23943212.456      -59572.283       -1426.820          21.000                                                                  
E24  24480692.244      -67512.785       -1674.884          23.000                                                                  
E25  28302164.250     -165052.966       -3696.881           9.000                                                                  
E31  24314530.019       37457.495         936.013          21.000                                                                  
J 3  39354000.857      -95018.120       -1589.832          18.000                                                                  
C 7  36663103.841       -3132.095        -223.749          25.000                                                                                                                                  
C 8  36143231.296      -28686.205        -803.156          17.000                                                                                                                                  
C10  35843742.952      -22592.188        -699.685          18.000                                                                                                                                  
C13  36564223.574      -32423.865       -1164.658          23.000                                                                                                                                  
C19  24565333.126      -78999.613           0.022          17.000                                                                                                                                  
C20  23207639.688      -81754.575       -2219.923          18.000                                                                                                                                  
C26  24939646.418      -22593.249       -1530.188          21.000                                                                                                                                  
C29  22100912.101      -35337.946        -974.424          17.000                                                                                                                                  
C35  23803008.652      -90851.216       -2783.491          19.000                                                                                                                                  
C36  25947061.773       35081.490        2002.244          14.000                                                                                                                                  
> 2021  5 17  7 42  9.0000000  0 23                     
G 2  22786582.951     -167214.887       -2792.797          17.000                                                                  
G 6  20744464.360      -96880.169       -1631.050          26.000                                                                  
G12  24403683.368     -187875.574       -4528.102          20.000                                                                  
G14  22164827.082      126358.273        2060.671          28.000                                                                  
G17  21221850.241      -11063.589        -624.045          20.000                                                                  
G19  20463322.034     -104030.117       -1627.211          17.000                                                                  
G28  21188308.858       47251.433         757.369          24.000                                                                  
R22  20914208.625     -129381.390       -1963.108          18.000  
E12  23942940.477      -61000.115       -1428.347          21.000                                                                  
E24  24480373.188      -69187.625       -1675.875          25.000                                                                  
E25  28461568.558     -168749.354       -3696.761           8.000                                                                  
E31  24314708.234       38394.249         935.379          26.000                                                                  
J 3  39353698.589      -96605.294       -1586.346          18.000                                                                  
C 7  36663060.021       -3358.684        -230.537          24.000                                                                                                                                  
C 8  36143077.533      -29488.723        -801.539          16.000                                                                                                                                  
C10  35843609.904      -23289.680        -696.265          17.000                                                                                                                                  
C13  36563999.470      -33589.949       -1167.607          20.000                                                                                                                                  
C19  24564529.832      -83151.672           0.022          17.000                                                                                                                                  
C20  23207213.480      -83973.388       -2219.525          19.000                                                                                                                                  
C26  24939352.892      -24122.386       -1530.285          21.000                                                                                                                                  
C29  22100724.983      -36312.471        -974.607          14.000                                                                                                                                  
C35  23802471.258      -93634.260       -2785.288          25.000                                                                                                                                  
C36  25947447.052       37083.441           0.001          13.000                                                                                                                                  
> 2021  5 17  7 42 10.0000000  0 23                     
G 2  22786051.225     -170009.355       -2795.074          18.000                                                                  
G 6  20744155.025      -98509.755       -1630.098          25.000                                                                  
G12  24402822.006     -192403.584       -4527.688          17.000                                                                  
G14  22165215.456      128418.598        2062.073          34.000                                                                  
G17  21221732.291      -11686.629        -623.139          19.000                                                                  
G19  20463014.099     -105658.595       -1626.929          18.000                                                                  
G28  21188452.526       48007.476         756.095          28.000                                                                  
R22  20913806.101     -131521.649       -1964.303          20.000  
E12  23942668.760      -62428.361       -1427.575          20.000                                                                  
E24  24480055.005      -70861.080       -1674.011          26.000                                                                  
E25  28460865.122     -172445.958       -3696.514           7.000                                                                  
E31  24314889.821       39329.675         935.595          29.000                                                                  
J 3  39353397.529      -98194.248       -1588.250          19.000                                                                  
C 7  36663016.082       -3587.798        -228.817          22.000                                                                                                                                  
C 8  36142923.644      -30290.342        -801.915          16.000                                                                                                                                  
C10  35843474.610      -23985.942        -696.473          18.000                                                                                                                                  
C13  36563775.155      -34757.086       -1168.368          17.000                                                                                                                                  
C19  24563720.482      -87304.409           0.022          19.000                                                                                                                                  
C20  23206787.625      -86192.860       -2219.513          19.000                                                                                                                                  
C26  24939059.798      -25650.464       -1528.268          22.000                                                                                                                                  
C29  22100537.572      -37286.501        -973.298          17.000                                                                                                                                  
C35  23801937.460      -96419.759       -2783.279          23.000                                                                                                                                  
C36  25947831.240       39083.797           0.001          13.000                                                                                                                                  
> 2021  5 17  7 42 11.0000000  0 23                     
G 2  22785524.600     -172802.374       -2791.947          19.000                                                                  
G 6  20743844.233     -100137.687       -1629.245          25.000                                                                  
G12  24401960.647     -196929.953       -4526.335          17.000                                                                  
G14  22165604.090      130478.749        2058.375          37.000                                                                  
G17  21221612.634      -12309.286        -622.827          20.000                                                                  
G19  20462693.893     -107285.622       -1625.710          16.000                                                                  
G28  21188596.311       48762.275         753.056          23.000                                                                  
R22  20913401.238     -133661.320       -1962.874          19.000  
E12  23942396.829      -63857.705       -1430.501          18.000                                                                  
E24  24479736.874      -72534.896       -1677.802          20.000                                                                  
E25  28460161.699     -176142.468       -3696.378           8.000                                                                  
E31  24315068.982       40265.352         936.023          25.000                                                                  
J 3  39353093.712      -99783.833       -1590.359          16.000                                                                  
C 7  36662972.101       -3815.546        -228.022          23.000                                                                                                                                  
C 8  36142767.639      -31092.808        -802.327          17.000                                                                                                                                  
C10  35843340.759      -24683.107        -698.075          17.000                                                                                                                                  
C13  36563552.289      -35923.791       -1165.231          20.000                                                                                                                                  
C19  24562917.471      -91458.408       -4155.274          20.000                                                                                                                                  
C20  23206361.504      -88411.866       -2220.221          20.000                                                                                                                                  
C26  24938767.150      -27179.353       -1529.601          22.000                                                                                                                                  
C29  22100350.841      -38259.167        -972.919          18.000                                                                                                                                  
C35  23801403.190      -99203.612       -2785.963          22.000                                                                                                                                  
C36  25948216.951       41085.662           0.001          14.000                                                                                                                                  
> 2021  5 17  7 42 12.0000000  0 23                     
G 2  22784993.197     -175595.129       -2792.846          19.000                                                                  
G 6  20743534.908     -101767.863       -1628.050          29.000                                                                  
G12  24401100.096     -201456.077          -0.012          16.000                                                                  
G14  22165995.645      132540.096        2059.459          36.000                                                                  
G17  21221494.226      -12931.844        -623.050          19.000                                                                  
G19  20462381.203     -108912.472       -1627.877          21.000                                                                  
G28  21188738.818       49516.753         752.679          33.000                                                                  
R22  20913007.238     -135801.206       -1962.966          21.000  
E12  23942125.295      -65287.696       -1428.326          22.000                                                                  
E24  24479418.303      -74210.759       -1673.082          25.000                                                                  
E25  28459458.386     -179838.357       -3695.417           5.000                                                                  
E31  24315247.882       41201.756         937.335          22.000                                                                  
J 3  39352790.698     -101375.078       -1591.661          19.000                                                                  
C 7  36662928.446       -4042.771        -228.064          19.000                                                                                                                                  
C 8  36142613.588      -31895.087        -800.945          17.000                                                                                                                                  
C10  35843206.686      -25381.510        -698.133          19.000                                                                                                                                  
C13  36563328.599      -37088.841       -1164.642          18.000                                                                                                                                  
C19  24562110.385      -95613.634       -4154.662          22.000                                                                                                                                  
C20  23205934.745      -90634.386       -2223.162          17.000                                                                                                                                  
C26  24938473.968      -28707.203       -1527.289          26.000                                                                                                                                  
C29  22100164.390      -39232.651        -973.482          18.000                                                                                                                                  
C35  23800868.122     -101989.140       -2786.708          23.000                                                                                                                                  
C36  25948601.545       43088.407           0.001          14.000                                                                                                                                  
> 2021  5 17  7 42 13.0000000  0 18                     
G 2  22784466.547     -178387.817       -2794.768          18.000                                                                  
G 6  20743224.121     -103397.397       -1630.058          24.000                                                                  
G12  24400238.707     -205982.657          -0.012          16.000                                                                  
G14  22166389.333      134600.114        2060.807          25.000                                                                  
G17  21221375.373      -13554.328        -623.288          20.000                                                                  
G19  20462054.597     -110540.300       -1628.068          18.000                                                                  
G28  21188885.400       50270.591         752.770          25.000                                                                  
R22  20912605.028     -137940.669       -1962.236          23.000  
E12  23941854.341      -66715.006       -1428.022          20.000                                                                  
E24  24479099.876      -75883.933       -1670.895          26.000                                                                  
E31  24315426.817       42137.874         937.463          21.000                                                                  
C10  35843075.341      -26080.448        -697.995          18.000                                                                                                                                  
C13  36563105.334      -38255.304       -1165.968          19.000                                                                                                                                  
C19  24561309.720      -99766.977       -4151.718          22.000                                                                                                                                  
C20  23205508.079      -92855.370       -2218.322          17.000                                                                                                                                  
C26  24938180.198      -30236.038       -1525.446          24.000                                                                                                                                  
C29  22099977.301      -40207.120        -976.420          15.000                                                                                                                                  
C35  23800332.514     -104777.079       -2786.224          23.000                                                                                                                                  
> 2021  5 17  7 42 14.0000000  0 18                     
G 2  22783929.438     -181182.254       -2794.580          20.000                                                                  
G 6  20742914.328     -105026.394       -1623.950          25.000                                                                  
G12  24399377.143     -210510.084          -0.012          14.000                                                                  
G14  22166780.835      136662.531        2061.162          33.000                                                                  
G17  21221256.995      -14176.717        -622.626          17.000                                                                  
G19  20461744.921     -112167.580       -1627.203          17.000                                                                  
G28  21189028.880       51024.311         755.775          30.000                                                                  
R22  20912198.669     -140079.889       -1961.185          25.000  
E12  23941583.116      -68140.931       -1426.887          19.000                                                                  
E24  24478781.968      -77557.115       -1673.997          22.000                                                                  
E31  24315605.293       43074.067         935.447          22.000                                                                  
C10  35842938.593      -26780.818        -700.739          16.000                                                                                                                                  
C13  36562882.024      -39420.620       -1164.256          19.000                                                                                                                                  
C19  24560499.550     -103919.424       -4155.439          24.000                                                                                                                                  
C20  23205081.841      -95075.266       -2220.870          18.000                                                                                                                                  
C26  24937886.467      -31764.545       -1527.026          25.000                                                                                                                                  
C29  22099789.681      -41184.407        -977.961          14.000                                                                                                                                  
C35  23799798.707     -107564.894       -2786.412          27.000                                                                                                                                  
> 2021  5 17  7 42 15.0000000  0 20                     
G 2  22783410.006     -183975.476       -2792.822          21.000                                                                  
G 6  20742604.126     -106651.925       -1627.463          25.000                                                                  
G12  24398515.611     -215037.521          -0.012          15.000                                                                  
G14  22167173.217      138724.172        2062.336          25.000                                                                  
G17  21221140.731      -14797.154        -619.311          18.000                                                                  
G19  20461441.340     -113794.169       -1626.692          18.000                                                                  
G28  21189172.308       51780.562         754.622          27.000                                                                  
R22  20911797.772     -142220.725       -1963.961          21.000  
E12  23941311.224      -69568.664       -1427.499          20.000                                                                  
E24  24478463.292      -79235.090       -1677.858          21.000                                                                  
E31  24315784.660       44009.620         935.952          27.000                                                                  
C 7  36662802.521        -486.794        -225.271          23.000                                                                                                                                  
C 8  36142152.257       -2291.767        -809.999          18.000                                                                                                                                  
C10  35842804.236      -27480.635        -700.057          17.000                                                                                                                                  
C13  36562658.359      -40584.360       -1164.338          19.000                                                                                                                                  
C19  24559701.211     -108073.828       -4153.997          27.000                                                                                                                                  
C20  23204654.694      -97296.664       -2222.055          19.000                                                                                                                                  
C26  24937593.425      -33290.901       -1524.813          23.000                                                                                                                                  
C29  22099600.538      -42162.025           0.008          15.000                                                                                                                                  
C35  23799263.447     -110353.067       -2786.868          26.000                                                                                                                                  
> 2021  5 17  7 42 16.0000000  0 19                     
G 2  22782877.670     -186767.803       -2791.977          19.000                                                                  
G 6  20742294.376     -108280.913       -1627.841          25.000                                                                  
G12  24397653.887     -219566.012          -0.012          14.000                                                                  
G14  22167562.232      140784.646        2060.629          28.000                                                                  
G17  21221022.998      -15415.903        -620.808          16.000                                                                  
G19  20461124.567     -115421.990       -1627.715          20.000                                                                  
G28  21189316.364       52536.124         755.526          24.000                                                                  
R22  20911397.159     -144359.702       -1960.625          17.000  
E12  23941039.830      -70996.660       -1428.319          22.000                                                                  
E24  24478145.108      -80909.689       -1669.502          24.000                                                                  
E31  24315963.738       44943.870         934.843          20.000                                                                  
C 8  36141997.242       -3099.136        -805.470          19.000                                                                                                                                  
C10  35842669.875      -28180.349        -698.881          20.000                                                                                                                                  
C13  36562434.826      -41749.482       -1166.025          19.000                                                                                                                                  
C19  24558903.099     -112229.409       -4154.509          25.000                                                                                                                                  
C20  23204227.761      -99519.922       -2223.595          17.000                                                                                                                                  
C26  24937300.257      -34816.767       -1526.302          24.000                                                                                                                                  
C29  22099412.926      -43139.148           0.008          16.000                                                                                                                                  
C35  23798727.925     -113139.725       -2786.215          24.000                                                                                                                                  
> 2021  5 17  7 42 17.0000000  0 19                     
G 2  22782343.283     -189560.906       -2793.038          20.000                                                                  
G 6  20741983.908     -109911.794       -1633.024          23.000                                                                  
G12  24396795.901     -224094.978          -0.012          14.000                                                                  
G14  22167953.861      142843.636        2057.333          30.000                                                                  
G17  21220905.336      -16034.232        -616.453          16.000                                                                  
G19  20460814.774     -117050.036       -1629.573          17.000                                                                  
G28  21189460.018       53291.716         755.423          29.000                                                                  
R22  20910996.855     -146496.751       -1962.345          15.000  
E12  23940767.903      -72425.860       -1430.396          19.000                                                                  
E24  24477826.698      -82580.869       -1671.146          25.000                                                                  
E31  24316141.708       45878.833         934.372          22.000                                                                  
C 8  36141841.682       -3902.456        -805.431          17.000                                                                                                                                  
C10  35842534.756      -28879.759        -700.301          17.000                                                                                                                                  
C13  36562210.839      -42916.047       -1168.119          17.000                                                                                                                                  
C19  24558105.293     -116381.177       -4152.232          25.000                                                                                                                                  
C20  23203798.600     -101743.980       -2223.596          20.000                                                                                                                                  
C26  24937007.840      -36343.575       -1526.505          24.000                                                                                                                                  
C29  22099225.328      -44116.027           0.008          14.000                                                                                                                                  
C35  23798192.949     -115926.147       -2787.002          25.000                                                                                                                                  
> 2021  5 17  7 42 18.0000000  0 19                     
G 2  22781810.161     -192354.759       -2794.499          20.000                                                                  
G 6  20741674.272     -111542.599       -1625.536          23.000                                                                  
G12  24395933.861     -228624.964          -0.012          16.000                                                                  
G14  22168348.653      144899.663        2050.742          25.000                                                                  
G17  21220789.667      -16650.653           0.015          16.000                                                                  
G19  20460504.959     -118678.281       -1627.468          16.000                                                                  
G28  21189604.694       54048.262         755.863          29.000                                                                  
R22  20910601.377     -148635.786       -1962.875          12.000  
E12  23940495.636      -73856.513       -1429.623          19.000                                                                  
E24  24477508.406      -84253.709       -1674.012          23.000                                                                  
E31  24316319.256       46812.110         931.969          19.000                                                                  
C 8  36141686.738       -4709.589        -807.868          17.000                                                                                                                                  
C10  35842400.329      -29579.995        -700.201          15.000                                                                                                                                  
C13  36561986.394      -44085.021       -1169.350          18.000                                                                                                                                  
C19  24557307.925     -120533.427       -4152.854          22.000                                                                                                                                  
C20  23203370.677     -103966.484       -2221.677          18.000                                                                                                                                  
C26  24936715.357      -37870.037       -1525.617          24.000                                                                                                                                  
C29  22099038.522      -45092.011        -976.031          13.000                                                                                                                                  
C35  23797658.449     -118710.943       -2786.053          23.000                                                                                                                                  
> 2021  5 17  7 42 19.0000000  0 20                     
G 2  22781272.651     -195150.039       -2795.091          21.000                                                                  
G 6  20741365.453     -113169.025       -1629.545          24.000                                                                  
G12  24395072.255     -233152.556          -0.012          17.000                                                                  
G14  22168739.691      146955.109        2057.347          26.000                                                                  
G17  21220671.769      -17270.584           0.015          16.000                                                                  
G19  20460204.681     -120306.026       -1628.559          15.000                                                                  
G28  21189746.843       54800.562         752.753          28.000                                                                  
R22  20910200.772     -150774.952       -1963.080          13.000  
E12  23940223.016      -75285.938       -1429.808          20.000                                                                  
E24  24477190.385      -85929.386       -1675.034          23.000                                                                  
E31  24316496.478       47743.453         929.560          18.000                                                                  
C 7  36662614.339        -645.219        -226.380          22.000                                                                                                                                  
C 8  36141531.330       -5519.182        -809.546          19.000                                                                                                                                  
C10  35842265.741      -30280.870        -700.380          15.000                                                                                                                                  
C13  36561765.639      -45253.422       -1167.328          17.000                                                                                                                                  
C19  24556509.333     -124687.596       -4154.067          23.000                                                                                                                                  
C20  23202944.062     -106187.700       -2220.405          19.000                                                                                                                                  
C26  24936422.542      -39398.788       -1528.323          21.000                                                                                                                                  
C29  22098851.120      -46067.967        -976.667          14.000                                                                                                                                  
C35  23797123.677     -121497.180       -2786.915          24.000                                                                                                                                  
> 2021  5 17  7 42 20.0000000  0 20                     
G 2  22780740.917     -197944.672       -2794.728          20.000                                                                  
G 6  20741054.905     -114799.254       -1630.209          22.000                                                                  
G12  24394225.031     -237678.302          -0.012          17.000                                                                  
G14  22169133.329      149010.413        2054.844          26.000                                                                  
G17  21220558.844      -17890.098        -617.734          15.000                                                                  
G19  20459894.975     -121933.774       -1628.090          14.000                                                                  
G28  21189890.235       55559.235         759.367          37.000                                                                  
R22  20909799.967     -152914.815       -1963.500          10.000  
E12  23939950.740      -76716.717       -1429.438          19.000                                                                  
E24  24476871.932      -87602.099       -1672.555          23.000                                                                  
E31  24316673.663       48676.881         933.481          21.000                                                                  
C 7  36662566.824        -872.084        -227.201          23.000                                                                                                                                  
C 8  36141372.381       -6326.749        -806.889          18.000                                                                                                                                  
C10  35842133.500      -30981.106        -700.853          18.000                                                                                                                                  
C13  36561541.426      -46421.165       -1168.807          17.000                                                                                                                                  
C19  24555711.409     -128841.981       -4154.729          18.000                                                                                                                                  
C20  23202516.296     -108408.153       -2221.786          19.000                                                                                                                                  
C26  24936129.247      -40926.213       -1525.960          21.000                                                                                                                                  
C29  22098661.837      -47044.770           0.008          15.000                                                                                                                                  
C35  23796588.601     -124283.728       -2789.096          20.000                                                                                                                                  
> 2021  5 17  7 42 21.0000000  0 20                     
G 2  22780213.004     -200737.128       -2793.322          17.000                                                                  
G 6  20740744.350     -116431.655       -1633.246          25.000                                                                  
G12  24393363.835     -242204.117          -0.012          17.000                                                                  
G14  22169524.303      151064.904        2058.420          26.000                                                                  
G17  21220441.237      -18508.425        -619.087          13.000                                                                  
G19  20459585.212     -123561.670       -1627.572          15.000                                                                  
G28  21190033.807       56316.296         755.202          28.000                                                                  
R22  20909399.140     -155054.352          -0.003          12.000  
E12  23939679.271      -78146.333       -1430.726          20.000                                                                  
E24  24476554.098      -89275.176       -1675.107          21.000                                                                  
E31  24316851.973       49613.363         935.803          22.000                                                                  
C 7  36662523.596       -1097.231        -221.238          18.000                                                                                                                                  
C 8  36141219.277       -7134.538        -806.641          19.000                                                                                                                                  
C10  35842001.326      -31681.087        -700.641          17.000                                                                                                                                  
C13  36561316.888      -47590.461       -1169.442          17.000                                                                                                                                  
C19  24554913.668     -132996.073       -4154.374          17.000                                                                                                                                  
C20  23202088.954     -110630.561       -2220.620          18.000                                                                                                                                  
C26  24935836.459      -42453.032       -1526.902          21.000                                                                                                                                  
C29  22098474.021      -48022.983           0.008          16.000                                                                                                                                  
C35  23796052.790     -127072.665       -2789.927          20.000                                                                                                                                  
> 2021  5 17  7 42 22.0000000  0 20                     
G 2  22779679.498     -203531.707       -2797.025          18.000                                                                  
G 6  20740435.037     -118059.748       -1629.417          26.000                                                                  
G12  24392510.422     -246730.992       -4526.208          17.000                                                                  
G14  22169914.427      153122.256        2058.176          24.000                                                                  
G17  21220323.409      -19127.852        -619.321          15.000                                                                  
G19  20459272.849     -125188.814           0.003          16.000                                                                  
G28  21190179.713       57071.733         756.545          29.000                                                                  
R22  20908998.984     -157191.089          -0.003          13.000  
E12  23939407.393      -79575.647       -1429.886          19.000                                                                  
E24  24476235.478      -90950.231       -1674.755          20.000                                                                  
E31  24317030.040       50548.340         932.240          20.000                                                                  
C 7  36662481.922       -1320.521        -226.020          19.000                                                                                                                                  
C 8  36141064.463       -7940.795        -806.108          17.000                                                                                                                                  
C10  35841867.052      -32380.511        -698.784          15.000                                                                                                                                  
C13  36561089.839      -48760.262       -1169.744          18.000                                                                                                                                  
C19  24554116.819     -137149.997       -4153.087          17.000                                                                                                                                  
C20  23201661.712     -112852.759       -2222.785          18.000                                                                                                                                  
C26  24935543.426      -43980.204       -1528.117          17.000                                                                                                                                  
C29  22098286.195      -49001.188           0.008          14.000                                                                                                                                  
C35  23795517.264     -129861.902       -2790.171          20.000                                                                                                                                  
> 2021  5 17  7 42 23.0000000  0 20                     
G 2  22779151.363     -206326.405       -2795.516          18.000                                                                  
G 6  20740122.928     -119690.254       -1632.067          29.000                                                                  
G12  24391649.111     -251256.995       -4526.012          17.000                                                                  
G14  22170302.647      155181.010        2059.469          23.000                                                                  
G17  21220205.480      -19747.738           0.015          14.000                                                                  
G19  20458963.313     -126815.412           0.003          16.000                                                                  
G28  21190322.809       57826.807         757.087          21.000                                                                  
R22  20908598.428     -159330.041          -0.003          13.000  
E12  23939134.873      -81007.304       -1433.854          18.000                                                                  
E24  24475917.347      -92625.458       -1673.666          21.000                                                                  
E31  24317207.792       51480.675         932.651          21.000                                                                  
C 7  36662438.621       -1546.096        -226.022          19.000                                                                                                                                  
C 8  36140912.319       -8748.327        -807.886          20.000                                                                                                                                  
C10  35841732.782      -33079.982        -699.312          16.000                                                                                                                                  
C13  36560869.176      -49928.671       -1167.199          17.000                                                                                                                                  
C19  24553319.157     -141303.913       -4153.829          15.000                                                                                                                                  
C20  23201235.805     -115074.310       -2220.290          19.000                                                                                                                                  
C26  24935249.905      -45508.811       -1527.660          17.000                                                                                                                                  
C29  22098096.367      -49978.214        -977.453          18.000                                                                                                                                  
C35  23794981.577     -132651.588       -2789.848          19.000                                                                                                                                  
> 2021  5 17  7 42 24.0000000  0 20                     
G 2  22778619.843     -209119.835       -2792.351          17.000                                                                  
G 6  20739811.717     -121318.586       -1629.572          26.000                                                                  
G12  24390787.682     -255783.817       -4526.486          14.000                                                                  
G14  22170697.582      157242.634        2060.375          25.000                                                                  
G17  21220087.460      -20368.100           0.015          14.000                                                                  
G19  20458649.411     -128442.180       -1627.383          16.000                                                                  
G28  21190469.395       58584.244         758.389          30.000                                                                  
R22  20908197.827     -161469.287          -0.003          14.000  
E12  23938862.339      -82439.854       -1429.430          16.000                                                                  
E24  24475599.081      -94297.942       -1674.010          18.000                                                                  
E31  24317386.098       52413.082         935.242          21.000                                                                  
C 7  36662397.793       -1773.011        -227.558          18.000                                                                                                                                  
C 8  36140757.727       -9556.540        -808.001          20.000                                                                                                                                  
C10  35841602.814      -33779.187        -699.493          22.000                                                                                                                                  
C13  36560653.587      -51095.519       -1166.896          23.000                                                                                                                                  
C19  24552521.429     -145457.926       -4152.604          16.000                                                                                                                                  
C20  23200809.592     -117295.278       -2220.824          20.000                                                                                                                                  
C26  24934957.766      -47035.604       -1527.278          17.000                                                                                                                                  
C29  22097903.066      -50955.142        -977.448          18.000                                                                                                                                  
C35  23794445.846     -135442.152       -2790.690          20.000                                                                                                                                  
> 2021  5 17  7 42 25.0000000  0 20                     
G 2  22778089.792     -211913.427       -2794.595          19.000                                                                  
G 6  20739501.659     -122949.126       -1629.614          25.000                                                                  
G12  24389936.262     -260310.518          -0.012          15.000                                                                  
G14  22171088.147      159302.010        2059.791          29.000                                                                  
G17  21219969.501      -20988.254           0.015          13.000                                                                  
G19  20458339.753     -130069.630       -1627.278          15.000                                                                  
G28  21190613.926       59342.779         759.711          27.000                                                                  
R22  20907797.153     -163608.806          -0.003          15.000  
E12  23938590.338      -83870.032       -1431.270          13.000                                                                  
E24  24475281.025      -95971.322       -1673.113          18.000                                                                  
E31  24317564.117       53347.271         933.715          18.000                                                                  
C 7  36662352.215       -2002.268        -230.386          18.000                                                                                                                                  
C 8  36140602.407      -10364.832        -809.534          20.000                                                                                                                                  
C10  35841467.406      -34478.732        -698.219          20.000                                                                                                                                  
C13  36560429.190      -52261.580       -1166.042          19.000                                                                                                                                  
C19  24551723.133     -149610.653       -4151.779          16.000                                                                                                                                  
C20  23200383.047     -119516.621       -2222.299          19.000                                                                                                                                  
C26  24934664.690      -48561.936       -1527.366          16.000                                                                                                                                  
C29  22097714.106      -51931.982        -975.901          19.000                                                                                                                                  
C35  23793909.527     -138234.783       -2792.151          18.000                                                                                                                                  
> 2021  5 17  7 42 26.0000000  0 20                     
G 2  22777558.808     -214706.035       -2791.561          19.000                                                                  
G 6  20739192.547     -124578.677       -1631.065          28.000                                                                  
G12  24389074.829     -264837.517          -0.012          17.000                                                                  
G14  22171480.042      161360.240        2062.662          27.000                                                                  
G17  21219851.529      -21608.301           0.015          14.000                                                                  
G19  20458030.156     -131696.817       -1626.560          17.000                                                                  
G28  21190757.721       60100.759         762.123          26.000                                                                  
R22  20907396.243     -165748.767          -0.003          14.000  
E12  23938318.012      -85300.788       -1430.990          15.000                                                                  
E24  24474963.165      -97642.648       -1674.547          19.000                                                                  
E31  24317742.358       54280.309         934.011          19.000                                                                  
C 7  36662307.862       -2233.270        -228.919          18.000                                                                                                                                  
C 8  36140447.471      -11173.795        -809.930          21.000                                                                                                                                  
C10  35841334.576      -35177.896        -699.905          17.000                                                                                                                                  
C13  36560204.601      -53428.331       -1166.911          18.000                                                                                                                                  
C19  24550925.687     -153763.305       -4153.784          17.000                                                                                                                                  
C20  23199956.189     -121738.516       -2222.314          19.000                                                                                                                                  
C26  24934371.378      -50089.437       -1527.846          16.000                                                                                                                                  
C29  22097526.652      -52908.237        -977.783          20.000                                                                                                                                  
C35  23793373.948     -141024.797       -2791.383          22.000                                                                                                                                  
> 2021  5 17  7 42 27.0000000  0 20                     
G 2  22777027.728     -217500.228       -2795.851          17.000                                                                  
G 6  20738882.802     -126209.330       -1630.716          23.000                                                                  
G12  24388219.470     -269364.133       -4526.914          14.000                                                                  
G14  22171870.687      163419.627        2058.161          24.000                                                                  
G17  21219733.677      -22227.887           0.015          15.000                                                                  
G19  20457697.712     -133324.316       -1629.191          28.000                                                                  
G28  21190899.600       60859.412         756.014          29.000                                                                  
R22  20906995.342     -167888.936          -0.003          13.000  
E12  23938052.367      -86731.216       -1431.243          13.000                                                                  
E24  24474645.117      -99315.832       -1672.651          19.000                                                                  
E31  24317919.962       55213.053         930.677          20.000                                                                  
C 7  36662260.137       -2462.995        -230.508          19.000                                                                                                                                  
C 8  36140292.203      -11983.287        -808.946          20.000                                                                                                                                  
C10  35841199.954      -35879.053        -702.832          18.000                                                                                                                                  
C13  36559980.317      -54598.223       -1171.615          17.000                                                                                                                                  
C19  24550128.217     -157917.492       -4155.101          17.000                                                                                                                                  
C20  23199529.592     -123960.201       -2222.196          18.000                                                                                                                                  
C26  24934079.750      -51618.873       -1529.149          17.000                                                                                                                                  
C29  22097334.826      -53886.551        -978.975          25.000                                                                                                                                  
C35  23792838.142     -143816.114       -2792.632          18.000                                                                                                                                  
> 2021  5 17  7 42 28.0000000  0 20                     
G 2  22776496.526     -220294.747       -2792.026          18.000                                                                  
G 6  20738574.017     -127840.006       -1629.516          25.000                                                                  
G12  24387357.999     -273891.253       -4527.674          15.000                                                                  
G14  22172263.232      165479.296        2060.573          24.000                                                                  
G17  21219616.621      -22848.705           0.015          13.000                                                                  
G19  20457382.505     -134954.002       -1629.139          31.000                                                                  
G28  21191044.650       61613.835         755.162          27.000                                                                  
R22  20906594.091     -170031.013          -0.003          15.000  
E12  23937780.131      -88161.969       -1430.660          12.000                                                                  
E24  24474328.770     -100987.548       -1673.450          21.000                                                                  
E31  24318098.953       56144.302         932.077          22.000                                                                  
C 7  36662215.968       -2691.811        -227.997          17.000                                                                                                                                  
C 8  36140136.543      -12792.997        -808.779          19.000                                                                                                                                  
C10  35841066.841      -36581.373        -703.516          18.000                                                                                                                                  
C13  36559755.505      -55769.003       -1170.405          17.000                                                                                                                                  
C19  24549330.183     -162073.103       -4155.976          16.000                                                                                                                                  
C20  23199103.341     -126179.730       -2219.292          17.000                                                                                                                                  
C26  24933786.281      -53147.098       -1528.190          16.000                                                                                                                                  
C29  22097134.729      -54865.621        -977.959          25.000                                                                                                                                  
C35  23792302.464     -146607.562       -2792.013          18.000                                                                                                                                  
> 2021  5 17  7 42 29.0000000  0 20                     
G 2  22775965.368     -223086.192       -2791.411          17.000                                                                  
G 6  20738262.646     -129471.711       -1632.284          26.000                                                                  
G12  24386496.295     -278419.487       -4528.835          16.000                                                                  
G14  22172655.031      167539.447        2059.942          21.000                                                                  
G17  21219498.426      -23470.226           0.015          13.000                                                                  
G19  20457072.202     -136581.491       -1626.084          24.000                                                                  
G28  21191187.794       62367.059         755.307          22.000                                                                  
R22  20906192.741     -172174.088          -0.003          15.000  
E12  23937508.021      -89592.075       -1430.024          11.000                                                                  
E24  24474010.662     -102660.798       -1671.444          25.000                                                                  
E31  24318277.063       57078.474         932.941          20.000                                                                  
C 7  36662172.719       -2917.054        -223.498          17.000                                                                                                                                  
C 8  36139981.764      -13600.804        -807.211          18.000                                                                                                                                  
C10  35840931.922      -37284.001        -703.330          16.000                                                                                                                                  
C13  36559530.484      -56941.144       -1172.349          16.000                                                                                                                                  
C19  24548531.779     -166230.885       -4158.403          17.000                                                                                                                                  
C20  23198677.158     -128399.063       -2219.109          15.000                                                                                                                                  
C26  24933494.278      -54673.567       -1525.226          17.000                                                                                                                                  
C29  22096947.431      -55843.958        -979.188          22.000                                                                                                                                  
C35  23791766.689     -149398.726       -2791.059          19.000                                                                                                                                  
> 2021  5 17  7 42 30.0000000  0 20                     
G 2  22775433.895     -225879.386       -2793.748          18.000                                                                  
G 6  20737951.086     -131102.356       -1627.360          28.000                                                                  
G12  24385647.723     -282949.968          -0.012          17.000                                                                  
G14  22173042.819      169599.008        2058.995          23.000                                                                  
G17  21219380.284      -24091.400           0.015          13.000                                                                  
G19  20456761.855     -138210.521       -1631.963          27.000                                                                  
G28  21191330.646       63122.765         755.897          21.000                                                                  
R22  20905791.242     -174318.286          -0.003          13.000  
E12  23937235.867      -91022.360       -1430.002          10.000                                                                  
E24  24473692.143     -104333.036       -1671.717          23.000                                                                  
E31  24318455.343       58011.458         934.497          22.000                                                                  
C 7  36662129.322       -3143.137        -226.698          18.000                                                                                                                                  
C 8  36139826.959      -14406.974        -804.752          18.000                                                                                                                                  
C10  35840796.636      -37988.704        -705.358          15.000                                                                                                                                  
C13  36559305.375      -58113.717       -1171.827          17.000                                                                                                                                  
C19  24547733.382     -170388.510           0.022          15.000                                                                                                                                  
C20  23198250.418     -130617.699       -2218.229          18.000                                                                                                                                  
C26  24933201.542      -56198.018       -1522.812          15.000                                                                                                                                  
C29  22096759.033      -56823.128        -979.318          22.000                                                                                                                                  
C35  23791231.417     -152187.855       -2785.675          18.000                                                                                                                                  
> 2021  5 17  7 42 31.0000000  0 20                     
G 2  22774915.737     -228674.281       -2796.011          17.000                                                                  
G 6  20737641.446     -132728.477       -1625.963          27.000                                                                  
G12  24384807.341     -287483.872          -0.012          17.000                                                                  
G14  22173431.516      171657.643        2057.904          20.000                                                                  
G17  21219261.823      -24713.907           0.015          14.000                                                                  
G19  20456450.412     -139841.430       -1628.705          29.000                                                                  
G28  21191473.777       63879.446         756.509          23.000                                                                  
R22  20905389.638     -176462.917          -0.003          12.000  
E12  22376060.348      -92453.397       -1430.593           7.000                                                                  
E24  24473374.431     -106005.181       -1671.644          22.000                                                                  
E31  24318633.942       58944.092         931.120          24.000                                                                  
C 7  36662086.456       -3371.065        -227.257          17.000                                                                                                                                  
C 8  36139672.393      -15211.967        -803.775          17.000                                                                                                                                  
C10  35840661.192      -38696.219           0.007          14.000                                                                                                                                  
C13  36559080.014      -59285.922       -1170.930          17.000                                                                                                                                  
C19  24546935.043     -174545.832           0.022          14.000                                                                                                                                  
C20  23197824.344     -132836.447       -2221.185          16.000                                                                                                                                  
C26  24932909.311      -57719.942       -1522.805          13.000                                                                                                                                  
C29  22096570.484      -57802.558        -979.802          22.000                                                                                                                                  
C35  23790696.576     -154973.676       -2786.351          17.000                                                                                                                                  
> 2021  5 17  7 42 32.0000000  0 20                     
G 2  22774383.436     -231471.716       -2796.136          17.000                                                                  
G 6  20737332.518     -134354.683       -1626.633          25.000                                                                  
G12  24383944.731     -292016.985          -0.012          17.000                                                                  
G14  22173823.880      173717.791        2060.553          23.000                                                                  
G17  21219143.659      -25335.094           0.015          14.000                                                                  
G19  20456140.432     -141469.680       -1628.151          21.000                                                                  
G28  21191618.758       64637.028         757.480          21.000                                                                  
R22  20904987.406     -178610.301          -0.003          14.000  
E12  23936704.425      -93884.402       -1431.003           9.000                                                                  
E24  24473055.764     -107675.696       -1668.619          25.000                                                                  
E31  24318812.894       59877.379         934.662          28.000                                                                  
C 7  36662042.689       -3599.189        -227.959          16.000                                                                                                                                  
C 8  36139518.565      -16017.813        -807.383          16.000                                                                                                                                  
C10  35840525.156      -39404.747           0.007          15.000                                                                                                                                  
C13  36558855.485      -60455.432       -1169.471          19.000                                                                                                                                  
C19  24546136.717     -178703.153           0.022          14.000                                                                                                                                  
C20  23197398.106     -135056.309       -2218.811          17.000                                                                                                                                  
C26  24932619.171      -59243.811          -0.008          14.000                                                                                                                                  
C29  22096383.256      -58782.575        -979.938          23.000                                                                                                                                  
C35  23790161.808     -157760.234       -2787.643          17.000                                                                                                                                  
> 2021  5 17  7 42 33.0000000  0 20                     
G 2  22773852.910     -234266.748       -2794.895          18.000                                                                  
G 6  20737021.295     -135982.765       -1630.114          25.000                                                                  
G12  24383084.795     -296548.731          -0.012          17.000                                                                  
G14  22174213.306      175779.258        2061.687          23.000                                                                  
G17  21219025.235      -25957.785           0.015          13.000                                                                  
G19  20455830.639     -143097.697           0.003          18.000                                                                  
G28  21191764.088       65394.571         757.126          25.000                                                                  
R22  20904585.318     -180757.239          -0.003          14.000  
E12  23936432.062      -95315.714       -1431.412          11.000                                                                  
E24  24472737.462     -109346.745       -1671.275          25.000                                                                  
E31  24318990.991       60810.211         932.855          20.000                                                                  
C 7  36661999.370       -3826.831        -228.034          15.000                                                                                                                                  
C 8  36139363.494      -16825.462        -807.566          16.000                                                                                                                                  
C10  35840389.517      -40111.214           0.007          17.000                                                                                                                                  
C13  36558632.458      -61625.416       -1170.253          19.000                                                                                                                                  
C19  24545338.505     -182859.882           0.022          15.000                                                                                                                                  
C20  23196968.726     -137272.426       -2216.677          20.000                                                                                                                                  
C26  24932326.592      -60767.543          -0.008          13.000                                                                                                                                  
C29  22096195.186      -59762.134        -979.360          19.000                                                                                                                                  
C35  23789626.283     -160548.994       -2790.047          17.000                                                                                                                                  
> 2021  5 17  7 42 34.0000000  0 20                     
G 2  22773321.354     -237060.215       -2793.145          17.000                                                                  
G 6  20736711.541     -137613.830       -1630.860          20.000                                                                  
G12  24382222.302     -301081.336          -0.012          16.000                                                                  
G14  22174603.792      177838.324        2056.239          26.000                                                                  
G17  21218906.556      -26581.795           0.015          16.000                                                                  
G19  20455520.440     -144728.268           0.003          18.000                                                                  
G28  21191906.865       66151.962         759.012          22.000                                                                  
R22  20904182.624     -182907.465          -0.003          14.000  
E12  23936159.664      -96747.210       -1431.722          10.000                                                                  
E24  24472419.546     -111018.402       -1671.984          24.000                                                                  
E31  24319169.336       61742.020         930.711          24.000                                                                  
C 7  36661955.362       -4056.154        -230.518          16.000                                                                                                                                  
C 8  36139208.292      -17633.985        -809.092          14.000                                                                                                                                  
C10  35840254.433      -40817.344        -704.386          17.000                                                                                                                                  
C13  36558406.892      -62796.911       -1170.117          19.000                                                                                                                                  
C19  24544540.143     -187017.336           0.022          17.000                                                                                                                                  
C20  23196542.788     -139490.686       -2218.622          19.000                                                                                                                                  
C26  24932034.222      -62291.916          -0.008          13.000                                                                                                                                  
C29  22096007.134      -60742.228        -979.213          20.000                                                                                                                                  
C35  23789090.307     -163340.101       -2791.861          17.000                                                                                                                                  
> 2021  5 17  7 42 35.0000000  0 19                     
G 2  22772789.690     -239854.108       -2793.583          17.000                                                                  
G 6  20736402.350     -139244.623       -1629.963          22.000                                                                  
G12  24381361.690     -305613.134       -4532.325          17.000                                                                  
G14  22174995.381      179896.979        2058.868          28.000                                                                  
G17  21218791.874      -27205.357        -622.875          16.000                                                                  
G19  20455204.460     -146360.133       -1630.549          23.000                                                                  
G28  21192052.762       66909.663         756.968          20.000                                                                  
R22  20903779.642     -185059.024          -0.003          14.000  
E12  23935887.218      -98178.933       -1431.873          10.000                                                                  
E24  24472101.001     -112692.199       -1672.776          19.000                                                                  
E31  24319349.523       62671.563         928.987          21.000                                                                  
C 7  36661911.070       -4287.125        -231.019          17.000                                                                                                                                  
C 8  36139051.633      -18443.757        -810.660          16.000                                                                                                                                  
C10  35840121.581      -41521.757        -704.327          17.000                                                                                                                                  
C13  36558181.321      -63968.434       -1172.076          21.000                                                                                                                                  
C20  23196114.629     -141708.836       -2216.684          17.000                                                                                                                                  
C26  24931741.569      -63816.068          -0.008          13.000                                                                                                                                  
C29  22095817.310      -61721.720        -979.105          21.000                                                                                                                                  
C35  23788554.898     -166132.530       -2792.077          15.000                                                                                                                                  
> 2021  5 17  7 42 36.0000000  0 19                     
G 2  22772266.969     -242647.009       -2793.676          18.000                                                                  
G 6  20736092.802     -140875.930       -1631.523          21.000                                                                  
G12  24380525.962     -310147.830       -4535.973          20.000                                                                  
G14  22175386.663      181956.629        2060.109          28.000                                                                  
G17  21218673.271      -27828.972        -624.767          15.000                                                                  
G19  20454892.848     -147990.652       -1628.014          20.000                                                                  
G28  21192195.638       67666.259         756.479          22.000                                                                  
R22  20903376.799     -187209.714          -0.003          15.000  
E12  23935614.729      -99610.854       -1431.917          10.000                                                                  
E24  24471782.080     -114367.792       -1676.222          19.000                                                                  
E31  24319526.647       63601.151         929.122          19.000                                                                  
C 7  36661865.505       -4517.666        -231.915          17.000                                                                                                                                  
C 8  36138896.068      -19254.057        -809.778          16.000                                                                                                                                  
C10  35839986.622      -42224.768        -701.662          16.000                                                                                                                                  
C13  36557956.492      -65141.408       -1172.205          20.000                                                                                                                                  
C20  23195687.317     -143926.870       -2219.276          17.000                                                                                                                                  
C26  24931448.383      -65342.806          -0.008          12.000                                                                                                                                  
C29  22095628.485      -62702.044        -982.589          20.000                                                                                                                                  
C35  23788018.683     -168924.973       -2793.128          16.000                                                                                                                                  
> 2021  5 17  7 42 37.0000000  0 19                     
G 2  22771737.102     -245442.425       -2796.449          21.000                                                                  
G 6  20735782.425     -142506.555       -1630.741          24.000                                                                  
G12  24379662.920     -314683.223       -4534.740          20.000                                                                  
G14  22175778.925      184015.381        2059.310          24.000                                                                  
G17  21218554.440      -28453.901        -624.725          17.000                                                                  
G19  20454582.505     -149621.784       -1632.792          18.000                                                                  
G28  21192338.559       68422.364         752.767          21.000                                                                  
R22  20902974.175     -189359.537          -0.003          16.000  
E12  23935342.183     -101043.106       -1432.745           9.000                                                                  
E24  24471464.547     -116042.276       -1674.285          20.000                                                                  
E31  24319704.373       64530.926         930.848          23.000                                                                  
C 7  36661821.741       -4750.682        -233.706          17.000                                                                                                                                  
C 8  36138737.367      -20066.225        -813.430          15.000                                                                                                                                  
C10  35839851.158      -42926.725        -702.239          16.000                                                                                                                                  
C13  36557730.032      -66315.705       -1176.741          19.000                                                                                                                                  
C20  23195261.056     -146146.474       -2217.711          18.000                                                                                                                                  
C26  24931156.803      -66872.539          -0.008          12.000                                                                                                                                  
C29  22095439.909      -63683.942        -980.909          18.000                                                                                                                                  
C35  23787482.546     -171716.942       -2790.814          15.000                                                                                                                                  
> 2021  5 17  7 42 38.0000000  0 20                     
G 2  22771212.823     -248238.479          -0.002          20.000                                                                  
G 6  20735474.373     -144135.279       -1630.467          22.000                                                                  
G12  24378811.469     -319217.779       -4535.547          18.000                                                                  
G14  22176173.729      186074.869        2059.530          29.000                                                                  
G17  21218431.067      -29078.916        -624.315          16.000                                                                  
G19  20454275.255     -151253.638       -1631.970          18.000                                                                  
G28  21192483.811       69176.885         757.402          26.000                                                                  
R22  20902577.487     -191508.820       -1971.063          16.000  
E12  22374153.113     -102476.155       -1433.408           8.000                                                                  
E24  24471146.761     -117714.405       -1672.399          19.000                                                                  
E31  24319883.504       65460.872         931.288          24.000                                                                  
C 7  36661776.804       -4984.735        -234.845          17.000                                                                                                                                  
C 8  36138581.314      -20879.000        -811.939          15.000                                                                                                                                  
C10  35839716.412      -43628.422        -700.668          14.000                                                                                                                                  
C13  36557504.173      -67490.768       -1173.866          17.000                                                                                                                                  
C19  24541346.725     -203660.160           0.022          19.000                                                                                                                                  
C20  23194834.625     -148367.200       -2221.376          17.000                                                                                                                                  
C26  24930863.172      -68401.788          -0.008          13.000                                                                                                                                  
C29  22095251.512      -64665.862        -982.649          18.000                                                                                                                                  
C35  23786948.330     -174508.379       -2792.015          16.000                                                                                                                                  
> 2021  5 17  7 42 39.0000000  0 19                     
G 2  22770675.875     -251033.578       -2794.761          20.000                                                                  
G 6  20735165.135     -145763.990       -1630.437          23.000                                                                  
G12  24377948.497     -323752.989       -4535.092          18.000                                                                  
G14  22176569.847      188131.120        2058.107          24.000                                                                  
G17  21218307.236      -29703.121        -624.272          18.000                                                                  
G19  20453964.254     -152885.292       -1631.878          24.000                                                                  
G28  21192628.940       69934.271         758.607          23.000                                                                  
R22  20902175.308     -193656.333       -1970.891          12.000  
E12  22373882.997     -103909.380       -1433.845           8.000                                                                  
E24  24470828.648     -119386.441       -1672.196          18.000                                                                  
E31  24320061.474       66390.949         933.021          23.000                                                                  
C 7  36661731.945       -5218.265        -233.270          14.000                                                                                                                                  
C 8  36138425.532      -21690.387        -810.609          16.000                                                                                                                                  
C10  35839581.772      -44329.632        -700.058          14.000                                                                                                                                  
C13  36557278.751      -68664.769       -1173.154          17.000                                                                                                                                  
C19  24540546.065     -207827.003       -4168.112          19.000                                                                                                                                  
C20  23194407.807     -150586.610       -2217.352          15.000                                                                                                                                  
C26  24930569.607      -69930.726          -0.008          11.000                                                                                                                                  
C35  23786411.813     -177302.314       -2795.055          15.000                                                                                                                                  
> 2021  5 17  7 42 40.0000000  0 19                     
G 2  22770138.670     -253830.004       -2799.897          19.000                                                                  
G 6  20734854.600     -147396.170       -1633.330          23.000                                                                  
G12  24377089.591     -328288.786       -4535.487          18.000                                                                  
G14  22176962.569      190189.084        2058.739          20.000                                                                  
G17  21218187.981      -30330.615        -628.233          19.000                                                                  
G19  20453652.973     -154517.928       -1633.095          22.000                                                                  
G28  21192770.609       70690.558         755.215          22.000                                                                  
R22  20901772.915     -195804.938       -1970.940          14.000  
E12  23934526.507     -105343.341       -1434.116          10.000                                                                  
E24  24470510.207     -121059.295       -1674.466          16.000                                                                  
E31  24320238.930       67322.710         932.389          21.000                                                                  
C 7  36661690.969       -5452.827        -235.498          15.000                                                                                                                                  
C 8  36138269.261      -22502.679        -813.090          18.000                                                                                                                                  
C10  35839447.276      -45031.119        -701.727          15.000                                                                                                                                  
C13  36557052.656      -69837.569       -1172.526          15.000                                                                                                                                  
C19  24539745.916     -211993.646           0.022          17.000                                                                                                                                  
C20  23193981.756     -152805.354       -2219.814          16.000                                                                                                                                  
C26  24930279.266      -71460.263          -0.008          12.000                                                                                                                                  
C35  23785877.853     -180097.537           0.028          15.000                                                                                                                                  
> 2021  5 17  7 42 41.0000000  0 19                     
G 2  22769606.639     -256628.731       -2796.777          19.000                                                                  
G 6  20734541.807     -149028.208       -1629.099          29.000                                                                  
G12  24376237.860     -332822.999       -4533.508          28.000                                                                  
G14  22177356.676      192249.518        2061.898          21.000                                                                  
G17  21218054.862      -30959.257        -627.288          20.000                                                                  
G19  20453342.652     -156150.814       -1632.524          24.000                                                                  
G28  21192915.014       71446.852         757.502          29.000                                                                  
R22  20901374.801     -197954.110          -0.003          17.000  
E12  23934253.586     -106777.568       -1434.444          11.000                                                                  
E24  24470190.754     -122738.062       -1681.311          13.000                                                                  
E31  24320416.460       68253.676         931.738          29.000                                                                  
C 7  36661646.005       -5687.192        -233.758          17.000                                                                                                                                  
C 8  36138105.752      -23315.071        -812.634          20.000                                                                                                                                  
C10  35839312.462      -45733.125        -701.594          17.000                                                                                                                                  
C13  36556827.592      -71009.763       -1172.220          17.000                                                                                                                                  
C19  24538946.386     -216157.145           0.022          17.000                                                                                                                                  
C20  23193557.126     -155023.918       -2216.192          15.000                                                                                                                                  
C26  24929985.492      -72990.222          -0.008          15.000                                                                                                                                  
C35  23785341.115     -182892.711           0.028          14.000                                                                                                                                  
> 2021  5 17  7 42 42.0000000  0 20                     
G 2  22769074.853     -259423.270       -2793.504          18.000                                                                  
G 6  20734232.664     -150656.202       -1623.622          28.000                                                                  
G12  24375375.323     -337357.505       -4535.200          21.000                                                                  
G14  22177751.226      194308.556        2057.393          27.000                                                                  
G17  21217926.234      -31587.024        -626.431          23.000                                                                  
G19  20453030.796     -157782.749       -1632.321          22.000                                                                  
G28  21193059.938       72202.995         757.287          23.000                                                                  
R22  20900986.617     -200103.032       -1971.750          17.000  
E12  23933980.612     -108212.191       -1434.818          11.000                                                                  
E24  24469880.149     -124419.250       -1679.933          13.000                                                                  
E31  24320594.644       69183.497         930.064          28.000                                                                  
C 7  36661602.800       -5921.654        -235.104          17.000                                                                                                                                  
C 8  36137950.511      -24126.266        -812.521          20.000                                                                                                                                  
C10  35839177.743      -46434.775        -701.174          17.000                                                                                                                                  
C13  36556600.851      -72182.017       -1171.854          18.000                                                                                                                                  
C19  24538146.857     -220320.751           0.022          17.000                                                                                                                                  
C20  23193131.468     -157240.622       -2217.463          17.000                                                                                                                                  
C26  24929694.845      -74519.584          -0.008          15.000                                                                                                                                  
C29  22094495.468       -3039.588        -979.198          16.000                                                                                                                                  
C35  23784804.389     -185687.829           0.028          16.000                                                                                                                                  
> 2021  5 17  7 42 43.0000000  0 20                     
G 2  22768542.870     -262217.775       -2795.901          19.000                                                                  
G 6  20733921.951     -152284.363       -1630.594          27.000                                                                  
G12  24374510.127     -341893.307       -4534.952          18.000                                                                  
G14  22178145.795      196364.114        2056.018          23.000                                                                  
G17  21217804.598      -32213.117        -625.952          23.000                                                                  
G19  20452720.169     -159415.359       -1631.074          19.000                                                                  
G28  21193202.079       72961.747         760.361          23.000                                                                  
R22  20900584.197     -202252.055       -1973.029          15.000  
E12  23933707.599     -109646.879       -1435.030          10.000                                                                  
E24  24469560.815     -126097.510       -1677.017          17.000                                                                  
E31  24320771.576       70113.591         930.143          22.000                                                                  
C 7  36661557.689       -6156.852        -236.065          15.000                                                                                                                                  
C 8  36137795.356      -24938.212        -812.450          20.000                                                                                                                                  
C10  35839042.047      -47137.559        -703.364          17.000                                                                                                                                  
C13  36556376.477      -73353.989       -1171.368          18.000                                                                                                                                  
C19  24537347.120     -224485.406           0.022          15.000                                                                                                                                  
C20  23192705.390     -159459.458       -2217.321          16.000                                                                                                                                  
C26  24929401.551      -76046.884          -0.008          13.000                                                                                                                                  
C29  22094307.075       -4020.792        -981.092          15.000                                                                                                                                  
C35  23784269.771     -188485.679           0.028          15.000                                                                                                                                  
> 2021  5 17  7 42 44.0000000  0 20                     
G 2  22768010.468     -265013.921       -2796.566          19.000                                                                  
G 6  20733612.799     -153913.772       -1627.147          27.000                                                                  
G12  24373646.409     -346427.155       -4531.391          18.000                                                                  
G14  22178538.106      198420.686        2057.647          20.000                                                                  
G17  21217684.086      -32837.867        -624.689          20.000                                                                  
G19  20452411.144     -161045.456       -1629.095          19.000                                                                  
G28  21193346.829       73721.991         760.305          20.000                                                                  
R22  20900181.311     -204403.047       -1974.684          15.000  
E12  23933434.520     -111082.016       -1435.363           9.000                                                                  
E24  24469242.030     -127772.766       -1674.089          19.000                                                                  
E31  24320949.149       71044.938         932.662          20.000                                                                  
C 7  36661512.416       -6392.805        -236.385          15.000                                                                                                                                  
C 8  36137639.836      -25748.972        -810.825          17.000                                                                                                                                  
C10  35838906.901      -47841.598        -704.123          13.000                                                                                                                                  
C13  36556151.830      -74523.846       -1170.370          19.000                                                                                                                                  
C19  24536547.098     -228651.352           0.022          14.000                                                                                                                                  
C20  23192279.862     -161677.227       -2218.914          17.000                                                                                                                                  
C26  24929108.335      -77573.942          -0.008          13.000                                                                                                                                  
C29  22094119.363       -4998.409        -977.397          13.000                                                                                                                                  
C35  23783732.661     -191282.784           0.028          17.000                                                                                                                                  
> 2021  5 17  7 42 45.0000000  0 20                     
G 2  22767480.845     -267812.159       -2800.536          20.000                                                                  
G 6  20733302.454     -155541.000       -1622.314          24.000                                                                  
G12  24372783.136     -350960.624       -4536.504          18.000                                                                  
G14  22178930.503      200478.279        2056.360          20.000                                                                  
G17  21217565.805      -33462.432        -625.130          22.000                                                                  
G19  20452101.242     -162674.321       -1631.719          17.000                                                                  
G28  21193495.260       74483.230         759.852          19.000                                                                  
R22  20899781.212     -206555.594          -0.003          15.000  
E12  22372244.945     -112517.807       -1435.781           8.000                                                                  
E24  24468923.664     -129445.873       -1672.445          16.000                                                                  
E31  24321127.211       71977.468         933.052          20.000                                                                  
C 7  36661468.273       -6628.796          -0.064          15.000                                                                                                                                  
C 8  36137483.936      -26561.059        -813.209          16.000                                                                                                                                  
C10  35838770.764      -48545.895           0.007          14.000                                                                                                                                  
C13  36555933.179      -75695.877       -1173.887          19.000                                                                                                                                  
C19  24535747.075     -232817.476           0.022          15.000                                                                                                                                  
C20  23191853.479     -163895.500       -2219.791          17.000                                                                                                                                  
C26  24928815.856      -79098.764          -0.008          14.000                                                                                                                                  
C29  22093934.421       -5973.133        -974.739          14.000                                                                                                                                  
C35  23783199.067     -194081.180       -2797.874          17.000                                                                                                                                  
> 2021  5 17  7 42 46.0000000  0 20                     
G 2  22766947.235     -270611.686       -2798.186          19.000                                                                  
G 6  20732993.935     -157165.992       -1625.832          21.000                                                                  
G12  24371919.063     -355497.026       -4535.693          19.000                                                                  
G14  22179322.930      202535.542        2058.923          19.000                                                                  
G17  21217447.056      -34088.263        -627.396          19.000                                                                  
G19  20451790.615     -164306.961       -1631.948          15.000                                                                  
G28  21193639.818       75242.544         758.520          21.000                                                                  
R22  20899378.374     -208706.642          -0.003          13.000  
E12  22371971.640     -113954.113       -1436.976           8.000                                                                  
E24  24468599.033     -131118.695       -1674.467          18.000                                                                  
E31  24321304.471       72911.173         933.594          23.000                                                                  
C 7  36661423.208       -6863.591          -0.064          16.000                                                                                                                                  
C 8  36137328.951      -27375.061        -813.833          16.000                                                                                                                                  
C10  35838635.565      -49250.237           0.007          17.000                                                                                                                                  
C13  36555707.755      -76870.004       -1175.913          17.000                                                                                                                                  
C19  24534947.388     -236981.714           0.022          16.000                                                                                                                                  
C20  23191426.534     -166114.879       -2219.332          17.000                                                                                                                                  
C26  24928523.111      -80623.133          -0.008          15.000                                                                                                                                  
C29  22093747.023       -6949.079        -977.644          14.000                                                                                                                                  
C35  23782662.067     -196877.716       -2796.286          15.000                                                                                                                                  
> 2021  5 17  7 42 47.0000000  0 20                     
G 2  22766415.662     -273409.258       -2796.720          20.000                                                                  
G 6  20732684.068     -158793.331       -1628.704          24.000                                                                  
G12  24371055.149     -360033.605       -4537.203          18.000                                                                  
G14  22179715.977      204595.398        2060.688          19.000                                                                  
G17  21217329.232      -34712.226        -622.941          18.000                                                                  
G19  20451476.124     -165940.828       -1635.546          12.000                                                                  
G28  21193784.855       76001.153         758.932          19.000                                                                  
R22  20898975.758     -210854.828          -0.003          13.000  
E12  22371698.221     -115391.450       -1436.579           7.000                                                                  
E24  24468280.526     -132792.428       -1675.501          14.000                                                                  
E31  24321481.621       73843.680         930.463          20.000                                                                  
C 7  36661376.967       -7097.545          -0.064          14.000                                                                                                                                  
C 8  36137172.593      -28189.398        -815.022          16.000                                                                                                                                  
C10  35838500.031      -49956.273           0.007          16.000                                                                                                                                  
C13  36555481.949      -78045.967       -1175.603          17.000                                                                                                                                  
C19  24534147.833     -241145.533           0.022          14.000                                                                                                                                  
C20  23190999.244     -168334.318       -2219.108          18.000                                                                                                                                  
C26  24928234.859      -82148.022          -0.008          15.000                                                                                                                                  
C29  22093563.303       -7925.091           0.008          13.000                                                                                                                                  
C35  23782125.294     -199673.261       -2795.699          17.000                                                                                                                                  
> 2021  5 17  7 42 48.0000000  0 19                     
G 2  22765884.556     -276205.152       -2794.646          20.000                                                                  
G 6  20732373.891     -160423.555       -1628.494          24.000                                                                  
G12  24370191.858     -364570.487       -4536.814          16.000                                                                  
G14  22180109.135      206657.760        2063.470          18.000                                                                  
G17  21217210.891      -35334.410        -622.766          16.000                                                                  
G19  20451165.214     -167574.904       -1632.901          11.000                                                                  
G28  21193929.352       76760.412         760.436          18.000                                                                  
R22  20898573.483     -213002.451          -0.003          13.000  
E12  22371424.837     -116828.133       -1436.669           7.000                                                                  
E24  24467969.542     -134466.577       -1675.049          11.000                                                                  
E31  24321658.557       74775.272         933.158          22.000                                                                  
C 7  36661332.012       -7331.673          -0.064          15.000                                                                                                                                  
C 8  36137015.794      -29006.054        -817.810          18.000                                                                                                                                  
C10  35838364.345      -50662.739        -706.424          17.000                                                                                                                                  
C13  36555253.015      -79220.866       -1174.456          18.000                                                                                                                                  
C20  23190574.287     -170551.362       -2217.497          17.000                                                                                                                                  
C26  24927941.796      -83674.355          -0.008          13.000                                                                                                                                  
C29  22093376.048       -8900.340           0.008          14.000                                                                                                                                  
C35  23781591.705     -202469.807       -2795.991          15.000                                                                                                                                  
> 2021  5 17  7 42 49.0000000  0 19                     
G 2  22765353.502     -279000.673       -2798.329          19.000                                                                  
G 6  20732065.861     -162051.909       -1626.106          23.000                                                                  
G12  24369328.620     -369106.956       -4534.996          13.000                                                                  
G14  22180502.736      208721.568        2063.030          19.000                                                                  
G17  21217092.361      -35957.563        -623.165          18.000                                                                  
G19  20450854.291     -169209.287           0.003          14.000                                                                  
G28  21194074.996       77521.302         759.786          21.000                                                                  
R22  20898171.089     -215150.532          -0.003          14.000  
E12  22371151.401     -118265.055       -1436.988           7.000                                                                  
E24  24467650.879     -136141.286       -1674.903          11.000                                                                  
E31  24321835.044       75708.714         933.355          22.000                                                                  
C 7  36661287.402       -7564.071          -0.064          14.000                                                                                                                                  
C 8  36136855.348      -29823.027        -815.887          20.000                                                                                                                                  
C10  35838228.906      -51368.314        -706.274          17.000                                                                                                                                  
C13  36555028.905      -80395.164       -1175.164          18.000                                                                                                                                  
C20  23190148.336     -172769.573       -2216.897          18.000                                                                                                                                  
C26  24927648.780      -85200.298          -0.008          12.000                                                                                                                                  
C29  22093188.873       -9875.319           0.008          14.000                                                                                                                                  
C35  23781054.869     -205265.621       -2795.002          16.000                                                                                                                                  
> 2021  5 17  7 42 50.0000000  0 19                     
G 2  22764821.982     -281797.676       -2796.666          17.000                                                                  
G 6  20731754.812     -163678.611       -1627.231          22.000                                                                  
G12  24368462.667     -373641.381          -0.012          17.000                                                                  
G14  22180896.179      210784.688        2062.174          19.000                                                                  
G17  21216982.878      -36579.163        -621.133          17.000                                                                  
G19  20450543.215     -170844.226           0.003          12.000                                                                  
G28  21194220.395       78280.885         760.208          23.000                                                                  
R22  20897768.260     -217300.731          -0.003          14.000  
E12  22370877.925     -119702.250       -1437.260           8.000                                                                  
E24  24467332.129     -137816.474       -1674.929          11.000                                                                  
E31  24322013.015       76640.923         933.414          29.000                                                                  
C 7  36661242.713       -7796.375          -0.064          13.000                                                                                                                                  
C 8  36136699.635      -30638.468        -811.178          19.000                                                                                                                                  
C10  35838091.897      -52073.902        -705.431          17.000                                                                                                                                  
C13  36554803.239      -81570.539       -1175.190          19.000                                                                                                                                  
C20  23189721.923     -174987.086       -2217.763          18.000                                                                                                                                  
C26  24927358.867      -86724.402          -0.008          16.000                                                                                                                                  
C29  22093001.641      -10850.411           0.008          16.000                                                                                                                                  
C35  23780520.743     -208060.393           0.028          16.000                                                                                                                                  
> 2021  5 17  7 42 51.0000000  0 19                     
G 2  22764289.449     -284593.046       -2794.237          19.000                                                                  
G 6  20731441.717     -165306.040       -1627.983          30.000                                                                  
G12  24367600.232     -378173.730          -0.012          16.000                                                                  
G14  22181288.345      212845.428        2060.810          17.000                                                                  
G17  21216864.684      -37200.630        -620.198          16.000                                                                  
G19  20450232.479     -172477.366           0.003          12.000                                                                  
G28  21194368.205       79040.923         760.214          24.000                                                                  
R22  20897365.448     -219450.946          -0.003          15.000  
E12  22370604.432     -121139.511       -1437.170           8.000                                                                  
E24  24467013.339     -139491.842       -1675.709          11.000                                                                  
E31  24322189.389       77574.334         935.999          23.000                                                                  
C 7  36661197.127       -8033.886          -0.064          16.000                                                                                                                                  
C 8  36136544.281      -31450.950        -812.810          19.000                                                                                                                                  
C10  35837956.371      -52779.811        -704.444          18.000                                                                                                                                  
C13  36554577.624      -82747.801       -1178.189          18.000                                                                                                                                  
C20  23189295.461     -177204.693       -2216.182          17.000                                                                                                                                  
C26  24927066.519      -88246.811          -0.008          14.000                                                                                                                                  
C29  22092814.723      -11823.907           0.008          15.000                                                                                                                                  
C35  23779983.896     -210856.095           0.028          16.000                                                                                                                                  
> 2021  5 17  7 42 52.0000000  0 19                     
G 2  22763757.422     -287387.257       -2795.773          18.000                                                                  
G 6  20731131.096     -166933.277       -1627.144          27.000                                                                  
G12  24366742.997     -382707.021       -4531.705          14.000                                                                  
G14  22181680.430      214905.685        2060.623          17.000                                                                  
G17  21216746.489      -37821.541        -621.488          17.000                                                                  
G19  20449921.918     -174109.522           0.003          13.000                                                                  
G28  21194515.834       79802.232         762.369          27.000                                                                  
R22  20896963.098     -221599.130          -0.003          14.000  
E12  22370330.878     -122577.052       -1437.629           8.000                                                                  
E24  24737863.130     -141166.906       -1674.814           7.000                                                                  
E31  24322366.591       78510.532         934.567          22.000                                                                  
C 7  36661151.500       -8271.643          -0.064          15.000                                                                                                                                  
C 8  36136385.257      -32263.762        -814.696          20.000                                                                                                                                  
C10  35837821.330      -53484.438        -705.155          17.000                                                                                                                                  
C13  36554351.539      -83925.268       -1177.438          20.000                                                                                                                                  
C20  23188869.855     -179421.062       -2215.991          16.000                                                                                                                                  
C26  24926775.209      -89768.503          -0.008          12.000                                                                                                                                  
C29  22092628.560      -12796.411           0.008          13.000                                                                                                                                  
C35  23779447.074     -213651.722           0.028          14.000                                                                                                                                  
> 2021  5 17  7 42 53.0000000  0 19                     
G 2  22763226.988     -290182.937       -2796.385          20.000                                                                  
G 6  20730821.596     -168560.616       -1625.341          27.000                                                                  
G12  24365880.666     -387238.588       -4532.509          14.000                                                                  
G14  22182076.829      216967.413        2061.871          15.000                                                                  
G17  21216628.281      -38442.959        -621.189          16.000                                                                  
G19  20449611.632     -175740.265           0.003          15.000                                                                  
G28  21194661.369       80563.185         761.184          22.000                                                                  
R22  20896559.300     -223746.903          -0.003          13.000  
E12  23930973.618     -124014.369       -1436.910           9.000                                                                  
E24  24466391.221     -142841.314       -1673.751           9.000                                                                  
E31  24322544.535       79445.954         937.710          18.000                                                                  
C 7  36661107.653       -8508.662        -238.051          15.000                                                                                                                                  
C 8  36136229.897      -33076.691        -812.508          19.000                                                                                                                                  
C10  35837685.838      -54190.173        -706.414          18.000                                                                                                                                  
C13  36554126.701      -85102.130       -1176.665          19.000                                                                                                                                  
C20  23188444.842     -181637.330       -2215.784          16.000                                                                                                                                  
C26  24926482.853      -91290.980          -0.008          14.000                                                                                                                                  
C29  22092441.973      -13768.294           0.008          12.000                                                                                                                                  
C35  23778911.710     -216447.970       -2795.625          14.000                                                                                                                                  
> 2021  5 17  7 42 54.0000000  0 19                     
G 2  22762693.653     -292978.134       -2794.239          19.000                                                                  
G 6  20730512.069     -170186.184       -1624.921          26.000                                                                  
G12  24365018.268     -391770.327       -4532.669          15.000                                                                  
G14  22182469.444      219030.401        2064.475          17.000                                                                  
G17  21216509.779      -39066.066        -623.182          15.000                                                                  
G19  20449310.176     -177367.331           0.003          15.000                                                                  
G28  21194808.618       81323.909         760.348          24.000                                                                  
R22  20896157.142     -225894.160          -0.003          13.000  
E12  22369783.801     -125451.997       -1438.260           8.000                                                                  
E24  24466072.899     -144514.091       -1672.350          10.000                                                                  
E31  24322722.558       80382.066         935.732          20.000                                                                  
C 7  36661062.332       -8744.836        -235.786          17.000                                                                                                                                  
C 8  36136073.683      -33890.414        -815.214          20.000                                                                                                                                  
C10  35837548.532      -54896.146        -704.536          16.000                                                                                                                                  
C13  36553902.828      -86279.597       -1175.791          19.000                                                                                                                                  
C20  23188019.375     -183852.943       -2215.147          18.000                                                                                                                                  
C26  24926190.623      -92812.967          -0.008          15.000                                                                                                                                  
C29  22092255.189      -14741.212           0.008          15.000                                                                                                                                  
C35  23778374.705     -219244.583       -2797.462          16.000                                                                                                                                  
> 2021  5 17  7 42 55.0000000  0 19                     
G 2  22762162.281     -295774.528       -2796.598          20.000                                                                  
G 6  20730202.499     -171812.543       -1625.147          25.000                                                                  
G12  24364155.466     -396304.046          -0.012          14.000                                                                  
G14  22182862.203      221094.259        2064.083          17.000                                                                  
G17  21216405.139      -39689.455        -623.512          16.000                                                                  
G19  20449000.610     -178994.216           0.003          14.000                                                                  
G28  21194952.988       82084.218         761.703          19.000                                                                  
R22  20895754.801     -228042.094          -0.003          16.000  
E12  22369510.086     -126890.379       -1438.734           8.000                                                                  
E24  24465754.772     -146185.803       -1671.156          11.000                                                                  
E31  24322899.975       81317.096         934.315          20.000                                                                  
C 7  36661017.002       -8980.566        -236.030          13.000                                                                                                                                  
C 8  36135917.822      -34704.131        -814.894          17.000                                                                                                                                  
C10  35837413.003      -55602.226        -706.210          17.000                                                                                                                                  
C13  36553681.296      -87455.590       -1175.425          21.000                                                                                                                                  
C20  23187591.439     -186068.232       -2215.373          18.000                                                                                                                                  
C26  24925900.818      -94336.578          -0.008          15.000                                                                                                                                  
C29  22092068.999      -15713.770           0.008          15.000                                                                                                                                  
C35  23777839.310     -222041.940       -2796.177          16.000                                                                                                                                  
> 2021  5 17  7 42 56.0000000  0 20                     
G 2  22761631.580     -298569.769       -2793.676          20.000                                                                  
G 3  23258276.803        5359.599        1648.205          19.000                                                                  
G 6  20729893.867     -173439.284       -1631.052          20.000                                                                  
G12  24363292.656     -400838.106          -0.012          14.000                                                                  
G14  22183245.844      223157.685        2062.683          17.000                                                                  
G17  21216286.547      -40312.765        -621.692          17.000                                                                  
G19  20448691.161     -180620.531           0.003          15.000                                                                  
G28  21195098.278       82846.221         762.674          21.000                                                                  
R22  20895352.338     -230190.972          -0.003          14.000  
E12  22369236.244     -128329.491       -1439.311           7.000                                                                  
E24  24465436.781     -147856.711       -1670.697          12.000                                                                  
E31  24323077.500       82252.533         937.952          20.000                                                                  
C 7  36660971.733       -9216.573        -234.707          14.000                                                                                                                                  
C 8  36135761.385      -35518.972        -814.782          17.000                                                                                                                                  
C10  35837277.486      -56308.128        -705.342          15.000                                                                                                                                  
C13  36553455.652      -88630.665       -1174.127          23.000                                                                                                                                  
C20  23187166.941     -188284.382       -2216.711          17.000                                                                                                                                  
C26  24925608.169      -95860.741          -0.008          14.000                                                                                                                                  
C29  22091881.793      -16688.629           0.008          13.000                                                                                                                                  
C35  23777302.475     -224837.686       -2795.457          16.000                                                                                                                                  
> 2021  5 17  7 42 57.0000000  0 19                     
G 2  22761102.232     -301363.126       -2792.691          22.000                                                                  
G 6  20729585.130     -175067.187       -1626.306          25.000                                                                  
G12  24362429.937     -405371.599          -0.012          14.000                                                                  
G14  22183649.721      225217.408        2056.826          18.000                                                                  
G17  21216175.660      -40932.500        -619.273          16.000                                                                  
G19  20448387.109     -182246.516           0.003          13.000                                                                  
G28  21195243.024       83609.329         763.264          24.000                                                                  
R22  20894949.945     -232339.738          -0.003          16.000  
E12  22368962.349     -129768.883       -1439.428           8.000                                                                  
E24  24465118.820     -149527.681       -1671.042          11.000                                                                  
E31  24323253.677       83191.294         942.752          20.000                                                                  
C 7  36660926.879       -9450.374        -233.159          13.000                                                                                                                                  
C 8  36135605.040      -36332.720        -812.326          17.000                                                                                                                                  
C10  35837141.746      -57013.371        -705.937          15.000                                                                                                                                  
C13  36553230.713      -89805.499       -1174.737          19.000                                                                                                                                  
C20  23186741.374     -190500.734       -2216.329          17.000                                                                                                                                  
C26  24925320.948      -97382.425          -0.008          16.000                                                                                                                                  
C29  22091694.356      -17664.928           0.008          12.000                                                                                                                                  
C35  23776765.601     -227633.619       -2796.187          17.000                                                                                                                                  
> 2021  5 17  7 42 58.0000000  0 20                     
G 2  22760573.443     -304155.711       -2793.091          24.000                                                                  
G 3  23258893.206        2317.846        1647.999          19.000                                                                  
G 6  20729275.896     -176692.136       -1622.310          23.000                                                                  
G12  24361567.557     -409903.434          -0.012          14.000                                                                  
G14  22184041.315      227275.129        2057.985          17.000                                                                  
G17  21216057.657      -41552.636        -619.373          17.000                                                                  
G19  20448077.853     -183871.535           0.003          12.000                                                                  
G28  21195388.310       84372.853         763.216          23.000                                                                  
R22  20894547.796     -234486.935          -0.003          17.000  
E12  23929604.736     -131208.045       -1439.159          10.000                                                                  
E24  24464800.947     -151198.119       -1670.080          11.000                                                                  
E31  24323430.963       84129.950         935.356          18.000                                                                  
C 7  36660883.229       -9684.582          -0.064          15.000                                                                                                                                  
C 8  36135449.236      -37146.478        -816.075          18.000                                                                                                                                  
C10  35837006.342      -57718.835        -706.198          16.000                                                                                                                                  
C13  36553013.209      -90980.933       -1176.467          25.000                                                                                                                                  
C20  23186316.313     -192714.411       -2213.334          17.000                                                                                                                                  
C26  24925029.258      -98901.608          -0.008          16.000                                                                                                                                  
C29  22091506.731      -18642.236           0.008          16.000                                                                                                                                  
C35  23776231.815     -230428.362           0.028          17.000                                                                                                                                  
> 2021  5 17  7 42 59.0000000  0 20                     
G 2  22760046.051     -306949.020       -2793.582          32.000                                                                  
G 3  23259207.280        3966.973        1649.545          19.000                                                                  
G 6  20728968.516     -178316.064       -1624.477          24.000                                                                  
G12  24360705.235     -414435.046          -0.012          15.000                                                                  
G14  22184433.092      229333.824        2059.871          18.000                                                                  
G17  21215939.497      -42173.828        -621.228          18.000                                                                  
G19  20447768.387     -185497.864           0.003          13.000                                                                  
G28  21195534.726       85135.737         763.901          24.000                                                                  
R22  20894158.822     -236633.896       -1970.999          16.000  
E12  23929330.842     -132647.343       -1439.588          10.000                                                                  
E24  24464483.166     -152868.056       -1670.186           9.000                                                                  
E31  24323609.012       85065.326         935.308          18.000                                                                  
C 7  36660838.243       -9919.114          -0.064          16.000                                                                                                                                  
C 8  36135292.319      -37963.807        -817.164          17.000                                                                                                                                  
C10  35836869.604      -58426.603        -708.325          17.000                                                                                                                                  
C13  36552787.084      -92159.810       -1178.789          20.000                                                                                                                                  
C20  23185889.550     -194928.107       -2214.551          17.000                                                                                                                                  
C26  24924737.661     -100420.373          -0.008          15.000                                                                                                                                  
C29  22091318.687      -19621.812           0.008          14.000                                                                                                                                  
C35  23775701.242     -233222.120           0.028          16.000                                                                                                                                  
> 2021  5 17  7 43  0.0000000  0 20                     
G 2  22759517.039     -309741.968       -2792.040          24.000                                                                  
G 3  23259521.175        5616.329        1651.562          22.000                                                                  
G 6  20728659.434     -179941.490       -1626.763          22.000                                                                  
G12  24359847.201     -418965.613          -0.012          16.000                                                                  
G14  22184811.048      231395.285        2062.914          17.000                                                                  
G17  21215818.247      -42793.811        -618.378          19.000                                                                  
G19  20447459.052     -187123.401           0.003          15.000                                                                  
G28  21195680.169       85900.351         767.632          21.000                                                                  
R22  20893756.324     -238783.238       -1972.817          17.000  
E12  23929056.995     -134086.475       -1439.102          11.000                                                                  
E24  24464165.436     -154537.749       -1669.446           9.000                                                                  
E31  24323787.026       86000.449         935.347          20.000                                                                  
C 7  36660795.313      -10154.189        -235.486          17.000                                                                                                                                  
C 8  36135139.804      -38780.590        -816.453          18.000                                                                                                                                  
C10  35836733.939      -59133.211        -705.280          17.000                                                                                                                                  
C13  36552560.227      -93336.809       -1176.363          20.000                                                                                                                                  
C20  23185464.092     -197142.958       -2214.921          18.000                                                                                                                                  
C26  24924452.075     -101938.236          -0.008          14.000                                                                                                                                  
C29  22091128.436      -20601.083           0.008          17.000                                                                                                                                  
C35  23775164.551     -236017.049           0.028          16.000                                                                                                                                  
> 2021  5 17  7 43  1.0000000  0 20                     
G 2  22758985.872     -312534.346       -2794.561          20.000                                                                  
G 3  23259858.745        7267.142        1649.195          20.000                                                                  
G 6  20728350.105     -181568.248       -1625.226          23.000                                                                  
G12  24358985.424     -423494.387          -0.012          13.000                                                                  
G14  22185203.722      233458.806        2062.907          17.000                                                                  
G17  21215699.677      -43413.567        -620.696          19.000                                                                  
G19  20447149.651     -188749.566           0.003          17.000                                                                  
G28  21195826.463       86666.263         763.665          22.000                                                                  
R22  20893353.616     -240933.245       -1972.077          13.000  
E12  23928783.101     -135525.885       -1439.421          11.000                                                                  
E24  24463853.618     -156206.567       -1668.407          11.000                                                                  
E31  24323967.287       86932.559         931.819          18.000                                                                  
C 7  36660750.415      -10388.191        -233.669          16.000                                                                                                                                  
C 8  36134983.188      -39596.383        -815.147          17.000                                                                                                                                  
C10  35836598.488      -59838.897        -705.461          15.000                                                                                                                                  
C13  36552334.067      -94514.589       -1178.634          20.000                                                                                                                                  
C20  23185039.149     -199355.923       -2211.196          17.000                                                                                                                                  
C26  24924160.076     -103458.992          -0.008          13.000                                                                                                                                  
C29  22090940.637      -21579.214           0.008          14.000                                                                                                                                  
C35  23774628.017     -238811.218           0.028          15.000                                                                                                                                  
> 2021  5 17  7 43  2.0000000  0 21                     
G 2  22758454.866     -315330.466       -2797.605          26.000                                                                  
G 3  23260144.646        8913.564        1644.634          23.000                                                                  
G 6  20728040.648     -183194.962       -1626.576          26.000                                                                  
G12  24358124.074     -428020.780          -0.012          10.000                                                                  
G14  22185601.650      235520.965        2061.618          15.000                                                                  
G17  21215573.028      -44034.947        -621.441          19.000                                                                  
G19  20446847.724     -190377.262       -1627.279          15.000                                                                  
G28  21195972.421       87429.813         762.128          22.000                                                                  
R22  20892954.260     -243083.638          -0.003          14.000  
E11  27265082.789       -9931.921       -2883.197          16.000                                                                  
E12  23928509.189     -136965.378       -1439.527          11.000                                                                  
E24  24463536.102     -157875.195       -1668.522          10.000                                                                  
E31  24324148.293       87866.460         936.209          17.000                                                                  
C 7  36660705.282      -10623.499        -235.500          16.000                                                                                                                                  
C 8  36134827.463      -40412.700        -817.033          19.000                                                                                                                                  
C10  35836464.035      -60544.280        -705.905          14.000                                                                                                                                  
C13  36552107.659      -95693.675       -1178.824          20.000                                                                                                                                  
C20  23184614.346     -201568.110       -2213.008          19.000                                                                                                                                  
C26  24923867.973     -104980.059          -0.008          12.000                                                                                                                                  
C29  22090752.641      -22556.016        -978.202          17.000                                                                                                                                  
C35  23774093.966     -241604.286       -2793.643          15.000                                                                                                                                  
> 2021  5 17  7 43  3.0000000  0 21                     
G 2  22757923.524     -318126.315       -2795.417          24.000                                                                  
G 3  23260458.715       10559.917        1646.875          21.000                                                                  
G 6  20727730.279     -184821.399       -1626.979          29.000                                                                  
G12  24357262.965     -432546.100          -0.012          11.000                                                                  
G14  22185993.973      237582.496        2062.633          17.000                                                                  
G17  21215472.543      -44657.324        -622.593          22.000                                                                  
G19  20446538.044     -192004.652       -1629.096          16.000                                                                  
G28  21196116.843       88191.754         762.100          22.000                                                                  
R22  20892551.421     -245234.802          -0.003          13.000  
E11  27264534.424      -12813.814       -2881.349          16.000                                                                  
E12  23928235.299     -138404.648       -1439.243          11.000                                                                  
E24  24463218.692     -159543.171       -1667.434          11.000                                                                  
E31  24324327.708       88799.896         931.766          16.000                                                                  
C 7  36660662.909      -10859.300        -236.142          16.000                                                                                                                                  
C 8  36134670.747      -41229.306        -816.926          19.000                                                                                                                                  
C10  35836328.614      -61249.687        -705.707          15.000                                                                                                                                  
C13  36551881.332      -96872.343       -1178.582          20.000                                                                                                                                  
C20  23184189.856     -203781.957       -2213.306          18.000                                                                                                                                  
C26  24923578.522     -106502.069          -0.008          13.000                                                                                                                                  
C29  22090564.960      -23533.376        -976.411          16.000                                                                                                                                  
C35  23773557.601     -244397.546       -2796.035          13.000                                                                                                                                  
> 2021  5 17  7 43  4.0000000  0 21                     
G 2  22757393.107     -320922.549       -2796.120          24.000                                                                  
G 3  23260761.569       12207.208        1648.132          23.000                                                                  
G 6  20727420.744     -186448.753       -1627.547          30.000                                                                  
G12  24356401.834     -437071.338          -0.012          13.000                                                                  
G14  22186386.455      239644.456        2061.234          15.000                                                                  
G17  21215347.355      -45280.257        -624.699          20.000                                                                  
G19  20446228.093     -193633.594       -1629.553          16.000                                                                  
G28  21196262.247       88953.007         759.174          24.000                                                                  
R22  20892148.435     -247386.735          -0.003          13.000  
E11  27263999.017      -15696.831       -2882.015          10.000                                                                  
E12  23927954.124     -139843.858       -1439.462          12.000                                                                  
E24  24462901.429     -161210.436       -1667.453          11.000                                                                  
E31  24324508.527       89732.453         934.094          17.000                                                                  
C 7  36660617.854      -11094.163        -234.509          16.000                                                                                                                                  
C 8  36134513.280      -42046.922        -817.623          18.000                                                                                                                                  
C10  35836193.084      -61955.842           0.007          12.000                                                                                                                                  
C13  36551655.265      -98049.863       -1178.637          19.000                                                                                                                                  
C20  23183762.736     -205995.702       -2214.165          20.000                                                                                                                                  
C26  24923285.899     -108025.978          -0.008          12.000                                                                                                                                  
C29  22090377.352      -24510.578        -977.040          17.000                                                                                                                                  
C35  23773021.801     -247193.986           0.028          14.000                                                                                                                                  
