     3.03           OBSERVATION DATA    M: Mixed            RINEX VERSION / TYPE
Geo++ RINEX Logger  Geo++               20210930 111808 UTC PGM / RUN BY / DATE
************************************************************COMMENT
This file was generated by the Geo++ RINEX Logger App       COMMENT
for Android devices (Version 2.1.6). If you encounter       COMMENT
any issues, please send an email to android@geopp.de        COMMENT
Filtering Mode: BEST                                        COMMENT
************************************************************COMMENT
Geo++                                                       MARKER NAME
GEODETIC                                                    MARKER TYPE
Geo++               Geo++                                   OBSERVER / AGENCY
unknown             HUAWEI              ELS-AN00            REC # / TYPE / VERS
unknown             ELS-AN00                                ANT # / TYPE
 -2410994.8244  5386353.9529  2412447.8936                  APPROX POSITION XYZ
        0.0000        0.0000        0.0000                  ANTENNA: DELTA H/E/N
G    8 C1C L1C D1C S1C C5Q L5Q D5Q S5Q                      SYS / # / OBS TYPES
R    4 C1C L1C D1C S1C                                      SYS / # / OBS TYPES
E   12 C1B L1B D1B S1B C1C L1C D1C S1C C5Q L5Q D5Q S5Q      SYS / # / OBS TYPES
C    4 C2I L2I D2I S2I                                      SYS / # / OBS TYPES
J    8 C1C L1C D1C S1C C5Q L5Q D5Q S5Q                      SYS / # / OBS TYPES
  2021     9    30    11    18   26.9999596     GPS         TIME OF FIRST OBS
 24 R01  1 R02 -4 R03  5 R04  6 R05  1 R06 -4 R07  5 R08  6 GLONASS SLOT / FRQ #
    R09 -2 R10 -5 R11  0 R12 -1 R13 -2 R14 -7 R15  0 R16 -1 GLONASS SLOT / FRQ #
    R17  4 R18 -3 R19  3 R20  2 R21  4 R22 -3 R23  3 R24  2 GLONASS SLOT / FRQ #
G L1C                                                       SYS / PHASE SHIFT
G L5Q -0.25000                                              SYS / PHASE SHIFT
R L1C                                                       SYS / PHASE SHIFT
E L1B                                                       SYS / PHASE SHIFT
E L1C +0.50000                                              SYS / PHASE SHIFT
E L5Q -0.25000                                              SYS / PHASE SHIFT
C L2I                                                       SYS / PHASE SHIFT
J L1C                                                       SYS / PHASE SHIFT
J L5Q -0.25000                                              SYS / PHASE SHIFT
 C1C    0.000 C1P    0.000 C2C    0.000 C2P    0.000        GLONASS COD/PHS/BIS
                                                            END OF HEADER
> 2021  9 30 11 18 26.9999596  3  1
Geo++                                                       MARKER NAME
> 2021  9 30 11 18 26.9999596  0  7
C16  36964590.846   192484324.3411        -40.957          22.000  
C19  21986436.807   114489145.6321      -2423.039          21.000  
G25  23463560.115   123301840.6051      -4043.401          28.000  
G26  20576684.358   108131206.1001       1097.419          20.000    20576684.957    80747330.5481        821.297          16.000  
G29  23794059.116   125038623.8891        173.913          29.000  
G32  20771297.630   109153904.9491       -751.307          31.000  
J02  38891827.648   204377933.4131      -1418.726          29.000  
> 2021  9 30 11 18 27.9999590  0  8
C06  36581758.576   190490816.1301        -88.824          20.000  
C19  21986719.811   114490632.146       -2423.266          25.000  
G25  23464149.208   123304939.197       -4044.841          29.000  
G26  20576296.726   108129162.402        1098.745          26.000    20576296.127    80745804.174         819.611          18.000  
G29  23793845.963   125037504.959         174.069          30.000  
G32  20771257.458   109153711.202        -751.287          31.000  
J02  38891917.286   204378405.908       -1417.895          27.000  
R04  19464155.146   104229666.9761      -1794.630          16.000  
> 2021  9 30 11 18 28.9999588  0  8
C06  36581715.106   190490592.678         -88.810          29.000  
C16  36964363.903   192483157.1871        -40.406          27.000  
C36  22494887.813   117136783.0241      -1653.167          22.000  
G25  23464858.217   123308668.580       -4044.614          31.000  
G26  20576026.613   108127748.117        1098.340          31.000    20576027.513    80744749.130         819.526          18.000  
G32  20771342.899   109154148.017        -752.411          34.000  
J02  38892127.740   204379508.121       -1417.261          32.000  
R04  19464429.456   104231135.870       -1797.122          24.000  
> 2021  9 30 11 18 29.9999583  0  7
C06  36581580.799   190489900.622         -88.296          26.000  
C16  36964220.603   192482416.886         -40.004          29.000  
C36  22495055.397   117137654.434       -1651.589          31.000  
G25  23465477.588   123311925.157       -4044.139          31.000  
G26  20575665.963   108125862.453        1097.740          33.000    20575669.261    80743341.851         818.728          23.000  
G32  20771339.301                        -753.011          40.000  
J02  38892248.557   204380137.202       -1416.662          36.000  
> 2021  9 30 11 18 30.9999580  0  7
C16  36964138.759   192481988.257         -40.727          27.000  
C19  21987820.049   114496344.2491      -2424.735          22.000  
C36  22495283.239   117138837.342       -1651.703          29.000  
G25  23466157.217   123315496.466       -4044.162          31.000  
G26  20575366.170   108124292.521        1096.624          35.000    20575371.866    80742170.310         818.316          27.000  
G32  20771390.266   109154404.9111       -753.327          39.000  
J02  38892427.533   204381081.041       -1416.647          34.000  
> 2021  9 30 11 18 31.9999575  0  7
C16  36963997.257   192481247.892         -39.787          25.000  
C19  21988135.431   114497987.075       -2423.998          19.000  
C36  22495452.322   117139709.571       -1654.351          28.000  
G25  23466776.289   123318753.049       -4044.534          31.000  
G26  20575005.220   108122408.522        1095.288          33.000    20575013.914    80740763.887         818.044          28.000  
G32  20771384.570   109154370.865        -753.344          39.000  
J02  38892545.051                       -1417.670          33.000  
> 2021  9 30 11 18 32.9999570  0  7
C16  36963855.455   192480506.933         -39.534          25.000  
C19  21988449.014   114499630.765       -2425.070          20.000  
C36  22495623.804   117140583.233       -1654.001          28.000  
G25  23467393.262   123322008.633       -4043.767          29.000  
G26  20574652.065                        1093.977          34.000    20574655.962    80739357.921         817.152          25.000  
G32  20771378.574   109154337.134        -754.159          35.000  
J02  38892665.568   204382334.7651      -1419.141          24.000  
> 2021  9 30 11 18 33.9999567  0  4
C36  22495850.747   117141768.846       -1654.220          27.000  
G26  20574350.474   108118959.1811       1093.004          35.000    20574358.268    80738187.965         816.768          25.000  
G29  23792951.383   125032846.6591        170.130          28.000  
J02  38892843.645   204383280.371       -1417.814          31.000  
> 2021  9 30 11 18 34.9999565  0  5
C36  22496107.669   117143111.317       -1656.129          28.000  
G25  23468783.100   123329311.7391      -4046.835          25.000  
G26  20574079.461   108117550.648        1092.485          36.000    20574090.553    80737136.344         815.603          25.000  
G29  23792854.550   125032361.759         169.646          26.000  
J02  38893054.998   204384382.006       -1416.845          30.000  
> 2021  9 30 11 18 35.9999562  0  7
C16  36963650.098   192479373.8461        -40.678          20.000  
G25  23469463.628   123332886.060       -4047.284          26.000  
G26  20573786.264   108115985.112        1091.211          36.000    20573792.260    80735966.371         818.636          26.000  
G29  23792728.337   125031719.549         168.882          25.000  
G32  20771565.345   109155342.2391       -755.866          36.000  
J02  38893235.773   204385326.574       -1417.187          28.000  
R04  19465992.274   104239503.9711      -1796.709          17.000  
> 2021  9 30 11 18 36.9999557  0  5
C06  36580913.760   190486468.0271        -87.929          20.000  
G26  20573429.511   108114105.293        1091.595          35.000    20573434.308    80734560.348         815.991          25.000  
G29  23792543.065   125030761.940         169.298          25.000  
G32  20771561.447   109155310.813        -757.325          37.000  
J02  38893355.091   204385955.649       -1417.042          29.000  
> 2021  9 30 11 18 37.9999555  0  4
C06  36580869.391   190486243.787         -87.682          10.000  
C19  21990335.008   114509424.7471      -2427.699          18.000  
G26  20573161.197   108112698.577        1089.573          36.000    20573166.893    80733509.257         816.383          24.000  
J02  38893563.746   204387057.658       -1417.799          28.000  
> 2021  9 30 11 18 38.9999549  0  4
C16  36963283.152   192477469.5581        -40.244          19.000  
G26  20572773.565   108110662.712        1090.241          35.000  
J02  38893654.883   204387530.928       -1419.799          24.000  
R04  19466604.150   104242780.9821      -1805.463          17.000  
> 2021  9 30 11 18 39.9999544  0  5
C16  36963141.050   192476729.806         -41.554          18.000  
C19  21990943.287   114512567.7821      -2431.002          25.000  
G25  23472013.363   123346239.0341      -4047.446          29.000  
G26  20572415.613   108108784.967        1089.698          35.000  
R04  19466782.827   104243737.212       -1807.763          16.000  
> 2021  9 30 11 18 40.9999542  0  4
C06  36580536.022   190484471.3221        -88.500          24.000  
C19  21991352.503   114514687.295       -2432.603          21.000  
C36  22497320.329   117149439.6071      -1654.334          19.000  
G26  20572149.397   108107380.462        1091.513          34.000  
> 2021  9 30 11 18 41.9999537  0  3
C36  22497491.211   117150314.286       -1655.523          24.000  
G26  20571792.345   108105503.965        1088.480          31.000  
J02  38894104.572   204389901.8321      -1420.062          25.000  
> 2021  9 30 11 18 42.9999534  0  7
C16  36962849.052   192475295.2971        -41.331          19.000  
C19  21992054.018   114518307.3171      -2434.479          20.000  
C36  22497720.552   117151502.264       -1656.962          25.000  
G25  23474026.470   123356806.8811      -4048.388          31.000  
G26  20571497.649   108103943.217        1088.095          31.000  
G29  23791667.971   125026133.5091        167.234          24.000  
G32  20771743.121   109156235.9801       -760.010          38.000  
> 2021  9 30 11 18 43.9999532  0  6
C06  36580292.291   190483179.1401        -89.213          23.000  
C16  36962795.089   192475023.311         -39.992          25.000  
C19  21992463.534   114520429.698       -2434.453          21.000  
C36  22497978.374   117152847.295       -1657.557          28.000  
G25  23474742.974                       -4046.410          32.000  
G26  20571228.135   108102540.842        1088.986          32.000  
> 2021  9 30 11 18 44.9999529  0  6
C06  36580220.940   190482800.365         -90.853          23.000  
C36  22498206.516   117154036.366       -1657.967          28.000  
G25  23475419.006   123364182.9701      -4051.360          30.000  
G26  20570930.741   108100981.554        1086.039          31.000  
G32  20771873.831   109156969.0181       -761.659          37.000  
R04  19468018.871   104250356.8611      -1818.501          15.000  
> 2021  9 30 11 18 45.9999524  0  7
C06  36580090.230   190482110.352         -90.850          19.000  
C36  22498377.397   117154913.801       -1658.074          28.000  
G25  23476040.176   123367444.701       -4049.704          31.000  
G26  20570572.489   108099108.145        1087.307          31.000  
G29  23791275.243   125024064.8331        163.478          24.000  
G32  20771868.435   109156942.600        -761.731          35.000  
J02  38894774.908   204393528.2811      -1417.746          22.000  
> 2021  9 30 11 18 46.9999519  0  7
C06  36579958.022   190481417.755         -86.540          18.000  
C16  36962424.546   192473112.8151        -40.063          22.000  
C36  22498548.579   117155791.717       -1658.380          29.000  
G25  23476659.247   123370707.342       -4050.728          29.000  
G26  20570218.734   108097235.301        1083.367          30.000  
G29  23791093.269   125023113.565         162.867          27.000  
G32  20771866.336   109156916.595        -762.056          36.000  
> 2021  9 30 11 18 47.9999516  0  7
C06  36579887.571   190481036.678         -88.243          26.000  
C16  36962340.004   192472684.734         -40.430          24.000  
C36  22498779.719   117156982.054       -1658.758          28.000  
G25  23477337.677   123374285.158       -4049.950          26.000  
G26  20569920.740   108095678.474        1086.661          28.000  
G32  20771921.198   109157206.486        -763.497          37.000  
J02  38895077.698   204395104.2181      -1418.540          26.000  
> 2021  9 30 11 18 48.9999511  0  7
C06  36579754.763   190480345.185         -90.209          27.000  
C16  36962197.303   192471943.885         -40.046          24.000  
C36  22498949.401   117157860.605       -1659.762          30.000  
G25  23477957.648   123377546.745       -4049.163          29.000  
G26  20569566.086   108093808.215        1083.042          26.000  
G29  23790792.277   125021529.6011        161.104          29.000  
R04  19468838.803   104254747.5611      -1820.041          15.000  
> 2021  9 30 11 18 49.9999508  0  7
C06  36579681.014   190479967.290         -90.784          27.000  
C16  36962117.259   192471516.120         -41.270          27.000  
C36  22499178.143   117159052.196       -1660.256          29.000  
G25  23478636.978   123381123.278       -4049.792          33.000  
G29  23790672.060   125020896.657         159.384          29.000  
G32  20771972.163   109157472.6281       -765.455          36.000  
R04  19469088.530   104256084.566       -1817.266          17.000  
> 2021  9 30 11 18 50.9999503  0  5
C36  22499346.926   117159932.271       -1660.677          32.000  
G25  23479256.649   123384386.175       -4051.384          33.000  
G26  20568906.842   108090382.5681       1082.950          18.000  
J02  38895505.802   204397313.2021      -1420.297          30.000  
R04  19469276.500   104257091.499       -1816.665          19.000  
> 2021  9 30 11 18 51.9999501  0  8
C06  36579503.237   190479056.0671        -91.228          24.000  
C16  36961928.090   192470505.0301        -42.063          22.000  
C36  22499605.048   117161280.768       -1660.800          30.000  
G25  23479966.857   123388122.098       -4051.694          33.000  
G29  23790402.547   125019475.9751        158.690          27.000  
G32  20772051.908   109157899.8971       -766.069          32.000  
J02  38895717.155   204398418.091       -1419.869          29.000  
R14  22401564.220   119412943.9901      -3926.473          24.000  
> 2021  9 30 11 18 52.9999496  0  7
C06  36579369.230   190478367.597         -92.622          23.000  
C36  22499771.133   117162161.421       -1660.943          26.000  
G25  23480586.828   123391386.325       -4052.657          31.000  
G26  20568284.473   108087113.7691       1084.139          17.000  
G32  20772048.910   109157878.273        -766.279          34.000  
J02  38895839.471   204399050.353       -1420.317          29.000  
R04  19469742.378   104259585.8471      -1825.532          19.000  
> 2021  9 30 11 18 53.9999493  0  6
C16  36961705.644   192469341.6191        -45.487          21.000  
C36  22499998.375   117163354.065       -1661.200          26.000  
G26  20567985.880   108085558.160        1081.681          19.000  
G29  23790098.857   125017900.8541        156.893          26.000  
J02  38896021.744   204399997.905       -1419.995          29.000  
R14  22402786.474   119419459.2451      -3922.601          23.000  
> 2021  9 30 11 18 54.9999491  0  8
C06  36579247.814   190477772.4441        -92.609          22.000  
C36  22500254.098   117164703.284       -1661.775          28.000  
G25  23481976.666   123398703.4731      -4053.074          35.000  
G26  20567723.861   108084162.091        1079.113          20.000  
G29  23790008.020   125017428.948         155.730          26.000  
G32  20772190.712   109158624.8131       -768.160          34.000    20772199.406    81514571.1441       -573.915          28.000  
J02  38896233.398   204401102.786       -1420.135          31.000    38896245.390   152637220.9741      -1061.690          27.000  
R14  22403461.906   119423059.599       -3924.884          24.000  
> 2021  9 30 11 18 55.9999485  0  6
C16  36961484.697   192468182.6891        -45.240          24.000  
C36  22500392.902   117165428.121       -1661.514          27.000  
G26  20567338.328   108082139.133        1076.361          21.000  
G32  20772158.334   109158447.809        -768.724          34.000    20772166.129    81514439.681        -574.628          27.000  
J02  38896325.434   204401578.175       -1421.434          32.000    38896336.227   152637577.947       -1063.306          26.000  
R14  22404024.916   119426060.920       -3927.673          26.000  
> 2021  9 30 11 18 56.9999483  0  6
G25  23483285.859                       -4053.555          31.000  
G26  20567072.112   108080748.346        1075.058          22.000  
G29  23789705.530   125015856.8571        155.768          26.000  
G32  20772243.175   109158901.641        -768.276          35.000    20772252.169    81514779.155        -575.798          25.000  
J02  38896540.685   204402684.782       -1422.136          33.000    38896546.981   152638405.887       -1063.366          24.000  
R14  22404703.347   119429676.929       -3928.951          26.000  
> 2021  9 30 11 18 57.9999478  0  7
C36  22500820.406   117167659.9361      -1663.162          21.000  
G25  23483910.327   123408766.5041      -4054.543          32.000  
G26  20566713.860   108078886.148        1073.444          24.000  
G29  23789524.755   125014912.701         154.597          27.000  
G32                                                                  20772248.871    81514765.632        -575.888          24.000  
J02  38896658.504   204403319.387       -1423.115          33.000    38896668.097   152638880.806       -1063.357          24.000  
R14  22405289.741   119432802.947       -3928.453          25.000  
> 2021  9 30 11 18 58.9999475  0  8
C16  36961208.288   192466759.2451        -47.921          20.000  
C36  22501050.647   117168854.584       -1662.688          26.000  
G10  22862344.029   120142428.3971      -4058.627          24.000  
G25  23484589.957   123412349.060       -4056.648          35.000  
G26  20566421.263   108077339.775        1074.389          26.000  
G32                                                                  20772305.832    81514989.048        -576.432          23.000  
J02  38896839.578                       -1424.207          31.000    38896848.572   152639590.321       -1062.548          23.000  
R14  22405936.093   119436248.418       -3928.320          27.000  
> 2021  9 30 11 18 59.9999470  0  9
C06  36578704.890   190474974.0611       -101.679          16.000  
C16  36961068.285   192466024.103         -46.756          16.000  
C36  22501219.430   117169736.008       -1662.402          26.000  
G10  22862194.132   120141640.687       -4058.627          21.000  
G25  23485215.024   123415617.263       -4055.425          34.000  
G26  20566067.208   108075477.971        1074.110          28.000  
G32                                                                  20772301.935    81514977.271        -577.933          22.000  
J02  38896962.793   204404905.5261      -1421.571          30.000    38896969.988   152640064.650       -1063.629          22.000  
R14  22406522.187   119439372.498       -3928.838          27.000  
> 2021  9 30 11 19  0.9999465  0  6
C36  22501387.913   117170617.924       -1663.305          23.000  
G10  22862044.236   120140852.977       -4058.627          18.000  
G25  23485830.198   123418886.133       -4056.895          31.000    23485834.995    92163460.5721      -3029.050          27.000  
G26  20565713.453   108073615.996        1073.832          29.000  
J02  38897087.507   204405541.003       -1428.408          31.000  
R14  22407107.382   119442491.720       -3928.627          25.000  
> 2021  9 30 11 19  1.9999462  0  8
C36  22501616.955   117171814.646       -1665.669          22.000  
G10  22861954.298   120140380.351       -4058.627          18.000  
G25  23486509.528   123422469.616       -4056.127          30.000    23486517.322    92166137.688       -3030.012          27.000  
G26  20565419.656   108072070.405        1072.235          26.000  
G29  23788946.455   125011777.0561        150.452          22.000  
J01  36586709.348   192264455.2631        244.316          20.000  
J02  38897270.080   204406495.069       -1425.177          27.000  
R14  22407748.638   119445910.057       -3930.023          20.000  
> 2021  9 30 11 19  2.9999460  0  5
G10  22861894.340   120140065.267       -4058.627          19.000  
G25  23487220.935   123426211.343       -4057.340          29.000    23487229.929    92168933.702       -3030.269          27.000  
G26  20565157.338   108070683.890        1070.746          29.000  
J02  38897478.436   204407604.234       -1423.636          26.000  
R14  22408427.668   119449529.512       -3929.578          22.000  
> 2021  9 30 11 19  3.9999457  0  6
C36  22502106.816   117174371.6961      -1668.455          20.000  
G10  22861804.402   120139592.641       -4058.627          19.000  
G25  23487902.364   123429796.649       -4058.452          29.000    23487912.556    92171610.859       -3030.375          27.000  
G26  20564865.040   108069140.961        1069.668          30.000  
J02  38897657.412   204408554.222       -1422.482          28.000  
R14  22409073.721   119452972.980       -3929.290          22.000  
> 2021  9 30 11 19  4.9999452  0  6
G10  22861654.506   120138804.931       -4058.627          19.000  
G25  23488523.534   123433067.426       -4058.620          29.000    23488535.525    92174053.751       -3031.161          27.000  
G26  20564516.681   108067283.955        1069.022          27.000  
G32  20772493.202   109160198.7231       -774.171          30.000  
J01  36586264.156   192262150.0201        243.513          22.000  
J02  38897776.730   204409188.930       -1422.374          28.000  
> 2021  9 30 11 19  5.9999447  0  8
C36  22502447.380   117176145.9111      -1667.771          20.000  
G10  22861504.610   120138017.221       -4058.627          20.000  
G25  23489145.003   123436338.379       -4058.957          30.000    23489157.894    92176496.751       -3031.911          26.000  
G26  20564165.624   108065427.803        1067.608          31.000  
G29  23788396.636   125008815.6121        148.238          26.000  
G32  20772489.605   109160185.469        -775.156          31.000  
J02  38897896.646   204409824.442       -1424.844          28.000  
R14  22410246.209   119459223.6401      -3931.085          18.000  
> 2021  9 30 11 19  6.9999444  0  8
C36  22502675.822   117177343.925       -1666.634          20.000  
G10  22861414.672   120137544.595       -4058.627          20.000  
G25  23489829.429   123439928.219       -4062.497          29.000    23489840.522    92179175.442       -3031.769          27.000  
G26  20563874.226   108063887.809        1066.630          27.000    20563879.922    80697048.2621        800.209          28.000  
G29  23788278.218   125008195.177         147.375          30.000  
G32  20772545.966   109160488.584        -776.369          31.000  
J01  36585936.183   192260404.3791        241.630          18.000  
J02  38898077.122   204410776.917       -1424.888          29.000  
> 2021  9 30 11 19  7.9999439  0  6
C16  36960209.080   192461596.0481        -49.366          15.000  
C36  22502845.804   117178229.100       -1665.332          24.000  
G25  23490451.499   123443201.648       -4060.339          25.000    23490463.491    92181618.754       -3032.056          29.000  
G26  20563522.570   108062033.153        1066.685          24.000    20563528.266    80695662.291         797.405          25.000  
J02  38898199.737   204411414.245       -1426.098          24.000  
R14  22411482.553   119465814.3561      -3929.182          19.000  
> 2021  9 30 11 19  8.9999437  0  6
C36  22503106.324   117179583.329       -1667.067          26.000  
G25                                                                  23491176.397    92184416.100       -3033.349          31.000  
G26  20563258.452   108060651.825        1065.947          24.000    20563267.146    80694630.443         796.442          23.000  
G32  20772627.809   109160939.7181       -777.367          32.000  
J02  38898409.292   204412524.998       -1425.944          28.000  
R14  22412162.183   119469436.257       -3929.882          20.000  
> 2021  9 30 11 19  9.9999432  0  6
C36  22503278.105   117180470.402       -1668.276          30.000  
G25  23491787.974   123450219.1881      -4060.411          30.000    23491799.366    92186860.726       -3032.438          31.000  
G26                                                                  20562916.089    80693246.777         795.375          21.000  
G32  20772630.507                        -778.466          34.000  
J02  38898529.808   204413163.654       -1426.871          30.000  
R14  22412754.873   119472596.400       -3928.835          20.000  
> 2021  9 30 11 19 10.9999429  0  4
C36  22503510.144   117181670.724       -1668.871          30.000  
G25  23492470.901   123453807.041       -4060.811          32.000    23492482.293    92189540.237       -3033.043          30.000  
G26                                                                  20562623.492    80692101.806         791.248          21.000  
J02  38898711.183   204414117.681       -1426.559          31.000  
> 2021  9 30 11 19 11.9999427  0  6
C36  22503773.062   117183026.988       -1668.622          30.000  
G25                                                                  23493195.199    92192337.793       -3032.083          31.000  
G26  20562341.987   108055879.3881       1064.142          23.000    20562360.574    80691076.578         789.777          20.000  
G32  20772777.705   109161679.1291       -780.042          35.000  
J02  38898924.935   204415228.415       -1425.705          30.000  
R14  22414089.848   119479711.8111      -3932.594          20.000  
> 2021  9 30 11 19 12.9999421  0  5
C36  22503914.264   117183759.004       -1668.907          27.000  
G25  23493786.690   123460668.9471      -4061.347          34.000    23493787.889    92194664.592       -3032.119          30.000  
G26  20561961.850   108053870.707        1062.658          21.000  
J02  38899016.371   204415708.832       -1425.569          31.000  
R14  22414663.052   119482767.514       -3929.725          20.000  
> 2021  9 30 11 19 13.9999419  0  5
C36  22504174.784   117185115.601       -1669.419          30.000  
G25  23494500.196                       -4062.458          31.000    23494500.496    92197461.179       -3031.074          29.000  
G26  20561697.433   108052493.172        1061.888          27.000  
G32  20772840.362   109161979.0081       -781.720          30.000  
J02  38899227.125   204416820.173       -1426.731          24.000  
> 2021  9 30 11 19 14.9999414  0  6
C36  22504346.865   117186005.172       -1671.018          31.000  
G25  23495121.366   123467706.6421      -4061.835          32.000    23495123.165    92199905.166       -3034.526          30.000  
G26  20561346.976   108050643.770        1061.415          22.000  
G29  23787148.899   125002304.6171        142.622          29.000  
G32  20772841.561   109161972.506        -787.046          31.000  
J02  38899347.042   204417458.625       -1425.346          27.000  
> 2021  9 30 11 19 15.9999411  0  6
C36  22504579.204   117187208.032       -1671.666          32.000  
G25  23495803.694   123471297.030       -4063.285          33.000    23495806.092    92202586.520       -3034.362          31.000  
G26  20561053.479   108049109.764        1060.909          19.000  
G32  20772899.721   109162282.644        -782.095          29.000  
J02  38899528.717   204418411.908       -1426.978          28.000  
R14  22416574.528   119492957.3851      -3924.514          17.000  
> 2021  9 30 11 19 16.9999406  0  6
C36  22504750.386   117188099.187       -1672.338          31.000  
G25  23496427.861   123474572.620       -4064.645          34.000    23496429.360    92205032.367       -3034.241          30.000  
G26  20560703.321   108047261.930        1058.882          18.000  
G32  20772896.123   109162276.864        -782.000          36.000  
J02  38899649.233   204419051.228       -1427.650          29.000  
R14  22417164.520   119496101.883       -3931.101          26.000  
> 2021  9 30 11 19 17.9999401  0  4
C36  22504920.967   117188990.904       -1672.309          29.000  
G25  23497048.132   123477849.109       -4062.864          33.000    23497052.629    92207478.741       -3035.434          30.000  
G29  23786679.724   124999830.6491        140.598          26.000  
R14  22417753.013   119499238.632       -3932.270          25.000  
> 2021  9 30 11 19 18.9999398  0  5
C36  22505151.208   117190194.525       -1671.830          30.000  
G25  23497729.261   123481440.861       -4063.003          33.000    23497736.755    92210161.566       -3035.859          30.000  
G26  20560059.067   108043881.7731       1059.692          20.000  
G29  23786563.705   124999218.158         139.592          25.000  
R14  22418408.659   119502733.492       -3931.533          24.000  
> 2021  9 30 11 19 19.9999393  0  6
C36  22505322.390   117191085.477       -1671.388          29.000  
G25  23498349.531   123484718.211       -4063.918          33.000    23498360.324    92212608.337       -3035.003          29.000  
G26  20559708.310   108042034.926        1058.403          28.000  
G29  23786390.425   124998292.360         137.281          21.000  
J02  38900080.934   204421285.9811      -1427.260          28.000  
R14  22418996.851   119505869.384       -3933.600          27.000  
> 2021  9 30 11 19 20.9999393  0  4
C36  22505643.467   117192756.972       -1671.510          29.000  
G25  23499127.193   123488783.444       -4064.031          34.000    23499133.189    92215642.948       -3036.493          28.000  
G26  20559511.047   108040978.320        1056.047          28.000  
G29  23786352.651   124998154.387         138.035          25.000  
> 2021  9 30 11 19 21.9999388  0  6
C36  22505814.349   117193648.595       -1672.826          35.000  
G25  23499754.059   123492061.278       -4066.871          34.000    23499757.656    92218091.114       -3036.484          29.000  
G26  20559164.786   108039134.985        1056.161          26.000  
G29  23786168.578   124997228.759         136.159          24.000  
G32  20773099.982   109163361.6031       -785.697          28.000  
J02  38900483.556   204423356.1651      -1428.914          24.000  
> 2021  9 30 11 19 22.9999383  0  5
C36  22505987.029   117194540.984       -1671.557          37.000  
G25                                                                  23500381.524    92220539.058       -3035.563          30.000  
G26  20558816.128   108037291.021        1055.827          27.000  
G29  23785984.805   124996304.863         135.635          22.000  
J02  38900606.171   204423997.290       -1429.341          25.000  
> 2021  9 30 11 19 23.9999380  0  5
C36  22506218.469   117195746.306       -1674.774          32.000  
G25  23501059.955   123498932.9161      -4068.699          31.000    23501065.351    92223223.007       -3037.173          29.000  
G26  20558525.929   108035763.074        1055.054          27.000  
G29  23785856.794   124995696.648         135.642          23.000  
J02  38900786.946   204424952.976       -1427.274          25.000  
> 2021  9 30 11 19 24.9999375  0  3
G25  23501680.225   123502211.580       -4069.709          32.000    23501689.519    92225671.490       -3036.639          29.000  
G26  20558176.670   108033920.513        1054.615          28.000  
G32  20773160.840                        -784.535          33.000  
> 2021  9 30 11 19 25.9999373  0  4
C36  22506655.866   117198000.1671      -1673.635          26.000  
G25  23502392.232   123505963.672       -4068.762          31.000    23502403.625    92228472.887       -3036.723          30.000  
G26  20557917.350   108032551.596        1052.489          27.000  
G32  20773256.474                        -789.042          30.000  
> 2021  9 30 11 19 26.9999368  0  3
G25  23503021.497   123509243.366       -4066.498          31.000    23503027.493    92230922.736       -3037.908          30.000  
G26  20557565.094   108030711.879        1051.821          26.000  
G32  20773253.176   109164171.5761       -789.058          33.000  
> 2021  9 30 11 19 27.9999363  0  5
C16  36958123.424   192450699.7331        -49.642          26.000  
C36  22507005.125   117199785.5501      -1675.194          23.000  
G25  23503645.065   123512523.505       -4068.580          33.000    23503651.061    92233371.390       -3036.677          29.000  
G26  20557215.236   108028871.728        1052.081          27.000  
G32  20773251.977   109164173.619        -788.578          33.000  
> 2021  9 30 11 19 28.9999360  0  5
C16  36958044.278   192450281.745         -50.066          24.000  
C36  22507236.265   117200992.223       -1674.742          25.000  
G25  23504331.290   123516119.260       -4067.417          33.000    23504335.187    92236055.247       -3038.011          29.000  
G26  20556925.637   108027348.031        1050.639          28.000  
G32  20773314.933   109164491.235        -791.890          30.000  
> 2021  9 30 11 19 29.9999357  0  5
C16  36957963.634   192449862.119         -48.892          24.000  
C36  22507468.304   117202198.284       -1674.671          25.000  
G25  23505016.316   123519715.188       -4068.917          33.000    23505019.913    92238740.391       -3038.215          29.000  
G26  20556634.838   108025824.439        1050.776          26.000  
G32  20773368.596   109164809.419        -791.537          31.000  
> 2021  9 30 11 19 30.9999355  0  4
C16  36957916.267   192449599.486         -49.878          26.000  
G25                                                                  23505735.218    92241542.795       -3038.483          28.000  
G26  20556374.618   108024459.716        1048.574          25.000  
G32  20773465.129   109165285.747        -791.117          30.000  
> 2021  9 30 11 19 31.9999350  0  3
G25  23506350.092   123526750.6051      -4069.291          33.000    23506359.986    92243993.507       -3039.883          28.000  
G26  20556024.760   108022623.942        1047.144          25.000  
G32  20773461.832                        -792.896          30.000  
> 2021  9 30 11 19 32.9999345  0  5
C16  36957641.357   192448137.7681        -50.502          25.000  
C36  22508067.589   117205352.8611      -1677.287          24.000  
G25  23506971.862   123530032.605       -4070.166          32.000    23506984.753    92246446.034       -3039.747          28.000  
G26  20555672.804   108020789.406        1046.478          26.000  
G32  20773458.234   109165294.5461       -795.826          29.000  
> 2021  9 30 11 19 33.9999342  0  6
C16  36957559.814   192447719.545         -50.889          25.000  
C19  22010315.576   114613236.8771      -2464.745          24.000  
C36  22508299.628   117206562.379       -1678.331          25.000  
G25  23507660.185   123533630.100       -4070.993          32.000    23507669.179    92249132.914       -3039.503          29.000  
G26  20555383.204   108019270.527        1045.968          27.000  
G32  20773516.094   109165614.102        -793.762          26.000  
> 2021  9 30 11 19 34.9999337  0  5
C16  36957421.909   192446990.266         -51.593          22.000  
C36  22508471.409   117207460.379       -1678.422          28.000  
G25  23508288.550   123536912.768       -4070.452          33.000    23508293.947    92251584.058       -3039.033          28.000  
G26  20555033.347   108017437.025        1045.479          27.000  
G32  20773514.895   109165620.243        -794.250          26.000  
> 2021  9 30 11 19 35.9999334  0  5
C16  36957342.164   192446574.794         -53.471          26.000  
C36  22508702.549   117208671.010       -1679.609          26.000  
G25  23508967.281   123540510.692       -4071.408          33.000    23508978.073    92254270.589       -3040.628          27.000  
G26  20554745.246   108015919.230        1044.817          28.000  
G32  20773575.153   109165941.841        -794.396          31.000  
> 2021  9 30 11 19 36.9999329  0  5
C16  36957200.363   192445846.313         -51.186          24.000  
C36  22508874.331   117209569.747       -1679.130          22.000  
G25  23509595.346   123543793.596       -4070.568          32.000    23509602.841    92256722.827       -3040.243          27.000  
G26  20554396.587   108014086.754        1044.608          27.000  
G32                                                                  20773593.740    81520036.3861       -591.296          25.000  
> 2021  9 30 11 19 37.9999324  0  6
C16  36957058.561   192445118.080         -53.140          24.000  
C19  22011654.149   114620295.1421      -2468.388          24.000  
C36  22509046.112   117210467.521       -1678.261          22.000  
G25  23510218.315   123547076.737       -4072.124          32.000    23510227.608    92259174.768       -3040.114          27.000  
G26  20554051.226   108012254.949        1043.879          25.000  
G32                                                                  20773594.939    81520041.504        -596.552          25.000  
> 2021  9 30 11 19 38.9999324  0  5
C16  36957068.154   192445170.304         -52.190          23.000  
C19  22012127.221   114622763.883       -2468.937          23.000  
G25  23510995.077   123551147.805       -4072.011          32.000    23511002.272    92262214.948       -3039.417          26.000  
G26  20553853.064   108011211.056        1043.785          25.000  
G32                                                                  20773747.234    81520636.951        -594.360          25.000  
> 2021  9 30 11 19 39.9999319  0  5
C16  36956927.551   192444440.275         -48.965          24.000  
G25  23511621.943   123554431.529       -4072.827          33.000    23511626.740    92264665.659       -3039.383          27.000  
G26  20553505.304   108009379.920        1042.700          25.000  
G29  23783587.065   124983593.2881        125.804          23.000  
G32                                                                  20773748.433    81520643.733        -596.141          25.000  
> 2021  9 30 11 19 40.9999316  0  5
C16  36956848.106   192444021.648         -51.072          24.000  
C19  22012833.233   114626452.5351      -2470.224          21.000  
G25  23512308.767   123558030.481       -4072.404          33.000    23512311.166    92267352.754       -3040.927          26.000  
G26  20553215.105   108007864.845        1041.955          23.000  
G32                                                                  20773810.490    81520887.594        -594.564          25.000  
> 2021  9 30 11 19 41.9999311  0  5
C36  22509940.692   117215159.4941      -1680.666          19.000  
G25  23512935.334   123561314.590       -4072.302          34.000    23512936.233    92269806.334       -3040.784          26.000  
G26  20552864.348   108006036.897        1035.419          23.000  
G29  23783291.770   124982080.7441        126.476          18.000  
G32  20773797.299   109167093.3991       -796.870          30.000    20773810.490    81520893.529        -593.391          24.000  
> 2021  9 30 11 19 42.9999306  0  6
C16  36956569.899   192442560.4511        -50.234          20.000  
C36  22510114.572   117216058.095       -1678.306          27.000  
G25  23513553.506   123564599.017       -4073.411          33.000    23513561.300    92272258.577       -3039.178          25.000  
G26  20552514.490   108004212.143        1038.025          27.000  
G29  23783139.175   124981165.492         127.768          17.000  
G32  20773798.199   109167102.749        -797.337          30.000    20773811.390    81520898.521        -594.128          25.000  
> 2021  9 30 11 19 43.9999304  0  7
C16  36956520.133   192442297.342         -48.915          23.000  
C19  22013884.305   114631993.5811      -2472.567          17.000  
C36  22510379.289   117217423.145       -1676.204          27.000  
G25  23514268.211   123568356.178       -4071.245          33.000    23514275.706    92275063.790       -3041.189          25.000  
G26  20552256.969   108002857.953        1039.608          25.000  
G29  23783074.120   124980722.347         127.737          16.000  
G32  20773889.935   109167585.097        -797.770          30.000    20773904.325    81521259.117        -598.351          26.000  
> 2021  9 30 11 19 44.9999299  0  7
C16  36956378.032   192441565.705         -48.954          23.000  
C19  22014207.481   114633684.628       -2471.749          18.000  
C36  22510553.468   117218319.395       -1677.040          26.000  
G25                                                                  23514900.473    92277516.345       -3040.446          25.000  
G26  20551912.207   108001030.372        1040.187          26.000  
G29  23782920.926   124980092.636         125.332          17.000  
G32  20773891.434   109167595.233        -798.089          32.000    20773906.424    81521268.531        -597.287          26.000  
> 2021  9 30 11 19 45.9999296  0  5
C16  36956296.788   192441146.617         -50.013          25.000  
C36  22510787.906   117219529.425       -1678.645          24.000  
G25  23515584.000   123575240.6831      -4073.623          32.000    23515585.199    92280203.966       -3040.899          26.000  
G26  20551622.908   107999518.195        1038.786          22.000  
G32  20773954.391   109167920.782        -798.464          29.000    20773968.781    81521512.648        -596.729          26.000  
> 2021  9 30 11 19 46.9999291  0  5
C19  22014909.895   114637382.2701      -2475.384          17.000  
C36  22510961.785   117220428.628       -1680.741          25.000  
G25  23516204.570   123578525.693       -4072.658          32.000    23516209.967    92282656.347       -3041.938          25.000  
G26  20551276.048   107997691.727        1038.475          28.000  
G32  20773958.888   109167931.776        -799.093          31.000    20773970.879    81521521.841        -595.890          27.000  
> 2021  9 30 11 19 47.9999288  0  4
C36  22511195.024   117221640.847       -1680.720          28.000  
G25  23516886.598   123582126.181       -4072.500          32.000    23516894.992    92285346.043       -3042.427          26.000  
G26  20550988.247   107996180.794        1037.978          28.000  
G32  20774023.043   109168258.563        -799.919          31.000    20774033.836    81521765.513        -598.136          24.000  
> 2021  9 30 11 19 48.9999286  0  4
C36  22511458.542   117223010.098       -1681.834          28.000  
G25  23517605.800   123585884.322       -4073.005          34.000    23517610.297    92288152.332       -3041.057          25.000  
G26  20550730.126   107994828.038        1036.903          31.000  
G32  20774116.878   109168743.683        -800.944          30.000    20774125.572    81522128.785        -598.303          23.000  
> 2021  9 30 11 19 49.9999281  0  7
C01  37485310.859   195195850.3911       -605.456          29.000  
C16  36955882.475   192439024.8031        -54.222          18.000  
C19  22016037.714   114643249.2881      -2475.152          16.000  
C36  22511632.121   117223911.283       -1681.618          29.000  
G25  23518229.968   123589169.528       -4073.173          33.000    23518236.264    92290605.300       -3040.982          26.000  
G26  20550382.666   107993003.862        1036.371          31.000  
G32  20774118.677   109168756.996        -801.210          31.000    20774128.270    81522140.515        -597.885          21.000  
> 2021  9 30 11 19 50.9999278  0  5
C19  22016423.847   114645255.623       -2475.529          23.000  
C36  22511862.662   117225123.869       -1680.056          27.000  
G25  23518916.193   123592769.810       -4072.356          33.000    23518921.589    92293294.161       -3042.475          28.000  
G26  20550095.465   107991495.034        1036.073          32.000  
G32  20774180.434   109169085.546        -801.515          28.000    20774189.128    81522385.524        -599.346          22.000  
> 2021  9 30 11 19 51.9999273  0  5
C36  22512031.745   117226023.456       -1679.904          24.000  
G25  23519537.363   123596055.562       -4074.059          31.000    23519546.657    92295747.786       -3041.047          30.000  
G26  20549748.605   107989671.054        1035.826          32.000  
G32  20774183.432   109169100.363        -804.323          23.000    20774190.927    81522398.811        -603.331          22.000  
R04  19483457.583   104333030.3301      -1875.818          14.000  
> 2021  9 30 11 19 52.9999268  0  5
C36  22512203.826   117226922.629       -1679.898          27.000  
G25  23520164.829   123599341.655       -4074.596          31.000    23520172.324    92298201.392       -3042.547          28.000  
G26  20549404.144   107987848.218        1032.182          32.000  
G29  23781838.975   124974222.9711        119.100          20.000  
G32  20774184.331   109169117.019        -803.836          26.000    20774193.025    81522414.308        -605.041          15.000  
> 2021  9 30 11 19 53.9999265  0  8
C16  36955436.084   192436728.6841        -48.055          19.000  
C19  22017469.223   114650654.1811      -2480.263          17.000  
C36  22512435.565   117228135.367       -1681.585          28.000  
G25  23520848.655   123602942.997       -4075.290          32.000    23520857.949    92300891.268       -3043.140          30.000  
G26  20549118.441                        1033.656          32.000  
G29  23781722.356   124973630.831         121.451          22.000  
G32  20774247.588   109169447.327        -802.447          29.000    20774254.783    81522664.209        -600.236          13.000  
R04  19483921.962   104335516.8941      -1876.652          18.000  
> 2021  9 30 11 19 54.9999260  0  5
C19  22017795.098   114652354.325       -2479.417          16.000  
C36  22512608.246   117229037.034       -1682.104          29.000  
G25  23521476.121   123606229.455       -4074.167          33.000    23521483.316    92303346.168       -3043.525          30.000  
G26  20548770.982   107984523.2991       1033.889          33.000  
G32  20774251.485   109169461.445        -802.083          30.000    20774256.881    81522675.880        -599.954          12.000  
> 2021  9 30 11 19 55.9999258  0  7
C19  22018210.010   114654521.790       -2479.249          18.000  
C36  22512872.363   117230407.020       -1682.898          28.000  
G25  23522190.227   123609988.746       -4074.811          35.000    23522198.621    92306154.061       -3042.695          31.000  
G26  20548516.458   107983174.359        1032.237          33.000  
G29  23781466.034   124972284.8641        121.189          24.000  
G32  20774343.221   109169948.225        -801.867          30.000    20774348.318    81523040.691        -599.662          13.000  
J01  36578134.984   192219538.9291        230.090          28.000  
> 2021  9 30 11 19 56.9999252  0  7
C19  22018506.205   114656063.413       -2477.953          19.000  
C36  22513013.265   117231152.882       -1682.149          29.000  
G25  23522789.512   123613118.133       -4076.032          35.000    23522794.009    92308489.991       -3041.776          31.000  
G26  20548135.722   107981195.901        1033.187          32.000  
G32  20774315.041   109169805.623        -803.344          29.000    20774321.037    81522934.244        -599.305          14.000  
J01  36577911.938   192218362.588         231.262          29.000  
R04  19484587.201   104339079.1821      -1881.466          20.000  
> 2021  9 30 11 19 57.9999250  0  8
C06  36573195.304   190446324.8051        -97.569          26.000  
C19  22018921.118   114658229.713       -2479.223          18.000  
C36  22513274.984   117232521.960       -1680.609          26.000  
G25  23523502.118   123616877.788       -4075.162          35.000    23523509.014    92311297.289       -3043.208          31.000  
G26  20547881.797   107979848.249        1031.902          32.000  
G29  23781173.736   124970782.9231        120.343          27.000  
G32  20774407.377   109170293.874        -803.884          29.000    20774413.972    81523298.637        -600.068          15.000  
J01  36577806.112   192217816.420         230.826          28.000  
> 2021  9 30 11 19 58.9999247  0  7
C06  36573123.653   190445954.190         -98.225          25.000  
C36  22513507.623   117233734.988       -1681.524          27.000  
G25  23524188.343   123620480.185       -4076.500          36.000    23524194.339                       -3043.072          32.000  
G26  20547591.299   107978343.607        1030.372          32.000  
G32  20774469.134   109170625.597        -805.203          29.000    20774476.629    81523545.827        -600.380          16.000  
J01  36577673.903   192217112.628         231.578          24.000  
R04  19485124.729   104341957.8971      -1883.599          20.000  
> 2021  9 30 11 19 59.9999242  0  7
C06  36572993.244   190445271.407         -96.740          24.000  
C36  22513680.903   117234636.134       -1682.384          28.000  
G25  23524812.811   123623767.387       -4074.207          36.000    23524820.606    92316445.6311      -3041.447          31.000  
G26  20547250.734   107976524.214        1031.482          32.000  
G32  20774471.533   109170642.475        -804.235          26.000    20774480.526    81523557.564        -599.630          17.000  
J01  36577481.437   192216093.251         231.772          26.000  
R04  19485326.489   104343037.823       -1886.132          19.000  
> 2021  9 30 11 20  0.9999240  0  6
C06  36572947.675   190445055.138         -94.721          23.000  
C36  22513945.620   117236006.376       -1683.448          27.000  
G25  23525529.615   123627527.559       -4074.786          37.000    23525537.110    92319253.583       -3041.601          32.000  
G26  20546992.613   107975178.181        1032.502          32.000  
G32  20774566.567   109171131.698        -806.165          24.000    20774573.762    81523922.137        -600.396          18.000  
J01  36577379.507   192215546.413         231.579          26.000  
> 2021  9 30 11 20  1.9999235  0  5
C36  22514119.499   117236909.367       -1683.263          27.000  
G25  23526156.781   123630815.164       -4075.473          37.000    23526162.477    92321708.571       -3043.042          31.000  
G26  20546648.151   107973359.988        1029.684          32.000  
G32  20774568.965   109171150.293        -806.153          25.000    20774577.060    81523934.445        -601.132          18.000  
J01  36577187.340   192214527.452         230.972          25.000  
> 2021  9 30 11 20  2.9999229  0  7
C06  36572655.677   190443532.9531        -99.825          23.000  
C36  22514264.299   117237655.901       -1683.215          27.000  
G25  23526753.967   123633945.538       -4075.763          37.000    23526758.164    92324046.227       -3043.307          31.000  
G26  20546269.214   107971384.810        1029.859          32.000  
G32  20774541.684   109171011.522        -806.739          25.000    20774550.678    81523829.900        -601.634          19.000  
J01  36576965.194   192213350.331         231.304          24.000  
R04  19485961.450   104346438.2771      -1888.223          19.000  
> 2021  9 30 11 20  3.9999227  0  5
C06  36572615.205   190443320.241         -99.292          22.000  
G25  23527470.771   123637706.259       -4075.848          37.000    23527473.769    92326854.589       -3043.196          31.000  
G26  20546010.193   107970040.506        1029.238          31.000  
G29  23780344.810   124966453.1551        116.148          29.000  
G32  20774636.418   109171502.801        -805.142          23.000    20774644.513    81524196.388        -602.033          20.000  
> 2021  9 30 11 20  4.9999222  0  6
C06  36572482.097   190442639.278         -99.664          21.000  
C36  22514704.394   117239930.2971      -1684.164          24.000  
G25  23528093.740   123640994.490       -4076.599          38.000    23528099.136    92329310.085       -3043.144          31.000  
G26  20545666.931   107968224.124        1027.908          31.000  
G32  20774645.112   109171520.699        -806.159          17.000    20774648.110    81524210.374        -602.587          20.000  
R04  19486470.797   104349165.9821      -1889.026          18.000  
> 2021  9 30 11 20  5.9999219  0  4
C19  22021792.830   114673228.4221      -2479.758          18.000  
G25  23528779.665   123644598.133       -4076.627          38.000    23528784.461    92332001.094       -3045.565          32.000  
G26  20545386.925   107966723.568        1028.650          31.000  
G32  20774701.473   109171854.657        -806.187          16.000    20774712.866    81524459.894        -602.835          20.000  
> 2021  9 30 11 20  6.9999217  0  4
G25  23529492.271   123648359.631       -4077.737          38.000    23529500.366    92334810.022       -3044.921          32.000  
G26  20545133.000   107965381.195        1029.317          31.000  
G29  23779984.759   124964532.2391        114.215          25.000  
G32  20774781.218   109172346.315        -807.994          18.000    20774807.300    81524827.783        -603.490          21.000  
> 2021  9 30 11 20  7.9999212  0  4
C19  22022542.011   114677096.4081      -2483.820          17.000  
G25  23530120.337   123651648.716       -4076.631          38.000    23530125.733    92337266.147       -3045.202          31.000  
G26  20544781.644   107963566.850        1027.537          29.000  
J02  38907718.147   204461450.4561      -1430.034          25.000  
> 2021  9 30 11 20  8.9999209  0  4
G25  23530805.362   123655253.015       -4076.974          38.000    23530811.058    92339957.659       -3044.103          31.000  
G26  20544491.145   107962068.061        1027.271          28.000  
G32  20774839.678   109172703.3441       -809.556          19.000  
J02  38907897.423   204462408.468       -1430.875          26.000  
> 2021  9 30 11 20  9.9999204  0  5
G25  23531430.130   123658542.400       -4076.977          38.000    23531438.224    92342414.072       -3043.257          32.000  
G26  20544151.480   107960254.718        1025.897          30.000  
G29  23779533.571   124962143.4021        114.395          19.000  
G32  20774842.975   109172725.146        -809.677          20.000  
J02  38908016.741   204463051.297       -1430.666          28.000  
> 2021  9 30 11 20 10.9999199  0  6
C06  36571905.597   190439643.0461        -94.536          20.000  
G25  23532056.996   123661832.143       -4077.428          38.000    23532064.191    92344870.712       -3046.519          32.000  
G26  20543807.018   107958442.189        1022.417          29.000  
G29  23779367.786   124961241.361         112.547          12.000  
G32  20774844.175   109172747.165        -809.818          23.000  
J02  38908137.557   204463693.406       -1429.275          28.000  
> 2021  9 30 11 20 11.9999196  0  6
C06  36571835.145   190439270.029         -95.991          22.000  
G25  23532742.022   123665437.090       -4077.837          38.000    23532750.116    92347562.708       -3044.604          32.000  
G26  20543522.515   107956945.237        1022.893          30.000  
G29  23779268.855   124960657.584         109.150          20.000  
J01  36575577.155   192206077.2931        228.042          20.000  
J02  38908318.931   204464650.000       -1429.119          28.000  
> 2021  9 30 11 20 12.9999191  0  4
C06  36571704.736   190438586.304         -97.412          25.000  
G25  23533369.487   123668727.078       -4077.961          37.000    23533376.083    92350019.503       -3046.013          31.000  
G26  20543176.555   107955133.730        1022.646          30.000  
G29  23779103.069   124960029.929         110.416          21.000  
> 2021  9 30 11 20 13.9999188  0  6
G25  23534055.113   123672332.421       -4078.995          37.000    23534062.308    92352711.833       -3044.463          31.000  
G26  20542886.356   107953637.917        1024.949          30.000  
G29  23778987.350   124959446.123         110.969          22.000  
G32  20774989.874   109173444.8511       -810.564          24.000  
J01  36575251.280   192204356.4081        229.803          18.000  
J02  38908626.518   204466249.1271      -1428.908          28.000  
> 2021  9 30 11 20 14.9999183  0  5
G25  23534683.478   123675623.011       -4078.287          38.000    23534687.975    92355169.057       -3044.533          31.000  
G26  20542547.590   107951827.790        1021.954          29.000  
G32  20774996.169   109173468.183        -811.610          22.000  
J01  36575057.914   192203339.443         228.784          17.000  
J02  38908749.133   204466890.547       -1430.235          28.000  
> 2021  9 30 11 20 15.9999183  0  8
C06  36571523.361   190437628.0921        -95.865          22.000  
C16  36953193.337   192425030.2551        -49.953          24.000  
G25  23535460.240   123679701.259       -4078.427          38.000    23535463.837    92358214.533       -3044.470          31.000  
G26  20542355.123   107950805.779        1020.366          29.000  
G29  23778588.626   124957326.6151        109.820          25.000  
G32  20775153.860   109174279.370        -811.792          21.000  
J01  36575015.644   192203111.465         227.897          18.000  
J02  38909023.444   204468321.000       -1431.109          28.000  
> 2021  9 30 11 20 16.9999178  0  5
G25  23536086.806   123682991.985       -4077.892          38.000    23536090.404    92360671.918       -3044.752          31.000  
G26  20542012.161   107948996.487        1020.013          29.000  
G32  20775158.657   109174303.313        -811.795          23.000  
J01  36574824.376   192202096.721         226.830          18.000  
J02  38909148.757   204468964.731       -1431.854          28.000  
> 2021  9 30 11 20 17.9999173  0  5
G25  23536713.372   123686282.958       -4078.633          38.000    23536716.670    92363129.488       -3046.336          30.000  
G26  20541664.402   107947187.956        1018.583          29.000  
G29  23778254.657   124955531.3651        109.647          26.000  
G32  20775164.053   109174327.633        -812.774          26.000  
J02  38909271.072   204469608.043       -1430.905          28.000  
> 2021  9 30 11 20 18.9999171  0  6
C06  36571224.768   190436045.6591        -97.007          23.000  
G25  23537431.675   123690046.671       -4078.589          38.000    23537431.975    92365940.057       -3045.557          31.000  
G26  20541409.278   107945852.530        1020.508          29.000  
G29  23778176.711   124955107.344         108.815          26.000  
G32  20775259.087   109174826.513        -815.054          24.000  
J02  38909482.126   204470722.728       -1429.568          29.000  
> 2021  9 30 11 20 19.9999165  0  7
C06  36571063.779   190435206.611         -99.152          23.000  
C16  36952694.782   192422422.6971        -49.104          23.000  
C36  22517871.402   117256306.8281      -1685.462          20.000  
G25  23538026.463   123693180.326       -4078.458          39.000    23538028.862    92368280.124       -3046.431          31.000  
G26  20541038.735   107943887.424        1019.600          29.000  
G29  23777990.839   124954053.386         108.547          27.000  
J02  38909577.760   204471207.143       -1429.843          28.000  
> 2021  9 30 11 20 20.9999160  0  7
C06  36570932.770   190434523.838         -97.286          20.000  
C36  22518046.781   117257211.818       -1685.587          24.000  
G25  23538652.430   123696471.739       -4080.229          39.000    23538655.128    92370737.987       -3045.908          30.000  
G26  20540693.674   107942079.632        1018.665          29.000  
G29  23777824.455   124953156.751         107.909          26.000  
G32  20775236.303   109174723.0071       -815.367          16.000  
J02  38909697.677   204471849.167       -1429.928          30.000  
> 2021  9 30 11 20 21.9999158  0  9
C06  36570890.499   190434309.118         -97.662          17.000  
C16  36952501.116   192421428.2071        -50.344          21.000  
C19  22027619.596   114703474.9201      -2487.954          27.000  
C36  22518310.298   117258584.394       -1684.908          24.000  
G25  23539370.133   123700235.917       -4080.041          39.000    23539371.332    92373548.893       -3045.627          30.000  
G26  20540441.848   107940745.973        1018.723          31.000  
G29  23777745.909   124952734.227         107.054          26.000  
J01  36574031.125   192197802.8981        230.693          18.000  
J02  38909910.230   204472964.698       -1431.308          30.000  
> 2021  9 30 11 20 22.9999153  0  9
C06  36570757.991   190433623.913         -92.393          15.000  
C16  36952362.312   192420696.916         -48.578          23.000  
C19  22027946.070   114705183.591       -2490.603          26.000  
G25  23539994.001   123703527.727       -4079.903          39.000    23539997.599    92376007.051       -3046.774          31.000  
G26  20540099.485   107938939.826        1018.162          31.000  
G29  23777590.916   124951839.705         107.253          25.000  
G32  20775334.635   109175248.8761       -814.895          26.000  
J01  36573837.159   192196784.954         229.837          25.000  
J02  38910032.545   204473608.096       -1430.746          32.000  
> 2021  9 30 11 20 23.9999150  0  7
C06  36570690.238   190433243.653         -86.742          13.000  
C19  22028332.203   114707205.924       -2490.483          26.000  
G25  23540681.725   123707134.724       -4079.740          39.000    23540684.123    92378700.598       -3047.558          30.000  
G26  20539816.181   107937449.618        1017.511          30.000  
G32  20775396.093   109175591.682        -817.675          22.000  
J01  36573704.951   192196083.197         228.316          21.000  
J02  38910215.718   204474565.302       -1429.579          31.000  
> 2021  9 30 11 20 24.9999148  0  7
C06  36570646.168   190433019.480         -90.380          11.000  
C19  22028748.615   114709383.651       -2489.806          27.000  
G25  23541397.630   123710899.554       -4079.506          38.000    23541401.227    92381512.004       -3045.846          30.000  
G26  20539561.957   107936117.309        1016.575          31.000  
G32  20775500.121   109176096.634        -822.532          18.000  
J01  36573600.323   192195540.417         226.525          20.000  
J02  38910427.971   204475680.266       -1430.250          31.000  
> 2021  9 30 11 20 25.9999142  0  8
C06  36570482.782   190432171.873         -86.330          11.000  
C19  22029046.009   114710937.653       -2490.638          28.000  
G10  22920826.042                       -4086.812          23.000  
G25  23541992.118   123714034.335       -4080.398          38.000    23541997.814    92383852.920       -3046.350          31.000  
G26  20539187.217   107934155.576        1016.134          31.000  
G32  20775485.731   109175973.862        -821.878          19.000  
J01  36573381.475   192194367.604         229.544          20.000  
J02  38910520.307   204476164.355       -1429.171          31.000  
> 2021  9 30 11 20 26.9999140  0  8
C16  36952018.450   192418865.6301        -50.541          19.000  
C19  22029462.421   114713116.026       -2490.458          27.000  
C36  22519367.966   117264207.8471      -1686.398          27.000  
G25  23542710.121   123717799.518       -4080.658          38.000    23542714.018    92386664.598       -3046.894          30.000  
G26  20538934.192   107932823.954        1016.268          31.000  
G32  20775587.660   109176480.672        -822.492          20.000  
J01  36573277.747   192193823.626         229.328          22.000  
J02  38910732.560   204477278.627       -1429.826          31.000  
> 2021  9 30 11 20 27.9999135  0  8
C16  36951877.248   192418135.222         -49.847          20.000  
C19  22029789.794   114714826.588       -2491.199          25.000  
C36  22519539.747   117265113.733       -1687.445          26.000  
G25  23543335.488   123721092.187       -4082.409          38.000    23543340.884    92389123.395       -3046.358          31.000  
G26  20538591.829   107931020.468        1015.268          31.000  
G32  20775597.553   109176515.762        -823.078          20.000  
J01  36573084.680   192192806.601         229.408          23.000  
J02  38910854.276   204477921.202       -1430.909          30.000  
> 2021  9 30 11 20 28.9999132  0  9
C19  22030177.426   114716850.853       -2493.225          25.000  
C36  22519772.086   117266333.025       -1688.115          26.000  
G10  22922076.776                       -4086.828          20.000  
G25  23544021.713   123724699.621       -4079.402          38.000    23544027.709    92391817.270       -3047.135          31.000  
G26  20538308.825   107929532.830        1014.931          29.000  
G29  23776853.127   124948206.3011        104.210          23.000  
G32  20775668.604   109176866.370        -822.954          20.000  
J01  36572951.872   192192105.621         227.377          24.000  
J02  38911038.349   204478879.482       -1430.890          28.000  
> 2021  9 30 11 20 29.9999127  0  8
C16  36951648.506   192416982.6331        -46.756          24.000  
C19  22030506.897   114718563.576       -2493.451          25.000  
C36  22519945.966   117267239.623       -1686.925          29.000  
G10  22921926.880                       -4086.828          19.000  
G25                                                                  23544653.675    92394276.245       -3045.676          33.000  
G26  20537964.063   107927730.295        1014.275          32.000  
G32  20775679.996   109176899.183        -819.494          27.000  
J02  38911159.765   204479521.902       -1429.431          28.000  
> 2021  9 30 11 20 30.9999122  0  6
C16  36951504.606   192416249.477         -47.390          29.000  
C19  22030836.369   114720276.872       -2493.836          27.000  
C36  22520118.346   117268147.384       -1688.889          35.000  
G25  23545273.946   123731284.4591      -4080.600          34.000    23545280.242    92396735.579       -3050.337          33.000  
G26  20537621.700   107925928.678        1013.549          36.000  
G29  23776530.850   124946420.5561        104.519          20.000  
> 2021  9 30 11 20 31.9999119  0  6
C16  36951423.362   192415829.233         -48.733          28.000  
C19  22031224.301   114722301.923       -2492.476          27.000  
C36  22520352.484   117269368.395       -1689.619          26.000  
G25  23545959.871   123734892.999       -4081.683          38.000    23545967.366    92399430.473       -3047.103          32.000  
G26  20537340.495   107924443.005        1012.928          36.000  
G32  20775739.355   109177274.3811       -816.948          33.000  
> 2021  9 30 11 20 32.9999114  0  7
C16  36951282.459   192415097.481         -48.997          29.000  
C19  22031551.974   114724013.134       -2491.420          27.000  
C36  22520527.263   117270276.944       -1688.873          28.000  
G25  23546588.836   123738187.256       -4082.104          38.000    23546594.532    92401890.121       -3048.481          32.000  
G26  20536995.734   107922642.845        1011.114          36.000  
G32  20775743.852   109177304.175        -818.885          38.000  
J02  38911579.774   204481763.5001      -1430.893          23.000  
> 2021  9 30 11 20 33.9999114  0  8
C16  36951291.153   192415146.607         -49.435          26.000  
C19  22032030.743   114726505.511       -2493.292          23.000  
C36  22520852.838   117271966.012       -1689.238          33.000  
G25  23547364.998                       -4082.245          36.000    23547370.694    92404937.591       -3047.705          31.000  
G26  20536799.370   107921630.149        1013.896          32.000  
G29  23776250.844   124944849.2441        102.678          25.000  
G32  20775898.245   109178124.182        -820.073          38.000  
J02  38911848.987   204483194.521       -1430.476          23.000  
> 2021  9 30 11 20 34.9999109  0  7
C01  37485384.608   195196227.1801       -608.387          28.000  
C16  36951151.150   192414415.204         -48.931          27.000  
C19  22032360.814   114728218.204       -2492.160          22.000  
G25  23547990.365   123745531.0411      -4082.117          38.000    23547998.160    92407397.059       -3047.575          31.000  
G26  20536456.707   107919830.440        1011.410          33.000  
G29  23776088.956   124943959.883          99.048          27.000  
J02  38911970.104   204483837.058       -1431.349          26.000  
> 2021  9 30 11 20 35.9999104  0  8
C16  36951013.546   192413683.420         -48.757          24.000  
C19  22032691.785   114729931.170       -2493.377          25.000  
C36  22521207.792   117273784.5881      -1688.746          26.000  
G25  23548615.133   123748824.386       -4082.247          37.000    23548624.127    92409856.514       -3046.461          31.000  
G26  20536115.843   107918031.613        1010.377          31.000  
G32  20775905.740   109178186.9381       -819.651          29.000  
J01  36571766.193   192186101.1871        227.540          30.000  
J02  38912091.520   204484480.775       -1430.724          27.000  
> 2021  9 30 11 20 36.9999101  0  6
C16  36950932.302   192413263.601         -48.610          30.000  
C19  22033081.515   114731956.304       -2493.412          28.000  
C36  22521442.530   117275004.550       -1688.237          32.000  
G25  23549301.957   123752433.192       -4081.667          31.000    23549310.651    92412551.435       -3047.885          32.000  
G29  23775840.428   124942884.2061        100.789          25.000  
J02  38912272.894   204485438.091       -1429.580          29.000  
> 2021  9 30 11 20 37.9999096  0  7
C16  36950791.399   192412531.508         -48.550          33.000  
C36  22521616.409   117275912.354       -1688.132          35.000  
G25  23549931.222   123755727.374       -4083.315          32.000    23549937.518    92415011.358       -3048.322          32.000  
G26  20535486.578   107914751.1701       1009.825          29.000  
G29  23775683.637   124941996.157         100.929          24.000  
J01  36571440.019   192184385.7051        228.154          24.000  
J02  38912393.411   204486079.323       -1428.760          29.000  
> 2021  9 30 11 20 38.9999094  0  7
C16  36950737.137   192412267.425         -48.183          33.000  
C19  22033831.296   114735854.0491      -2495.786          17.000  
C36  22521878.428                       -1688.983          35.000  
G25  23550649.824   123759494.635       -4082.151          34.000    23550654.321    92417824.561       -3049.313          33.000  
G26  20535236.552   107913426.369        1009.245          34.000  
J01  36571333.293   192183842.735         226.745          26.000  
J02  38912604.464   204487193.578       -1430.457          29.000  
> 2021  9 30 11 20 39.9999089  0  9
C06  36569158.299   190425228.7871        -95.512          32.000  
C16  36950595.335                         -48.616          32.000  
C19  22034162.567   114737569.797       -2496.211          16.000  
C36  22522051.708   117278239.1321      -1687.940          35.000  
G25  23551276.990   123762789.073       -4082.734          35.000    23551281.187    92420284.721       -3048.331          32.000  
G26  20534896.287   107911629.602        1008.692          33.000  
G32  20776091.011                        -821.981          40.000  
J01  36571137.828   192182827.345         228.479          27.000  
J02  38912728.579   204487836.130       -1430.659          28.000  
> 2021  9 30 11 20 40.9999084  0 10
C06  36569029.987                         -98.555          31.000  
C16  36950453.533                         -48.189          32.000  
C19  22034490.540   114739285.773       -2496.102          24.000  
C36  22522225.887   117279147.751       -1689.853          33.000  
G25  23551903.856   123766083.517       -4083.564          35.000    23551907.754    92422744.870       -3049.633          33.000  
G26  20534556.622   107909833.387        1008.702          30.000  
G29  23775295.705   124939805.6081         98.779          29.000  
G32  20776095.808   109179128.7351       -821.920          40.000  
J01  36570944.162   192181812.016         226.655          24.000  
J02  38912850.294   204488478.211       -1430.109          28.000  
> 2021  9 30 11 20 41.9999081  0  9
C06  36568961.335                         -97.010          32.000  
C16  36950370.491   192410294.0791        -48.933          32.000  
C36  22522464.522   117280368.864       -1687.834          32.000  
G25  23552592.180   123769693.461       -4083.435          35.000    23552595.178    92425440.595       -3049.942          32.000  
G26  20534275.117   107908352.107        1008.088          33.000  
G29  23775194.076   124939234.282          98.197          30.000  
G32  20776160.863   109179478.420        -822.595          40.000  
J01  36570812.853   192181112.189         227.668          25.000  
J02  38913031.069   204489435.300       -1429.875          29.000  
> 2021  9 30 11 20 42.9999078  0  8
C06  36568890.584   190423790.7291        -95.832          32.000  
C16  36950294.044   192409873.889         -49.686          32.000  
C19  22035265.803   114743341.8251      -2496.236          23.000  
C36  22522699.859   117281590.138       -1690.059          34.000  
G25  23553279.004   123773303.592       -4083.094          35.000    23553281.403    92428136.478       -3048.944          33.000  
G26  20533994.811   107906871.796        1007.002          33.000  
J01  36570682.144   192180412.953         227.663          25.000  
J02  38913215.442   204490391.998       -1428.458          28.000  
> 2021  9 30 11 20 43.9999076  0 10
C06  36568848.013   190423574.735         -95.483          31.000  
C16  36950241.280   192409609.746         -48.719          31.000  
C19  22035685.512   114745526.268       -2497.368          25.000  
C36  22522965.475   117282967.710       -1690.692          33.000  
G25  23553993.709   123777071.385       -4082.921          35.000    23553999.106    92430950.070       -3048.211          32.000  
G26  20533742.986   107905549.953        1006.580          31.000  
G29  23775013.900   124938540.6241         96.537          28.000  
G32  20776324.850   109180336.6111       -822.651          40.000  
J01  36570578.116   192179869.332         228.631          25.000  
J02  38913427.695   204491505.481       -1428.258          28.000  
> 2021  9 30 11 20 44.9999071  0  8
C06  36568717.304   190422890.283         -95.163          30.000  
C16  36950100.977   192408877.245         -48.630          32.000  
C36  22523142.353   117283877.099       -1690.420          33.000  
G25  23554622.374   123780366.669       -4083.652          34.000    23554625.972    92433410.836       -3047.671          32.000  
G26  20533402.721   107903755.686        1006.321          32.000  
G29  23774846.616   124937656.262          96.704          26.000  
G32  20776328.447   109180372.472        -823.759          39.000  
J02  38913548.511   204492146.243       -1429.505          29.000  
> 2021  9 30 11 20 45.9999066  0  8
C06  36568585.995   190422205.949         -99.407          30.000  
C16  36949953.779   192408144.828         -48.630          31.000  
C36  22523315.633   117284786.745       -1688.616          31.000  
G25                                                                  23555252.838    92435871.786       -3048.275          32.000  
G26  20533060.658   107901961.654        1006.290          28.000  
G29  23774682.630   124936771.759          96.651          27.000  
G32  20776332.344   109180408.928        -823.846          38.000  
J01  36570194.681   192177838.6411        227.007          23.000  
> 2021  9 30 11 20 46.9999063  0 10
C01  37485419.684   195196297.6861       -601.941          32.000  
C06  36568511.047   190421833.570         -97.371          29.000  
C16  36949873.735   192407724.426         -47.478          30.000  
C36  22523547.373   117286008.616       -1692.315          31.000  
G25                                                                  23555940.262    92438568.148       -3048.543          33.000  
G26  20532783.949   107900483.447        1004.646          22.000  
G29  23774579.801   124936202.828          96.153          27.000  
G32  20776399.198   109180760.695        -823.872          36.000  
J01  36570063.072   192177139.502         225.478          23.000  
J02  38913850.702   204493745.7781      -1430.257          27.000  
> 2021  9 30 11 20 47.9999058  0 10
C01  37485385.208   195196119.379        -603.221          31.000  
C06  36568378.538   190421149.433         -95.853          29.000  
C16  36949734.331   192406991.778         -47.598          31.000  
C19  22037072.352   114752710.9411      -2499.424          28.000  
C36  22523719.453   117286918.463       -1689.736          31.000  
G25  23556564.130   123790568.8801      -4083.130          35.000    23556566.528    92441029.352       -3049.697          32.000  
G26  20532440.387   107898691.417        1003.953          28.000  
G32  20776407.892   109180797.747        -825.756          36.000  
J01  36569871.805   192176125.073         226.958          26.000  
J02  38913972.118   204494387.740       -1429.180          28.000  
> 2021  9 30 11 20 48.9999055  0  9
C01  37485412.789   195196254.770        -604.281          28.000  
C06  36568306.288   190420776.727         -96.258          29.000  
C16  36949653.987   192406571.308         -48.170          31.000  
C19  22037461.183   114754741.761       -2497.814          26.000  
C36  22523953.292   117288140.699       -1692.444          32.000  
G25  23557253.653   123794180.024       -4083.517          35.000    23557253.653    92443725.980       -3048.392          32.000  
G26  20532158.882   107897215.348        1003.169          30.000  
G32  20776476.245   109181150.295        -824.445          38.000  
J02  38914154.092   204495343.613       -1429.149          28.000  
> 2021  9 30 11 20 49.9999050  0  8
C06  36568174.679   190420092.427         -96.540          31.000  
C16  36949514.284   192405838.443         -49.697          30.000  
C36  22524137.664   117289050.888       -1690.429          31.000  
G25  23557877.521   123797476.072       -4083.382          36.000    23557880.219    92446187.347       -3050.338          31.000  
G26  20531818.618   107895425.208        1002.115          32.000  
G29  23774138.207   124933867.2701         95.716          31.000  
G32  20776487.637   109181188.167        -825.918          38.000  
J02  38914277.306   204495985.253       -1429.872          28.000  
> 2021  9 30 11 20 50.9999045  0  8
C06  36568043.071   190419408.066         -95.994          31.000  
C16  36949376.979   192405105.632         -46.938          30.000  
C36  22524310.344   117289961.063       -1691.574          31.000  
G25  23558504.986   123800772.347       -4084.972          36.000    23558507.984    92448648.871       -3048.839          31.000  
G26  20531477.454   107893635.490        1001.802          33.000  
G32  20776492.733   109181226.517        -826.737          38.000  
R04  19497545.130   104408468.6261      -1924.274          29.000  
R05  20022637.616                        1963.174          26.000  
> 2021  9 30 11 20 51.9999045  0 11
C06  36568060.758   190419503.696         -95.991          28.000  
C16  36949382.974   192405153.360         -49.176          30.000  
C19  22038604.592   114760675.4391      -2500.921          19.000  
C36  22524638.018   117291652.214       -1693.473          30.000  
G25  23559282.948   123804856.719       -4084.661          35.000    23559285.346    92451698.895       -3051.271          32.000  
G26  20531289.784   107892633.423        1001.140          32.000  
G29  23773942.142   124932891.2581         95.158          31.000  
G32  20776650.124   109182052.974        -827.212          37.000  
J02  38914667.037   204498058.1671      -1430.804          26.000  
R04  19497902.783   104410383.293       -1925.260          28.000  
R05  20022264.375                        1961.053          23.000  
> 2021  9 30 11 20 52.9999040  0 11
C06  36567930.349   190418819.104         -96.180          31.000  
C16  36949245.370   192404420.713         -49.025          30.000  
C19  22038932.564   114762396.727       -2502.392          28.000  
C36  22524810.998   117292563.413       -1691.651          30.000  
G25  23559910.413   123808153.851       -4085.702          37.000    23559912.512    92454161.035       -3051.191          32.000  
G26  20530948.920                        1001.070          35.000  
G29  23773757.470   124932010.435          93.358          29.000  
G32  20776662.716   109182092.304        -827.444          36.000  
J01  36569111.831   192172154.7781        224.572          25.000  
R04  19498106.642   104411475.710       -1926.483          26.000  
R05  20021746.933   107027711.6631       1960.752          24.000  
> 2021  9 30 11 20 53.9999037  0 11
C06  36567858.398   190418446.872         -96.717          31.000  
C16  36949160.229   192404000.832         -46.871          28.000  
C19  22039323.794   114764431.139       -2503.143          28.000  
C36  22525044.536   117293786.744       -1691.013          32.000  
G25  23560596.638   123811765.828       -4085.520          38.000    23560599.936    92456858.296       -3052.553          31.000  
G26  20530666.515   107889390.6861       1000.458          35.000  
G29  23773647.446   124931444.312          93.529          27.000  
J01  36568980.222   192171456.904         225.463          29.000  
J02  38914974.923   204499658.4341      -1430.355          28.000  
R04  19498381.551   104412947.418       -1926.347          24.000  
R05  20021286.752   107025251.365        1961.523          23.000  
> 2021  9 30 11 20 54.9999032  0  9
C06  36567727.389   190417763.324         -96.578          29.000  
C19  22039655.964   114766154.445       -2505.365          25.000  
C36  22525218.716   117294699.099       -1693.027          28.000  
G25  23561222.905   123815063.232       -4086.036          37.000    23561227.102    92459320.690       -3053.270          30.000  
G26  20530326.850   107887603.007        1000.368          31.000  
G32  20776732.268   109182487.6081       -830.549          35.000  
J01  36568788.954   192170443.188         226.255          28.000  
J02  38915096.639   204500301.524       -1431.441          25.000  
R04  19498596.503   104414098.194       -1928.521          22.000  
> 2021  9 30 11 20 55.9999027  0 10
C06  36567597.279   190417078.983         -96.140          28.000  
C16  36948870.030   192402535.8091        -48.725          19.000  
C19  22039987.534   114767879.372       -2506.143          25.000  
C36  22525393.195   117295611.260       -1692.432          29.000  
G25  23561853.368   123818360.718       -4084.540          37.000    23561855.767    92461783.057       -3050.223          31.000  
G26  20529985.687   107885815.977         999.131          35.000  
G29  23773312.278   124929681.7531         92.844          25.000  
G32  20776740.362   109182528.058        -828.253          35.000  
J01  36568596.487   192169429.674         225.419          30.000  
R04  19498811.154   104415248.096       -1928.731          25.000  
> 2021  9 30 11 20 56.9999025  0  8
C19  22040408.743   114770073.667       -2506.745          22.000  
C36  22525657.012   117296991.114       -1691.960          35.000  
G25  23562568.074   123822130.800       -4084.655          39.000    23562573.170    92464598.380       -3049.061          31.000  
G26  20529734.760   107884501.900         998.895          36.000  
G32  20776835.696   109183041.572        -828.609          38.000  
J01  36568495.457   192168888.337         227.312          26.000  
J02  38915434.205   204502057.9201      -1428.048          24.000  
R05  20019815.070   107017384.8471       1972.168          15.000  
> 2021  9 30 11 20 57.9999020  0  9
C06  36567418.903   190416176.1231        -95.128          27.000  
C36  22525835.688   117297902.750       -1693.279          35.000  
G25  23563194.040   123825428.386       -4085.557          39.000    23563200.636    92467060.832       -3052.342          32.000  
G26  20529392.697   107882715.773         997.695          35.000  
G32  20776846.488   109183082.951        -830.364          39.000  
J01  36568302.691   192167873.515         226.786          20.000  
J02  38915558.020   204502697.989       -1427.797          27.000  
R04  19499331.893   104418036.6401      -1929.584          15.000  
R05  20019289.834   107014576.450        1971.059          13.000  
> 2021  9 30 11 20 58.9999014  0  8
C06  36567256.415   190415335.215         -96.331          26.000  
C16  36948516.274   192400647.9531        -47.859          25.000  
C36  22525978.090                       -1692.043          34.000  
G25  23563792.126   123828568.604       -4085.681          39.000    23563796.623    92469405.824       -3052.862          31.000  
G26  20529023.353   107880772.655         997.090          36.000  
G29  23772870.384   124927356.4101         90.587          28.000  
G32  20776820.407   109182967.091        -828.702          40.000  
J02  38915650.356   204503180.972       -1428.657          27.000  
> 2021  9 30 11 20 59.9999012  0  6
C36  22526244.306   117300059.2961      -1691.211          34.000  
G25  23564508.031   123832339.142       -4085.879          39.000    23564514.626    92472221.442       -3050.855          30.000  
G26  20528773.326   107879460.377         996.506          36.000  
G29  23772802.032   124926951.287          89.650          26.000  
G32  20776919.038   109183482.000        -829.524          40.000  
J02  38915864.108   204504295.897       -1431.341          26.000  
> 2021  9 30 11 21  0.9999009  0  8
C06  36567140.995   190414744.4891        -94.636          23.000  
C19  22041840.851   114777597.2911      -2504.409          25.000  
C36  22526476.645   117301283.394       -1692.718          35.000  
G25  23565195.754   123835952.181       -4085.810          39.000    23565203.249    92474919.537       -3050.086          30.000  
G26  20528494.219   107877990.882         997.306          36.000  
G29  23772697.404   124926388.692          90.072          24.000  
G32  20776985.592   109183839.591        -830.508          39.000  
J02  38916046.382   204505253.924       -1430.270          28.000  
> 2021  9 30 11 21  1.9999007  0  8
C06  36567100.823   190414526.297         -93.997          25.000  
C19  22042260.261   114779789.359       -2505.372          24.000  
C36  22526743.760   117302663.892       -1692.450          34.000  
G25  23565915.856   123839722.743       -4086.779          39.000    23565920.653    92477735.220       -3051.514          31.000  
G26  20528241.794   107876679.473         995.719          35.000  
G29  23772409.603   124924855.435          88.658          25.000  
J02  38916258.635   204506368.668       -1429.514          29.000  
R04  19500399.454   104423753.1531      -1922.613          18.000  
> 2021  9 30 11 21  2.9999002  0  6
C06  36566971.313   190413839.850         -95.154          28.000  
C36  22526918.239   117303576.312       -1691.987          34.000  
G25  23566546.919   123843021.014       -4085.744          38.000    23566547.818    92480198.247       -3052.769          32.000  
G26  20527907.525   107874896.152         995.673          35.000  
G29  23772246.516   124923978.646          88.851          22.000  
R04  19500602.414   104424840.115       -1930.041          18.000  
> 2021  9 30 11 21  3.9998996  0  8
C06  36566812.123   190412998.399         -95.755          30.000  
C16  36948030.910   192398074.4091        -47.478          23.000  
C19  22042895.521   114783084.3951      -2507.591          29.000  
C36  22527067.835   117304332.537       -1693.403          32.000  
G25  23567145.005   123846161.928       -4086.443          37.000    23567145.605    92482543.739       -3052.554          31.000  
G26  20527542.078   107872955.709         993.694          35.000  
G29  23772053.150   124922944.603          88.608          27.000  
R04  19500780.191   104425792.448       -1934.157          29.000  
> 2021  9 30 11 21  4.9998994  0  9
C06  36566772.550   190412781.776         -95.252          30.000  
C16  36947978.447   192397809.841         -47.945          25.000  
C19  22043318.228   114785279.303       -2507.239          29.000  
G25  23567863.008   123849933.082       -4087.293          38.000    23567863.308    92485359.892       -3053.462          31.000  
G26  20527293.550   107871645.975         994.126          35.000  
G29  23771980.600   124922541.007          88.304          29.000  
G32  20777167.566   109184801.7491       -832.224          30.000  
J02  38916690.036   204508609.6901      -1429.103          29.000  
R04  19501080.283   104427399.056       -1938.019          30.000  
> 2021  9 30 11 21  5.9998989  0 11
C06  36566643.040   190412096.367         -94.470          30.000  
C16  36947835.746   192397077.229         -47.999          26.000  
C19  22043652.197   114787005.970       -2506.914          29.000  
C30  25812438.221                        1015.169          17.000  
C36  22527498.637   117306626.2501      -1693.404          29.000  
G25  23568488.075   123853231.645       -4086.074          37.000    23568490.773    92487823.110       -3050.278          31.000  
G26  20526953.586   107869864.250         994.235          35.000  
G29  23771827.706   124921665.064          87.985          29.000  
G32  20777175.661   109184846.545        -832.989          32.000  
J02  38916811.452   204509251.386       -1428.802          28.000  
R04  19501291.937   104428532.221       -1936.377          28.000  
> 2021  9 30 11 21  6.9998986  0 10
C06  36566573.488   190411723.759         -95.665          24.000  
C16  36947757.500   192396655.826         -45.859          27.000  
C19  22044044.326   114789043.636       -2506.068          24.000  
C30  25812149.821   134410655.7551       1015.101          16.000  
C36  22527737.272   117307851.773       -1694.878          30.000  
G25  23569171.302   123856845.437       -4085.612          36.000    23569178.797    92490521.724       -3049.591          32.000  
G26  20526675.378   107868397.866         991.609          33.000  
G29  23771723.378   124921104.446          87.493          26.000  
G32  20777248.810   109185206.409        -833.479          36.000  
R04  19501562.050   104429978.537       -1934.545          24.000  
> 2021  9 30 11 21  7.9998981  0  6
C06  36566444.277   190411039.906         -98.852          21.000  
C36  22527912.950   117308765.643       -1694.489          30.000  
G25  23569798.768   123860144.583       -4086.700          38.000    23569807.462    92492985.378       -3051.568          32.000  
G29  23771561.191   124920229.202          87.078          26.000  
J02  38917113.643   204510848.1971      -1428.924          31.000  
R04  19501778.500   104431138.003       -1937.364          21.000  
> 2021  9 30 11 21  8.9998976  0  9
C06  36566315.367   190410358.437         -98.785          17.000  
C16  36947474.795   192395187.9071        -47.491          13.000  
C36  22528088.329   117309679.738       -1694.800          31.000  
G25  23570428.932   123863443.850       -4087.203          38.000    23570435.527    92495449.157       -3052.272          34.000  
G26  20525987.954   107864837.5201        991.724          33.000  
G29  23771399.003   124919354.861          86.286          26.000  
G32  20777282.087   109185298.0371       -832.759          34.000  
J02  38917236.558   204511489.331       -1428.741          31.000  
R04  19501988.954   104432264.960       -1936.300          20.000  
> 2021  9 30 11 21  9.9998976  0  7
C06  36566335.153   190410459.093        -101.926          15.000  
C19  22045181.139   114795006.6791      -2510.913          27.000  
C36  22528413.304   117311373.862       -1693.551          32.000  
G25  23571207.792   123867530.862       -4087.902          38.000    23571213.788    92498501.164       -3050.482          33.000  
G26  20525799.085   107863845.620         992.410          33.000  
G29  23771393.007   124919268.786          85.818          28.000  
J02  38917508.170   204512917.718       -1428.400          31.000  
> 2021  9 30 11 21 10.9998971  0  7
C19  22045511.210   114796737.206       -2511.392          26.000  
G25  23571837.357   123870830.384       -4087.075          39.000    23571841.853    92500965.072       -3052.823          34.000  
G26  20525465.416   107862066.642         990.755          34.000  
G29  23771256.302   124918794.540          85.219          27.000  
G32  20777432.583   109186178.5251       -834.536          34.000  
J02  38917632.584   204513558.460       -1428.518          31.000  
R04  19502545.968   104435247.3841      -1939.295          20.000  
> 2021  9 30 11 21 11.9998968  0  9
C06  36566142.087   190409405.2061        -95.870          17.000  
C19  22045902.739   114798779.790       -2511.543          26.000  
C36  22528812.927   117313512.9081      -1692.711          26.000  
G25  23572523.282   123874445.026       -4088.030          39.000    23572529.577    92503664.348       -3052.560          33.000  
G26  20525186.609   107860603.203         990.960          34.000  
G29  23771178.655   124918237.038          84.654          27.000  
G32  20777500.636   109186540.556        -838.749          31.000  
J02  38917811.859   204514514.877       -1429.807          31.000  
R04  19502814.582   104436686.338       -1938.591          14.000  
> 2021  9 30 11 21 12.9998963  0  8
C19  22046235.209   114800510.273       -2510.731          26.000  
C36  22528985.008   117314425.290       -1693.340          25.000  
G25  23573154.045   123877744.803       -4088.544          39.000    23573157.343    92506128.485       -3052.764          33.000  
G26  20524850.841   107858825.281         990.265          34.000  
G29  23771041.950   124917667.696          84.356          30.000  
G32  20777507.531   109186587.874        -834.538          31.000  
J02  38917931.776   204515156.709       -1429.297          31.000  
R04  19503022.039   104437797.141       -1938.168          17.000  
> 2021  9 30 11 21 13.9998958  0  7
C19  22046568.278   114802239.642       -2509.607          27.000  
C36  22529159.487   117315338.273       -1694.242          25.000  
G25  23573782.110   123881044.811       -4087.983          39.000    23573785.108    92508592.792       -3052.251          34.000  
G26  20524512.076   107857048.082         988.946          35.000  
G32  20777519.822   109186635.718        -834.401          31.000  
J01  36565758.952   192154503.0141        224.104          29.000  
J02  38918051.693   204515797.884       -1428.660          30.000  
> 2021  9 30 11 21 14.9998956  0  7
C06  36565836.598   190407817.0311        -94.586          19.000  
C19  22046989.787   114804437.315       -2510.543          28.000  
G25  23574498.015   123884817.442       -4088.674          39.000    23574503.411    92511410.004       -3052.899          34.000  
G26  20524261.749   107855743.777         988.104          35.000  
J01  36565656.123   192153963.064         224.816          27.000  
J02  38918262.148   204516911.216       -1427.670          29.000  
R04  19503539.780   104440569.5591      -1943.919          19.000  
> 2021  9 30 11 21 15.9998950  0  9
C01  37485375.914   195196310.3771       -605.994          30.000  
C06  36565674.111   190406974.993         -94.549          20.000  
C19  22047293.776   114806011.732       -2511.965          28.000  
C30  25809341.665   134395927.2861       1013.335          20.000  
G25  23575095.201   123887960.080       -4087.799          38.000    23575101.197    92513756.761       -3052.962          34.000  
G26  20523894.503   107853809.945         988.230          35.000  
J01  36565434.277   192152793.298         224.345          28.000  
J02  38918351.786   204517393.970       -1427.620          29.000  
R04  19503722.054   104441545.701       -1945.689          23.000  
> 2021  9 30 11 21 16.9998948  0  8
C01  37485433.474   195196604.239        -606.372          30.000  
C06  36565630.341   190406757.725         -95.338          20.000  
C19  22047718.282   114808211.131       -2511.845          28.000  
G25  23575815.003   123891733.161       -4088.908          39.000    23575818.600    92516574.404       -3053.274          33.000  
G26  20523644.776   107852506.929         987.514          36.000  
G29  23770588.364   124915284.0731         82.106          23.000  
J01  36565332.647   192152253.967         224.085          28.000  
J02  38918561.041   204518506.681       -1427.941          29.000  
> 2021  9 30 11 21 17.9998943  0  9
C06  36565497.833   190406070.865         -92.186          20.000  
C19  22048050.752   114809942.945       -2512.562          29.000  
C36  22530022.290   117319775.8681      -1694.972          29.000  
G25  23576441.869   123895033.667       -4088.528          39.000    23576446.666    92519039.066       -3053.708          33.000  
G26  20523304.212   107850731.735         986.361          35.000  
G29  23770430.373   124914414.115          82.342          23.000  
J01  36565139.581   192151241.822         224.979          27.000  
J02  38918681.857   204519146.953       -1428.219          28.000  
R04  19504253.286   104444390.1681      -1943.514          24.000  
> 2021  9 30 11 21 18.9998940  0  8
C06  36565424.084   190405693.650         -92.803          21.000  
C19  22048444.679   114811986.848       -2512.227          29.000  
C36  22530259.426   117321002.925       -1694.894          26.000  
G25  23577130.492   123898649.321       -4089.019          39.000    23577135.289    92521739.046       -3053.925          33.000  
G26  20523028.403   107849272.063         986.884          34.000  
J01  36565007.072   192150544.360         224.921          30.000  
J02  38918863.831   204520102.933       -1429.027          27.000  
R04  19504529.695   104445870.064       -1945.470          24.000  
> 2021  9 30 11 21 19.9998938  0  8
C01  37485487.737   195196865.1131       -608.182          31.000  
C06  36565380.914   190405475.107         -94.393          20.000  
C19  22048869.185   114814187.350       -2513.643          29.000  
G25  23577849.095   123902422.778       -4088.485          38.000    23577852.692    92524556.889       -3053.326          33.000  
G26  20522786.770   107847970.639         986.433          34.000  
J01  36564905.742   192150004.704         223.938          30.000  
J02  38919077.883   204521216.691       -1428.204          27.000  
R04  19504833.385   104447497.010       -1945.989          24.000  
> 2021  9 30 11 21 20.9998932  0  5
C06  36565220.824   190404635.174         -99.010          19.000  
C19  22049174.074   114815764.504       -2514.004          30.000  
G25  23578447.480   123905566.157       -4088.272          39.000    23578450.478    92526904.253       -3053.095          33.000  
J01  36564684.496   192148835.795         223.019          31.000  
J02  38919171.118   204521699.684       -1428.045          25.000  
> 2021  9 30 11 21 21.9998930  0  7
C16  36946236.952   192388549.1261        -45.903          24.000  
C19  22049598.581   114817966.275       -2514.472          30.000  
G25  23579164.284   123909339.996       -4089.495          39.000    23579168.182    92529722.373       -3053.202          33.000  
G26  20522162.602   107844739.3351        982.949          32.000  
G32  20777957.220   109188922.8721       -841.019          32.000  
J01  36564583.166   192148297.032         224.000          32.000  
J02  38919386.369   204522813.410       -1428.463          23.000  
> 2021  9 30 11 21 22.9998925  0  8
C01  37485451.162   195196658.8761       -606.926          29.000  
C16  36946098.748   192387815.070         -48.664          23.000  
C19  22049932.250   114819700.970       -2515.816          29.000  
G25  23579792.349   123912641.379       -4089.450          39.000    23579796.846    92532187.739       -3053.780          31.000  
G26  20521826.835   107842967.047         984.174          33.000  
G32  20777968.911   109188974.406        -839.106          33.000  
J01  36564384.703   192147285.818         223.850          31.000  
J02  38919505.687   204523453.691       -1427.985          24.000  
> 2021  9 30 11 21 23.9998920  0  7
C16  36945960.244   192387082.390         -46.365          21.000  
C19  22050266.518   114821436.255       -2516.083          29.000  
G25  23580419.515   123915942.937       -4088.918          39.000    23580424.612    92534653.156       -3053.440          32.000  
G26  20521491.967   107841195.341         984.168          34.000  
G32  20777982.402   109189026.267        -838.498          35.000  
J01  36564200.331                         223.763          31.000  
J02  38919626.503   204524093.507       -1428.054          27.000  
> 2021  9 30 11 21 24.9998917  0  7
C19  22050660.445   114823484.142       -2516.269          28.000  
C30  25806605.459   134381655.2721       1013.526          22.000  
G25  23581107.839   123919559.721       -4089.899          38.000    23581112.635    92537354.008       -3054.011          32.000  
G26  20521216.457   107839739.215         982.272          34.000  
G32  20778049.855   109189393.692        -840.938          35.000  
J01  36564069.022   192145473.3051        223.699          31.000  
J02  38919808.777   204525049.001       -1428.132          29.000  
> 2021  9 30 11 21 25.9998912  0  8
C16  36945747.691   192386202.5391        -44.169          21.000  
C19  22050995.913   114825220.059       -2516.896          28.000  
C30  25806261.897   134379861.360        1012.763          22.000  
G25  23581734.105   123922861.604       -4089.909          38.000    23581741.000    92539819.712       -3053.257          31.000  
G26  20520878.891   107837968.713         983.238          35.000  
G32  20778060.348   109189446.434        -841.290          35.000  
J01  36563880.152   192144462.572         224.776          31.000  
J02  38919930.193   204525689.726       -1428.922          29.000  
> 2021  9 30 11 21 26.9998909  0  8
C01  37485437.971   195196583.3891       -605.399          30.000  
C16  36945668.846   192385776.891         -41.785          20.000  
C19  22051392.239   114827268.793       -2516.816          26.000  
G25  23582424.827   123926478.555       -4090.329          38.000    23582428.425    92542520.675       -3056.025          31.000  
G26  20520602.483   107836513.580         981.656          35.000  
G32  20778129.900   109189814.625        -840.611          35.000  
J01  36563751.242   192143766.865         223.780          31.000  
J02  38920110.968   204526646.194       -1429.201          28.000  
> 2021  9 30 11 21 27.9998907  0  7
C16  36945614.883   192385506.384         -42.342          20.000  
C19  22051818.244   114829473.469       -2517.499          27.000  
C36  22532192.788   117331102.0001      -1697.993          22.000  
G25  23583141.031   123930253.380       -4089.572          38.000    23583146.727    92545339.543       -3053.433          31.000  
G26  20520351.256   107835216.718         982.689          33.000  
J01  36563647.214   192143228.897         225.030          31.000  
J02  38920324.420   204527759.711       -1428.956          28.000  
> 2021  9 30 11 21 28.9998902  0  7
C19  22052148.915   114831210.717       -2518.381          25.000  
C36  22532367.267   117332019.697       -1698.261          21.000  
G25  23583770.296   123933555.681       -4090.254          38.000    23583774.792    92547805.502       -3053.880          31.000  
G26  20520017.887   107833447.791         981.366          34.000  
G29  23769025.846   124907076.3331         77.782          28.000  
G32  20778239.624   109190394.7831       -842.155          35.000  
J01  36563448.451   192142218.389         222.440          32.000  
> 2021  9 30 11 21 29.9998899  0  5
C36  22532604.103   117333248.560       -1696.411          21.000  
G25  23584459.818   123937173.262       -4089.615          38.000    23584463.416    92550506.982       -3054.048          30.000  
G26  20519743.277   107831994.504         980.511          35.000  
G32  20778306.778   109190764.271        -842.741          34.000  
J01  36563318.941   192141523.084         221.550          31.000  
> 2021  9 30 11 21 30.9998894  0  7
C16  36945245.839   192383610.9961        -44.556          21.000  
C19  22052868.117   114834999.3421      -2519.100          24.000  
C36  22532780.381   117334165.268       -1698.211          22.000  
G25  23585089.083   123940475.901       -4090.112          37.000    23585092.081    92552973.249       -3055.974          31.000  
G26  20519404.512   107830226.699         980.711          35.000  
G32  20778318.469   109190819.140        -841.878          33.000  
J01  36563128.573   192140512.828         223.110          31.000  
> 2021  9 30 11 21 31.9998892  0  7
C30  25804497.018   134370655.6981       1012.578          24.000  
C36  22533046.596   117335552.170       -1698.812          21.000  
G25  23585804.387   123944251.373       -4090.318          38.000    23585810.683    92555792.595       -3055.274          30.000  
G26  20519158.982   107828932.140         979.493          35.000  
G32  20778412.904   109191346.954        -844.339          33.000  
J01  36563026.344   192139975.230         221.184          32.000  
J02  38920959.680   204531107.8811      -1427.056          26.000  
> 2021  9 30 11 21 32.9998886  0  7
C19  22053589.118   114838788.1661      -2519.670          20.000  
C36  22533192.895   117336313.670       -1697.456          22.000  
G25  23586406.371   123947397.481       -4091.348          38.000    23586408.469    92558141.986       -3055.642          30.000  
G26  20518792.935   107827008.348         977.241          36.000  
G32  20778391.319   109191244.950        -843.740          32.000  
J01  36562803.598   192138808.911         221.653          30.000  
J02  38921052.916   204531589.899       -1427.903          30.000  
> 2021  9 30 11 21 33.9998881  0  8
C19  22053920.688   114840527.658       -2521.020          24.000  
C30  25803777.517   134366914.2791       1011.325          23.000  
C36  22533370.672   117337230.511       -1697.397          29.000  
G25  23587034.436   123950700.944       -4091.187          39.000    23587038.333    92560608.856       -3055.882          30.000  
G26  20518459.866   107825242.483         977.030          33.000  
G29  23768330.028   124903387.4491         74.937          26.000  
G32  20778401.512   109191301.300        -842.609          34.000  
J02  38921173.432   204532229.137       -1426.697          20.000  
> 2021  9 30 11 21 34.9998879  0  7
C19  22054345.494   114842735.989       -2520.112          28.000  
C30  25803522.093   134365589.631        1013.652          21.000  
C36  22533639.886   117338614.859       -1696.866          30.000  
G25  23587753.638   123954477.145       -4091.577          39.000    23587756.636    92563428.708       -3055.926          29.000  
G26  20518213.137   107823949.926         977.454          34.000  
G32  20778510.037   109191830.759        -844.361          31.000  
J02  38921385.086   204533341.211       -1427.644          26.000  
> 2021  9 30 11 21 35.9998874  0  7
C19  22054680.962   114844475.781       -2521.035          27.000  
C36  22533817.363   117339531.048       -1697.139          32.000  
G25  23588383.502   123957781.245       -4093.193          37.000    23588385.900    92565896.081       -3056.741          29.000  
G26  20517877.969   107822185.502         975.558          35.000  
G29  23768099.187   124902136.1231         73.654          29.000  
G32  20778523.228   109191887.987        -846.399          36.000  
J02  38921505.602   204533980.347       -1427.460          26.000  
> 2021  9 30 11 21 36.9998871  0  7
C16  36944560.513   192380020.7501        -45.584          22.000  
C30  25802891.030   134362309.4301       1015.093          24.000  
C36  22534054.798   117340759.374       -1695.703          30.000  
G25  23589071.526   123961400.765       -4091.355          39.000    23589074.224    92568598.656       -3053.716          29.000  
G26  20517603.059   107820736.574         976.548          33.000  
G29  23767999.656   124901590.584          72.257          27.000  
J01  36562171.036   192135565.7231        220.394          25.000  
> 2021  9 30 11 21 37.9998868  0  6
C16  36944478.370   192379598.365         -46.181          29.000  
C30  25802604.728   134360827.816        1011.643          23.000  
G25  23589760.748   123965020.183       -4092.353          41.000    23589762.247    92571301.261       -3054.278          30.000  
G26  20517326.051   107819288.408         975.730          36.000  
G29  23767906.721   124901045.556          72.140          21.000  
G32  20778665.030   109192633.9121       -846.898          39.000  
> 2021  9 30 11 21 38.9998863  0  7
C16  36944336.268   192378864.044         -45.731          29.000  
C30  25802259.967   134359035.159        1012.528          23.000  
C36  22534470.311   117342906.0251      -1700.068          14.000  
G25  23590390.313   123968324.775       -4091.806          41.000    23590390.313    92573767.608       -3055.427          28.000  
G26  20516990.283   107817525.639         973.666          36.000  
G29  23767744.233   124900185.667          71.111          20.000  
J02  38921993.065   204536530.8391      -1429.001          23.000  
> 2021  9 30 11 21 39.9998861  0  8
C06  36563413.376   190395321.6401        -94.186          24.000  
C19  22056248.877   114852534.2511      -2523.384          26.000  
C36  22534738.025   117344293.941       -1700.623          26.000  
G25  23591108.915   123972101.523       -4092.507          41.000    23591109.515    92576587.960       -3055.431          29.000  
G26  20516744.453   107816235.845         974.808          35.000  
G29  23767458.231   124898835.412          72.608          18.000  
J01  36561752.226   192133326.2761        221.982          30.000  
J02  38922204.119   204537644.752       -1429.024          27.000  
> 2021  9 30 11 21 40.9998856  0  6
C06  36563282.366   190394634.841         -93.369          26.000  
C19  22056586.443   114854276.843       -2522.790          28.000  
G25  23591740.278   123975406.021       -4092.884          41.000    23591737.580    92579054.704       -3053.804          28.000  
G26  20516406.287   107814474.063         973.160          34.000  
G29  23767316.729   124897975.427          71.871          26.000  
J02  38922329.732   204538285.207       -1426.712          25.000  
> 2021  9 30 11 21 41.9998851  0  6
C06  36563152.256   190393948.766         -95.414          26.000  
C19  22056919.812   114856019.039       -2523.343          28.000  
C30  25801332.409   134354129.1821       1010.916          26.000  
G25  23592369.842   123978711.045       -4092.468          41.000    23592367.144    92581521.249       -3055.463          28.000  
G26  20516069.021   107812712.954         972.647          33.000  
G29  23767180.024   124897116.180          71.222          28.000  
> 2021  9 30 11 21 42.9998848  0  8
C06  36563082.105   190393574.724         -93.404          26.000  
C19  22057312.840   114858074.271       -2524.615          27.000  
C30  25801051.504   134352648.958        1011.460          19.000  
C36  22535316.025   117347360.8501      -1698.076          19.000  
G25  23593057.866   123982331.728       -4094.183          41.000    23593056.667    92584225.102       -3057.272          28.000  
G26  20515797.109   107811267.897         971.749          35.000  
J01  36561236.283   192130615.6491        218.877          21.000  
J02  38922633.721   204539880.5331      -1428.056          26.000  
> 2021  9 30 11 21 43.9998843  0  7
C06  36562948.398   190392886.998         -91.924          20.000  
C19  22057644.411   114859818.400       -2525.281          15.000  
C30  25800708.541   134350856.964        1010.866          25.000  
G25  23593688.030   123985636.934       -4093.182          41.000    23593685.032    92586693.448       -3056.376          28.000  
G26  20515465.239   107809507.909         971.341          35.000  
J01  36561045.315   192129608.268         220.443          27.000  
J02  38922754.238   204540520.684       -1428.698          21.000  
> 2021  9 30 11 21 44.9998840  0  6
C06  36562876.148   190392511.091         -92.091          17.000  
C19  22058040.137   114861875.006       -2525.296          24.000  
G25  23594378.152   123989257.234       -4091.975          39.000    23594374.255    92589397.403       -3057.065          28.000  
G26  20515190.329   107808066.213         970.096          29.000  
G29  23766852.650   124895653.5101         69.522          25.000  
J01  36560913.107   192128914.844         221.381          27.000  
> 2021  9 30 11 21 45.9998838  0  9
C06  36562832.678   190392290.839         -93.006          20.000  
C19  22058464.643   114864087.581       -2524.540          29.000  
C30  25800161.420   134348052.6841       1011.890          28.000  
C36  22535998.053   117350897.9211      -1699.740          23.000  
G25  23595108.147   123993035.635       -4095.168          31.000    23595094.056    92592218.604       -3056.387          31.000  
G26  20514943.600   107806780.582         970.926          28.000  
G32  20779054.460                        -849.607          37.000  
J01  36560811.777   192128377.917         221.544          31.000  
J02  38923152.362   204542589.6181      -1428.234          27.000  
> 2021  9 30 11 21 46.9998833  0  8
C06  36562701.069   190391603.065         -92.945          23.000  
C19  22058799.511   114865832.110       -2525.305          28.000  
C30  25799812.461   134346260.586        1010.672          28.000  
G25                                                                  23595723.620    92594686.846       -3056.051          31.000  
G26  20514610.231   107805021.941         970.873          30.000  
G29  23766621.810   124894412.0991         68.405          25.000  
J01  36560620.509   192127368.630         220.727          31.000  
J02  38923277.676   204543229.646       -1428.200          27.000  
> 2021  9 30 11 21 47.9998830  0 10
C01  37485506.024   195196955.9911       -600.891          31.000  
C06  36562630.618   190391227.039         -92.159          25.000  
C19  22059192.539   114867889.628       -2526.048          30.000  
C30  25799529.457   134344783.110        1007.817          21.000  
C36  22536416.563   117353050.2881      -1701.050          29.000  
G25  23596417.640   123999961.4531      -4093.237          39.000    23596413.143    92597390.249       -3056.850          26.000  
G26  20514337.420   107803578.237         970.978          26.000  
G29  23766527.675   124893870.987          68.339          27.000  
G32  20779140.201   109195108.0611       -849.522          33.000  
J02  38923459.350   204544185.460       -1428.702          28.000  
> 2021  9 30 11 21 48.9998825  0  8
C06  36562499.608   190390538.783         -92.179          25.000  
C16  36943289.693   192373396.6311        -46.360          23.000  
C19  22059526.508   114869635.286       -2526.295          29.000  
C36  22536594.940   117353970.357       -1700.563          28.000  
G25  23597043.607   124003267.423       -4093.978          39.000    23597041.808    92599859.766       -3057.470          24.000  
G26  20514004.350   107801819.835         969.795          25.000  
J01  36560288.339   192125667.8561        220.332          23.000  
J02  38923582.265   204544826.309       -1429.010          30.000  
> 2021  9 30 11 21 49.9998822  0  8
C01  37485495.232   195196914.2491       -608.937          30.000  
C19  22059922.833   114871693.551       -2526.938          29.000  
C30  25798894.497   134341521.3531       1006.922          25.000  
C36  22536832.376   117355203.680       -1701.245          26.000  
G25  23597726.234   124006889.141       -4094.291          40.000    23597731.630    92602565.500       -3058.493          29.000  
G26  20513730.940   107800378.329         968.012          33.000  
G315042420640.984                       -3053.716          18.000  
J01  36560156.730   192124974.596         220.987          26.000  
> 2021  9 30 11 21 50.9998817  0  7
C01  37485463.753   195196743.279        -610.332          32.000  
C16  36943072.343   192372239.6021        -46.031          23.000  
C30  25798549.436   134339732.479        1009.616          28.000  
C36  22537010.452   117356124.761       -1701.819          28.000  
G25  23598354.299   124010195.782       -4094.491          40.000    23598359.696    92605036.446       -3059.467          28.000  
G29  23766145.140   124891935.5171         65.958          17.000  
G315042420491.088                       -3058.493          17.000  
> 2021  9 30 11 21 51.9998812  0  7
C01  37485432.275   195196573.590        -611.529          33.000  
C30  25798204.375   134337941.857        1010.829          27.000  
C36  22537186.730   117357045.423       -1700.662          30.000  
G25  23598984.163                       -4090.475          40.000    23598989.260    92607506.885       -3056.063          27.000  
G26  20513057.606   107796867.1871        967.861          35.000  
G315042420341.192                       -3058.493          16.000  
J02  38923997.777   204547063.5651      -1428.651          26.000  
> 2021  9 30 11 21 52.9998810  0 10
C01  37485489.835   195196872.446        -610.763          31.000  
C06  36562118.572   190388572.4421        -92.491          23.000  
C19  22061008.382   114877398.9761      -2528.725          28.000  
C30  25797945.354   134336618.503        1011.604          24.000  
C36  22537452.646   117358434.383       -1702.228          30.000  
G25  23599702.466                       -4095.421          40.000    23599709.061    92610327.981       -3057.696          28.000  
G26  20512814.474                         965.458          34.000  
G29  23765917.298   124890702.9811         64.232          20.000  
J01  36559673.465   192122423.0951        219.429          28.000  
J02  38924209.730   204548176.921       -1427.429          23.000  
> 2021  9 30 11 21 53.9998804  0  7
C06  36561956.984   190387728.204         -93.275          27.000  
C16  36942716.789   192370343.0271        -44.763          28.000  
C19  22061315.069   114878991.775       -2530.387          30.000  
G25  23600300.552   124020427.2181      -4095.386          38.000    23600308.646    92612679.126       -3056.022          28.000  
G26  20512452.625   107793655.4771        964.298          36.000  
G29  23765709.542   124889693.302          64.736          20.000  
J01  36559453.417   192121259.178         218.527          28.000  
> 2021  9 30 11 21 54.9998802  0  8
C06  36561915.313   190387509.244         -92.856          27.000  
C16  36942667.024   192370075.583         -44.647          29.000  
C19  22061742.274   114881210.422       -2530.824          28.000  
G25  23601023.951   124024207.171       -4095.642          39.000    23601028.448    92615501.126       -3057.863          28.000  
G26  20512210.092   107792374.737         967.610          37.000  
G29  23765618.705   124889313.111          64.115          23.000  
G315042420041.400                       -3058.493          17.000  
J01  36559352.987   192120725.619         218.364          29.000  
> 2021  9 30 11 21 55.9998799  0  7
C06  36561842.463   190387133.774         -92.747          26.000  
C16  36942587.579   192369651.985         -44.982          29.000  
C19  22062138.599   114883273.094       -2531.170          28.000  
C30  25797030.687   134331868.9461       1009.207          25.000  
G25  23601714.673   124027829.547       -4094.513          40.000    23601717.971    92618206.512       -3057.529          28.000  
G26  20511937.581   107790936.813         965.419          37.000  
J01  36559221.677   192120034.573         219.067          29.000  
> 2021  9 30 11 21 56.9998794  0  6
C06  36561709.655   190386446.175         -92.538          25.000  
C16  36942447.876   192368915.933         -44.225          30.000  
C19  22062474.966   114885023.429       -2530.555          28.000  
G25  23602344.537   124031137.091       -4095.556          40.000    23602346.935    92620676.491       -3058.600          27.000  
G26  20511603.912   107789184.425         963.917          37.000  
J01  36559030.410   192119027.061         220.514          29.000  
> 2021  9 30 11 21 57.9998792  0  6
C06  36561668.584   190386225.059         -90.589          26.000  
C16  36942397.510   192368648.132         -45.112          30.000  
C19  22062901.271   114887242.015       -2530.605          27.000  
G25  23603063.139   124034917.342       -4095.401          40.000    23603066.437    92623499.618       -3058.549          28.000  
G26  20511359.881   107787905.158         964.624          37.000  
J01  36558928.780   192118491.262         220.374          29.000  
> 2021  9 30 11 21 58.9998787  0  6
C06  36561536.075   190385535.930         -92.167          26.000  
C16  36942256.308   192367912.280         -45.339          29.000  
C19  22063236.439   114888992.468       -2530.024          28.000  
G25  23603691.205   124038225.269       -4095.740          41.000    23603696.001    92625970.077       -3058.181          28.000  
G26  20511025.313   107786153.993         963.266          37.000  
J01  36558737.513   192117483.464         219.459          29.000  
> 2021  9 30 11 21 59.9998784  0  7
C06  36561463.226   190385160.071         -92.486          26.000  
C16  36942175.364   192367489.110         -44.990          29.000  
C19  22063632.465   114891054.179       -2530.499          29.000  
G25  23604380.128   124041848.422       -4096.259          41.000    23604385.224    92628675.191       -3057.806          28.000  
G26  20510753.401   107784718.462         962.361          37.000  
G32  20779704.110   109198081.8291       -856.004          37.000  
J01  36558605.904   192116791.604         218.765          29.000  
> 2021  9 30 11 22  0.9998779  0  9
C06  36561330.118   190384471.852         -92.733          24.000  
C16  36942033.862   192366753.905         -46.014          29.000  
C19  22063967.933   114892804.017       -2532.024          29.000  
C30  25795480.460   134323697.0021       1009.390          24.000  
C36  22539117.094   117367212.8221      -1703.044          24.000  
G25  23605010.591   124045156.590       -4095.925          41.000    23605014.788    92631145.142       -3058.609          27.000  
G26  20510419.432   107782968.320         962.052          36.000    20510424.229    80487309.3941        718.310          28.000  
G32  20779714.303   109198149.924        -854.946          35.000    20779721.798    81544090.8291       -639.766          25.000  
J01  36558414.037   192115785.325         218.134          28.000  
> 2021  9 30 11 22  1.9998774  0  6
C16  36941892.960   192366019.959         -46.682          28.000  
C19  22064304.900   114894555.958       -2533.098          30.000  
G25  23605639.856   124048465.010       -4095.926          41.000    23605644.352    92633615.443       -3059.187          28.000  
G26  20510088.161   107781218.836         961.286          37.000    20510092.059    80486003.373         717.341          27.000  
G32  20779726.295   109198218.555        -855.804          34.000    20779734.989    81544142.397        -639.492          25.000  
J01  36558222.769   192114779.737         217.943          29.000  
> 2021  9 30 11 22  2.9998771  0  7
C16  36941810.217   192365597.765         -45.672          29.000  
C19  22064701.225   114896620.622       -2533.834          31.000  
C30  25794847.599   134320426.3951       1010.928          17.000  
G25  23606329.978   124052088.789       -4096.485          41.000    23606334.774    92636322.650       -3062.319          28.000  
G26  20509815.050   107779785.147         960.938          37.000    20509818.948    80484933.311         718.433          27.000  
G32                                                                  20779809.038    81544429.368        -640.881          25.000  
J01  36558091.460   192114089.368         217.791          29.000  
> 2021  9 30 11 22  3.9998769  0  8
C06  36561083.389   190383188.8541        -92.315          25.000  
C16  36941758.952   192365331.004         -45.935          29.000  
C19  22065127.530   114898842.168       -2534.115          31.000  
C30  25794602.069   134319103.659        1010.764          16.000  
G25  23607049.780   124055870.302       -4097.314          41.000    23607054.576    92639148.729       -3060.612          28.000  
G26  20509571.019   107778509.584         958.931          38.000    20509576.416    80483979.275         719.404          27.000  
G32  20779904.072   109199144.9981       -858.437          36.000    20779911.866    81544834.891        -640.000          26.000  
J01  36557990.730   192113555.919         219.053          30.000  
> 2021  9 30 11 22  4.9998766  0 10
C06  36561011.139   190382812.054         -91.645          25.000  
C16  36941676.809   192364907.618         -44.374          29.000  
C19  22065524.755   114900908.482       -2534.767          30.000  
C30  25794338.851   134317890.402        1011.291          15.000  
C36  22540042.553   117371988.3451      -1701.013          25.000  
G25  23607739.902   124059494.419       -4096.680          41.000    23607743.199    92641855.897       -3058.160          27.000  
G26  20509301.206   107777077.061         958.313          37.000    20509303.904    80482908.051         715.968          27.000  
G29  23764342.188   124882460.1811         60.297          19.000  
G32  20779981.118   109199530.116        -858.999          35.000    20779985.316    81545122.357        -642.655          26.000  
J01  36557858.821   192112865.093         218.573          29.000  
> 2021  9 30 11 22  5.9998761  0  9
C16  36941534.708   192364171.518         -44.498          28.000  
C19  22065862.321   114902662.023       -2534.236          29.000  
C30  25793998.586   134316098.130        1014.385          14.000  
C36  22540220.330   117372909.524       -1702.578          26.000  
G25  23608369.466   124062803.691       -4097.187          41.000    23608371.564    92644325.813       -3058.468          27.000  
G26  20508966.038   107775330.132         958.584          38.000    20508971.734    80481604.049         715.281          29.000  
G29  23764176.103   124881612.559          59.608          22.000  
G32  20779995.209   109199600.683        -859.016          35.000    20779999.406    81545176.478        -642.503          25.000  
J01  36557668.153   192111858.919         218.060          28.000  
> 2021  9 30 11 22  6.9998756  0 10
C06  36560746.122   190381433.8231        -91.040          26.000  
C16  36941391.407   192363435.405         -43.973          29.000  
C19  22066199.888   114904416.121       -2534.705          29.000  
C30  25793654.724   134314303.648        1010.682          13.000  
G25  23608999.330   124066113.038       -4096.432          41.000    23609000.829    92646797.002       -3059.229          26.000  
G26  20508633.269   107773583.635         958.492          38.000    20508639.264    80480300.826         715.517          28.000  
G29  23764013.915   124880765.886          58.355          21.000  
G32  20780007.200   109199671.612        -856.720          35.000  
J01  36557478.085   192110852.785         218.591          28.000  
J02                                                                  38926410.507   152755595.2291      -1067.261          25.000  
> 2021  9 30 11 22  7.9998753  0  9
C06  36560675.071   190381057.314         -93.895          25.000  
C16  36941306.865   192363011.348         -44.904          27.000  
C19  22066596.513   114906482.869       -2536.195          29.000  
G25  23609689.452   124069737.718       -4097.528          41.000    23609690.651    92649505.677       -3062.492          26.000  
G26  20508362.256   107772152.872         957.410          38.000    20508366.154    80479233.216         714.781          26.000  
G29  23763915.284   124880235.229          57.815          22.000  
G32  20780081.549   109200058.051        -860.647          35.000  
J01  36557346.775   192110162.746         216.370          27.000  
J02                                                                  38926592.481   152756309.156       -1067.645          26.000  
> 2021  9 30 11 22  8.9998748  0  9
C06  36560542.863   190380370.841         -93.669          24.000  
C16  36941164.464   192362275.483         -44.747          29.000  
C19  22066933.180   114908238.609       -2537.246          29.000  
G25  23610319.016   124073047.524       -4097.733          41.000    23610320.215    92651978.116       -3059.929          26.000  
G26  20508029.487   107770407.646         956.978          38.000    20508034.583    80477930.812         714.001          27.000  
G29  23763756.094   124879389.331          58.049          22.000  
G32  20780096.239   109200129.906        -861.200          36.000  
J01  36557155.508   192109157.569         218.192          28.000  
J02                                                                  38926714.197   152756787.228       -1065.786          26.000  
> 2021  9 30 11 22  9.9998743  0  9
C16  36941021.763   192361540.171         -45.459          29.000  
C19  22067269.847   114909994.917       -2536.557          27.000  
C36  22540987.799   117376917.1421      -1704.151          25.000  
G25  23610949.780   124076357.553       -4098.202          40.000    23610950.079    92654449.429       -3059.721          25.000  
G26  20507697.616   107768663.072         955.929          37.000    20507702.713    80476628.966         713.551          27.000  
G29  23763595.105   124878543.679          57.299          26.000  
G32  20780107.931   109200202.291        -859.174          35.000  
J01  36556964.240   192108151.741         218.308          27.000  
J02                                                                  38926836.212   152757265.735       -1066.755          26.000  
> 2021  9 30 11 22 10.9998740  0  9
C06  36560335.706   190379307.7761        -91.597          25.000  
C16  36940939.320   192361117.416         -45.307          28.000  
C36  22541226.134   117378152.687       -1703.750          23.000  
G25  23611638.103   124079982.923       -4097.749          39.000    23611639.002    92657157.229       -3061.337          26.000  
G26  20507427.204   107767234.208         956.293          38.000    20507430.501    80475561.697         714.069          27.000  
G29  23763492.876   124878013.809          56.967          23.000  
G32  20780186.776   109200590.144        -861.317          34.000  
J01  36556831.432   192107460.341         219.244          25.000  
J02                                                                  38927016.387   152757979.539       -1067.468          26.000  
> 2021  9 30 11 22 11.9998735  0  9
C06  36560206.196   190378619.067         -91.998          26.000  
C16  36940797.818   192360381.906         -44.633          30.000  
C36  22541403.611   117379076.364       -1704.578          23.000  
G25  23612268.866   124083293.381       -4098.400          40.000    23612268.567    92659629.503       -3060.295          26.000  
G26  20507096.832   107765490.924         954.876          38.000    20507099.530    80474260.754         712.120          27.000  
G29  23763331.588   124877169.422          56.076          27.000  
G32  20780199.367   109200663.494        -861.543          35.000  
J01  36556639.865   192106453.694         218.518          27.000  
J02                                                                  38927139.602   152758459.503       -1068.580          25.000  
> 2021  9 30 11 22 12.9998733  0  9
C06  36560165.424   190378399.449         -92.099          25.000  
C16  36940743.855   192360114.215         -44.686          28.000  
C36  22541672.825   117380469.073       -1704.965          24.000  
G25  23612988.069   124087076.642       -4098.170          40.000    23612989.268    92662455.045       -3060.591          27.000  
G26  20506854.000   107764220.786         954.339          39.000    20506857.598    80473312.971         712.648          27.000  
G29  23763261.736   124876798.684          55.130          26.000  
G32  20780302.196   109201209.864        -861.916          35.000    20780305.194    81546378.2121       -643.900          26.000  
J01  36556538.535   192105920.675         216.918          26.000  
J02                                                                  38927351.555   152759292.288       -1066.137          26.000  
> 2021  9 30 11 22 13.9998730  0 10
C06  36560094.373   190378023.197         -92.168          25.000  
C16  36940662.012   192359690.682         -45.223          29.000  
C19  22068817.975   114918114.4511      -2538.981          25.000  
C36  22541912.059   117381706.126       -1705.649          23.000  
G25  23613677.591   124090702.479       -4098.100          39.000    23613677.591    92665160.725       -3059.162          26.000  
G26  20506582.388   107762793.696         953.494          38.000    20506585.986    80472247.246         712.626          27.000  
G29  23763162.505   124876270.690          55.415          27.000  
G32  20780369.949   109201599.198        -862.614          36.000    20780379.243    81546668.181        -644.732          27.000  
J01  36556409.324   192105231.526         216.464          27.000  
J02  38927618.670   204566016.3541      -1430.891          23.000    38927532.930   152760005.325       -1065.476          26.000  
> 2021  9 30 11 22 14.9998725  0  9
C06  36559963.964   190377334.704         -91.957          26.000  
C16  36940520.810   192358954.989         -44.954          28.000  
C36  22542092.834   117382631.163       -1705.654          25.000  
G25  23614305.357   124094013.442       -4097.444          39.000    23614307.455    92667632.997       -3061.596          27.000  
G26  20506257.114   107761051.343         951.994          31.000    20506253.816    80470944.878         713.842          27.000  
G29  23763003.015   124875427.644          55.371          28.000  
G32  20780386.738   109201674.044        -861.232          31.000    20780393.633    81546724.135        -643.262          26.000  
J01  36556218.656   192104226.741         218.006          27.000  
J02  38927743.984   204566658.822       -1429.723          21.000    38927656.144   152760482.194       -1063.323          25.000  
> 2021  9 30 11 22 15.9998723  0  9
C06  36559922.592   190377114.261         -91.438          27.000  
C16  36940469.845   192358687.568         -45.080          25.000  
C36  22542363.846   117384023.798       -1704.530          24.000  
G25                                                                  23615027.856    92670456.429       -3056.996          23.000  
G26  20506010.684   107759781.249         955.256          26.000    20506012.183    80469996.877         711.548          25.000  
G29  23762925.669   124875057.474          54.662          27.000  
G32  20780489.267   109202220.504        -861.986          30.000    20780497.061    81547133.359        -644.701          23.000  
J01  36556117.926   192103694.843         216.503          19.000  
J02  38927950.840   204567773.366       -1428.957          24.000    38927866.299   152761311.928       -1068.037          18.000  
> 2021  9 30 11 22 16.9998717  0  8
C06  36559761.903   190376269.664         -92.275          27.000  
C16  36940297.464   192357795.951         -46.115          27.000  
G25  23615622.944   124100950.5631      -4100.450          35.000    23615630.139    92672810.809       -3062.643          21.000  
G26  20505648.835   107757881.701         953.114          31.000    20505653.032    80468580.071         710.592          22.000  
G29  23762730.504   124874057.902          54.184          26.000  
G32                                                                  20780481.172    81547072.493        -644.878          22.000  
J01  36555895.480   192102533.444         216.784          20.000  
J02  38928031.185   204568256.451       -1427.693          29.000    38927957.436   152761675.707       -1070.470          20.000  
> 2021  9 30 11 22 17.9998715  0  8
C06  36559720.232   190376049.275         -92.126          28.000  
C16  36940244.101   192357529.598         -46.998          24.000  
C19  22070323.233   114925931.4521      -2538.923          24.000  
G25  23616338.249   124104734.223       -4102.509          34.000    23616350.841    92675636.228       -3059.864          22.000  
G26  20505406.602   107756614.184         951.891          29.000    20505413.198    80467634.754         711.386          21.000  
G29  23762655.556   124873688.816          53.712          29.000  
G32  20780582.202   109202680.6621       -863.949          26.000    20780584.301    81547481.579        -645.851          25.000  
J02                                                                  38928167.291   152762506.814       -1066.185          20.000  
> 2021  9 30 11 22 18.9998710  0  9
C16  36940103.498   192356795.289         -44.559          24.000  
C19  22070661.699   114927688.469       -2536.983          21.000  
C36  22542961.632   117387108.2871      -1705.596          25.000  
G25  23616972.610   124108045.728       -4098.086          35.000    23616981.304    92678108.474       -3060.657          25.000  
G26  20505075.032   107754875.180         950.933          30.000    20505081.627    80466336.210         709.071          25.000  
G29  23762495.467   124872847.584          54.695          27.000  
G32  20780595.993   109202757.199        -864.705          33.000  
J01  36555603.782   192100998.0691        216.182          24.000  
J02                                                                  38928288.107   152762984.083       -1063.373          21.000  
> 2021  9 30 11 22 19.9998705  0  7
C06  36559461.811   190374672.8231        -92.425          20.000  
G25  23617604.273   124111357.414       -4099.701          36.000    23617612.067    92680580.875       -3060.576          26.000  
G26  20504743.162   107753136.781         950.361          28.000    20504749.757    80465037.443         709.894          28.000  
G29  23762338.076   124872005.837          51.730          26.000  
G32  20780610.383   109202834.345        -865.441          36.000  
J01  36555411.315   192099994.387         215.844          27.000  
J02                                                                  38928409.523   152763459.321       -1063.455          20.000  
> 2021  9 30 11 22 20.9998702  0  7
C16  36939887.648   192355634.4311        -44.597          25.000  
G25  23618297.393   124114984.482       -4100.215          36.000    23618302.789    92683288.837       -3062.056          27.000  
G26  20504472.149   107751714.643         948.485          29.000    20504479.045    80463973.924         708.999          28.000  
G29  23762238.844   124871482.316          49.897          25.000  
G32  20780688.928   109203226.509        -865.155          36.000  
J01  36555281.505   192099305.844         215.970          28.000  
J02                                                                  38928590.298   152764169.530       -1065.410          21.000  
> 2021  9 30 11 22 21.9998697  0  7
C16  36939748.244   192354898.816         -44.998          28.000  
G25  23618932.353   124118296.976       -4100.826          38.000    23618932.653    92685763.487       -3063.560          27.000  
G26  20504143.277   107749978.703         947.702          33.000    20504148.673    80462677.520         708.749          28.000  
G29  23762084.451   124870647.208          44.151          19.000  
G32  20780706.017                        -866.171          39.000  
J01  36555092.336   192098302.138         216.420          29.000  
J02  38928721.307   204571811.1041      -1428.354          25.000    38928715.311   152764647.328       -1068.090          21.000  
> 2021  9 30 11 22 22.9998697  0  6
G25  23619712.713   124122397.217       -4100.180          37.000    23619713.313    92688826.205       -3063.232          27.000  
G26  20503964.001   107749031.267         947.206          31.000    20503966.999    80461968.496         709.072          28.000  
G29  23762081.154   124870602.940          43.112          15.000  
G32  20780865.806   109204212.0671       -865.545          37.000  
J01  36555051.564   192098085.794         215.564          26.000  
J02  38928981.827   204573238.793       -1427.411          30.000    38928989.321   152765715.311       -1068.118          27.000  
> 2021  9 30 11 22 23.9998692  0  7
C16  36939619.633   192354208.0281        -45.522          22.000  
C19  22072580.071   114937575.8011      -2543.213          26.000  
G25  23620341.078   124125709.682       -4100.953          36.000    23620343.476    92691300.661       -3062.539          26.000  
G26  20503634.229   107747296.060         947.487          30.000    20503635.129    80460670.023         708.881          27.000  
G29  23761914.769   124869770.685          46.512          15.000  
J01  36554861.796   192097083.252         214.717          23.000  
J02                                                                  38929112.536   152766194.282       -1066.777          26.000  
> 2021  9 30 11 22 24.9998687  0  8
C16  36939480.530   192353472.189         -44.400          23.000  
C19  22072918.836   114939338.435       -2543.022          25.000  
C36  22544236.350   117393772.9671      -1706.143          19.000  
G25  23620968.544   124129022.670       -4101.453          36.000    23620973.640    92693773.976       -3062.228          26.000  
G26  20503303.858   107745560.517         947.897          28.000    20503304.757    80459374.687         705.571          26.000  
G29  23761749.283   124868935.885          46.456          17.000  
J01  36554673.826   192096080.510         215.420          21.000  
J02  38929212.367   204574519.2711      -1428.786          31.000    38929234.552   152766672.612       -1066.640          26.000  
> 2021  9 30 11 22 25.9998684  0  9
C01  37485547.695   195197202.1741       -614.436          29.000  
C16  36939400.785   192353049.130         -44.797          25.000  
C19  22073317.860   114941412.230       -2540.879          22.000  
C36  22544475.285   117395010.826       -1706.452          24.000  
G25  23621659.565   124132651.113       -4101.895          36.000    23621664.962    92696483.397       -3062.623          28.000  
G26  20503034.045   107744139.748         948.426          31.000    20503035.544    80458315.468         705.943          27.000  
G29  23761642.857   124868416.233          50.274          16.000  
J01  36554544.615   192095392.184         216.076          24.000  
J02                                                                  38929416.826   152767386.230       -1066.284          25.000  
> 2021  9 30 11 22 26.9998679  0  7
C16  36939262.281   192352314.120         -45.162          25.000  
C36  22544653.661   117395936.884       -1706.122          27.000  
G25  23622287.031   124135964.523       -4100.587          35.000    23622295.725    92698957.363       -3061.307          29.000  
G26  20502702.474   107742404.258         947.003          30.000    20502705.173    80457020.762         705.799          30.000  
G29  23761480.969   124867577.411          51.270          15.000  
J01  36554358.144   192094388.898         214.551          26.000  
J02                                                                  38929538.541   152767864.055       -1066.432          28.000  
> 2021  9 30 11 22 27.9998674  0  6
C16  36939123.177   192351577.674         -43.949          22.000  
G25  23622922.591   124139277.954       -4101.701          35.000    23622926.189    92701430.882       -3062.889          29.000  
G26  20502373.003   107740670.115         946.260          32.000    20502375.401    80455726.263         706.656          27.000  
G32  20781011.205   109204925.5391       -869.688          32.000  
J01  36554170.175   192093386.702         214.263          23.000  
J02                                                                  38929660.557   152768342.711       -1067.654          28.000  
> 2021  9 30 11 22 28.9998671  0  7
C16  36939044.632   192351153.605         -45.307          25.000  
G25  23623614.212   124142906.814       -4101.012          36.000    23623616.910    92704140.940       -3063.725          29.000  
G26  20502101.990   107739251.699         945.478          32.000    20502105.887    80454667.023         705.362          28.000  
G29  23761207.259   124866215.3541         51.376          18.000  
G32  20781089.151   109205321.925        -869.126          33.000  
J01  36554043.362   192092700.861         212.783          24.000  
J02                                                                  38929842.831   152769056.439       -1066.163          26.000  
> 2021  9 30 11 22 29.9998666  0  5
G25  23624243.776   124146220.646       -4100.136          36.000    23624247.674    92706616.678       -3064.943          29.000  
G26  20501771.919   107737519.294         944.250          32.000    20501776.416    80453373.490         704.704          28.000  
G32  20781099.644   109205403.437        -867.857          31.000  
J01  36553856.592   192091700.818         212.389          22.000  
J02                                                                  38929964.846   152769535.156       -1065.601          26.000  
> 2021  9 30 11 22 30.9998664  0  6
C01  37485536.003   195197148.0541       -612.109          32.000  
C16  36938854.263   192350149.6871        -44.190          25.000  
G25  23624963.878   124150007.260       -4102.188          36.000    23624968.675    92709445.213       -3063.118          29.000  
G26  20501528.187                         944.925          31.000    20501537.181    80452433.177         706.168          29.000  
G29  23760970.123   124864740.4091         46.790          20.000  
J02                                                                  38930175.001   152770365.060       -1064.138          27.000  
> 2021  9 30 11 22 31.9998661  0  6
C16  36938770.621   192349725.156         -44.040          28.000  
G25  23625654.899   124153636.525       -4102.297          39.000    23625658.797    92712154.230       -3062.031          30.000  
G26  20501257.475   107734841.0751        944.341          29.000    20501267.668    80451374.015         706.768          29.000  
G29  23760875.388   124864221.578          45.712          21.000  
G32  20781270.826   109206354.8111       -870.525          32.000  
J02                                                                  38930356.675   152771077.520       -1064.733          24.000  
> 2021  9 30 11 22 32.9998656  0  5
G25  23626285.063   124156951.291       -4103.390          38.000    23626289.560    92714628.355       -3063.444          32.000  
G26  20500928.003   107733110.766         942.385          30.000    20500937.896    80450079.814         704.347          27.000  
G29  23760720.096   124863392.369          41.854          21.000  
G32  20781286.115   109206437.754        -872.210          34.000  
J02                                                                  38930477.791   152771556.264       -1068.206          22.000  
> 2021  9 30 11 22 33.9998653  0  8
C225043534643.676                        -571.625          20.000  
C30  25785320.494   134271047.1791       1008.460          26.000  
G25  23626975.185   124160580.756       -4101.896          37.000    23626980.582    92717339.189       -3064.425          30.000  
G26  20500658.489   107731695.521         943.261          33.000    20500669.282    80449023.826         702.485          27.000  
G29  23760632.856   124862876.960          44.433          20.000  
G32  20781364.061   109206835.797        -870.473          35.000  
J01  36553300.477   192088795.0571        215.201          29.000  
J02                                                                  38930660.664   152772270.938       -1066.437          23.000  
> 2021  9 30 11 22 34.9998648  0  7
C225043534493.780                        -571.625          18.000  
G25  23627605.949   124163895.676       -4102.582          36.000    23627611.345    92719814.571       -3063.280          28.000  
G26  20500329.018   107729965.901         937.766          32.000    20500340.110    80447734.043         701.302          26.000  
G29  23760491.054   124862044.459          44.928          21.000  
G32  20781381.749   109206919.317        -871.097          36.000  
J01  36553108.609   192087792.885         213.745          28.000  
J02                                                                  38930782.680   152772751.633       -1070.292          24.000  
> 2021  9 30 11 22 35.9998646  0  8
C16  36938340.719   192347562.8021        -44.553          26.000  
C225043534433.822                        -571.625          19.000  
C30  25784720.310   134267940.6271       1007.012          21.000  
G25  23628326.650   124167684.374       -4103.489          33.000    23628332.346    92722644.008       -3066.087          28.000  
G26  20500090.083   107728711.402         939.851          27.000    20500102.075    80446800.615         697.113          25.000  
G29  23760437.391   124861684.233          46.755          25.000  
G32  20781486.376   109207476.268        -871.905          30.000  
J02                                                                  38930994.633   152773586.030       -1070.034          21.000  
> 2021  9 30 11 22 36.9998641  0  8
C16  36938198.317   192346826.102         -43.920          29.000  
C225043534283.926                        -571.625          21.000  
C30  25784377.947   134266153.366        1006.183          20.000  
G25  23628956.514   124171000.173       -4103.549          22.000    23628962.210    92725121.304       -3064.075          25.000  
G26  20499761.510   107726984.157         939.726          27.000    20499772.303    80445514.742         699.850          21.000  
G32  20781501.066   109207560.515        -872.219          35.000  
J01  36552816.012   192086262.4181        212.784          20.000  
J02  38931104.357   204584417.8491      -1430.331          21.000    38931117.548   152774066.615       -1069.387          23.000  
> 2021  9 30 11 22 37.9998636  0  8
C16  36938056.216   192346089.816         -44.545          31.000  
C225043534134.029                        -571.625          21.000  
G10  23008526.728                       -4108.387          23.000  
G25  23629376.523   124173210.764       -4101.699          25.000    23629591.174    92727596.884       -3062.487          26.000  
G26  20499431.139   107725256.196         940.250          30.000    20499442.231    80444225.471         701.195          24.000  
G29  23760112.416   124860018.2071         43.634          19.000  
G32  20781515.756   109207645.237        -873.261          36.000  
J02  38931227.572   204585061.376       -1431.507          25.000    38931240.463   152774546.590       -1066.270          20.000  
> 2021  9 30 11 22 38.9998633  0  9
C16  36937972.574   192345665.468         -43.893          29.000  
C225043534044.092                        -571.625          23.000  
G10  23009213.553                       -4105.942          26.000  
G25  23630076.239   124176839.627       -4101.156          18.000    23630282.196    92730306.702       -3063.684          28.000  
G26  20499162.525   107723843.534         939.830          26.000    20499173.018    80443170.348         702.530          24.000  
G29  23760015.883   124859502.808          42.402          19.000  
G32  20781590.704                        -875.604          38.000  
J01  36552488.339   192084575.3981        211.808          19.000  
J02                                                                  38931422.137   152775260.737       -1067.568          18.000  
> 2021  9 30 11 22 39.9998628  0  9
C16  36937829.872   192344928.282         -43.107          23.000  
C225043533894.195                        -571.625          27.000  
C30  25783415.313   134261111.2791       1004.316          23.000  
G10  23009063.657                       -4105.942          21.000  
G25  23630712.698   124180153.383       -4101.917          26.000    23630914.159    92732782.616       -3064.931          31.000  
G26  20498833.653   107722116.113         939.302          27.000    20498845.045    80441881.132         699.775          26.000  
G29  23759846.201   124858672.107          44.675          24.000  
J01  36552293.474   192083576.300         210.860          24.000  
J02  38931537.857   204586661.0431      -1428.071          31.000    38931543.853   152775740.261       -1067.510          26.000  
> 2021  9 30 11 22 40.9998628  0  9
C16  36937839.466   192344970.928         -42.496          26.000  
C225043533894.195                        -571.625          26.000  
C36  22547716.041   117411889.1091      -1710.280          27.000  
G10  23010638.466                       -4108.347          24.000  
G25  23631503.251   124184255.670       -4102.882          23.000    23631695.118    92735845.526       -3063.368          22.000  
G26                                                                  20498666.668    80441181.254         700.371          24.000  
G29  23759833.310   124858628.278          42.804          27.000  
J01  36552246.706   192083365.051         211.007          23.000  
J02                                                                  38931814.865   152776807.082       -1065.870          23.000  
> 2021  9 30 11 22 41.9998623  0  7
C16  36937701.861   192344233.655         -43.933          25.000  
G10  23011282.121                       -4106.442          24.000  
G25  23632133.414   124187571.741       -4103.651          15.000    23632325.881    92738321.740       -3064.544          22.000  
G26  20498321.907   107719452.3111        936.895          23.000  
G29  23759668.424   124857798.143          41.562          27.000  
J01  36552052.441   192082365.619         212.181          22.000  
J02                                                                  38931936.581   152777283.577       -1067.012          21.000  
> 2021  9 30 11 22 42.9998618  0  6
C16  36937559.460   192343498.135         -44.811          22.000  
C36  22548079.689   117413751.4261      -1713.268          24.000  
G10  23011132.225                       -4106.442          23.000  
G25  23632768.675   124190887.319       -4103.055          19.000    23632957.544    92740797.248       -3062.952          22.000  
G26  20497991.836   107717727.731         936.501          22.000  
G29  23759507.435   124856968.989          41.022          25.000  
> 2021  9 30 11 22 43.9998615  0  7
C36  22548320.722   117414994.724       -1710.675          21.000  
G10  23011042.287                         -37.162          22.000  
G25  23633461.495   124194518.070       -4104.105          23.000    23633647.966    92743506.915       -3064.489          22.000  
G26  20497719.624   107716317.837         937.292          20.000  
G29  23759406.405   124856455.268          40.311          24.000  
G32  20781908.784   109209529.5071       -875.140          35.000  
J01  36551723.269   192080683.8441        210.102          23.000  
> 2021  9 30 11 22 44.9998610  0  7
C16  36937342.110   192342340.6261        -45.060          24.000  
C36  22548502.696   117415925.202       -1710.668          25.000  
G10  23013256.554                       -4109.797          21.000  
G25  23634094.657   124197834.502       -4104.433          23.000    23634278.430    92745983.656       -3066.745          20.000  
G29  23759240.920   124855627.142          40.320          22.000  
J01  36551530.502   192079686.188         210.902          22.000  
J02  38932358.989   204590963.2421      -1427.699          31.000  
> 2021  9 30 11 22 45.9998607  0 10
C06  36557006.811   190361926.8941        -87.747          28.000  
C16  36937258.468   192341917.808         -45.233          23.000  
C30  25781650.435   134251805.2491       1006.661          24.000  
C36  22548741.331   117417167.615       -1710.890          28.000  
G10  23013949.075                       -4110.652          22.000  
G25  23634790.475   124201466.230       -4104.509          25.000    23634969.751    92748695.994       -3064.926          24.000  
G26  20497129.333   107713185.3401        934.931          25.000  
G29  23759138.091   124855114.948          39.374          21.000  
G32  20781996.323   109210127.0351       -876.769          37.000  
J02  38932538.564   204591918.286       -1427.937          28.000  
> 2021  9 30 11 22 46.9998602  0  9
C06  36556873.103   190361239.067         -93.506          26.000  
C19  22081152.636   114982121.4241      -2552.582          31.000  
C30  25781303.575   134250019.968        1003.695          21.000  
C36  22548919.708   117418098.284       -1710.971          31.000  
G10  23014578.939   120942440.7381      -4107.734          25.000  
G25  23635432.031   124204783.363       -4105.088          25.000    23635601.414    92751174.261       -3067.210          23.000  
G26  20496801.959   107711462.584         934.841          24.000  
G29  23758978.601   124854288.057          38.659          21.000  
J02  38932658.781   204592557.810       -1427.067          29.000  
> 2021  9 30 11 22 47.9998597  0 11
C06  36556739.996   190360550.705         -92.152          27.000  
C19  22081492.901   114983894.056       -2554.747          28.000  
C30  25780980.399   134248235.289        1006.772          20.000  
C36  22549100.183   117419028.571       -1710.384          31.000  
G10  23015199.209   120945760.978       -4108.618          23.000  
G25  23636067.891   124208374.740       -4105.279          29.000    23636232.477    92753651.912       -3065.197          23.000  
G26  20496475.485   107709740.426         933.847          28.000  
G29  23758818.812   124853461.837          38.374          24.000  
G32  20782033.797   109210305.1601       -879.356          37.000  
J01  36551015.159   192076998.2791        212.558          19.000  
J02  38932777.199   204593197.242       -1427.526          31.000  
> 2021  9 30 11 22 48.9998595  0 10
C06  36556697.125   190360330.571         -92.087          29.000  
C16  36936917.604   192340180.5081        -46.677          16.000  
C19  22081923.103   114986136.615       -2554.501          26.000  
C225043532904.880                        -571.625          20.000  
C30  25780736.967   134246916.496        1006.334          16.000  
C36  22549368.497   117420426.913       -1711.470          28.000  
G25  23636792.489   124212165.310       -4105.723          31.000  
G26  20496238.050   107708491.672         933.205          27.000  
G29  23758752.258   124853108.672          37.740          24.000  
G32  20782136.027   109210867.668        -877.276          35.000    20782127.033    81553506.8651       -655.022          26.000  
> 2021  9 30 11 22 49.9998592  0 10
C06  36556623.676   190359953.296         -90.621          30.000  
C19  22082323.625   114988222.689       -2555.429          25.000  
C30  25780470.751   134245444.044        1003.766          17.000  
C36  22549606.232   117421670.658       -1712.782          28.000  
G25  23637485.909   124215798.737       -4105.909          32.000  
G26  20495970.035   107707086.428         932.289          27.000  
G29  23758658.723   124852598.663          36.298          24.000  
G31  21216741.256                       -1112.883          25.000  
G32  20782212.474   109211272.837        -879.233          34.000    20782204.379    81553811.223        -657.643          25.000  
J01  36550783.419   192075786.8641        212.120          20.000  
> 2021  9 30 11 22 50.9998587  0 14
C06  36556490.868   190359263.795         -91.029          29.000  
C16  36936699.955   192339022.4041        -44.085          17.000  
C19  22082664.190   114989997.511       -2555.723          29.000  
C225043532665.046                       -4110.157          20.000  
C30  25780143.378   134243970.907        1001.665          19.000  
C36  22549784.909   117422603.096       -1712.726          25.000  
E08                                                                                                                                  21809669.280    85585826.6081       -627.120          23.000  
G25  23638120.570   124219116.197       -4104.997          32.000  
G26  20495641.762   107705366.816         932.387          27.000  
G29  23758500.133   124851775.339          34.131          23.000  
G31  21216805.111                       -1113.501          25.000  
G32  20782232.260   109211363.451        -879.582          34.000    20782222.067    81553880.074        -658.169          26.000  
J02  38933289.245   204595907.5111      -1428.651          31.000  
R14  22550429.163   120206477.9271      -3929.227          29.000  
> 2021  9 30 11 22 51.9998584  0 14
C06  36556418.318   190358887.300         -92.181          29.000  
C19  22083063.813   114992084.964       -2555.459          27.000  
C30  25779877.162   134242500.157        1003.661          24.000  
C36  22550022.944   117423846.521       -1711.504          28.000  
E08                                                                                                                                  21809739.432    85586101.185        -628.474          23.000  
G10  23017714.168   120958904.0091      -4106.695          17.000  
G25  23638811.891   124222748.748       -4105.438          32.000  
G26  20495375.547   107703961.905         932.030          27.000  
G29  23758403.599   124851268.662          33.672          19.000  
G31  21216924.729   111495703.2391      -1113.241          26.000  
G32  20782308.107   109211769.564        -878.469          35.000    20782298.814    81554184.333        -657.767          26.000  
J01  36550461.442   192074100.8911        213.229          21.000  
J02  38933469.720   204596863.175       -1428.461          31.000  
R14  22551072.517   120209907.288       -3927.863          29.000  
> 2021  9 30 11 22 52.9998579  0 12
C19  22083401.979   114993859.583       -2555.333          29.000  
C30  25779547.391   134240715.050        1004.945          24.000  
C36  22550200.121   117424777.227       -1711.241          28.000  
E08                                                                                                                                  21809748.126    85586140.380        -627.544          23.000  
G10  23018338.636   120962223.029       -4108.547          18.000  
G25  23639448.950                       -4103.662          32.000  
G26  20495049.073   107702242.531         931.305          29.000  
G29  23758240.812   124850446.847          33.893          17.000  
G31  21216985.287   111496027.942       -1112.788          26.000  
G32                                                                  20782316.502    81554253.682        -656.793          25.000  
J02  38933590.836   204597503.454       -1427.876          30.000  
R14  22551654.714   120213010.094       -3929.536          25.000  
> 2021  9 30 11 22 53.9998577  0 11
C06  36556247.736   190357977.8131        -91.305          28.000  
C225043532365.254                       -4108.547          25.000  
C30  25779303.060   134239397.946        1004.613          24.000  
C36  22550467.536   117426175.206       -1710.311          28.000  
E08                                                                                                                                  21809846.757    85586532.858        -628.238          22.000  
G10  23019046.446   120966018.411       -4111.927          17.000  
G25  23640248.497   124230344.0281      -4106.072          30.000  
G26  20494811.937   107700995.740         931.516          30.000  
G29  23758154.172   124850098.310          33.914          16.000  
G32                                                                  20782422.928    81554674.801        -657.395          25.000  
J02  38933801.890   204598616.683       -1428.426          31.000  
> 2021  9 30 11 22 54.9998572  0 10
C06  36556115.828   190357288.792         -91.482          27.000  
C19  22084164.951   114997879.5391      -2557.147          30.000  
C225043532215.358                        -571.625          22.000  
C30  25778966.993   134237612.784        1002.795          24.000  
C36  22550645.313   117427105.570       -1711.106          25.000  
E08                                                                                                                                  21809856.351    85586571.707        -626.877          22.000  
G26  20494485.463   107699276.935         930.212          30.000  
G29  23757979.693   124849278.296          32.334          15.000  
J01  36549982.074   192071570.7761        212.724          22.000  
J02  38933923.006   204599257.578       -1428.358          30.000  
> 2021  9 30 11 22 55.9998566  0  9
C06  36555956.638   190356443.745         -91.033          26.000  
C19  22084473.437   114999499.903       -2556.630          30.000  
C36  22550791.912   117427879.831       -1712.241          28.000  
E08                                                                                                                                  21809835.665    85586492.766        -625.383          22.000  
G26  20494129.310   107697401.726         928.891          29.000  
G29  23757795.620   124848300.193          32.623          15.000  
J01  36549763.825   192070412.123         214.071          24.000  
J02  38934015.942   204599740.581       -1428.670          28.000  
R14  22553463.962   120222655.1711      -3927.905          23.000  
> 2021  9 30 11 22 56.9998564  0  9
C06  36555914.367   190356222.384         -89.801          25.000  
C19  22084902.140   115001744.422       -2557.335          31.000  
C36  22551058.727   117429279.860       -1712.658          27.000  
E08                                                                                                                                  21809935.496    85586884.344        -628.135          22.000  
G26  20493893.373   107696157.713         928.806          29.000  
G29  23757731.765   124847953.464          31.511          14.000  
G31  21217400.199                       -1114.922          21.000  
J01  36549666.392   192069883.912         212.271          24.000  
J02  38934228.195   204600853.866       -1428.378          27.000  
> 2021  9 30 11 22 57.9998559  0  9
C06  36555780.360   190355531.560         -89.977          26.000  
C19  22085243.004   115003521.775       -2558.070          29.000  
C36  22551234.405   117430212.607       -1714.564          27.000  
G26  20493566.599   107694441.407         928.042          28.000  
G29  23757585.466   124847134.236          31.437          15.000  
G31  21217461.957                       -1114.289          20.000  
G32  20782557.535   109213111.7571       -880.428          36.000  
J02  38934349.011   204601494.191       -1427.725          29.000  
R14  22554729.386   120229400.1231      -3926.513          23.000  
> 2021  9 30 11 22 58.9998559  0  9
C06  36555795.949   190355621.138         -89.400          27.000  
C19  22085736.163   115006079.891       -2558.076          29.000  
C36  22551560.579   117431925.680       -1712.449          27.000  
G25  23643685.317   124248403.9641      -4105.468          35.000  
G26  20493389.722   107693513.050         928.518          29.000  
G29  23757594.460   124847101.168          34.408          17.000  
J01  36549442.148   192068672.5251        210.715          25.000  
J02  38934622.422   204602921.477       -1427.258          28.000  
R14  22555465.076   120233321.438       -3926.764          24.000  
> 2021  9 30 11 22 59.9998554  0  7
C19  22086077.027   115007857.566       -2558.404          33.000  
C36  22551739.556   117432857.618       -1712.448          26.000  
G10  23023053.772   120987060.6351      -4110.816          19.000  
G26  20493062.648   107691797.103         927.831          25.000  
G29  23757458.354   124846279.067          34.918          26.000  
J01  36549253.278   192067673.771         211.982          24.000  
J02  38934742.639   204603560.782       -1427.426          23.000  
> 2021  9 30 11 23  0.9998548  0 10
C06  36555494.957   190354084.1161        -90.722          26.000  
C19  22086387.912   115009479.332       -2558.891          27.000  
C36  22551887.053   117433633.414       -1712.618          31.000  
G10  23023661.451   120990224.457       -4107.614          19.000  
G26  20492705.295   107689924.987         926.420          30.000  
G29  23757289.870   124845298.252          35.244          26.000  
G31  21217132.185                       -1114.382          24.000  
J01  36549037.128   192066514.990         213.057          25.000  
J02  38934834.975   204604042.991       -1427.650          30.000    38934850.264   152788738.7581      -1067.412          26.000  
R14  22556610.284   120239425.9101      -3927.655          25.000  
> 2021  9 30 11 23  1.9998546  0  7
C06  36555451.787   190353863.032         -91.876          30.000  
G10  23024396.842   120994017.249       -4107.792          18.000  
G26  20492469.059   107688683.582         926.056          31.000  
G29  23757243.403   124844948.639          34.131          27.000  
J01  36548931.601   192065987.844         211.297          23.000  
J02  38935049.026   204605156.023       -1428.395          32.000    38935062.217   152789571.132       -1066.901          26.000  
R14  22557291.112   120243055.991       -3927.911          29.000  
> 2021  9 30 11 23  2.9998541  0  6
C06  36555318.380   190353173.744         -91.602          30.000  
G10  23025043.194   120997338.676       -4110.305          19.000  
G26  20492142.885   107686969.939         925.297          28.000  
G29  23757101.901   124844412.306          33.098          28.000  
J01  36548741.233   192064989.124         211.828          23.000  
J02  38935172.841   204605796.596       -1428.671          33.000    38935184.533   152790049.627       -1064.484          23.000  
> 2021  9 30 11 23  3.9998538  0  8
C06  36555244.331   190352796.336         -91.203          31.000  
C16  36935347.291   192331963.0241        -41.906          27.000  
C22  22382464.442                         478.736          25.000  
G10  23025757.000   121000975.982       -4110.714          19.000  
G26  20491879.967   107685572.267         924.615          29.000  
G29  23757025.454   124843906.983          32.221          28.000  
J02  38935361.710   204606752.214       -1428.516          32.000    38935365.907   152790761.880       -1065.321          19.000  
R14  22558527.456   120249646.2841      -3927.909          30.000  
> 2021  9 30 11 23  4.9998533  0  9
C06  36555109.724   190352107.101         -91.188          31.000  
C16  36935204.290   192331224.295         -41.832          26.000  
C22  22382225.508                         480.014          24.000  
G10  23026407.250   121004586.479       -4110.348          26.000  
G26  20491555.891   107683860.028         924.393          28.000  
G29  23756888.448   124843087.584          31.204          29.000  
J01  36548415.359   192063306.0051        211.761          24.000  
J02                                                                  38935488.222   152791240.245       -1069.022          20.000  
R14  22559121.045   120252810.563       -3927.802          30.000  
> 2021  9 30 11 23  5.9998528  0 10
C06  36554975.117   190351417.387         -90.165          31.000  
C16  36935060.989   192330485.410         -41.845          27.000  
C19  22088247.524   115019154.2141      -2559.259          19.000  
C22  22381984.475   116548858.9751        481.769          25.000  
G10  23027053.603   121007908.991       -4110.813          26.000  
G26  20491231.216   107682148.058         923.840          31.000  
G31  21218203.044   111502409.3551      -1117.344          24.000  
J01  36548223.791   192062306.045         211.550          25.000  
J02                                                                  38935610.838   152791720.858       -1067.219          20.000  
R14  22559716.433   120255984.364       -3928.092          31.000  
> 2021  9 30 11 23  6.9998525  0  8
C06  36554899.869   190351039.167         -90.456          30.000  
C16  36934978.546   192330058.561         -41.746          26.000  
C22  22381803.700   116547911.029         479.469          25.000  
G10  23027757.815   121011547.619       -4111.558          27.000  
G26  20490965.000   107680751.914         923.143          31.000  
G31  21218324.759   111503054.241       -1116.523          23.000  
J01  36548089.784   192061620.992         212.048          22.000  
R14  22560367.283   120259453.072       -3927.244          30.000  
> 2021  9 30 11 23  7.9998523  0  7
C06  36554856.400   190350817.284         -90.100          31.000  
C16  36934924.284   192329788.931         -42.506          25.000  
C22  22381648.107   116547119.011         479.427          25.000  
G10  23028490.808   121015344.029       -4111.522          27.000  
G26  20490728.464   107679513.898         922.627          29.000  
J01  36547988.754   192061093.495         213.097          21.000  
R14  22561044.814   120263064.949       -3927.981          30.000  
> 2021  9 30 11 23  8.9998520  0  8
C06  36554782.351   190350439.202         -90.484          31.000  
C16  36934840.942   192329363.134         -42.647          26.000  
C22  22381465.834   116546171.999         477.456          25.000  
C30  25774703.644   134215448.1251       1001.760          27.000  
G10  23029193.821   121018983.528       -4112.423          28.000  
G26  20490462.548   107678118.872         922.288          30.000  
J01  36547855.346   192060407.939         212.210          21.000  
R14  22561695.064   120266530.940       -3926.815          27.000  
> 2021  9 30 11 23  9.9998515  0 10
C06  36554648.344   190349748.692         -89.817          31.000  
C16  36934698.240   192328625.068         -43.094          26.000  
C19  22089825.032   115027369.6991      -2559.933          19.000  
C22  22381223.002   116544914.246         477.204          24.000  
C30  25774356.784   134213665.978        1001.431          27.000  
C36  22553865.384   117443900.3271      -1712.795          23.000  
G10  23029835.077   121022599.567       -4111.405          27.000  
G26  20490138.472   107676409.142         921.568          32.000  
G31  21218659.028   111504826.2351      -1115.288          25.000  
J01  36547666.777   192059407.190         213.703          24.000  
> 2021  9 30 11 23 10.9998510  0  7
C06  36554513.737   190349057.877         -89.582          29.000  
C22  22380982.568   116543655.519         478.856          25.000  
C30  25774010.224   134211883.858        1001.813          26.000  
G10  23030473.935   121025922.980       -4113.396          25.000  
G25  23651601.337   124289972.4281      -4108.266          34.000  
G26  20489814.397   107674699.978         921.066          32.000  
J01  36547475.509   192058406.514         211.681          24.000  
> 2021  9 30 11 23 11.9998508  0 10
C06  36554469.967   190348835.063         -89.433          29.000  
C16  36934501.876   192327614.5991        -38.846          23.000  
C19  22090597.897   115031397.3021      -2559.676          20.000  
C22  22380832.072   116542865.480         477.460          26.000  
G10  23031203.630   121029720.656       -4112.660          24.000  
G25  23652316.942   124293765.854       -4108.757          35.000  
G26  20489579.060   107673464.154         919.923          33.000  
G31  21218874.279   111505952.5591      -1114.509          25.000  
J01  36547375.379   192057879.971         210.442          26.000  
R14  22563520.500   120276261.6381      -3925.128          23.000  
> 2021  9 30 11 23 12.9998502  0 11
C06  36554306.280   190347987.742         -89.331          30.000  
C16  36934330.095   192326717.083         -38.378          24.000  
C19  22090911.180   115033019.952       -2558.444          19.000  
C22  22380562.259   116541450.864         478.933          23.000  
G10  23031810.110   121032887.804       -4111.814          22.000  
G25  23652918.925   124296929.234       -4110.089          33.000    23652922.522    92819149.8071      -3067.982          27.000  
G26  20489223.806                         920.880          33.000  
G32                                                                  20783368.773    81558389.5031       -661.970          26.000  
J01  36547155.031   192056724.716         209.646          25.000  
J02  38936724.866   204613869.9601      -1426.897          30.000  
R14  22564076.315   120279224.432       -3925.761          27.000  
> 2021  9 30 11 23 13.9998497  0 10
C06  36554172.273   190347296.731         -89.440          30.000  
C19  22091248.147   115034799.100       -2561.385          20.000  
C22  22380321.226   116540191.870         477.473          24.000  
C30  25773040.995   134206845.9321       1003.567          25.000  
C36  22554627.756   117447944.6871      -1715.944          22.000  
G25  23653544.292   124300249.573       -4108.346          30.000    23653553.586    92821628.613       -3066.037          28.000  
G26  20488902.128   107669889.9891        919.363          33.000  
G31  21218972.611   111506448.1811      -1116.658          23.000  
G32                                                                  20783389.159    81558463.869        -664.961          26.000  
J02  38936845.683   204614510.639       -1429.341          29.000  
> 2021  9 30 11 23 14.9998495  0  9
C01  37485614.249   195197430.2041       -608.311          25.000  
C06  36554125.206   190347074.848         -91.327          27.000  
C19  22091682.247   115037049.466       -2564.396          31.000  
C22  22380175.227   116539403.726         473.270          22.000  
C30  25772789.769   134205530.255        1003.868          23.000  
G25  23654269.190   124304042.865       -4109.338          32.000    23654273.987    92824459.982       -3067.743          27.000  
G26  20488667.091   107668655.493         919.849          30.000  
G31  21219128.803   111507251.171       -1119.127          11.000  
G32                                                                  20783497.984    81558896.175        -668.833          24.000  
> 2021  9 30 11 23 15.9998490  0  8
C16  36933991.030   192324971.3141        -42.791          23.000  
C19  22092027.008   115038834.237       -2566.364          35.000  
C36  22555084.640   117450284.5201      -1716.610          29.000  
G25  23654904.450   124307364.003       -4108.242          35.000    23654905.650    92826939.713       -3068.991          27.000  
G26  20488341.217   107666949.274         917.991          26.000  
G29  23755632.018   124836688.4531         25.866          34.000  
G32                                                                  20783515.072    81558973.918        -663.826          22.000  
J01  36546684.057   192054200.6461        211.123          31.000  
> 2021  9 30 11 23 16.9998490  0 10
C06  36554007.087   190346476.3171        -91.116          26.000  
C16  36933998.225   192325013.604         -41.479          25.000  
C19  22092519.867   115041400.995       -2566.895          27.000  
C22  22379843.357   116537678.9541        472.643          26.000  
C36  22555417.409   117452000.561       -1715.725          31.000  
G25  23655680.313   124311475.387       -4109.625          30.000    23655688.108    92830010.081       -3070.473          26.000  
G26  20488166.737   107666031.726         917.021          32.000  
G32                                                                  20783684.754    81559635.940        -664.885          23.000  
J02  38937444.968   204617697.2791      -1430.234          24.000  
R14  22566690.805   120293161.5271      -3925.428          31.000  
> 2021  9 30 11 23 17.9998484  0 14
C06  36553844.300   190345630.495         -90.675          29.000  
C16  36933827.044   192324118.678         -41.097          29.000  
C19  22092833.150   115043031.693       -2567.901          25.000  
C22  22379573.244   116536269.436         472.399          28.000  
C30  25771746.491   134200246.0011       1001.590          16.000  
C36  22555568.805   117452778.969       -1714.939          32.000  
G10  23035056.862   121050040.7191      -4115.178          25.000  
G25  23656280.798   124314639.952       -4110.415          29.000    23656290.991    92832375.929       -3073.132          23.000  
G26  20487812.682   107664169.611         916.079          33.000  
G29  23755442.250   124835693.5211         24.232          30.000  
G31  21219435.790   111508872.4471      -1118.288          17.000  
G32                                                                  20783674.861    81559594.719        -665.680          22.000  
J01  36546433.131   192052834.2151        209.037          26.000  
R14  22567247.819   120296129.941       -3924.678          29.000  
> 2021  9 30 11 23 18.9998479  0 11
C06  36553711.792   190344940.455         -90.902          31.000  
C16  36933686.441   192323379.455         -41.637          32.000  
C22  22379332.810   116535015.628         473.890          29.000  
C30  25771403.229   134198461.923        1003.952          18.000  
C36  22555747.481   117453713.617       -1715.174          33.000  
G10  23035678.032   121053367.453       -4112.255          18.000  
G25  23656913.060   124317962.310       -4109.348          29.000  
G26  20487489.806   107662464.949         916.943          27.000  
G29  23755288.156   124834880.957          22.746          22.000  
G31  21219493.950   111509206.315       -1122.177          17.000  
J02  38937663.217   204618823.5071      -1428.319          30.000  
> 2021  9 30 11 23 19.9998477  0 12
C06  36553671.020   190344718.832         -89.842          30.000  
C16  36933636.376   192323109.411         -43.943          33.000  
C19  22093605.715   115047078.2191      -2570.574          23.000  
C22  22379182.314   116534229.763         473.275          28.000  
C30  25771145.707   134197146.021        1003.665          18.000  
C36  22556016.695   117455116.956       -1716.806          32.000  
G10  23036397.834   121057164.142       -4110.601          16.000  
G25  23657632.862   124321753.807       -4105.837          21.000  
G26  20487253.270   107661232.829         916.179          23.000  
G31  21219640.549   111510011.341       -1119.459          18.000  
J01  36546143.232   192051310.9731        209.384          22.000  
R14  22568508.747   120302851.5731      -3927.385          24.000  
> 2021  9 30 11 23 20.9998472  0  8
C06  36553537.313   190344028.158         -89.755          27.000  
C16  36933497.871                         -41.119          33.000  
C22  22378942.181   116532976.161         472.249          27.000  
C36  22556198.968   117456053.331       -1716.529          33.000  
G10  23037024.999   121060485.403       -4106.344          17.000  
G25  23658264.224   124325072.551       -4108.125          31.000  
G26  20486927.395   107659528.986         915.044          30.000  
G29  23754854.057   124832600.0821         25.678          23.000  
> 2021  9 30 11 23 21.9998469  0  9
C06  36553462.964   190343650.343         -90.897          26.000  
C16  36933413.630                         -41.283          30.000  
C30  25770518.241   134193889.7511       1002.195          20.000  
C36  22556439.102   117457302.078       -1717.308          32.000  
G10  23037721.717   121064119.384       -4109.582          16.000  
G25  23658955.546   124328709.107       -4110.238          31.000  
G26  20486660.580   107658142.322         912.902          28.000  
G29  23754743.733   124832102.987          24.580          17.000  
J01  36545826.051   192049634.4841        209.431          24.000  
> 2021  9 30 11 23 22.9998464  0  8
C06  36553326.559   190342959.606         -88.577          24.000  
C16  36933273.627   192321252.8471        -41.867          28.000  
C22  22378514.677   116530783.2411        470.687          25.000  
C36  22556616.879   117458238.505       -1716.888          32.000  
G10  23038365.671   121067442.289       -4112.576          16.000  
G25  23659586.909   124332032.148       -4111.580          31.000  
G26  20486336.504   107656442.347         911.073          26.000  
G29  23754577.648   124831291.030          22.941          17.000  
> 2021  9 30 11 23 23.9998459  0 11
C06  36553191.952   190342267.695         -88.749          24.000  
C16  36933129.127   192320515.525         -45.162          29.000  
C22  22378271.545   116529532.225         469.103          24.000  
C30  25769836.214   134190327.0791        998.957          21.000  
C36  22556795.855   117459175.378       -1717.929          31.000  
G10  23039010.825   121070768.214       -4117.270          17.000  
G25  23660217.372   124335355.563       -4111.685          30.000  
G26  20486013.028   107654743.790         910.039          28.000  
G29  23754416.060   124830481.142          20.789          19.000  
J02  38938432.784   204622817.1491      -1430.436          18.000  
R14  22570923.875   120315725.3751      -3927.224          29.000  
> 2021  9 30 11 23 24.9998456  0 11
C06  36553118.203   190341888.546         -89.425          24.000  
C16  36933052.979   192320090.430         -42.297          31.000  
C19  22095439.845   115056659.5871      -2572.345          18.000  
C22  22378092.869   116528595.639         467.651          27.000  
C30  25769557.706   134188860.100         998.638          21.000  
C36  22557037.488   117460424.852       -1718.325          31.000  
G10  23039715.037   121074414.153       -4119.821          17.000  
G25  23660909.893   124338994.742       -4112.015          29.000  
G26  20485749.211   107653360.612         910.779          29.000  
G29  23754314.131   124829988.056          18.854          20.000  
G32  20784022.021                        -893.388          31.000  
> 2021  9 30 11 23 25.9998454  0 10
C06  36553073.834   190341666.074         -89.482          26.000  
C16  36933000.816   192319821.392         -44.564          30.000  
C19  22095874.544   115058919.668       -2571.622          27.000  
C22  22377942.972   116527815.509         467.549          25.000  
C30  25769317.872   134187549.062         998.417          21.000  
C36  22557308.500   117461830.579       -1717.557          31.000  
G26  20485517.471   107652134.636         911.050          34.000  
G29  23754239.782   124829371.795          19.954          19.000  
J02  38938829.709   204624890.7891      -1429.617          28.000  
R14  22572250.456   120322796.9411      -3927.282          30.000  
> 2021  9 30 11 23 26.9998451  0  9
C16  36932919.272   192319396.264         -43.860          29.000  
C19  22096277.765   115061021.804       -2570.403          25.000  
C22  22377766.694   116526879.199         467.778          27.000  
C30  25769042.363   134186084.974         996.383          21.000  
C36  22557548.634   117463079.753       -1717.651          32.000  
G26  20485254.853   107650750.251         911.786          34.000  
G29  23754144.748   124828879.352          20.311          20.000  
J02  38939010.484   204625847.835       -1429.628          30.000  
R14  22572898.308   120326250.199       -3927.811          29.000  
> 2021  9 30 11 23 27.9998446  0  8
C16  36932776.571   192318658.644         -42.681          29.000  
C22  22377528.359   116525630.488         467.971          26.000  
C36  22557725.212   117464017.133       -1718.289          29.000  
G10  23041775.211   121085201.5041      -4125.992          17.000  
G26  20484930.778   107649050.987         911.450          29.000  
G29  23753984.059   124828069.965          21.982          20.000  
G31  21220361.549   111513752.3671      -1116.213          16.000  
J02  38939133.998   204626489.207       -1427.619          27.000  
> 2021  9 30 11 23 28.9998441  0 10
C06  36552744.661   190339908.1861        -91.466          26.000  
C16  36932632.670   192317921.484         -45.093          25.000  
C19  22096972.684   115064599.1231      -2567.309          24.000  
C22  22377288.226   116524382.439         466.550          23.000  
C36  22557904.188   117464955.010       -1718.534          31.000  
G25  23663600.830   124353075.9851      -4112.824          37.000  
G26  20484608.800   107647352.787         910.128          26.000  
G29  23753821.572   124827259.404          21.580          18.000  
G31  21220416.711   111514081.420       -1117.823          16.000  
J02  38939255.714   204627129.233       -1427.621          28.000  
> 2021  9 30 11 23 29.9998438  0  8
C06  36552675.110   190339531.038         -91.056          26.000  
C19  22097376.505   115066699.730       -2571.448          24.000  
C22  22377109.849   116523447.407         466.622          29.000  
C30  25768086.025   134181055.8391       1001.114          25.000  
C36  22558148.819   117466205.488       -1719.355          32.000  
G26  20484347.082   107645970.865         908.879          29.000  
G29  23753710.948   124826764.842          19.054          16.000  
J02  38939437.388   204628084.039       -1427.492          31.000  
> 2021  9 30 11 23 30.9998433  0  9
C06  36552544.100   190338840.851         -89.610          27.000  
C16  36932410.524   192316760.5171        -43.536          30.000  
C19  22097718.868   115068491.793       -2573.260          26.000  
C22  22376872.114   116522200.107         467.315          28.000  
C30  25767741.264   134179273.946        1001.582          22.000  
C36  22558334.690                       -1718.652          33.000  
G26  20484025.105   107644274.183         909.037          28.000    20484033.199    80383745.4031        680.448          28.000  
G29  23753545.463   124825960.302          15.174          15.000  
J02  38939559.104   204628723.941       -1427.722          30.000  
> 2021  9 30 11 23 31.9998428  0 13
C06  36552412.491   190338150.009         -89.643          27.000  
C19  22098063.029   115070284.829       -2573.799          25.000  
C22  22376634.378   116520952.593         467.002          30.000  
C30  25767395.004   134177492.640        1000.602          24.000  
C36  22558517.263   117468106.1821      -1715.925          34.000  
G10  23044351.028   121098852.4441      -4116.853          16.000  
G25  23665564.770   124363381.6891      -4111.792          35.000  
G26  20483702.528   107642577.151         908.740          30.000    20483710.322    80382478.244         678.651          27.000  
G29  23753405.160   124825157.693          14.973          13.000  
G31  21220655.646   111515392.0481      -1119.088          17.000  
G32  20784362.585   109222561.7861       -897.595          28.000  
J02  38939682.019   204629364.194       -1427.959          31.000  
R14  22575898.031   120342240.7081      -3925.898          28.000  
> 2021  9 30 11 23 32.9998426  0  8
C06  36552370.520   190337927.275         -89.403          28.000  
C19  22098496.829   115072546.844       -2574.424          25.000  
C36  22558772.087   117469512.521       -1717.950          31.000  
G10  23045087.018   121102655.715       -4119.560          17.000  
G26  20483469.889   107641353.622         907.754          32.000    20483477.384    80381565.083         678.830          28.000  
G29  23753360.791   124824827.997          11.669          13.000  
G31  21220806.142   111516194.607       -1114.678          17.000  
J02  38939893.673   204630477.124       -1428.003          29.000  
> 2021  9 30 11 23 33.9998420  0 10
C06  36552209.532   190337080.621         -89.989          29.000  
C19  22098810.712   115074184.897       -2575.399          24.000  
C30  25766759.144   134174245.3951        999.016          22.000  
C36  22558919.885   117470294.904       -1719.262          29.000  
G10  23045703.691   121105828.969       -4117.901          18.000  
G25  23666885.056   124370346.3191      -4113.003          33.000  
G26  20483118.232   107639500.954         906.982          31.000    20483122.729    80380180.258         680.010          26.000  
G29  23753196.504   124823865.250          18.656          13.000  
G31  21220832.224   111516363.221       -1113.995          17.000  
J02  38939986.009   204630960.639       -1428.010          29.000  
> 2021  9 30 11 23 34.9998420  0  8
C06  36552228.419   190337171.159         -90.790          27.000  
C22  22376135.224   116518307.2751        465.598          28.000  
C36  22559250.256   117472014.284       -1721.428          31.000  
G10  23046500.540   121109949.536       -4121.484          18.000  
G26  20482947.051   107638594.282         906.169          31.000    20482950.049    80379501.975         677.921          25.000  
G29  23753208.796   124823850.150          15.302          12.000  
G31  21221049.573   111517476.286       -1112.873          16.000  
J02  38940256.122   204632389.094       -1428.128          30.000  
> 2021  9 30 11 23 35.9998415  0 10
C06  36552096.810   190336481.535         -90.641          27.000  
C16  36931911.969   192314162.6591        -41.916          31.000  
C22  22375895.390   116517061.663         464.702          26.000  
C36  22559427.733   117472953.511       -1721.395          30.000  
G10  23047142.695   121113552.182       -4120.776          18.000  
G26  20482624.474   107636900.636         905.656          30.000    20482628.371    80378236.691         676.509          26.000  
G29  23753081.384   124823048.025          14.600          12.000  
G31  21221108.332   111517797.474       -1105.963          14.000  
J02  38940377.238   204633029.911       -1428.760          30.000  
R14  22578453.462   120355862.2851      -3927.303          29.000  
> 2021  9 30 11 23 36.9998410  0  8
C06  36551964.302   190335791.737         -91.215          27.000  
C36  22559608.808   117473892.417       -1718.960          28.000  
G10  23047785.450   121116882.913       -4117.079          18.000  
G26  20482301.897   107635207.573         905.062          31.000    20482306.394    80376972.577         675.149          27.000  
G29  23752946.477   124822575.698          14.531          12.000  
G31  21221165.893   111518118.243       -1109.952          12.000  
J02  38940499.553   204633670.918       -1429.090          31.000  
R14  22579037.158   120358973.981       -3925.411          26.000  
> 2021  9 30 11 23 37.9998408  0 14
C06  36551921.431   190335570.696         -91.020          27.000  
C16  36931723.100   192313155.3431        -42.808          30.000  
C19  22100417.899   115082611.7571      -2577.348          27.000  
C22  22375506.259   116515041.7941        463.806          25.000  
C30  25765616.935   134168370.2411       1000.624          24.000  
C36  22559881.919   117475298.888       -1718.891          27.000  
G10  23048518.743   121120684.848       -4117.045          18.000  
G25  23669655.439   124384908.6851      -4113.736          35.000  
G26  20482069.858   107633987.781         904.331          31.000    20482074.355    80376062.585         674.168          27.000  
G29  23752891.016   124822245.949          14.696          15.000  
G31  21221314.290   111518915.913       -1113.419          13.000  
J01  36543373.449   192036680.2351        208.449          25.000  
J02  38940713.005   204634784.734       -1428.736          29.000  
R14  22579714.689   120362586.306       -3924.766          27.000  
> 2021  9 30 11 23 38.9998403  0 12
C06  36551789.822   190334881.484         -91.177          29.000  
C16  36931582.198   192312417.198         -42.003          31.000  
C19  22100763.560   115084408.333       -2577.000          28.000  
C36  22560061.794   117476237.390       -1719.121          27.000  
G10  23049156.401   121124010.541       -4112.446          15.000  
G25  23670286.202   124388234.455       -4113.528          34.000  
G26  20481747.281   107632295.993         903.843          30.000    20481752.977    80374800.713         673.894          28.000  
G29  23752745.616   124821443.504          14.547          23.000  
G31  21221372.450   111519243.631       -1117.132          10.000  
J01  36543184.580   192035684.380         207.961          24.000  
J02  38940835.021   204635426.545       -1430.026          29.000  
R14  22580299.884   120365705.159       -3926.768          26.000  
> 2021  9 30 11 23 39.9998400  0 13
C06  36551716.973   190334504.631         -92.213          28.000  
C075057912720.841                       -4112.446          25.000  
C16  36931500.055   192311991.111         -42.084          32.000  
C19  22101169.179   115086517.112       -2577.016          29.000  
C22  22375087.149   116512865.9221        463.252          25.000  
C36  22560303.427   117477488.484       -1719.122          28.000  
G10  23049857.316   121127651.776       -4115.076          14.000  
G26  20481483.764   107630919.640         903.324          30.000    20481490.959    80373773.078         674.443          27.000  
G29  23752662.274   124820956.294          14.398          22.000  
G31  21221489.069   111519889.317       -1119.436          12.000  
J01  36543053.870   192035004.281         207.171          21.000  
J02  38941018.194   204636384.033       -1430.287          31.000  
R14  22580948.335   120369162.192       -3929.147          28.000  
> 2021  9 30 11 23 40.9998395  0 14
C06  36551585.064   190333815.518         -91.320          28.000  
C07  36620888.986                         241.114          25.000  
C16  36931357.353   192311253.931         -44.219          31.000  
C19  22101515.139   115088313.339       -2577.218          28.000  
C22  22374849.714   116511621.970         462.810          25.000  
C36  22560484.202   117478427.301       -1720.151          28.000  
G10  23050498.572   121130977.364       -4113.010          14.000  
G25  23671618.480   124395202.0121      -4116.659          35.000  
G26  20481159.688   107629228.893         902.583          31.000    20481168.982    80372510.711         674.383          28.000  
G29  23752518.973   124820154.157          14.343          20.000  
G31  21221555.323   111520226.320       -1127.315          12.000  
J01  36542866.500   192034009.299         207.687          19.000  
J02  38941142.008   204637026.173       -1429.626          30.000  
R14  22581534.429   120372286.009       -3927.926          27.000  
> 2021  9 30 11 23 41.9998390  0 14
C06  36551452.256   190333125.345         -90.280          27.000  
C07  36620695.920                         238.848          25.000  
C19  22101861.400   115090110.113       -2577.693          25.000  
C22  22374612.878   116510379.760         461.189          28.000  
C30  25764315.536   134161559.8941        999.343          25.000  
C36  22560661.379   117479367.551       -1722.041          27.000  
G10  23051142.826   121134572.357       -4114.648          16.000  
G25  23672249.842   124398528.358       -4113.934          34.000  
G26  20480837.112   107627538.865         901.954          32.000    20480848.204    80371249.312         673.080          28.000  
G29  23752375.972   124819352.076          14.113          21.000  
G31  21221624.275   111520566.556       -1127.989          14.000  
J01  36542678.230   192033013.480         208.270          25.000  
J02  38941264.324   204637668.159       -1429.425          31.000  
R14  22582120.823   120375411.510       -3926.278          26.000  
> 2021  9 30 11 23 42.9998387  0 10
C16  36931134.008   192310090.8411        -43.489          25.000  
C22  22374433.902   116509450.406         460.103          24.000  
C30  25764030.133   134160092.155         999.105          27.000  
C36  22560904.811   117480621.853       -1722.734          26.000  
G10  23051852.435   121138214.590       -4115.577          24.000  
G25  23672947.459   124402170.499       -4115.215          37.000  
G26  20480576.892   107626164.470         901.310          33.000    20480587.684    80370224.684         671.332          26.000  
G29  23752293.529   124819144.532          13.574          25.000  
G31  21221755.584   111521219.285       -1124.543          15.000  
J02  38941444.499   204638625.113       -1429.412          30.000  
> 2021  9 30 11 23 43.9998385  0 12
C01  37485699.091   195198046.5501       -605.022          29.000  
C06  36551333.838   190332523.5921        -87.775          24.000  
C16  36931084.242   192309821.921         -43.757          27.000  
C19  22102707.414   115094479.9281      -2576.491          23.000  
C22  22374285.205   116508679.772         456.810          24.000  
C36  22561178.221   117482032.326       -1723.036          27.000  
G10  23052597.419   121142015.650       -4117.920          25.000  
G25  23673670.859   124405970.215       -4114.742          39.000  
G26  20480346.951   107624948.762         900.050          25.000    20480357.444    80369317.941         671.810          23.000  
G29  23752239.867   124818816.335          12.495          20.000  
J02  38941656.152   204639738.869       -1428.767          35.000  
R14  22583458.197   120382541.3261      -3925.931          17.000  
> 2021  9 30 11 23 44.9998380  0 12
C01  37485666.713   195197871.534        -606.040          30.000  
C06  36551202.229   190331830.873         -89.360          23.000  
C07  36620264.219   190691515.2141        239.794          17.000  
C16  36930942.740   192309084.918         -43.570          24.000  
C22  22374046.870   116507441.748         457.838          25.000  
C36  22561360.795   117482973.798       -1722.183          27.000  
G25  23674304.620   124409297.632       -4114.794          40.000  
G26  20480025.274   107623260.951         900.066          27.000    20480036.066    80368057.718         672.083          27.000  
G29  23752098.364   124818016.239          12.182          20.000  
J01  36542254.923   192030816.4881        205.497          29.000  
J02  38941776.969   204640379.591       -1428.477          35.000  
R14  22584062.279   120385760.701       -3927.465          19.000  
> 2021  9 30 11 23 45.9998377  0 10
C06  36551129.380   190331450.822         -87.525          25.000  
C07  36620131.710   190690807.811         238.040          19.000  
C16  36930861.497   192308660.046         -43.455          24.000  
C22  22373869.393   116506515.027         458.937          23.000  
G25  23674995.642   124412940.358       -4115.341          41.000  
G26  20479765.653   107621888.109         899.932          31.000    20479774.047    80367031.614         673.663          26.000  
G29  23752012.924   124817531.747          11.198          29.000  
G31  21222103.344   111523016.3051      -1126.707          17.000  
J01  36542124.514   192030138.337         205.143          29.000  
J02  38941952.947   204641335.340       -1428.107          32.000  
> 2021  9 30 11 23 46.9998372  0 13
C01  37485660.118   195197836.7321       -608.300          31.000  
C06  36550996.572   190330758.360         -89.148          27.000  
C07  36619937.145   190689790.221         236.553          20.000  
C16  36930717.896   192307922.622         -43.037          28.000  
C22  22373628.959   116505274.957         459.696          22.000  
C30  25762807.280   134153753.6241        999.062          25.000  
C36  22561787.999   117485166.5421      -1721.267          26.000  
G25  23675628.204   124416268.090       -4116.086          41.000  
G26  20479446.075   107620200.877         899.142          32.000    20479452.370    80365769.534         672.831          26.000  
G31  21222168.998   111523356.349       -1128.902          17.000  
G32  20785267.059   109227237.5921       -902.531          17.000  
J01  36541934.745   192029145.851         204.436          28.000  
J02  38942068.967   204641976.582       -1429.130          31.000  
> 2021  9 30 11 23 47.9998369  0 10
C06  36550924.921   190330379.418         -89.480          27.000  
C07  36619801.639   190689083.929         239.454          24.000  
C16  36930636.352   192307497.017         -43.093          28.000  
C19  22104212.372   115102296.9411      -2579.492          17.000  
C22  22373449.983   116504347.170         459.688          22.000  
C30  25762522.477   134152287.425         996.843          26.000  
G25  23676321.923   124419911.384       -4116.244          41.000  
G26  20479185.555   107618829.268         899.302          30.000    20479192.150    80364745.220         670.570          27.000  
G31  21222295.511   111524012.918       -1128.042          17.000  
J01  36541804.335   192028468.932         204.252          27.000  
> 2021  9 30 11 23 48.9998364  0 14
C01  37485655.920   195197805.9801       -610.024          31.000  
C06  36550794.811   190329688.184         -90.034          25.000  
C07  36619604.375   190688064.461         238.481          24.000  
C16  36930494.850   192306759.170         -43.153          28.000  
C19  22104558.932   115104094.223       -2577.883          17.000  
C22  22373210.149   116503107.899         457.687          25.000  
C36  22562212.206   117487361.8001      -1721.274          28.000  
G10  23055965.887   121159918.3381      -4123.180          19.000  
G25  23676955.385   124423239.606       -4115.714          40.000    23676955.085    92913475.8531      -3072.436          24.000  
G26  20478866.875   107617142.872         897.788          27.000    20478871.073    80363486.035         670.881          26.000  
G31  21222361.165   111524351.866       -1126.721          15.000  
G32  20785371.687   109227788.8251       -906.184          23.000  
J01  36541614.267   192027475.907         205.180          27.000  
J02  38942369.958   204643574.7351      -1428.792          29.000  
> 2021  9 30 11 23 49.9998359  0 11
C01  37485624.142   195197635.328        -610.194          31.000  
C06  36550664.701   190328998.200         -90.744          26.000  
C07  36619407.712   190687046.831         237.400          23.000  
C16  36930353.648   192306021.530         -42.854          28.000  
C22  22372970.615   116501870.419         456.633          23.000  
C36  22562389.982   117488302.435       -1721.441          27.000  
G10  23056598.749   121163253.609       -4122.031          18.000  
G25  23677587.647   124426567.905       -4116.598          40.000    23677587.647    92915960.111       -3073.927          24.000  
G26  20478548.796   107615458.177         895.440          23.000    20478550.894    80362227.096         669.185          27.000  
G32  20785394.471   109227907.153        -906.117          23.000  
J01  36541424.498   192026482.420         205.402          27.000  
> 2021  9 30 11 23 50.9998356  0 11
C06  36550595.749   190328619.769         -89.523          25.000  
C07  36619270.706   190686341.058         237.592          21.000  
C16  36930272.105   192305596.122         -43.648          25.000  
C19  22105305.715   115107994.7791      -2571.165          15.000  
C36  22562630.416   117489555.547       -1721.232          25.000  
G25  23678282.866   124430211.320       -4115.698          40.000    23678281.067    92918679.387       -3072.316          25.000  
G26  20478289.475   107614089.683         896.190          20.000    20478290.674    80361205.337         668.163          27.000  
G31  21222556.030   111525339.3911      -1124.052          16.000  
G32  20785474.216   109228340.332        -906.023          26.000  
J01  36541294.688   192025804.716         204.656          28.000  
R14  22587746.129   120405398.1521      -3927.540          17.000  
> 2021  9 30 11 23 51.9998351  0 11
C06  36550476.432   190327928.278         -89.575          21.000  
C07  36619087.533   190685323.444         237.514          17.000  
C22  22372565.595   116499711.7231        453.978          23.000  
C36  22562823.183   117490496.911       -1722.462          22.000  
G10  23057923.532   121170232.4791      -4116.412          22.000  
G25  23678915.128   124433539.668       -4116.445          40.000    23678914.229    92921163.440       -3072.559          26.000  
G26                                                                  20477969.896    80359948.496         667.587          28.000  
G29  23751217.574   124813378.3971          7.962          29.000  
G31  21222632.477   111525676.546       -1123.525          16.000  
J01  36541104.020   192024811.956         205.909          28.000  
R14  22588330.424   120408512.776       -3925.819          20.000  
> 2021  9 30 11 23 52.9998349  0  8
C06  36550435.360   190327705.080         -87.546          21.000  
C19  22106091.771   115112038.1941      -2567.175          14.000  
C36  22563093.296   117491907.518       -1723.151          25.000  
G10  23058652.027   121174032.352       -4115.054          21.000  
G25  23679638.228   124437340.911       -4116.895          41.000    23679638.827    92924000.475       -3073.818          26.000  
G26                                                                  20477739.056    80359044.729         668.779          27.000  
G29  23751148.322   124813055.843           6.043          27.000  
J01  36541004.789   192024290.877         206.105          27.000  
> 2021  9 30 11 23 53.9998346  0 15
C01  37485718.577   195198048.9101       -611.400          31.000  
C06  36550361.611   190327323.416         -89.250          13.000  
C07  36618852.796   190684072.1041        234.267          16.000  
C16  36929998.094   192304168.4311        -44.963          17.000  
C19  22106492.893   115114138.021       -2570.746          13.000  
C22  22372236.723   116498023.4441        453.434          26.000  
C36  22563334.029   117493162.478       -1723.542          26.000  
G10  23059348.145   121177674.428       -4114.705          21.000  
G25  23680329.549   124440985.003       -4116.941          40.000    23680333.146    92926721.993       -3074.523          26.000  
G26  20477476.738   107609825.2131        891.842          17.000    20477479.136    80358024.806         665.237          27.000  
G29  23751060.183   124812577.093           6.649          28.000  
G31  21222928.073   111527136.3851      -1124.058          18.000  
G32  20785690.066                        -907.241          36.000  
J01  36540874.679   192023613.168         204.323          26.000  
R14  22589650.710   120415550.3951      -3924.131          20.000  
> 2021  9 30 11 23 54.9998341  0  9
C07  36618657.931   190683057.542         233.594          16.000  
G10  23059982.806   121181002.022       -4116.835          22.000  
G25  23680963.910   124444314.142       -4117.652          40.000  
G26                                                                  20477159.557    80356769.876         667.582          28.000  
G29  23750906.989   124811783.485           5.604          28.000  
G31  21223004.220   111527473.522       -1126.340          18.000  
G32  20785711.951   109229658.0501       -908.194          34.000  
J01  36540684.910   192022621.544         203.244          27.000  
R14  22590234.106   120418660.091       -3926.812          20.000  
> 2021  9 30 11 23 55.9998339  0  9
C36  22563785.516   117495516.0551      -1724.169          29.000  
G10  23060706.805   121184806.035       -4121.343          22.000  
G25  23681686.410   124448116.188       -4117.230          40.000  
G26  20476929.916   107606940.6461        890.885          17.000    20476928.717    80355866.728         667.903          28.000  
G29  23750840.435   124811462.602           5.756          26.000  
G31  21223170.305   111528284.003       -1125.936          18.000  
G32  20785827.971   109230251.084        -908.314          35.000  
J01  36540587.178   192022103.193         203.521          27.000  
R14  22590919.132   120422311.719       -3928.448          21.000  
> 2021  9 30 11 23 56.9998333  0  9
C36  22563940.809   117496303.435       -1724.620          30.000  
G10  23061315.983   121187984.436       -4124.503          21.000  
G25  23682288.992   124451288.561       -4118.811          39.000  
G26  20476583.057   107605104.093         892.046          28.000    20476578.859    80354493.500         667.933          29.000  
G29  23750657.262   124810511.935           5.299          27.000  
G32  20785818.377   109230214.197        -908.356          37.000  
J01  36540368.030   192020954.583         202.966          27.000  
J02  38943638.080   204650199.3591      -1428.755          29.000  
R14  22591481.243   120425308.217       -3928.144          24.000  
> 2021  9 30 11 23 57.9998328  0  8
C06  36549884.641   190324872.4971        -91.140          24.000  
C16  36929488.147   192301540.4411        -43.138          28.000  
G10  23061951.243   121191322.166       -4128.573          21.000  
G26                                                                  20476259.880    80353237.835         667.654          27.000  
G29  23750505.567   124809719.253           4.916          24.000  
G32  20785844.759   109230335.522        -909.859          38.000  
J01  36540177.062   192019962.698         205.293          22.000  
R14  22592067.337   120428432.168       -3927.732          28.000  
> 2021  9 30 11 23 58.9998326  0 10
C06  36549840.572   190324652.729         -93.593          21.000  
C16  36929438.082   192301271.152         -43.477          26.000  
C19  22108390.879   115123940.2811      -2590.599          25.000  
C22  22371196.743   116492633.2441        452.610          18.000  
G10  23062671.345   121195136.498       -4128.578          20.000  
G25  23683633.861   124458422.3601      -4119.089          28.000  
G26                                                                  20476030.839    80352335.446         666.364          19.000  
G29  23750444.409   124809399.883           3.694          27.000  
G31  21223449.112   111529977.2481      -1124.891          17.000  
G32  20785957.481   109230930.335        -909.006          39.000  
> 2021  9 30 11 23 59.9998321  0  8
C06  36549708.363   190323965.531         -92.593          21.000  
C30  25758802.052   134132829.5941        994.235          23.000  
C36  22564575.170   117499601.8271      -1725.632          26.000  
G10  23063311.402   121198477.313       -4129.449          19.000  
G26  20475709.461   107600538.9481        890.356          26.000    20475711.560    80351080.883         665.678          20.000  
G29  23750289.117   124808608.900           2.708          23.000  
G31  21223522.561   111530311.631       -1120.633          18.000  
R14  22593322.268   120435121.8461      -3925.865          26.000  
> 2021  9 30 11 24  0.9998318  0  7
C22  22370783.629   116490478.6991        451.698          24.000  
G25  23684961.043   124465397.3451      -4117.669          31.000  
G26                                                                  20475452.839    80350062.655         664.972          25.000  
G29  23750203.976   124808133.849           2.579          21.000  
G32  20786054.914   109231490.5371       -910.484          25.000  
J02  38944260.749                       -1429.926          35.000  
R14  22593967.122   120438558.975       -3926.214          28.000  
> 2021  9 30 11 24  1.9998316  0  8
C16  36929164.971   192299847.2801        -44.458          21.000  
C22  22370638.529   116489715.560         450.193          23.000  
C30  25758262.126   134130059.8311        996.774          20.000  
G25  23685685.941   124469200.394       -4118.536          32.000  
G26  20475221.099   107597973.4381        888.466          17.000    20475224.997    80349163.879         661.678          25.000  
G29  23750136.523   124807815.928           2.706          23.000  
J02  38944474.801   204654585.9211      -1430.084          34.000  
R14  22594634.460   120442116.447       -3926.677          27.000  
> 2021  9 30 11 24  2.9998310  0  7
C16  36928993.790   192298955.110         -44.491          21.000  
C30  25757880.790   134128126.676         996.364          18.000  
G26  20474879.636   107596139.632         888.926          19.000    20474876.038    80347795.729         664.917          25.000  
G29  23749956.947   124806868.335           1.712          22.000  
G32  20786166.436   109232052.4811       -912.199          28.000  
J02  38944571.634   204655070.530       -1430.014          34.000  
R14  22595186.378   120445058.415       -3926.064          29.000  
> 2021  9 30 11 24  3.9998308  0  8
C19  22110357.818   115134435.2341      -2583.098          17.000  
C30  25757620.271   134126815.942        1001.371          17.000  
C36  22565529.109   117504475.8191      -1725.984          24.000  
G26  20474651.194   107594935.672         888.760          20.000    20474646.697    80346896.157         663.634          25.000  
G29  23749897.588   124806552.024           0.792          21.000  
G32  20786303.741   109232650.578        -914.105          23.000  
J02  38944778.491   204656185.292       -1430.062          34.000  
R14  22595859.412   120448646.139       -3927.455          30.000  
> 2021  9 30 11 24  4.9998303  0  8
C16  36928798.625   192297949.8051        -43.367          21.000  
C30  25757274.910   134125035.802         997.930          18.000  
C36  22565713.182   117505422.033       -1727.573          23.000  
G25  23687662.772   124479510.0641      -4120.437          31.000  
G26                                                                  20474327.418    80345644.884         661.111          25.000  
G29  23749747.392   124805764.136          -0.519          19.000  
J02  38944903.205   204656827.484       -1430.095          34.000  
R14  22596444.007   120451762.693       -3927.211          30.000  
> 2021  9 30 11 24  5.9998298  0  9
C16  36928654.125   192297211.776         -42.533          21.000  
C19  22111055.435   115138040.6161      -2582.633          18.000  
C30  25756933.146   134123257.498         997.169          18.000  
G10  23067114.569   121218504.5431      -4122.902          21.000  
G25  23688302.230                       -4117.054          33.000  
G26  20474018.032   107591584.3691        886.758          26.000    20474008.139    80344394.393         662.241          26.000  
G29  23749599.894   124804977.102          -1.172          21.000  
J02  38945028.818   204657469.749       -1429.134          34.000  
R14  22597027.403   120454872.428       -3927.094          30.000  
> 2021  9 30 11 24  6.9998295  0 11
C16  36928571.682   192296784.850         -40.838          21.000  
C19  22111463.153   115140155.753       -2584.865          18.000  
C30  25756653.140   134121791.310         996.608          18.000  
C36  22566143.984   117507626.3791      -1726.437          21.000  
G10  23067810.687   121222153.902       -4121.968          21.000  
G25  23688992.652   124486514.8971      -4119.363          34.000  
G26  20473763.209   107590225.304         885.766          27.000  
G29  23749510.256   124804505.831          -1.431          24.000  
G32                                                                  20786420.960    81570360.2551       -681.717          26.000  
J02  38945203.297   204658427.146       -1429.889          34.000    38945210.792   152829390.4831      -1067.815          28.000  
R14  22597671.957   120458307.964       -3927.068          30.000  
> 2021  9 30 11 24  7.9998290  0  7
C30  25756313.775   134120014.232         996.416          18.000  
G25  23689621.017   124489847.353       -4121.064          33.000  
G26  20473447.227   107588552.172         885.090          25.000  
G29  23749372.352   124803719.555          -1.480          23.000  
G32                                                                  20786444.344    81570453.119        -681.991          26.000  
J02  38945329.210   204659069.557       -1430.513          34.000    38945333.407   152829869.812       -1067.027          27.000  
R14  22598256.253   120461422.317       -3926.986          29.000  
> 2021  9 30 11 24  8.9998287  0  9
C16  36928345.338   192295619.9101        -41.202          20.000  
C19  22112220.728   115144083.4191      -2592.536          18.000  
C30  25756035.568   134118549.735         996.816          19.000  
G25  23690315.336   124493495.170       -4121.847          34.000  
G26  20473189.706   107587194.720         884.596          23.000  
G29  23749295.605   124803248.605          -1.959          25.000  
G32                                                                  20786528.586    81570782.074        -683.759          26.000  
J02  38945510.584   204660027.211       -1430.151          34.000    38945515.081   152830582.608       -1066.988          27.000  
R14  22598905.603   120464884.341       -3926.505          30.000  
> 2021  9 30 11 24  9.9998282  0  7
C16  36928202.637   192294879.866         -40.105          20.000  
C30  25755698.301   134116773.449         995.235          18.000  
G25  23690953.894   124496828.163       -4120.320          32.000  
G29  23749153.803   124802463.360          -3.396          26.000  
G32                                                                  20786553.768    81570879.037        -686.053          26.000  
J02  38945634.698   204660669.840       -1430.999          34.000    38945637.396   152831062.433       -1068.643          27.000  
R14  22599493.496   120468018.327       -3927.230          31.000  
> 2021  9 30 11 24 10.9998280  0 10
C16  36928148.974   192294608.152         -41.211          20.000  
C19  22113008.583   115148187.4181      -2599.236          17.000  
C30  25755447.675   134115467.159         992.439          18.000  
C36  22567031.069   117512452.0071      -1726.773          22.000  
G25  23691674.295   124500634.014       -4120.336          33.000  
G26  20472639.287   107584324.5481        883.532          23.000  
G29  23749118.727   124802460.700          -3.681          26.000  
G32  20786726.449   109234983.9501       -916.142          20.000    20786668.589    81571330.635        -688.607          25.000  
J02  38945848.750   204661785.128       -1430.233          35.000    38945850.549   152831895.493       -1067.593          27.000  
R14  22600172.526   120471637.940       -3926.718          30.000  
> 2021  9 30 11 24 11.9998277  0 10
C19  22113417.500   115150317.773       -2598.790          18.000  
C30  25755168.268   134114006.988         990.521          18.000  
C36  22567273.002   117513709.831       -1724.742          23.000  
G10  23071169.861   121239932.4451      -4122.631          20.000  
G25  23692365.617   124504282.340       -4121.610          33.000  
G26  20472380.266   107582968.475         883.268          25.000  
G29  23749055.171   124801991.791          -3.974          27.000  
G32                                                                  20786753.130    81571663.777        -684.746          24.000  
J02  38946031.623   204662742.892       -1432.278          35.000    38946032.823   152832610.639       -1067.913          28.000  
R14  22600820.078   120475089.172       -3927.109          30.000  
> 2021  9 30 11 24 12.9998272  0  7
C30  25754828.303   134112235.959         990.717          17.000  
C36  22567453.477   117514654.514       -1725.081          25.000  
G25  23692997.279   124507616.025       -4122.908          33.000  
G26  20472059.488   107581298.077         881.871          24.000  
G32  20786817.286   109235557.2491       -917.520          24.000    20786778.013    81571760.394        -686.354          25.000  
J02  38946151.540   204663385.720       -1429.950          35.000    38946155.438   152833090.362       -1069.405          28.000  
R14  22601407.371   120478219.596       -3927.652          31.000  
> 2021  9 30 11 24 13.9998267  0  7
C30  25754489.838   134110465.553         990.335          17.000  
G25  23693632.540   124510950.020       -4121.473          30.000  
G26  20471740.209   107579628.860         881.033          24.000  
G31  21224871.627   111537550.9571      -1128.559          21.000  
G32  20786846.665   109235687.420        -918.227          19.000    20786802.896    81571857.405        -685.348          27.000  
J02  38946273.556   204664028.677       -1431.258          35.000    38946277.753   152833570.396       -1067.985          28.000  
R14  22601997.063   120481363.519       -3927.581          29.000  
> 2021  9 30 11 24 14.9998264  0  7
C30  25754211.031   134109007.369         992.472          16.000  
G25  23694331.955   124514599.176       -4122.509          30.000  
G26  20471478.490   107578275.142         880.896          26.000  
G29  23748724.200   124800387.5521         -5.451          29.000  
G32                                                                  20786886.538    81572189.625        -686.138          26.000  
J02  38946457.928   204664986.637       -1430.831          36.000    38946460.327   152834285.527       -1067.768          28.000  
R14  22602647.013   120484828.076       -3928.175          31.000  
> 2021  9 30 11 24 15.9998259  0  5
G25  23694963.618   124517933.564       -4118.551          31.000  
G26  20471155.314   107576606.889         880.067          26.000  
G32                                                                  20786911.421    81572287.719        -685.348          26.000  
J02  38946575.447   204665629.639       -1431.312          36.000    38946582.942   152834765.546       -1069.939          28.000  
R14  22603237.304   120487974.902       -3927.495          32.000  
> 2021  9 30 11 24 16.9998257  0  8
C36  22568303.688   117519219.0231      -1728.801          27.000  
G25  23695687.317   124521740.617       -4122.279          28.000  
G26  20470926.572   107575412.492         878.908          25.000  
G29  23748541.027   124799296.8901         -6.721          29.000  
G31  21225201.399   111539358.3231      -1131.704          18.000  
G32                                                                  20787025.642    81572738.211        -686.579          26.000  
J02  38946793.696   204666745.321       -1430.517          34.000    38946795.495   152835599.443       -1069.750          27.000  
R14  22603916.934   120491597.010       -3927.838          31.000  
> 2021  9 30 11 24 17.9998252  0  8
C22  22367367.793   116472625.1301        439.504          23.000  
C36  22568482.665   117520167.195       -1728.520          29.000  
G25  23696320.479   124525075.189       -4122.467          29.000  
G26  20470605.195   107573746.072         878.353          26.000  
G29  23748401.624   124798516.084          -7.146          29.000  
G32                                                                  20787051.124    81572838.160        -689.111          27.000  
J02  38946915.711   204667388.473       -1431.717          35.000    38946917.810   152836080.309       -1069.681          26.000  
R14  22604503.328   120494723.177       -3927.734          25.000  
> 2021  9 30 11 24 18.9998246  0  7
C22  22367108.173   116471249.679         438.481          25.000  
C36  22568632.261   117520958.835       -1728.635          30.000  
G25  23696922.762   124528251.852       -4121.896          31.000  
G26  20470258.635   107571922.579         878.032          29.000    20470266.729    80329712.4831        654.378          24.000  
G32                                                                  20787046.627    81572819.745        -685.811          27.000  
J02  38947007.448   204667874.244       -1430.894          33.000    38947009.546   152836443.107       -1067.397          28.000  
R14  22605064.240   120497713.056       -3927.084          26.000  
> 2021  9 30 11 24 19.9998246  0  7
C22  22367023.632   116470810.894         438.805          23.000  
C36  22568960.234   117522687.844       -1728.638          27.000  
G10  23076533.149   121268057.1961      -4125.527          19.000  
G26  20470090.151   107571045.089         876.345          25.000    20470100.045    80329057.912         653.580          28.000  
G32                                                                  20787221.406    81573505.453        -685.817          25.000  
J02  38947276.062   204669305.257       -1430.874          29.000    38947280.559   152837509.898       -1066.145          24.000  
R14  22605802.029   120501646.350       -3927.079          25.000  
> 2021  9 30 11 24 20.9998241  0  9
C22  22366789.494   116469591.397         438.967          22.000  
C36  22569139.810   117523636.363       -1729.815          26.000  
G10  23077167.809   121271394.710       -4125.143          19.000  
G25  23698345.277   124535709.1451      -4123.708          38.000  
G26  20469774.170   107569380.648         876.514          30.000    20469783.164    80327815.362         655.224          26.000  
G31  21225584.234   111541367.9591      -1131.126          15.000  
G32                                                                  20787245.989    81573604.132        -687.345          21.000  
J02  38947395.379   204669948.412       -1430.799          25.000  
R14  22606392.920   120504796.192       -3926.650          26.000  
> 2021  9 30 11 24 21.9998236  0  8
C16  36926943.509   192288199.9191        -44.621          26.000  
C36  22569320.584   117524585.367       -1729.003          25.000  
G10  23077799.472   121274730.814       -4125.786          18.000  
G25  23698983.835                       -4124.748          38.000  
G26                                                                  20469465.684    80326571.925         655.229          28.000  
G32  20787265.775   109237818.8421       -921.974          36.000    20787270.872    81573703.299        -688.505          23.000  
J02  38947515.596   204670591.540       -1431.430          24.000  
R14  22606979.014   120507920.074       -3926.943          26.000  
> 2021  9 30 11 24 22.9998234  0  9
C36  22569592.496   117526002.770       -1730.305          28.000  
G10  23078520.773   121278540.550       -4125.359          17.000  
G25  23699709.932   124542808.4491      -4122.790          37.000  
G26  20469233.045   107566525.5891        875.354          35.000    20469238.441    80325682.201         651.980          26.000  
G29  23747916.559   124796143.4881         -9.529          28.000  
G31  21225797.986   111542526.1301      -1128.438          16.000  
G32  20787385.393                        -922.566          36.000    20787385.992    81574156.934        -688.320          23.000  
J02  38947727.249   204671708.083       -1432.164          27.000  
R14  22607658.344   120511540.819       -3927.674          28.000  
> 2021  9 30 11 24 23.9998228  0  8
C16  36926721.663   192287045.1871        -49.902          19.000  
C22  22366141.043   116466246.2101        437.736          24.000  
C36  22569745.990   117526797.080       -1731.429          29.000  
G10  23079126.054   121281719.959       -4126.137          17.000  
G25  23700312.215   124545986.769       -4123.906          36.000  
G26  20468887.384   107564705.660         873.838          32.000    20468893.080    80324324.960         650.976          25.000  
G32                                                                  20787381.495    81574140.775        -690.628          26.000  
R14  22608213.260   120514499.551       -3927.392          30.000  
> 2021  9 30 11 24 24.9998226  0  6
C16  36926674.895   192286782.263         -48.215          24.000  
C36  22570019.101   117528215.410       -1730.114          27.000  
G25  23701038.313   124549795.851       -4124.359          36.000  
G26  20468659.842                         872.882          34.000  
G32                                                                  20787496.616    81574594.574        -689.034          25.000  
J02  38948032.738   204673310.5751      -1431.169          28.000  
> 2021  9 30 11 24 25.9998221  0  8
C16  36926536.091   192286048.209         -44.552          27.000  
C22  22365758.508   116464277.0621        440.682          16.000  
C36  22570202.274   117529165.777       -1731.795          28.000  
G10  23080490.109   121288870.8851      -4128.349          15.000  
G25  23701670.875   124553132.477       -4123.775          36.000  
G26  20468341.162                         873.175          37.000  
G29  23747540.020   124794126.1041        -12.652          29.000  
G32  20787528.693   109239169.4111       -923.918          34.000    20787523.297    81574696.685        -691.536          26.000  
> 2021  9 30 11 24 26.9998218  0  7
C16  36926456.946   192285624.038         -44.961          28.000  
C22  22365584.628   116463369.741         440.269          16.000  
C36  22570446.305   117530429.044       -1731.696          29.000  
G10  23081192.223   121292526.687       -4127.237          15.000  
G25  23702363.995   124556784.384       -4124.525          37.000  
G26  20468085.739   107560526.7051        873.735          36.000  
G32                                                                  20787609.637    81575035.632        -693.085          26.000  
> 2021  9 30 11 24 27.9998213  0  9
C06  36546973.956   190309711.5291        -92.395          30.000  
C16  36926314.844   192284888.028         -44.758          29.000  
C19  22119455.620   115181882.7141      -2602.109          28.000  
C22  22365351.090   116462149.264         439.450          16.000  
C36  22570629.778   117531380.427       -1732.305          28.000  
G10  23081821.188   121295865.918       -4127.141          15.000  
G25  23703000.754   124560121.373       -4125.879          36.000  
G26  20467768.858   107558866.733         871.663          35.000  
G32  20787633.021   109239758.0101       -926.233          31.000    20787636.319    81575139.670        -692.070          24.000  
> 2021  9 30 11 24 28.9998211  0  9
C06  36546928.388   190309491.944         -92.802          28.000  
C16  36926262.980   192284620.685         -44.164          28.000  
C19  22119896.015   115184172.638       -2602.687          29.000  
C22  22365207.789   116461398.644         434.381          17.000  
C36  22570901.390   117532800.444       -1732.091          28.000  
G10  23082550.883   121299676.447       -4124.789          16.000  
G25  23703726.552   124563931.272       -4125.152          36.000  
G26  20467541.916   107557680.057         871.560          33.000  
G32  20787747.842   109240369.737        -928.524          22.000    20787749.940    81575594.258        -691.692          21.000  
> 2021  9 30 11 24 29.9998208  0  9
C06  36546853.140   190309116.191         -92.638          29.000  
C16  36926182.636   192284196.489         -44.635          28.000  
C19  22120305.531   115186306.681       -2603.193          27.000  
C36  22571142.123   117534064.001       -1731.273          27.000  
G10  23083249.999   121303327.630       -4120.093          16.000  
G25  23704422.969   124567584.052       -4126.238          36.000  
G26  20467288.291   107556336.623         871.147          35.000  
G31  21226499.800   111546008.8011      -1128.385          16.000  
G32  20787825.788   109240824.922        -927.610          22.000    20787836.280    81575931.896        -691.046          19.000  
> 2021  9 30 11 24 30.9998203  0  9
C06  36546719.433   190308428.462         -93.064          28.000  
C16  36926041.433   192283460.865         -44.515          28.000  
C19  22120655.389   115188128.574       -2604.792          21.000  
G10  23083886.458   121306661.517       -4125.231          15.000  
G25  23705061.228   124570921.907       -4126.394          36.000  
G26  20466972.310   107554678.727         870.096          34.000    20466980.105    80316826.6491        648.837          28.000  
G32  20787846.174   109240964.716        -926.838          20.000    20787864.761    81576036.088        -692.745          26.000  
J02  38948976.784   204678273.0111      -1430.572          28.000  
R14  22612627.404   120538028.9321      -3925.733          26.000  
> 2021  9 30 11 24 31.9998198  0 11
C06  36546585.725   190307740.283         -92.823          27.000  
C16  36925899.032   192282723.821         -43.664          25.000  
C19  22121004.347   115189952.252       -2603.789          27.000  
C22  22364568.631   116458066.5391        433.875          17.000  
C36  22571507.870   117535968.0591      -1733.888          23.000  
G10  23084523.217   121309998.779       -4127.398          15.000  
G25  23705693.190   124574260.212       -4126.277          36.000  
G26  20466657.228   107553021.822         868.185          35.000    20466664.723    80315589.485         649.277          28.000  
G32  20787869.258   109241103.768        -926.909          23.000    20787889.943    81576139.923        -694.469          25.000  
J02  38949099.699   204678915.619       -1431.197          27.000  
R14  22613217.096   120541172.517       -3926.874          24.000  
> 2021  9 30 11 24 32.9998195  0 12
C06  36546512.276   190307364.369         -92.297          27.000  
C16  36925820.486   192282299.396         -43.502          24.000  
C19  22121413.264   115192088.057       -2604.365          27.000  
C22  22364397.150   116457163.717         435.013          18.000  
C36  22571750.702   117537233.626       -1733.648          30.000  
G10  23085225.031   121313655.339       -4130.884          16.000  
G25  23706388.709   124577913.776       -4127.196          37.000  
G26  20466400.306   107551680.580         867.715          35.000    20466409.599    80314587.352         648.683          28.000  
G31  21226743.831   111547337.3781      -1119.863          13.000  
G32                                                                  20787976.283    81576480.420        -692.605          24.000  
J02  38949286.470   204679875.809       -1433.703          31.000  
R14  22613867.945   120544642.259       -3927.360          25.000  
> 2021  9 30 11 24 33.9998190  0 12
C06  36546377.969   190306676.056         -93.640          27.000  
C16  36925679.584   192281562.687         -44.417          27.000  
C19  22121764.021   115193912.102       -2604.841          28.000  
C22  22364165.111   116455949.642         433.517          23.000  
C36  22571931.477   117538186.479       -1733.965          29.000  
G10  23085875.881   121316998.828       -4131.980          16.000  
G25  23707023.669   124581252.228       -4125.192          37.000  
G26  20466086.723   107550025.041         872.002          34.000    20466094.817    80313352.335         644.854          28.000  
G29  23746640.343   124789355.0911        -16.913          30.000  
G31  21226798.393   111547668.228       -1118.431          12.000  
G32  20787994.271   109241698.9171       -928.170          30.000    20788004.464    81576585.473        -693.512          24.000  
J02  38949412.083   204680521.416       -1433.290          31.000  
> 2021  9 30 11 24 34.9998185  0 11
C06  36546243.062   190305989.635         -93.402          21.000  
C16  36925536.283   192280826.949         -45.196          23.000  
C22  22363934.870   116454736.815         430.630          28.000  
G10  23086520.434   121320342.463       -4130.851          17.000  
G25  23707660.728   124584590.749       -4127.688          38.000  
G26  20465771.042   107548368.887         869.960          30.000    20465779.436    80312118.705         646.246          24.000  
G29  23746483.851   124788584.260         -16.890          27.000  
G31  21226861.649   111547999.342       -1120.611          13.000  
G32                                                                  20788033.844    81576691.814        -693.312          17.000  
J02  38949536.797   204681166.719       -1433.122          30.000  
R14  22615037.435   120550875.9631      -3928.536          25.000  
> 2021  9 30 11 24 35.9998182  0  8
C16  36925456.838   192280403.187         -44.097          26.000  
C36  22572357.182   117540405.9011      -1734.661          21.000  
G10  23087222.249   121324000.115       -4130.881          18.000  
G25  23708356.846   124588245.031       -4127.166          39.000  
G26                                                                  20465524.312    80311118.942         646.487          31.000  
G31  21226986.063   111548647.216       -1116.924          12.000  
G32                                                                  20788118.385    81577030.896        -691.872          17.000  
J02  38949718.171   204682126.968       -1432.331          31.000  
> 2021  9 30 11 24 36.9998177  0  9
C16  36925318.334   192279667.053         -44.593          24.000  
C22  22363538.245   116452631.6091        426.004          28.000  
C36  22572540.355   117541359.841       -1733.411          27.000  
G10  23087857.809   121327343.170       -4130.722          18.000  
G25  23708992.706   124591584.671       -4127.751          39.000  
G26  20465198.738   107545374.9921        865.489          31.000  
G31  21227049.619   111548977.488       -1121.063          13.000  
J02  38949838.688   204682771.354       -1432.245          29.000  
R14  22616254.893   120557365.5371      -3927.547          21.000  
> 2021  9 30 11 24 37.9998175  0 11
C16  36925264.072   192279399.867         -45.417          25.000  
C19  22123330.437   115201993.5241      -2606.581          27.000  
C22  22363397.042   116451893.315         425.258          27.000  
G10  23088582.407   121331159.568       -4131.637          18.000  
G25  23709723.000   124595397.390       -4126.826          39.000  
G26  20464973.594   107544194.253         865.811          27.000  
G29  23746177.463   124787061.9201        -18.925          30.000  
G31  21227204.612   111549781.492       -1115.444          12.000  
G32  20788253.592   109243051.5451       -930.832          28.000  
J02  38950053.939   204683889.160       -1433.423          26.000  
R14  22616932.723   120560979.172       -3928.382          27.000  
> 2021  9 30 11 24 38.9998172  0 10
C16  36925184.327   192278977.718         -46.826          28.000  
C19  22123743.251   115204132.624       -2608.629          22.000  
C22  22363226.161   116450999.826         424.498          21.000  
C36  22573059.296   117544049.4071      -1735.309          25.000  
G10  23089277.626   121334818.385       -4131.057          17.000  
G25  23710412.223   124599053.095       -4127.410          36.000  
G26  20464719.370   107542856.277         864.442          34.000  
G31  21227325.428   111550424.616       -1115.149          11.000  
J02  38950236.812   204684850.295       -1434.429          26.000  
R14  22617575.478   120564404.917       -3925.187          26.000  
> 2021  9 30 11 24 39.9998167  0  9
C06  36545775.086   190303647.1361        -92.219          20.000  
C16  36925045.523   192278243.225         -46.553          24.000  
C19  22124097.906   115205961.150       -2608.792          25.000  
C22  22362995.620   116449795.268         424.368          26.000  
G10  23089914.685   121338164.596       -4135.915          15.000  
G25  23711044.186   124602394.132       -4128.506          34.000  
G26  20464407.885   107541204.645         863.204          36.000  
G32  20788366.913   109243654.3981       -932.627          30.000  
R14  22618163.671   120567540.974       -3928.010          26.000  
> 2021  9 30 11 24 40.9998164  0  8
C16  36924962.780   192277822.069         -46.918          21.000  
C19  22124508.322   115208101.918       -2608.985          27.000  
C22  22362824.139   116448901.177         426.346          27.000  
C36  22573489.199   117546270.8801      -1734.884          27.000  
G10  23090612.901   121341829.570       -4138.750          14.000  
G25  23711738.205   124606050.478       -4130.547          31.000  
G26  20464155.160   107539869.371         861.714          36.000  
R14  22618813.921   120571006.724       -3930.057          28.000  
> 2021  9 30 11 24 41.9998159  0  5
C16  36924820.978   192277088.025         -47.270          26.000  
C36  22573674.171   117547225.455       -1735.349          25.000  
G10  23091248.761   121345178.135       -4135.295          14.000  
G25  23712371.966   124609392.169       -4128.999          29.000  
G26  20463843.976                         861.089          34.000  
> 2021  9 30 11 24 42.9998154  0 10
C16  36924679.476   192276354.697         -47.305          22.000  
C19  22125205.339   115211761.4661      -2610.262          28.000  
C22  22362357.962   116446488.3771        423.475          26.000  
C36  22573858.243   117548181.027       -1736.421          27.000  
G10  23091890.017   121348525.868       -4135.813          12.000  
G25                                                                  23713017.420    93054977.6121      -3082.906          28.000  
G26  20463529.194   107536576.8981        860.959          37.000    20463536.389    80303312.6411        641.138          29.000  
G29  23745506.228   124783476.6111        -24.157          30.000  
G32  20788508.415   109244406.3941       -933.036          23.000  
J02  38950793.527   204687747.7471      -1432.684          28.000  
> 2021  9 30 11 24 43.9998152  0  8
C22  22362209.864   116445752.447         423.955          25.000  
C36  22574133.453   117549604.932       -1737.019          31.000  
G10  23092613.416   121352345.945       -4135.126          13.000  
G25                                                                  23713743.517    93057825.445       -3083.863          28.000  
G26  20463306.148   107535401.481         859.578          37.000    20463312.743    80302435.826         641.218          29.000  
G32  20788625.334   109245024.870        -934.069          32.000  
J01  36533162.218   191983069.0001        192.078          28.000  
J02  38951004.880   204688865.206       -1432.481          30.000  
> 2021  9 30 11 24 44.9998147  0  7
C06  36545271.435   190300989.0401        -94.855          21.000  
C19  22125993.793   115215891.3191      -2612.124          29.000  
C36  22574318.425   117550561.322       -1737.224          31.000  
G10  23093252.874   121355695.747       -4137.940          12.000  
G25  23714379.077   124619891.1691      -4128.658          29.000    23714380.276    93060321.377       -3084.304          29.000  
G26  20462990.466   107533754.291         859.095          37.000    20462998.261    80301205.475         642.592          29.000  
J02  38951127.496   204689510.522       -1433.363          31.000  
> 2021  9 30 11 24 45.9998141  0  9
C06  36545113.145   190300147.738         -95.633          22.000  
C19  22126315.770   115217567.112       -2612.960          29.000  
C22  22361711.010   116443188.9851        421.532          24.000  
C36  22574476.715   117551361.715       -1737.381          32.000  
G10  23093855.157   121358891.071       -4136.571          13.000  
G25  23714984.958   124623076.549       -4130.715          30.000    23714986.756    93062699.312       -3083.347          28.000  
G26  20462649.303   107531950.318         857.636          37.000    20462653.800    80299856.996         642.658          27.000  
J01  36532760.196   191980952.0961        192.459          29.000  
J02  38951218.932   204689999.047       -1434.518          30.000  
> 2021  9 30 11 24 46.9998141  0  8
C19  22126817.623   115220179.528       -2612.904          30.000  
C22  22361627.368   116442767.600         421.111          25.000  
C36  22574811.883   117553098.518       -1736.384          32.000  
G10  23094632.818   121363027.677       -4136.804          13.000  
G25                                                                  23715772.512    93065783.917       -3085.480          28.000  
G26  20462486.216   107531092.289         856.673          37.000    20462489.813    80299215.526         640.737          28.000  
J01  36532725.121   191980758.871         193.574          29.000  
J02  38951492.343   204691433.791       -1434.837          28.000  
> 2021  9 30 11 24 47.9998136  0  9
C06  36545001.622   190299555.3991        -95.573          21.000  
C16  36924183.020   192273781.1651        -48.215          17.000  
C19  22127169.579   115222012.684       -2614.273          29.000  
C22  22361394.729   116441566.356         419.916          19.000  
C36  22574993.257   117554054.784       -1737.306          31.000  
G25  23716400.578   124630550.6431      -4132.174          31.000    23716408.672    93068280.844       -3084.810          28.000  
G26  20462173.832   107529447.323         857.108          34.000    20462177.130    80297987.654         637.319          28.000  
J01  36532538.950   191979778.038         193.154          29.000  
J02  38951614.958   204692080.869       -1434.455          28.000  
> 2021  9 30 11 24 48.9998134  0  9
C06  36544960.550   190299338.119         -94.223          21.000  
C16  36924129.957   192273517.055         -47.741          25.000  
C19  22127612.373   115224315.105       -2614.836          24.000  
C36  22575265.169   117555480.823       -1737.890          31.000  
G25  23717134.469   124634367.035       -4129.528          36.000    23717135.369    93071130.140       -3085.613          30.000  
G26  20461952.585   107528275.126         856.518          25.000  
J01  36532440.917   191979270.428         192.501          24.000  
J02  38951825.712   204693200.670       -1434.072          29.000  
R14  22623818.057   120597681.6891      -3929.250          25.000  
> 2021  9 30 11 24 49.9998129  0  8
C06  36544831.340   190298652.148         -95.153          21.000  
C16  36923984.557   192272782.657         -45.856          26.000  
C36  22575447.143   117556437.818       -1738.232          29.000  
G10  23096622.541   121373545.5381      -4136.368          18.000  
G25  23717773.327   124637710.313       -4132.054          38.000    23717770.629    93073626.704       -3085.159          28.000  
G26  20461639.302   107526630.963         856.007          32.000  
J01  36532255.945   191978290.342         192.492          28.000  
J02  38951948.927   204693847.013       -1434.441          29.000  
> 2021  9 30 11 24 50.9998124  0 10
C06  36544699.131   190297966.856         -94.926          27.000  
C16  36923842.756   192272048.375         -46.512          25.000  
C19  22128309.990   115227985.7961      -2616.502          15.000  
C22  22360791.846   116438435.7171        418.817          23.000  
C36  22575629.717   117557395.856       -1738.930          29.000  
G10  23097261.399   121376893.643       -4134.685          19.000  
G25  23718408.587   124641054.468       -4131.570          38.000    23718405.589    93076123.868       -3085.379          24.000  
G26  20461327.518   107524988.089         854.503          27.000  
J01  36532069.175   191977310.389         192.334          29.000  
J02  38952073.341   204694493.639       -1434.129          29.000  
> 2021  9 30 11 24 51.9998121  0  8
C06  36544627.781   190297592.669         -93.963          28.000  
C16  36923760.313   192271625.830         -46.029          26.000  
C22  22360623.662   116437549.339         416.436          24.000  
C36  22575872.848   117558666.374       -1739.470          32.000  
G25  23719100.508   124644713.889       -4133.889          36.000    23719102.607    93078855.682       -3085.687          25.000  
G26  20461074.793   107523661.195         853.829          27.000  
J01  36531945.360   191976646.293         191.363          26.000  
J02  38952256.214   204695455.057       -1434.023          30.000  
> 2021  9 30 11 24 52.9998116  0 10
C06  36544495.572   190296905.425         -93.402          28.000  
C16  36923618.511   192270892.060         -47.212          28.000  
C30  25742599.169   134048225.7381        985.573          18.000  
C36  22576054.822   117559624.540       -1739.203          32.000  
G10  23098594.576   121383904.4681      -4136.022          21.000  
G25  23719735.169   124648058.528       -4131.410          35.000    23719739.966    93081354.201       -3087.761          26.000  
G26  20460761.210   107522019.466         854.290          28.000  
J01  36531762.487   191975666.948         191.502          26.000  
J02  38952379.429   204696101.793       -1434.228          28.000  
R14  22626245.476   120610621.4271      -3930.171          23.000  
> 2021  9 30 11 24 53.9998111  0  9
C06  36544365.462   190296219.001         -95.231          27.000  
C16  36923478.508   192270158.900         -47.281          27.000  
C19  22129433.312   115233803.4901      -2614.787          26.000  
C22  22360169.477   116435154.6631        416.719          23.000  
C36  22576237.696   117560583.419       -1739.543          31.000  
G25  23720374.027   124651403.384       -4132.724          35.000    23720377.025    93083852.054       -3085.893          26.000  
G26  20460448.526   107520377.947         851.948          24.000  
J02  38952503.243   204696748.884       -1435.557          28.000  
R14  22626833.369   120613755.368       -3929.870          23.000  
> 2021  9 30 11 24 54.9998108  0 10
C06  36544295.311   190295845.039         -94.320          26.000  
C16  36923396.664   192269737.722         -46.239          27.000  
C19  22129847.625   115235950.598       -2616.031          28.000  
C30  25741979.798   134045009.4301        985.122          24.000  
C36  22576479.029   117561854.700       -1739.845          31.000  
G25  23721068.946   124655063.748       -4132.490          35.000    23721074.342    93086585.236       -3086.701          27.000  
G26  20460196.701   107519053.772         851.202          23.000  
J01  36531449.804   191974023.2311        191.390          21.000  
J02  38952688.215   204697711.990       -1435.992          28.000  
R14  22627483.319   120617219.620       -3929.504          18.000  
> 2021  9 30 11 24 55.9998106  0 11
C06  36544254.239   190295626.027         -91.822          27.000  
C16  36923345.999   192269472.083         -47.839          28.000  
C19  22130291.318   115238255.213       -2620.469          20.000  
C22  22359865.187   116433544.2941        414.806          25.000  
C36  22576750.941   117563282.204       -1740.602          32.000  
G25  23721795.343   124658881.899       -4133.839          35.000    23721800.439    93089435.928       -3084.921          28.000  
G26  20459971.257   107517887.208         851.356          26.000  
G29  23744147.569   124776252.9861        -30.197          26.000  
J01  36531352.671   191973516.658         191.730          23.000  
J02  38952900.168   204698833.148       -1436.534          29.000  
R14  22628160.251   120620827.496       -3929.287          21.000  
> 2021  9 30 11 24 56.9998100  0 10
C06  36544092.651   190294781.554         -92.665          28.000  
C16  36923175.717   192268583.311         -47.903          29.000  
C19  22130614.794   115239941.409       -2626.856          12.000  
C22  22359602.869   116432191.862         416.720          24.000  
C30  25741357.729   134041789.3611        985.152          23.000  
C36  22576907.732   117564085.243       -1738.607          32.000  
G25                                                                  23722406.320    93091816.400       -3087.369          26.000  
G26  20459630.992   107516090.862         850.856          27.000  
J01  36531137.120   191972379.650         192.290          25.000  
J02  38952991.005   204699324.504       -1435.171          29.000  
> 2021  9 30 11 24 57.9998098  0 12
C06  36544052.179   190294562.980         -93.958          27.000  
C16  36923125.652   192268318.827         -47.882          29.000  
C19  22131059.986   115242255.818       -2625.811          24.000  
C22  22359463.466   116431463.424         415.815          23.000  
C30  25741110.400   134040491.859         985.791          15.000  
C36  22577185.040                       -1741.487          32.000  
G25  23723128.820   124665888.1541      -4133.756          35.000    23723133.916    93094668.568       -3087.314          27.000  
G26  20459407.647   107514926.414         848.450          26.000  
G29  23743922.125   124775052.4081        -31.601          22.000  
J01  36531038.488   191971871.756         192.469          23.000  
J02  38953204.158   204700443.889       -1434.525          29.000  
R14  22629387.001   120627367.5301      -3930.067          25.000  
> 2021  9 30 11 24 58.9998093  0 12
C06  36543921.170   190293877.213         -94.452          27.000  
C16  36922984.450   192267585.938         -48.068          28.000  
C19  22131415.540   115244099.675       -2623.218          25.000  
C30  25740766.538   134038726.401         984.189          15.000  
C36  22577366.115   117566286.3791      -1741.856          32.000  
G25                                                                  23723770.376    93097167.282       -3086.418          28.000  
G26  20459096.462   107513289.927         848.936          28.000  
G29  23743564.772   124773274.905         -30.103          14.000  
G32  20789628.140   109250232.4421       -941.928          27.000  
J01  36530848.420   191970892.492         190.678          24.000  
J02  38953327.073   204701091.056       -1435.118          29.000  
R14  22629970.397   120630477.249       -3930.658          24.000  
> 2021  9 30 11 24 59.9998090  0 11
C06  36543848.020   190293503.060         -94.090          26.000  
C16  36922903.506   192267165.699         -48.455          28.000  
C22  22359063.243   116429386.3221        411.014          15.000  
C30  25740493.727   134037273.678         984.661          17.000  
C36  22577609.546   117567558.913       -1743.535          31.000  
G25  23724466.194   124672896.1471      -4134.146          36.000    23724466.194    93099900.504       -3086.845          27.000  
G26  20458843.138   107511968.632         848.515          31.000  
G29  23743480.530   124772832.478         -30.611          17.000  
J01  36530718.310   191970229.469         190.310          24.000  
J02  38953509.347   204702053.905       -1436.166          29.000  
R14  22630618.249   120633930.567       -3931.610          24.000  
> 2021  9 30 11 25  0.9998085  0 11
C06  36543716.412   190292817.119         -95.285          27.000  
C16  36922764.102   192266433.476         -48.087          30.000  
C19  22132185.407   115248094.4491      -2620.716          19.000  
C36  22577792.120   117568519.608       -1740.427          29.000  
G10  23103960.561   121412110.1171      -4140.239          17.000  
G25  23725102.653   124676243.073       -4133.804          36.000    23725102.353    93102397.488       -3084.781          26.000  
G26  20458532.553   107510332.306         848.581          33.000    20458538.848    80283717.4531        632.563          28.000  
G29  23743335.431   124772076.474         -32.483          18.000  
J01  36530532.439   191969251.349         189.563          25.000  
J02  38953631.662   204702702.047       -1435.651          29.000  
R14  22631205.542   120637061.083       -3929.722          28.000  
> 2021  9 30 11 25  1.9998080  0 10
C06  36543586.302   190292131.389         -95.060          28.000  
C16  36922623.200   192265701.229         -47.984          29.000  
C36  22577976.792   117569479.252       -1740.806          28.000  
G25  23725741.211   124679590.149       -4135.700          37.000    23725739.113    93104896.121       -3088.875          25.000  
G26                                                                  20458227.963    80282496.955         632.273          29.000  
G29  23743192.730   124771322.189         -33.843          19.000  
G32  20789763.346   109251013.6911       -944.539          27.000  
J01  36530346.567   191968273.830         190.212          25.000  
J02  38953753.378   204703349.963       -1435.729          28.000  
R14  22631788.939   120640171.334       -3930.818          26.000  
> 2021  9 30 11 25  2.9998077  0  8
C06  36543515.850   190291757.989         -95.134          29.000  
C16  36922543.755   192265280.590         -47.627          29.000  
C22  22358436.077   116426118.8501        415.835          16.000  
C36  22578222.022   117570751.934       -1741.942          28.000  
G25  23726440.927   124683252.824       -4134.977          39.000    23726436.430    93107632.498       -3089.221          26.000  
G26  20457968.643                         845.916          32.000    20457976.737    80281512.915         631.016          28.000  
G32  20789853.884   109251486.179        -945.337          21.000  
J02  38953934.153   204704313.423       -1436.815          27.000  
> 2021  9 30 11 25  3.9998072  0 10
C06  36543386.040   190291072.610         -95.216          29.000  
C07  36607567.109   190625260.4171        221.375          25.000  
C16  36922404.651   192264548.117         -48.201          29.000  
C30  25739217.211   134030858.2401        979.606          22.000  
C36  22578406.095   117571713.421       -1741.925          29.000  
G25  23727077.686   124686600.666       -4135.859          38.000    23727073.789    93110133.769       -3088.359          26.000  
G26  20457658.658   107505716.1661        845.728          32.000    20457666.152    80280293.264         631.360          28.000  
G29  23742968.485   124770132.4141        -36.236          21.000  
J02  38954056.468   204704962.557       -1436.638          28.000  
R14  22633018.387   120646724.4051      -3930.307          28.000  
> 2021  9 30 11 25  4.9998070  0 13
C01  37485816.909                        -618.699          33.000  
C06  36543344.969   190290855.186         -94.490          27.000  
C07  36607463.980   190624727.072         220.104          25.000  
C16  36922353.686   192264283.808         -48.654          29.000  
C30  25738974.379   134029566.136         980.736          21.000  
G10  23106643.404   121426313.2971      -4141.229          18.000  
G25  23727803.184   124690421.443       -4136.182          39.000    23727801.085    93112987.313       -3090.219          26.000  
G26  20457438.610   107504555.761         845.736          33.000    20457444.906    80279426.362         631.487          30.000  
G29  23742920.218   124769853.678         -36.611          23.000  
G32  20790007.977   109252275.8651       -947.243          29.000  
J01  36529935.252   191966131.8131        190.103          23.000  
J02  38954270.220   204706084.148       -1436.689          28.000  
R14  22633692.920   120650320.346       -3930.865          28.000  
> 2021  9 30 11 25  5.9998067  0  9
C01  37485844.490   195198635.6041       -618.694          33.000  
C06  36543272.719   190290481.532         -94.856          27.000  
C07  36607333.271   190624039.243         218.957          26.000  
G10  23107341.021   121429982.130       -4142.156          19.000  
G25  23728501.700   124694084.774       -4135.662          40.000    23728497.503    93115723.640       -3089.488          26.000  
G26  20457189.482   107503238.486         843.282          34.000    20457194.879    80278443.352         629.155          30.000  
G29  23742847.968   124769417.884         -37.020          25.000  
J02  38954451.594   204707048.309       -1438.054          27.000  
R14  22634341.971   120653779.731       -3931.600          29.000  
> 2021  9 30 11 25  6.9998062  0 12
C01  37485812.112   195198473.685        -618.760          32.000  
C06  36543141.709   190289795.809         -95.519          27.000  
C07  36607142.902   190623040.147         218.004          24.000  
C16  36922132.739   192263132.0331        -48.190          27.000  
C22  22357667.409   116422110.2951        413.555          17.000  
C30  25738360.704   134026352.1841        982.960          17.000  
G25  23729139.958   124697433.485       -4136.384          39.000    23729135.162    93118224.680       -3089.315          26.000  
G26  20456878.298   107501606.873         843.997          32.000    20456884.294    80277225.134         629.537          30.000  
G29  23742708.265   124768667.082         -37.312          26.000  
G32  20790158.473   109252910.6351       -947.899          29.000  
J02  38954573.910   204707698.402       -1437.451          28.000  
R14  22634933.162   120656931.799       -3931.702          27.000  
> 2021  9 30 11 25  7.9998057  0  9
C01  37485780.334   195198311.946        -619.338          31.000  
C06  36543010.400   190289110.429         -96.139          28.000  
C07  36606951.635   190622041.792         217.791          26.000  
C16  36921992.137   192262399.397         -47.836          29.000  
G25  23729776.118   124700782.276       -4135.995          40.000    23729773.120    93120725.823       -3089.823          26.000  
G26  20456568.612   107499975.807         843.278          32.000    20456573.409    80276006.566         630.995          28.000  
G29  23742572.459   124767916.847         -37.607          26.000  
G32  20790206.440   109253070.832        -948.110          25.000  
J02  38954697.124   204708348.337       -1437.325          30.000  
> 2021  9 30 11 25  8.9998054  0 10
C01  37485808.515   195198463.118        -619.710          32.000  
C06  36542938.750   190288738.372         -96.120          28.000  
C07  36606819.126   190621355.358         217.567          25.000  
C16  36921910.893   192261979.470         -49.226          29.000  
C30  25737724.844   134023136.4911        983.978          16.000  
G25  23730472.836   124704446.272       -4137.280          40.000    23730470.137    93123462.529       -3087.505          26.000  
G26  20456315.887   107498660.513         843.952          32.000    20456323.082    80275023.472         629.295          28.000  
G29  23742498.111   124767482.144         -38.295          26.000  
G32  20790311.667   109253824.561        -948.617          24.000  
J02  38954880.597   204709312.615       -1436.700          29.000  
> 2021  9 30 11 25  9.9998049  0 11
C01  37485777.336   195198302.217        -619.719          33.000  
C06  36542807.441   190288054.147         -96.871          29.000  
C07  36606629.058   190620356.796         219.085          25.000  
C16  36921771.789   192261247.986         -49.324          29.000  
G10  23109965.704   121443704.8961      -4139.429          22.000  
G25  23731109.894   124707795.495       -4137.493          39.000    23731107.496    93125963.867       -3091.705          26.000  
G26  20456007.701   107497030.747         842.406          33.000    20456012.497    80273806.213         628.887          28.000  
G29  23742376.994   124767032.962         -38.890          28.000  
G32  20790355.137   109253985.459        -947.837          23.000  
J01  36529099.131   191961873.1601        188.126          19.000  
J02  38955003.212   204709961.605       -1436.987          30.000  
> 2021  9 30 11 25 10.9998044  0  8
C01  37485746.158   195198141.394        -619.886          32.000  
C06  36542675.232   190287369.308         -95.425          28.000  
C07  36606435.992   190619357.910         216.929          25.000  
C16  36921631.187   192260517.044         -49.883          29.000  
G25  23731746.654   124711144.986       -4137.754          39.000    23731744.855    93128465.676       -3087.807          26.000  
G26  20455698.615   107495401.673         840.959          32.000    20455702.512    80272589.567         627.975          27.000  
J01  36528913.559   191960897.877         188.806          19.000  
J02  38955126.127   204710611.103       -1436.872          30.000  
> 2021  9 30 11 25 11.9998042  0 10
C01  37485804.917   195198449.017        -619.932          32.000  
C06  36542632.662   190287152.201         -95.852          29.000  
C07  36606334.362   190618828.618         217.548          25.000  
C16  36921582.320   192260254.292         -49.571          29.000  
C36  22580181.166   117580975.5121      -1743.376          25.000  
G10  23111335.455   121450880.2521      -4138.499          19.000  
G25  23732473.650   124714967.131       -4138.771          38.000    23732471.552    93131318.455       -3088.663          27.000  
G26  20455478.567   107494245.800         839.402          32.000    20455483.064    80271727.254         626.818          30.000  
J01  36528814.928   191960393.622         188.789          19.000  
J02  38955339.879   204711732.465       -1435.878          28.000  
> 2021  9 30 11 25 12.9998039  0  9
C01  37485834.597   195198600.408        -619.787          31.000  
C06  36542561.311   190286779.442         -96.192          28.000  
C07  36606199.156   190618143.575         215.733          25.000  
C16  36921503.175   192259834.270         -47.424          29.000  
G10  23112038.769   121454546.697       -4137.728          18.000  
G25  23733168.569   124718632.175       -4137.840          38.000    23733169.768    93134055.312       -3090.204          27.000  
G26  20455226.741   107492933.115         839.429          31.000    20455233.337    80270746.913         628.107          29.000  
J01  36528673.126   191959733.960         187.117          17.000  
J02  38955524.552   204712696.255       -1436.188          28.000  
> 2021  9 30 11 25 13.9998036  0  8
C01  37485863.976   195198752.037        -620.099          32.000  
C06  36542489.361   190286406.916         -96.138          28.000  
C07  36606065.748   190617459.099         216.116          25.000  
C16  36921423.131   192259413.298         -47.860          30.000  
C36  22580673.425   117583526.1241      -1743.998          28.000  
G25  23733865.887   124722297.505       -4139.147          37.000    23733867.386    93136792.544       -3088.818          27.000  
G26  20454975.515   107491621.165         839.030          32.000    20454983.909    80269766.956         625.476          28.000  
J02  38955707.725   204713659.966       -1437.006          30.000  
> 2021  9 30 11 25 14.9998031  0  8
C01  37485833.697   195198591.596        -620.225          33.000  
C06  36542357.752   190285722.068         -95.698          29.000  
C07  36605877.179   190616461.829         216.710          24.000  
C16  36921282.228   192258680.544         -48.145          28.000  
C36  22580857.797   117584489.906       -1744.725          28.000  
G25  23734501.147   124725647.825       -4138.958          37.000    23734503.545    93139293.407       -3090.189          26.000  
G26  20454666.729   107489994.700         837.587          32.000    20454674.224    80268553.115         625.746          27.000  
J02  38955830.640   204714309.096       -1437.226          30.000  
> 2021  9 30 11 25 15.9998026  0 10
C01  37485802.819   195198431.213        -620.257          33.000  
C06  36542226.443   190285037.107         -95.467          29.000  
C07  36605684.112   190615464.958         216.456          24.000  
C16  36921142.225   192257948.716         -48.781          29.000  
C19  22137970.802   115278242.9721      -2629.581          26.000  
C36  22581039.172   117585453.040       -1743.170          27.000  
G10  23114014.701   121464917.2751      -4143.002          17.000  
G25  23735137.606   124728998.306       -4137.579          36.000    23735141.803    93141795.456       -3089.555          26.000  
G26  20454355.844   107488368.891         837.541          32.000    20454364.538    80267339.761         625.401          29.000  
J02  38955954.754   204714958.322       -1437.201          27.000  
> 2021  9 30 11 25 16.9998024  0  9
C01  37485862.477   195198739.008        -620.056          32.000  
C06  36542184.172   190284819.929         -94.356          30.000  
C07  36605583.982   190614936.614         216.609          25.000  
C16  36921092.759   192257685.298         -49.289          29.000  
C19  22138414.195   115280561.426       -2631.994          25.000  
G10  23114738.999   121468741.775       -4140.296          17.000  
G25  23735866.701   124732821.576       -4139.381          36.000    23735868.800    93144650.302       -3090.340          26.000  
G26  20454136.696   107487216.215         837.496          32.000    20454145.690    80266480.277         623.470          28.000  
J02  38956168.806   204716080.625       -1437.809          27.000  
> 2021  9 30 11 25 17.9998019  0 11
C01  37485832.198   195198578.443        -620.056          32.000  
C06  36542053.463   190284134.888         -96.149          30.000  
C07  36605392.414   190613939.259         215.954          25.000  
C16  36920952.456   192256954.147         -49.524          28.000  
C19  22138769.749   115282412.079       -2630.906          25.000  
C36  22581496.955   117587849.7711      -1744.493          26.000  
G10  23115373.960   121472095.696       -4141.190          17.000  
G25  23736501.362   124736172.649       -4138.918          36.000    23736507.058    93147152.454       -3089.526          25.000  
G26  20453826.710   107485591.768         837.552          32.000    20453835.704    80265268.264         623.868          27.000  
J02  38956291.720   204716730.065       -1436.881          28.000  
R14  22641775.025   120693402.2151      -3929.836          28.000  
> 2021  9 30 11 25 18.9998013  0 10
C01  37485771.940   195198261.663        -619.814          32.000  
C06  36541892.174   190283293.919         -95.893          29.000  
C07  36605171.167   190612786.942         215.490          26.000  
C16  36920782.174   192256066.258         -49.299          28.000  
C19  22139094.424   115284105.804       -2630.245          25.000  
C36  22581652.547   117588657.832       -1745.775          27.000  
G25  23737106.643   124739366.253       -4140.144          35.000    23737115.337    93149537.136       -3091.444          24.000  
G26  20453487.345   107483810.341         836.695          32.000    20453496.639    80263938.159         622.196          27.000  
J02  38956386.455   204717220.997       -1436.110          29.000  
R14  22642331.740   120696370.071       -3929.121          26.000  
> 2021  9 30 11 25 19.9998011  0 10
C01  37485830.999   195198569.145        -619.730          33.000  
C06  36541851.103   190283077.576         -95.892          28.000  
C07  36605068.638   190612259.057         216.387          24.000  
C16  36920732.109   192255804.174         -49.657          28.000  
C19  22139539.616   115286423.739       -2631.050          24.000  
C36  22581928.356   117590091.041       -1744.449          25.000  
G25  23737836.937   124743190.257       -4139.278          36.000    23737842.034    93152392.896       -3089.447          25.000  
G26  20453273.893   107482659.773         833.882          31.000    20453277.790    80263079.533         624.283          28.000  
J02  38956600.207   204718341.961       -1436.475          28.000  
R14  22643008.671   120699977.986       -3929.675          26.000  
> 2021  9 30 11 25 20.9998006  0 10
C01  37485801.320   195198408.297        -619.875          32.000  
C06  36541720.993   190282392.701         -95.540          28.000  
C07  36604876.471   190611262.058         216.865          23.000  
C16  36920592.406   192255072.938         -48.394          29.000  
C19  22139896.968   115288274.563       -2631.680          24.000  
C36  22582113.928   117591054.229       -1743.695          23.000  
G25  23738475.495   124746542.065       -4139.381          36.000    23738479.393    93154893.424       -3088.018          26.000  
G26  20452965.706   107481037.306         834.427          31.000    20452968.704    80261867.623         621.231          28.000  
J02  38956724.621   204718990.520       -1436.460          28.000  
R14  22643596.864   120703113.444       -3930.883          25.000  
> 2021  9 30 11 25 21.9998003  0  8
C01  37485830.100   195198559.626        -619.726          32.000  
C06  36541649.942   190282019.485         -95.728          28.000  
C07  36604744.263   190610577.350         216.330          24.000  
C16  36920511.462   192254652.343         -47.333          29.000  
C19  22140312.181   115290437.900       -2631.347          26.000  
G25  23739176.710   124750208.980       -4139.381          36.000    23739177.010    93157630.099       -3091.404          24.000  
G26  20452714.480   107479730.492         832.128          32.000    20452720.776    80260893.247         621.463          27.000  
J02  38956908.394   204719954.381       -1436.824          30.000  
> 2021  9 30 11 25 22.9998001  0  9
C01  37485889.759   195198867.068        -619.792          33.000  
C06  36541609.170   190281803.478         -96.904          29.000  
C07  36604641.134   190610049.758         215.172          25.000  
C16  36920461.696   192254387.911         -48.753          29.000  
C19  22140759.171   115292757.070       -2631.309          26.000  
C36  22582642.462   117593763.3571      -1746.148          29.000  
G25  23739905.206   124754033.696       -4140.539          37.000    23739905.206    93160485.399       -3091.276          24.000  
G26  20452495.332   107478581.905         829.362          32.000    20452501.928    80260036.809         620.792          27.000  
J02  38957123.045   204721075.566       -1435.620          29.000  
> 2021  9 30 11 25 23.9997996  0  9
C01  37485859.479   195198706.274        -620.020          31.000  
C06  36541479.360   190281119.055         -95.951          28.000  
C07  36604449.867   190609054.819         213.821          24.000  
C16  36920322.293   192253656.279         -49.377          29.000  
C19  22141115.025   115294607.383       -2630.178          26.000  
C36  22582828.933   117594728.627       -1745.640          27.000  
G25  23740541.965   124757386.052       -4140.217          37.000    23740542.864    93162987.594       -3090.548          25.000  
G26  20452182.349   107476961.354         831.455          31.000    20452194.041    80258828.341         621.161          27.000  
J02  38957246.559   204721723.970       -1437.007          30.000  
> 2021  9 30 11 25 24.9997993  0 12
C01  37485887.960   195198857.884        -619.982          32.000  
C06  36541408.909   190280747.026         -96.335          28.000  
C07  36604317.658   190608372.210         214.478          23.000  
C16  36920242.248   192253237.669         -50.255          29.000  
C19  22141525.741   115296768.342       -2628.211          22.000  
C30  25732917.972   133997913.2331        979.707          17.000  
C36  22583076.561   117596006.506       -1747.020          28.000  
G10  23120110.081   121497003.9521      -4144.810          18.000  
G25  23741241.081   124761053.602       -4140.415          38.000    23741240.781    93165725.675       -3091.170          24.000  
G26  20451934.420   107475656.454         831.768          32.000    20451945.213    80257853.841         621.894          27.000  
J02  38957429.733   204722689.429       -1439.019          29.000  
R14  22646143.601   120716689.1451      -3932.659          27.000  
> 2021  9 30 11 25 25.9997988  0 12
C01  37485857.681   195198697.285        -620.239          33.000  
C06  36541277.000   190280063.076         -97.195          28.000  
C07  36604125.191   190607376.348         215.152          20.000  
C16  36920102.545   192252507.909         -50.744          29.000  
C30  25732571.711   133996152.739         979.726          15.000  
C36  22583262.133   117596972.880       -1746.591          27.000  
G10  23120755.834   121500360.275       -4143.284          19.000  
G25  23741879.339   124764406.432       -4140.296          38.000    23741877.540    93168229.779       -3093.038          24.000  
G26  20451629.232   107474037.232         830.794          32.000    20451636.427    80256643.474         621.121          27.000  
G32  20791289.590   109258963.4551       -956.640          31.000  
J02  38957553.247   204723340.243       -1438.083          30.000  
R14  22646728.496   120719806.931       -3931.497          27.000  
> 2021  9 30 11 25 26.9997983  0 11
C01  37485826.802   195198536.779        -620.094          33.000  
C06  36541145.991   190279378.788         -96.051          28.000  
C07  36603936.322   190606379.891         215.406          22.000  
C16  36919963.141   192251777.042         -49.735          30.000  
C30  25732229.348   133994393.747         978.298          16.000  
C36  22583445.006   117597938.706       -1746.361          27.000  
G10  23121401.587   121503716.401       -4144.338          19.000  
G25  23742517.897   124767759.358       -4140.719          38.000    23742515.499    93170734.710       -3093.077          24.000  
G26  20451326.741   107472418.539         831.310          33.000    20451328.540    80255434.439         621.593          27.000  
J02  38957677.061   204723989.933       -1437.510          30.000  
R14  22647312.792   120722921.264       -3931.168          27.000  
> 2021  9 30 11 25 27.9997980  0 11
C01  37485856.482   195198688.591        -620.271          34.000  
C06  36541073.741   190279006.502         -96.854          29.000  
C16  36919883.696   192251357.790         -48.445          29.000  
C30  25731950.242   133992946.983         977.702          15.000  
C36  22583690.237   117599217.014       -1747.957          26.000  
G10  23122107.298   121507386.949       -4142.645          20.000  
G25  23743217.912   124771427.678       -4141.245          38.000    23743213.116    93173476.354       -3096.315          24.000  
G26  20451077.614   107471115.737         831.120          33.000    20451079.712    80254461.002         617.834          27.000  
G32  20791419.400   109259620.8691       -960.528          29.000  
J02  38957861.134   204724955.285       -1438.410          30.000  
R14  22647960.044   120726371.989       -3931.174          26.000  
> 2021  9 30 11 25 28.9997975  0 11
C01  37485825.603   195198528.349        -620.476          33.000  
C06  36540943.032   190278322.497         -96.593          27.000  
C07  36603616.144   190604701.3251        212.865          20.000  
C16  36919742.194   192250625.561         -48.109          28.000  
C30  25731610.577   133991188.700         976.407          14.000  
C36  22583877.307   117600184.479       -1748.551          27.000  
G10  23122749.753   121510742.361       -4143.757          21.000  
G25  23743856.470   124774781.174       -4141.344          39.000    23743852.273    93175983.275       -3094.822          23.000  
G26  20450765.829   107469498.511         827.797          32.000    20450771.825    80253254.951         617.965          26.000  
G32  20791472.463   109259793.443        -959.009          26.000  
J02  38957984.948   204725606.095       -1438.833          29.000  
> 2021  9 30 11 25 29.9997970  0 10
C01  37485795.624   195198368.453        -620.858          33.000  
C06  36540811.123   190277639.169         -97.787          28.000  
C07  36603427.574   190603708.922         211.678          19.000  
C16  36919602.791   192249893.725         -49.237          29.000  
C30  25731271.511   133989432.334         975.541          14.000  
G10  23123391.609   121514098.383       -4142.953          21.000  
G25  23744495.328   124778134.865       -4140.887          39.000    23744488.433    93178488.145       -3091.975          23.000  
G26  20450459.142   107467881.856         829.218          32.000    20450464.838    80252048.726         616.914          27.000  
G32  20791531.222   109260233.141        -957.532          26.000  
J02  38958108.163   204726256.903       -1438.494          29.000  
> 2021  9 30 11 25 30.9997970  0 11
C01  37485915.840   195198989.371        -621.067          33.000  
C06  36540830.010   190277736.588         -97.099          28.000  
C16  36919612.984   192249943.206         -50.146          30.000  
C30  25731084.441   133988457.055         974.832          14.000  
C36  22584398.346   117602900.7761      -1748.717          25.000  
G10  23124182.761   121518240.851       -4142.596          21.000  
G25  23745282.283   124782276.299       -4141.699          38.000    23745275.987    93181580.433       -3091.721          23.000  
G26  20450300.552   107467053.540         829.157          32.000    20450307.747    80251431.810         617.702          26.000  
G32  20791742.276   109261191.543        -958.223          26.000  
J02  38958382.173   204727695.330       -1438.099          28.000  
R14  22649858.030   120736489.1201      -3932.298          27.000  
> 2021  9 30 11 25 31.9997965  0 13
C01  37485885.561   195198829.917        -621.117          32.000  
C06  36540699.000   190277053.100         -97.659          27.000  
C16  36919473.580   192249212.020         -49.062          29.000  
C30  25730748.673   133986702.478         970.843          12.000  
C36  22584586.016   117603869.142       -1749.758          26.000  
G10  23124818.022   121521594.570       -4140.646          20.000  
G25  23745917.244   124785630.372       -4142.682          38.000    23745913.946    93184084.815       -3091.907          24.000  
G26  20449994.763   107465438.154         826.450          33.000    20450000.459    80250225.644         617.465          27.000  
G29  23740060.798   124754861.3661        -50.322          27.000  
G32  20791798.338   109261637.684        -959.007          26.000  
J01  36525837.689   191944518.6111        185.936          22.000  
J02  38958506.887   204728345.913       -1438.268          28.000  
R14  22650441.426   120739598.824       -3931.701          26.000  
> 2021  9 30 11 25 32.9997960  0 11
C01  37485855.282   195198670.462        -621.242          32.000  
C06  36540567.092   190276370.524         -98.333          27.000  
C16  36919334.177   192248480.752         -49.370          30.000  
C19  22144561.139   115312662.1551      -2636.821          15.000  
C30  25730412.006   133984951.018         972.748          12.000  
C36  22584773.687   117604838.106       -1749.480          26.000  
G10  23125455.680   121524951.317       -4146.338          18.000  
G25  23746553.703   124788984.639       -4142.032          36.000    23746553.703    93186589.204       -3094.204          23.000  
G26  20449687.176   107463823.415         827.066          33.000    20449693.172    80249020.651         616.199          28.000  
J01  36525651.817   191943546.012         185.915          23.000  
J02  38958631.001   204728996.250       -1438.562          28.000  
> 2021  9 30 11 25 33.9997957  0  9
C01  37485884.062   195198823.357        -621.368          33.000  
C06  36540495.142   190276000.039         -98.015          28.000  
C16  36919253.233   192248060.784         -48.293          29.000  
C36  22585021.615   117606119.255       -1749.308          28.000  
G10  23126148.201   121528623.283       -4141.172          17.000  
G25                                                                  23747251.320    93189329.743       -3095.171          23.000  
G26  20449440.147   107462524.551         825.251          32.000    20449446.143    80248051.468         615.762          27.000  
J01  36525528.003   191942887.869         184.396          24.000  
J02  38958813.575   204729961.556       -1437.749          27.000  
> 2021  9 30 11 25 34.9997952  0 10
C01  37485854.083   195198664.163        -621.493          34.000  
C06  36540363.233   190275316.884         -97.107          28.000  
C07  36602693.383   190599863.1311        206.864          14.000  
C16  36919114.129   192247329.333         -49.944          28.000  
C36  22585209.585   117607088.285       -1748.520          27.000  
G25  23747892.276   124796009.3071      -4142.883          35.000    23747889.278    93191836.757       -3093.616          22.000  
G26  20449135.858   107460911.302         826.840          34.000    20449138.556    80246846.817         617.766          27.000  
G32  20792000.098   109262471.7921       -961.920          21.000  
J01  36525344.230   191941916.500         182.844          24.000  
J02  38958936.789   204730612.843       -1439.199          30.000  
> 2021  9 30 11 25 35.9997947  0 11
C01  37485823.804   195198505.213        -621.861          33.000  
C06  36540231.324   190274633.374         -96.152          27.000  
C07  36602502.115   190598873.204         215.274          15.000  
C16  36918974.726   192246598.803         -49.977          29.000  
C36  22585397.555   117608056.524       -1748.818          27.000  
G10  23127414.824   121535330.4111      -4141.020          15.000  
G25  23748526.937   124799364.270       -4142.000          37.000    23748528.136    93194341.316       -3094.027          23.000  
G26                                                                  20448831.568    80245641.172         617.199          27.000  
G32  20791944.936   109262646.706        -962.572          24.000  
J01  36525160.158   191940945.344         183.888          26.000  
J02  38959060.604   204731263.706       -1438.537          29.000  
> 2021  9 30 11 25 36.9997944  0 10
C01  37485853.184   195198658.701        -621.842          33.000  
C06  36540158.175   190274260.700         -96.180          27.000  
C16  36918895.580   192246180.456         -50.471          29.000  
C36  22585644.584   117609336.345       -1747.768          27.000  
G10  23128113.640   121538999.457       -4142.339          16.000  
G25  23749222.156   124803034.523       -4143.355          35.000    23749227.252    93197082.558       -3094.211          23.000  
G26  20448579.143   107458001.6651        824.222          33.000    20448584.240    80244671.771         615.215          27.000  
G29  23739489.993   124751813.5731        -53.326          25.000  
J01  36525036.943   191940288.531         184.134          26.000  
J02  38959243.777   204732230.330       -1439.610          28.000  
> 2021  9 30 11 25 37.9997939  0 12
C01  37485822.305   195198499.770        -621.496          33.000  
C06  36540025.667   190273575.887         -95.591          29.000  
C07  36602179.538   190597188.4991        218.153          17.000  
C16  36918755.577   192245450.458         -50.343          28.000  
C36  22585827.457   117610303.549       -1748.060          27.000  
G10  23128751.299   121542354.597       -4142.238          17.000  
G25                                                                  23749866.110    93199588.642       -3094.364          22.000  
G26  20448273.955   107456390.257         823.699          33.000    20448277.852    80243468.995         614.202          26.000  
G29  23739350.590   124751079.350         -53.750          26.000  
G32  20792048.664   109262953.1311       -963.611          25.000  
J01  36524852.271   191939316.509         183.627          25.000  
J02  38959368.191   204732881.467       -1438.762          31.000  
> 2021  9 30 11 25 38.9997934  0 11
C01  37485791.427   195198340.654        -621.562          32.000  
C06  36539893.158   190272890.694         -95.663          28.000  
C07  36601987.971   190596190.810         216.800          18.000  
C16  36918616.773   192244719.882         -49.561          29.000  
C36  22586011.530   117611271.566       -1749.362          27.000  
G10  23129392.255   121545709.433       -4141.883          18.000  
G25  23750501.070   124809745.4731      -4143.594          36.000    23750504.668    93202094.544       -3094.588          23.000  
G26  20447967.567   107454779.421         823.897          33.000    20447972.064    80242266.201         614.588          26.000  
G32  20792079.543   109263129.051        -963.901          26.000  
J01  36524668.498   191938345.407         183.447          25.000  
J02  38959492.305   204733532.675       -1438.992          31.000  
> 2021  9 30 11 25 39.9997934  0  9
C01  37485910.744   195198962.222        -621.804          33.000  
C06  36539910.546   190272986.769         -96.696          27.000  
C16  36918626.966   192244768.933         -48.647          28.000  
C36  22586345.199   117613021.098       -1750.431          27.000  
G10  23130187.005   121549852.859       -4144.192          18.000  
G25  23751291.623   124813888.879       -4142.952          35.000    23751293.122    93205191.442       -3097.906          21.000  
G26  20447807.777   107453956.930         821.286          34.000    20447815.272    80241651.857         613.281          27.000  
J01  36524634.022   191938162.971         182.302          24.000  
J02  38959766.015   204734971.582       -1439.216          30.000  
> 2021  9 30 11 25 40.9997929  0 10
C01  37485879.865   195198803.439        -621.888          34.000  
C06  36539778.338   190272302.598         -96.978          25.000  
C16  36918486.963   192244037.381         -49.514          27.000  
C36  22586530.770   117613991.394       -1750.864          25.000  
G10  23130834.257   121553209.388       -4145.206          19.000  
G25  23751930.181   124817244.837       -4142.766          36.000    23751931.980    93207699.719       -3094.812          19.000  
G26  20447503.188   107452347.438         822.073          34.000    20447508.584    80240451.430         611.146          28.000  
J01  36524449.650   191937193.357         182.069          24.000  
J02  38959889.830   204735622.780       -1438.807          29.000  
R14  22656019.064   120769331.5201      -3931.722          24.000  
> 2021  9 30 11 25 41.9997926  0 10
C01  37485910.144   195198956.549        -620.988          29.000  
C06  36539706.987   190271931.886         -97.424          26.000  
C16  36918404.820   192243618.142         -48.936          27.000  
C36  22586776.300   117615273.426       -1749.891          25.000  
G10  23131540.268   121556880.332       -4142.942          19.000  
G25  23752627.798   124820915.793       -4144.585          37.000    23752631.096    93210441.536       -3094.880          24.000  
G26  20447252.562   107451053.799         824.276          31.000    20447262.155    80239485.590         613.807          28.000  
G32  20792379.335   109264762.4431       -964.940          31.000  
J01  36524324.936   191936539.079         181.920          24.000  
J02  38960075.101   204736588.230       -1437.329          27.000  
> 2021  9 30 11 25 42.9997921  0 11
C01  37485880.165   195198797.479        -621.389          26.000  
C06  36539575.678   190271248.533         -97.413          28.000  
C16  36918262.719   192242886.380         -48.273          28.000  
C36  22586963.371   117616243.518       -1750.972          30.000  
G10  23132188.119   121560236.473       -4143.569          19.000  
G25  23753270.553   124824272.640       -4145.419          39.000  
G26  20446950.371   107449445.281         818.944          33.000    20446955.467    80238284.680         611.854          25.000  
G29  23738865.525   124748519.6701        -58.175          27.000  
J01  36524136.966   191935569.232         181.832          25.000  
J02  38960198.916   204737238.054       -1437.714          31.000  
R14  22657254.809   120775918.4831      -3931.347          25.000  
> 2021  9 30 11 25 43.9997916  0 10
C01  37485849.886   195198638.106        -621.572          30.000  
C16  36918120.617   192242154.412         -47.780          24.000  
C36  22587152.240   117617214.624       -1751.391          31.000  
G10  23132834.772   121563866.414       -4145.664          19.000  
G25  23753906.413   124827629.664       -4145.694          34.000  
G26  20446649.379   107447837.748         822.472          31.000    20446650.578    80237085.042         611.024          25.000  
G29  23738727.621   124747790.501         -59.067          23.000  
J01  36523952.894   191934599.520         181.993          28.000  
J02  38960324.529   204737889.254       -1439.367          29.000  
R14  22657843.601   120779057.190       -3932.201          29.000  
> 2021  9 30 11 25 44.9997914  0  9
C01  37485908.346   195198947.415        -621.814          32.000  
C06  36539395.503   190270348.9941        -96.714          25.000  
C36  22587430.147   117618654.044       -1752.139          28.000  
G10  23133575.859   121567697.686       -4145.994          19.000  
G25  23754636.407   124831458.910       -4142.703          33.000  
G26  20446434.728   107446701.489         818.912          24.000    20446435.927    80236239.356         610.545          23.000  
G29  23738671.859   124747533.966         -58.416          21.000  
J02  38960537.381   204739012.165       -1438.117          29.000  
R14  22658513.937   120782629.950       -3931.780          22.000  
> 2021  9 30 11 25 45.9997908  0 11
C01  37485847.188   195198632.509        -621.818          33.000  
C06  36539232.416   190269509.438         -97.689          23.000  
C16  36917890.976   192241000.5601        -49.225          17.000  
C22  22350068.569   116382550.3111        385.941          23.000  
C36  22587589.937   117619469.789       -1752.506          29.000  
G10  23134194.930   121570899.902       -4148.414          20.000  
G26  20446098.061   107444937.819         818.292          32.000    20446099.560    80234922.830         610.662          26.000  
G29  23738497.680   124746646.581         -58.170          19.000  
J01  36523648.904   191932978.3911        180.921          28.000  
J02  38960629.717   204739505.037       -1438.189          26.000  
R14  22659073.050   120785610.945       -3930.539          27.000  
> 2021  9 30 11 25 46.9997903  0 10
C01  37485814.211   195198473.774        -621.809          31.000  
C16  36917745.876   192240269.650         -49.868          26.000  
C22  22349845.824   116381384.583         383.350          23.000  
C36  22587777.307   117620441.839       -1754.103          21.000  
G10  23134842.782   121574261.592       -4153.284          20.000  
G25  23755887.441   124838014.9281      -4142.701          29.000  
G26  20445791.673   107443332.133         817.425          32.000    20445794.971    80233724.337         610.469          25.000  
J01  36523465.731   191932009.988         181.183          28.000  
J02  38960753.232   204740155.784       -1437.796          20.000  
R14  22659657.645   120788726.360       -3932.066          27.000  
