     3.04           OBSERVATION DATA    M: Mixed            RINEX VERSION / TYPE
Higeo_Hi1105        Huawei CBG          20220126 062313 UTC PGM / RUN BY / DATE 
************************************************************COMMENT             
* If you have any problem,                                 *COMMENT             
*     please contact with LBS Technology Group, thanks.    *COMMENT             
*                                                          *COMMENT             
* Version Higeo2RinexV1.1 2020.07.21                       *COMMENT             
* Fuction:  Convert Higeo Log to Rinex file                *COMMENT             
*                                                          *COMMENT             
* Note that the verision support B1C B2A signal            *COMMENT             
*     BDS: C1D L1D D1D S1D indicate BDS B1C                *COMMENT             
*     BDS: C5D L5D D5D S5D indicate BDS B2A                *COMMENT             
*     Reference: RINEX V3.04                               *COMMENT             
*                                                          *COMMENT             
* Copyright(C) Huawei Technologies Co., Ltd. 2019 - 2020   *COMMENT             
*     All rights reserved.                                 *COMMENT             
************************************************************COMMENT             
                                                            MARKER NAME         
                                                            MARKER NUMBER       
                                                            MARKER TYPE         
                                                            OBSERVER / AGENCY   
                                                            REC # / TYPE / VERS 
                                                            ANT # / TYPE        
        0.0000        0.0000        0.0000                  APPROX POSITION XYZ 
        0.0000        0.0000        0.0000                  ANTENNA: DELTA H/E/N
G    8 C1C L1C D1C S1C C5I L5I D5I S5I                      SYS / # / OBS TYPES 
R    4 C1C L1C D1C S1C                                      SYS / # / OBS TYPES 
E    8 C1C L1C D1C S1C C5I L5I D5I S5I                      SYS / # / OBS TYPES 
J    8 C1C L1C D1C S1C C5I L5I D5I S5I                      SYS / # / OBS TYPES 
C   12 C2I L2I D2I S2I C1D L1D D1D S1D C5D L5D D5D S5D      SYS / # / OBS TYPES 
  2022     1    25     4     2   51.0000000     GPS         TIME OF FIRST OBS   
  2022     1    25     4    17   52.0000000     GPS         TIME OF LAST OBS    
G                                                           SYS / PHASE SHIFT   
R                                                           SYS / PHASE SHIFT   
E                                                           SYS / PHASE SHIFT   
J                                                           SYS / PHASE SHIFT   
C                                                           SYS / PHASE SHIFT   
  0                                                         GLONASS SLOT / FRQ #
 C1C    0.000 C1P    0.000 C2C    0.000 C2P    0.000        GLONASS COD/PHS/BIS 
                                                            END OF HEADER       
> 2022  1 25  4  2 51.0000000  0  2                     
G 3                     -5855.894        -730.393          34.000                                                                  
G31                      5537.080         582.753          33.000                                                                  
> 2022  1 25  4  2 52.0000000  0  2                     
G 3                     -9702.682        -734.046          30.000                                                                  
G31                      8594.107         582.886          34.000                                                                  
> 2022  1 25  4  2 53.0000000  0  3                     
G 3                    -13549.678        -731.957          26.000                                                                  
G31                     11647.951         580.977          29.000                                                                  
R 2                                                        26.000  
> 2022  1 25  4  2 54.0000000  0  6                     
G 3                    -17389.298        -729.931          28.000                                                                  
G26                     -3643.365        -779.647          25.000                                                                  
G31                     14707.591         582.455          33.000                                                                  
R 2                                                        28.000  
R 3                                                        30.000  
R12                                                        34.000  
> 2022  1 25  4  2 55.0000000  0  7                     
G 3                    -21218.135        -729.633          25.000                                                                  
G26                     -7720.109        -772.610          20.000                                                                  
G29                      3870.408         402.453          13.000                                                                  
G31                     17755.501         579.198          32.000                                                                  
R 2                                                        28.000  
R 3                                                        26.000  
R12                                                        29.000  
> 2022  1 25  4  2 56.0000000  0  8                     
G 3                    -25056.387        -731.727          25.000                                                                  
G26                    -11774.415        -771.274          20.000                                                                  
G29                      5975.499         399.644          14.000                                                                  
G31                     20807.804         581.328          25.000                                                                  
G32                     11748.785        2033.061          21.000                                                                  
R 2                                                        24.000  
R 3                                                        20.000  
R12                                                        23.000  
> 2022  1 25  4  2 58.0000000  0  7                     
G 3                    -28897.937        -731.114          27.000                                                                  
G26                    -15810.929        -765.997          20.000                                                                  
G31                     23864.466         584.728          22.000                                                                  
G32                     22443.560        2036.975          21.000                                                                  
R 2                                                        17.000  
R 3                                                        23.000  
R12                                                        24.000  
> 2022  1 25  4  2 59.0000000  0  7                     
G 3                    -32732.459        -729.526          33.000                       -6860.619        -521.043          17.000  
G26                    -19844.075        -767.284          24.000                                                                  
G31                     26926.575         579.883          33.000                                                                  
G32                     33143.053        2033.962          20.000                                                                  
R 2                                                        29.000  
R 3                                                        23.000  
R12                                                        34.000  
> 2022  1 25  4  3  0.0000000  0  8                     
G 3                    -36576.548        -729.071          26.000                       -8950.711        -537.780          22.000  
G26                    -23872.567        -764.682          30.000                                                                  
G31                     29977.372         579.481          35.000                                                                  
G32                     43829.303        2033.472          33.000                                                                  
R 2                                                        30.000  
R 3                                                        26.000  
R12                                                        34.000  
C26                     33871.382        1438.020          31.000                                                                                                                                  
> 2022  1 25  4  3  1.0000000  0  8                     
G 3                    -40412.255        -730.935          28.000                      -11075.870        -544.555          22.000  
G26                    -27889.034        -764.896          28.000                                                                  
G31                     33021.347         579.076          31.000                                                                  
G32                     54512.243        2032.961          26.000                                                                  
R 2                                                        28.000  
R 3                                                        27.000  
R12                                                        34.000  
C26                     41347.173        1434.471          31.000                                                                                                                                  
> 2022  1 25  4  3  2.0000000  0  8                     
G 3                    -44254.976        -730.343          32.000                      -13216.572        -545.833          26.000  
G26                    -31914.117        -766.758          26.000                                                                  
G31                     36068.508         580.128          34.000                                                                  
G32                     65193.248        2032.474          22.000                                                                  
R 2                                                        30.000  
R 3                                                        29.000  
R12                                                        33.000  
C26                     48815.792        1432.805          32.000                                                                                                                                  
> 2022  1 25  4  3  4.0000000  0 12                     
G 3                    -51877.656        -727.668          29.000                      -17471.964        -546.339          23.000  
G26                    -39912.067        -765.384          23.000                                                                  
G31                     42111.789         581.340          30.000                                                                  
G32                     86420.164        2036.434          17.000                                                                  
R 2                                                        27.000  
R 3                                                        23.000  
R12                                                        32.000  
E 7                    -15231.376       -2275.343          27.000                                                                  
C 6                     -1485.701        -161.759          23.000                                                                                                                                  
C14                      2173.369         370.681          27.000                                                                                                                                  
C26                     63659.558        1435.949          31.000                                                                                                                                  
C33                    -11075.540       -1168.544          33.000                                                                                                                                  
> 2022  1 25  4  3  5.0000000  0 12                     
G 3                    -55715.105        -734.087          32.000                      -19614.032        -545.518          26.000  
G26                    -43936.973        -765.392          20.000                                                                  
G31                     45156.885         577.576          31.000                                                                  
G32                     97119.139        2035.692          15.000                                                                  
R 2                                                        26.000  
R 3                                                        24.000  
R12                                                        33.000  
E 7                    -27193.762       -2276.443          30.000                       -2541.383       -1700.038          23.000  
C 6                     -2337.621        -163.127          23.000                                                                                                                                  
C14                      4095.235         368.166          27.000                                                                                                                                  
C26                     71124.243        1433.337          33.000                                                                                                                                  
C33                    -17166.191       -1170.223          35.000                                                                                       -1458.370        -880.605          27.000  
> 2022  1 25  4  3  6.0000000  0 13                     
G 3                    -59557.669        -730.325          32.000                      -21761.439        -547.282          23.000  
G26                    -47967.215        -767.584          23.000                                                                  
G31                     48189.569         578.706          33.000                                                                  
G32                    107819.715        2036.268          17.000                                                                  
R 2                                                        29.000  
R 3                                                        25.000  
R12                                                        33.000  
E 2                      6310.499        1085.881          24.000                                                                  
E 7                    -39160.014       -2277.265          29.000                       -9209.007       -1697.783          21.000  
C 6                     -3183.213        -162.397          27.000                                                                                                                                  
C14                      6012.072         368.003          27.000                                                                                                                                  
C26                     78586.280        1432.142          33.000                                                                                                                                  
C33                    -23259.517       -1171.413          35.000                                                                                       -4919.164        -881.968          25.000  
> 2022  1 25  4  3  7.0000000  0 14                     
G 3                    -63394.173        -730.110          30.000                      -23901.440        -545.688          25.000  
G26                    -51996.134        -766.832          20.000                                                                  
G31                     51228.843         578.878          32.000                                                                  
G32                    118509.092        2033.639          22.000                                                                  
R 2                                                        28.000  
R 3                                                        23.000  
R12                                                        30.000  
E 2                     12018.152        1086.052          30.000                                                                  
E 7                    -51124.294       -2276.987          29.000                      -15882.025       -1700.218          22.000  
C 6                     -4034.245        -162.413          29.000                                                                                                                                  
C14                      7930.419         371.043          30.000                                                                                                                                  
C24                     -1278.129        -480.050          34.000                                                                                                                                  
C26                     86048.359        1432.560          33.000                                                                                                                                  
C33                    -29346.827       -1166.968          35.000                                                                                       -8375.901        -881.125          26.000  
> 2022  1 25  4  3  8.0000000  0 17                     
G 3                    -67227.417        -727.306          28.000                      -26041.194        -544.972          20.000  
G26                    -56029.448        -767.113          22.000                                                                  
G31                     54256.314         574.691          28.000                                                                  
G32                    129199.046        2035.224          22.000                                                                  
R 2                                                        24.000  
R 3                                                        23.000  
R12                                                        26.000  
E 2                     17725.380        1086.034          23.000                                                                  
E 7                    -63088.564       -2277.039          24.000                      -22549.606       -1695.228          20.000  
E 8                     -1772.059        -368.088          24.000                                                                  
C 6                     -4882.156        -163.419          24.000                                                                                                                                  
C 7                     -4554.368        -580.885          16.000                                                                                                                                  
C14                      9859.786         369.045          26.000                                                                                                                                  
C24                     -3778.444        -478.739          30.000                                                                                                                                  
C26                     93514.871        1434.167          31.000                                                                                                                                  
C33                    -35428.403       -1169.956          32.000                                                                                      -11832.734        -880.952          24.000  
C35                     -8711.310       -1062.167          23.000                                                                                                                                  
> 2022  1 25  4  3  9.0000000  0 16                     
G 3                    -71054.101        -727.974          30.000                      -28175.867        -548.052          21.000  
G26                    -60057.114        -764.452          24.000                                                                  
G31                     57261.778         573.268          27.000                                                                  
G32                    139896.604        2036.225          19.000                                                                  
R 2                                                        24.000  
R 3                                                        19.000  
R12                                                        33.000  
E 2                     23429.004        1085.265          25.000                                                                  
E 7                    -75056.667       -2277.095          23.000                      -29214.807       -1698.592          18.000  
E 8                      -708.354        -364.836          21.000                                                                  
C 6                     -5729.028        -162.438          22.000                                                                                                                                  
C 7                     -7572.575        -578.309          14.000                                                                                                                                  
C14                     11774.098         367.504          23.000                                                                                                                                  
C24                     -1303.064        -479.719          28.000                                                                                                                                  
C26                    100973.525        1433.552          25.000                                                                                                                                  
C33                    -41516.575       -1169.503          32.000                                                                                      -15286.468        -880.036          20.000  
> 2022  1 25  4  3 10.0000000  0 18                     
G 3                    -74889.032        -728.664          30.000                      -30314.893        -543.312          23.000  
G16                    -22978.665       -2932.927          18.000                                                                  
G26                    -64074.416        -765.551          22.000                                                                  
G31                     60292.286         578.566          29.000                                                                  
G32                    150597.434        2037.337          18.000                                                                  
R 2                                                        23.000  
R 3                                                        26.000  
R12                                                        28.000  
E 2                     29135.525        1086.245          22.000                                                                  
E 7                    -87025.317       -2277.507          24.000                      -35886.189       -1699.418          20.000  
E 8                     -2636.222        -368.198          23.000                                                                  
C 6                     -6578.086        -161.943          25.000                                                                                                                                  
C 9                     -6463.154        -350.315          23.000                                                                                                                                  
C14                     13699.140         371.149          25.000                                                                                                                                  
C21                     28033.499        3601.980          16.000                                                                                                                                  
C24                     -3810.011        -480.093          33.000                                                                                                                                  
C26                    108432.912        1432.343          28.000                                                                                                                                  
C33                    -47601.792       -1168.249          32.000                                                                                      -18743.744        -881.764          22.000  
> 2022  1 25  4  3 11.0000000  0 19                     
G 3                    -78723.774        -730.502          31.000                      -32468.428        -548.441          22.000  
G16                    -38386.294       -2934.067          19.000                                                                  
G26                    -68102.941        -767.918          20.000                                                                  
G31                     63329.286         574.371          32.000                                                                  
G32                    161299.220        2034.713          16.000                                                                  
R 2                                                        22.000  
R 3                                                        25.000  
R12                                                        29.000  
E 2                     34837.147        1084.865          28.000                                                                  
E 7                    -98998.002       -2278.350          25.000                      -42559.940       -1698.661          19.000  
E 8                     -4573.881        -369.470          25.000                                                                  
C 6                     -7419.892        -162.505          25.000                                                                                                                                  
C 9                     -8287.101        -350.257          19.000                                                                                                                                  
C14                     15636.070         370.875          25.000                                                                                                                                  
C21                     46781.526        3598.879          15.000                                                                                                                                  
C24                     -6318.891        -484.232          33.000                                                                                                                                  
C26                    115889.697        1428.537          34.000                                                                                                                                  
C33                    -53683.122       -1168.178          35.000                                                                                      -22200.974        -881.003          25.000  
C35                    -25330.791       -1064.216          20.000                                                                                                                                  
> 2022  1 25  4  3 12.0000000  0 16                     
G 3                    -82563.701        -729.660          26.000                      -34610.436        -544.304          20.000  
G16                    -53805.808       -2935.873          17.000                                                                  
G26                    -72132.293        -766.515          23.000                                                                  
G31                     66346.335         574.294          26.000                                                                  
G32                    171990.108        2032.868          19.000                                                                  
R 2                                                        20.000  
R 3                                                        19.000  
R12                                                        29.000  
E 2                     40535.380        1084.318          24.000                                                                  
E 7                   -110975.006       -2279.401          24.000                      -49236.226       -1698.165          19.000  
E 8                     -6512.985        -366.957          19.000                                                                  
C 6                     -8277.982        -166.183          20.000                                                                                                                                  
C14                     17564.341         370.552          22.000                                                                                                                                  
C24                     -8838.247        -483.575          24.000                                                                                                                                  
C26                    123338.654        1431.159          28.000                                                                                                                                  
C33                    -59772.320       -1169.889          33.000                                                                                      -25659.927        -880.534          24.000  
> 2022  1 25  4  3 13.0000000  0 16                     
G 3                    -86397.330        -728.378          27.000                      -36752.761        -547.439          20.000  
G16                    -69228.723       -2934.274          17.000                                                                  
G26                    -76164.875        -767.696          23.000                                                                  
G31                     69366.869         574.416          28.000                                                                  
G32                    182677.966        2034.608          21.000                                                                  
R 2                                                        23.000  
R 3                                                        19.000  
R12                                                        31.000  
E 2                     46233.440        1084.053          24.000                                                                  
E 7                   -122955.450       -2280.688          25.000                      -55900.213       -1698.813          18.000  
E 8                     -8453.546        -369.770          24.000                                                                  
C 6                     -9136.438        -164.001          22.000                                                                                                                                  
C14                     19491.775         369.167          19.000                                                                                                                                  
C24                    -11349.040        -482.051          33.000                                                                                                                                  
C26                    130786.480        1430.527          23.000                                                                                                                                  
C33                    -65865.992       -1169.781          32.000                                                                                      -29123.893        -881.800          25.000  
> 2022  1 25  4  3 14.0000000  0 18                     
G 3                    -90237.837        -730.426          32.000                      -38905.617        -548.094          16.000  
G16                    -84647.336       -2935.013          15.000                                                                  
G26                    -80197.441        -766.635          35.000                                                                  
G31                     72378.740         572.845          23.000                                                                  
G32                    193367.384        2033.570          28.000                                                                  
R 2                                                        29.000  
R 3                                                        25.000  
R12                                                        25.000  
E 2                     51925.661        1083.547          24.000                                                                  
E 7                   -134949.093       -2281.059          22.000                      -62576.204       -1702.521          15.000  
E 8                    -10397.380        -369.147          26.000                       -4195.432        -275.068          20.000  
C 6                     -9996.632        -164.783          21.000                                                                                                                                  
C14                     21407.307         368.891          30.000                                                                                                                                  
C21                    103018.673        3600.854          15.000                                                                                                                                  
C24                    -13875.849        -482.304          29.000                                                                                       -1754.063        -358.312          19.000  
C26                    138225.647        1426.919          20.000                                                                                                                                  
C33                    -71961.212       -1168.783          28.000                                                                                      -32597.024        -886.266          18.000  
C35                                                                                                                                                     -4741.677        -801.124          17.000  
> 2022  1 25  4  3 15.0000000  0 18                     
G 3                    -94076.955        -730.924          29.000                      -41048.372        -542.411          21.000  
G16                   -100078.593       -2935.991          15.000                                                                  
G26                    -84227.222        -766.739          30.000                                                                  
G31                     75397.364         574.426          27.000                                                                  
G32                    204049.601        2033.195          29.000                                                                  
R 2                                                        31.000  
R 3                                                        24.000  
R12                                                        30.000  
E 2                     57625.818        1084.496          29.000                                                                  
E 7                   -146929.319       -2280.027          25.000                      -69265.127       -1704.211          17.000  
E 8                    -12338.411        -369.356          30.000                       -5274.443        -272.838          19.000  
C 6                    -10858.373        -165.345          27.000                                                                                                                                  
C 7                     -1549.143        -581.665          27.000                                                                                                                                  
C14                     23334.870         370.030          22.000                                                                                                                                  
C24                    -16390.643        -482.567          27.000                                                                                       -3167.101        -360.106          20.000  
C26                    145663.409        1430.177          28.000                                                                                                                                  
C33                    -78049.659       -1168.340          27.000                                                                                      -36067.374        -882.197          24.000  
C35                                                                                                                                                     -7880.200        -800.247          15.000  
> 2022  1 25  4  3 16.0000000  0 19                     
G 3                    -97914.969        -732.070          24.000                      -43190.739        -544.620          25.000  
G16                   -115502.185       -2933.345          16.000                                                                  
G26                    -88254.095        -768.873          28.000                                                                  
G31                     78413.206         570.835          27.000                                                                  
G32                    214725.914        2031.963          29.000                                                                  
R 2                                                        25.000  
R 3                                                        20.000  
R12                                                        27.000  
E 2                     63317.963        1081.984          24.000                                                                  
E 7                   -158917.738       -2282.573          19.000                      -75953.222       -1702.234          17.000  
E 8                    -14283.458        -371.285          27.000                       -6345.338        -273.596          18.000  
E30                     -7930.118       -1196.352          25.000                                                                  
C 6                    -11724.399        -166.671          24.000                                                                                                                                  
C 7                     -4574.920        -579.913          25.000                                                                                                                                  
C 9                     -2959.250        -352.328          24.000                                                                                                                                  
C14                     25259.529         369.433          21.000                                                                                                                                  
C24                    -18904.614        -478.100          29.000                                                                                       -4595.917        -364.897          20.000  
C26                    153099.299        1427.926          20.000                                                                                                                                  
C33                    -84131.818       -1168.011          23.000                                                                                      -39524.447        -879.787          18.000  
> 2022  1 25  4  3 17.0000000  0 20                     
G 3                   -101761.461        -732.810          24.000                      -45336.074        -548.809          18.000  
G16                   -130922.658       -2935.610          16.000                                                                  
G26                    -92274.273        -765.461          20.000                                                                  
G31                     81423.787         575.800          20.000                                                                  
G32                    225400.543        2031.078          29.000                                                                  
R 2                                                        28.000  
R 3                                                        20.000  
R12                                                        25.000  
E 2                     69004.108        1078.501          19.000                       12018.617         813.202          17.000  
E 7                   -170903.773       -2282.113          19.000                      -82638.429       -1704.818          19.000  
E 8                    -16227.049        -370.253          26.000                       -7430.841        -277.340          20.000  
E30                    -14218.214       -1194.622          19.000                                                                  
C 6                    -12600.683        -169.828          20.000                                                                                                                                  
C 7                     -7602.686        -582.769          23.000                                                                                                                                  
C 9                     -4802.961        -355.029          24.000                                                                                                                                  
C14                     27185.585         368.247          27.000                                                                                                                                  
C24                    -21417.050        -487.019          34.000                                                                                       -6029.024        -365.133          25.000  
C26                    160540.129        1426.579          19.000                                                                                                                                  
C33                    -90220.216       -1170.199          25.000                                                                                      -42982.575        -882.297          27.000  
C35                    -10821.629       -1063.758          25.000                                                                                      -14161.406        -800.142          21.000  
> 2022  1 25  4  3 18.0000000  0 20                     
G 3                   -105596.947        -729.887          18.000                      -47475.716        -543.165          19.000  
G16                   -146348.279       -2933.976          13.000                                                                  
G26                    -96303.358        -767.235          31.000                                                                  
G31                     84456.973          -0.005          19.000                                                                  
G32                    236085.837        2035.657          30.000                                                                  
R 2                                                        23.000  
R 3                                                        24.000  
R12                                                        21.000  
E 2                     74688.548        1084.229          19.000                       15201.311         809.743          16.000  
E 7                   -182899.313       -2283.322          18.000                      -89328.296       -1704.078          17.000  
E 8                    -18170.903        -369.505          19.000                       -8515.537        -274.706          18.000  
E30                    -20506.268       -1196.941          20.000                        -477.402        -893.735          24.000  
C 6                    -13469.057        -164.236          19.000                                                                                                                                  
C 7                    -10644.215        -584.388          25.000                                                                                                                                  
C 9                     -6648.856        -353.604          18.000                                                                                                                                  
C14                     29104.725         369.076          28.000                                                                                                                                  
C24                    -23946.076        -484.101          25.000                                                                                       -7460.741        -363.326          19.000  
C26                    167976.891        1429.770          18.000                                                                                                                                  
C33                    -96313.460       -1171.193          23.000                                                                                      -46443.624        -880.990          20.000  
C35                    -16362.459       -1063.387          25.000                                                                                      -17304.409        -801.763          20.000  
> 2022  1 25  4  3 19.0000000  0 20                     
G 3                   -109444.343        -730.878          19.000                      -49608.239        -542.575          19.000  
G16                   -161765.946       -2932.005          18.000                                                                  
G26                   -100320.982        -765.679          25.000                                                                  
G31                     87469.770         573.118          23.000                                                                  
G32                    246770.716        2032.771          25.000                                                                  
R 2                                                        23.000  
R 3                                                        24.000  
R12                                                        23.000  
E 2                     80382.971        1082.382          19.000                       18378.960         810.377          17.000  
E 7                   -194895.121       -2280.152          15.000                      -96018.937       -1704.806          17.000  
E 8                    -20120.978        -373.305          18.000                       -9598.984        -275.577          16.000  
E30                    -26794.671       -1198.050          20.000                                                                  
C 6                    -14324.398        -164.017          18.000                                                                                                                                  
C 7                    -13687.402        -584.613          23.000                                                                                                                                  
C 9                     -8492.900        -353.470          17.000                                                                                                                                  
C14                     31017.248         368.727          19.000                                                                                                                                  
C24                    -26466.711           0.001          20.000                                                                                                                                  
C26                    175423.795          -0.009          20.000                                                                                                                                  
C33                   -102410.289           0.000          20.000                                                                                      -49886.723        -877.142          19.000  
C35                    -21901.561       -1061.969          25.000                                                                                      -20447.684        -799.595          16.000  
> 2022  1 25  4  3 20.0000000  0 20                     
G 3                   -113276.390        -728.175          17.000                      -51744.431        -544.643          17.000  
G16                   -177181.106       -2935.834          17.000                                                                  
G26                   -104353.506        -767.259          26.000                                                                  
G31                     90479.518         572.591          23.000                                                                  
G32                    257458.539        2034.765          26.000                                                                  
R 2                                                        21.000  
R 3                                                        27.000  
R12                                                        24.000  
E 2                     86066.872        1080.119          18.000                       21559.147         811.871          18.000  
E 7                   -206883.942       -2283.830          18.000                     -102707.012       -1705.737          17.000  
E 8                    -22070.154        -370.157          19.000                      -10677.824        -274.720          18.000  
E30                    -33102.413       -1197.948          25.000                       -7492.194        -890.300          20.000  
C 6                    -15183.297        -166.252          18.000                                                                                                                                  
C 7                    -16730.642        -584.091          22.000                                                                                                                                  
C 9                    -10333.678          -0.050          20.000                                                                                                                                  
C14                     32932.677         368.565          22.000                                                                                                                                  
C24                    -28993.012        -482.416          19.000                                                                                      -10307.325        -364.424          16.000  
C26                    182863.167        1427.127          19.000                                                                                                                                  
C33                   -108512.724       -1174.824          20.000                                                                                      -53338.855        -881.038          20.000  
C35                    -27427.298       -1060.976          25.000                                                                                      -23586.462        -800.231          20.000  
> 2022  1 25  4  3 21.0000000  0 21                     
G 3                   -117108.120        -727.327          14.000                      -53878.860        -543.059          16.000  
G16                   -192609.638       -2936.031          15.000                                                                  
G26                   -108398.530        -765.784          23.000                                                                  
G29                      3453.295         412.015          17.000                                                                  
G31                     93492.286         573.187          20.000                                                                  
G32                    268151.280        2034.789          27.000                                                                  
R 2                                                        24.000  
R 3                                                        24.000  
R12                                                        25.000  
E 2                     91754.415        1084.160          19.000                       24738.019         810.242          18.000  
E 7                   -218881.761       -2283.825          18.000                     -109395.767       -1702.909          19.000  
E 8                    -24006.776        -367.979          20.000                      -11758.925        -275.521          19.000  
E30                    -39410.499       -1196.270          22.000                      -10990.327        -891.143          18.000  
C 6                    -16049.978        -167.209          19.000                                                                                                                                  
C 7                    -19783.590        -585.704          22.000                                                                                                                                  
C 9                    -12178.105        -354.792          19.000                                                                                                                                  
C14                     34843.171         366.156          21.000                                                                                                                                  
C24                    -31500.794        -482.000          20.000                                                                                      -11746.486        -367.478          16.000  
C26                    190293.523        1425.106          21.000                                                                                                                                  
C33                   -114627.369       -1173.554          20.000                                                                                      -56805.241        -884.130          18.000  
C35                    -32953.577       -1060.637          23.000                                                                                      -26730.581        -800.458          20.000  
> 2022  1 25  4  3 22.0000000  0 21                     
G 3                   -120922.451        -726.924          15.000                      -56010.487        -542.154          12.000  
G16                   -208037.324       -2935.759          15.000                                                                  
G26                   -112436.123        -770.573          23.000                                                                  
G29                      5616.881         411.654          18.000                                                                  
G31                     96510.566         575.299          22.000                                                                  
G32                    278839.947        2036.048          26.000                                                                  
R 2                                                        22.000  
R 3                                                        25.000  
R12                                                        25.000  
E 2                     97451.998        1085.283          20.000                       27914.817         809.363          18.000  
E 7                   -230872.735       -2281.437          18.000                     -116076.612       -1701.836          16.000  
E 8                    -25955.058        -368.695          21.000                      -12837.060        -275.787          17.000  
E30                    -45714.153       -1195.881          23.000                      -14495.556        -892.868          18.000  
C 6                    -16934.432        -171.400          20.000                                                                                                                                  
C 7                    -22841.332        -586.369          19.000                                                                                                                                  
C 9                    -14032.795        -356.644          20.000                                                                                                                                  
C14                     36755.450         370.973          23.000                                                                                                                                  
C24                    -34028.563        -488.636          19.000                                                                                      -13184.178        -365.439          14.000  
C26                    197725.701        1429.121          19.000                                                                                                                                  
C33                   -120738.539       -1172.868          21.000                                                                                      -60276.242        -884.887          17.000  
C35                    -38474.087       -1060.901          24.000                                                                                      -29865.832        -799.367          18.000  
> 2022  1 25  4  3 23.0000000  0 21                     
G 3                   -124743.133          -0.025          13.000                      -58139.779        -544.034          13.000  
G16                   -223465.111       -2936.170          13.000                                                                  
G26                   -116483.015        -769.826          22.000                                                                  
G29                      7780.047         413.449          17.000                                                                  
G31                     99527.243         574.241          23.000                                                                  
G32                    289529.361        2034.854          36.000                                                                  
R 2                                                        23.000  
R 3                                                        21.000  
R12                                                        21.000  
E 2                    103149.898        1083.363          23.000                       31092.200         807.323          17.000  
E 7                   -242865.206       -2285.055          14.000                     -122746.877       -1698.818          16.000  
E 8                                                                                    -13925.653        -277.133          17.000  
E30                    -52022.851       -1199.753          19.000                      -18001.507        -895.553          18.000  
C 6                    -17827.960        -171.148          20.000                                                                                                                                  
C 7                    -25898.786        -587.447          20.000                                                                                                                                  
C 9                    -15895.097        -358.820          19.000                                                                                                                                  
C14                     38678.282         368.460          24.000                                                                                                                                  
C24                    -36570.896        -489.041          18.000                                                                                      -14611.779        -361.652          14.000  
C26                    205165.821        1428.379          25.000                                                                                        9308.764        1079.193          17.000  
C33                   -126832.756       -1172.075          17.000                                                                                      -63743.187        -883.976          18.000  
C35                    -43984.263       -1060.442          25.000                                                                                      -33001.570        -798.700          17.000  
> 2022  1 25  4  3 24.0000000  0 22                     
G 3                   -128560.333          -0.025          14.000                      -60272.972        -543.771          13.000  
G16                   -238897.323          -0.013          15.000                                                                  
G26                   -120513.300        -765.027          27.000                                                                  
G29                      9953.333         413.357          19.000                                                                  
G31                    102554.958         576.986          22.000                                                                  
G32                    300227.002        2035.712          32.000                                                                  
R 2                                                        21.000  
R 3                                                        24.000  
R12                                                        24.000  
E 2                    108856.286        1088.922          19.000                       34266.750         810.429          17.000  
E 7                   -254864.642       -2281.664          15.000                                                                  
E 8                    -29862.449        -372.506          20.000                      -15007.037        -275.218          17.000  
E30                    -58328.500       -1197.263          26.000                      -21514.095        -894.172          20.000  
C 6                    -18716.961        -171.805          19.000                                                                                                                                  
C 7                    -28958.843        -587.174          23.000                                                                                                                                  
C 9                    -17761.006        -359.581          17.000                                                                                                                                  
C10                     -4096.942        -590.829          22.000                                                                                                                                  
C14                     40597.905         369.567          24.000                                                                                                                                  
C24                    -39113.688           0.001          17.000                                                                                                                                  
C26                    212613.892        1429.911          21.000                                                                                       13542.025        1076.689          18.000  
C33                   -132936.121       -1170.610          17.000                                                                                      -67211.556        -884.821          15.000  
C35                    -49501.397       -1058.031          20.000                                                                                      -36133.841        -799.330          15.000  
> 2022  1 25  4  3 25.0000000  0 21                     
G 3                   -132372.954          -0.025          15.000                                                                  
G16                   -254343.008          -0.013          17.000                                                                  
G26                   -124547.867        -765.943          29.000                                                                  
G29                     12126.072         411.593          20.000                                                                  
G31                    105581.930         573.943          22.000                                                                  
G32                    310920.605        2035.719          26.000                                                                  
R 2                                                        21.000  
R 3                                                        21.000  
R12                                                        23.000  
E 2                    114569.246        1084.578          19.000                       37449.373         810.365          19.000  
E 7                   -266853.956       -2280.510          13.000                                                                  
E 8                    -31809.841        -367.436          20.000                      -16084.997        -276.383          18.000  
E30                    -64633.510       -1195.584          25.000                      -25046.458        -900.431          19.000  
C 6                    -19605.987        -168.970          18.000                                                                                                                                  
C 7                    -32014.349        -586.311          20.000                                                                                                                                  
C10                     -7204.448        -596.201          23.000                                                                                                                                  
C14                     42523.581         371.160          21.000                                                                                                                                  
C24                    -41656.741           0.001          18.000                                                                                                                                  
C26                    220056.974        1429.129          20.000                                                                                       17771.790        1076.678          19.000  
C33                   -139026.848       -1170.806          17.000                                                                                      -70677.597        -884.129          12.000  
C35                    -55017.514       -1062.779          20.000                                                                                      -39269.618        -800.299          15.000  
> 2022  1 25  4  3 26.0000000  0 22                     
G 3                   -136193.106          -0.025          13.000                                                                  
G16                   -269776.711          -0.013          16.000                                                                  
G26                   -128586.020        -766.460          22.000                                                                  
G29                     14290.266         412.742          19.000                                                                  
G31                    108597.258         573.028          19.000                                                                  
G32                    321610.444        2034.751          29.000                                                                  
R 2                                                        20.000  
R 3                                                        18.000  
R12                                                        23.000  
E 2                    120252.062        1080.903          19.000                       40623.216         806.464          17.000  
E 7                   -278836.081       -2280.226          12.000                                                                  
E 8                    -33750.854        -370.476          19.000                      -17172.653        -277.298          18.000  
E30                    -70936.857       -1195.957          22.000                      -28575.165        -899.645          17.000  
J 1                         0.800         -12.130          13.000                                                                  
J 2                    169528.631         892.564          24.000                                                                  
C 6                    -20497.138        -171.942          18.000                                                                                                                                  
C10                    -10314.482        -593.882          24.000                                                                                                                                  
C14                     44451.999         371.425          21.000                                                                                                                                  
C24                    -44202.886           0.001          19.000                                                                                                                                  
C26                    227498.504        1427.472          21.000                                                                                       21999.803        1077.586          17.000  
C33                   -145121.751       -1171.149          15.000                                                                                      -74143.697        -882.370          12.000  
C35                    -60540.224       -1060.345          17.000                                                                                      -42407.116        -799.297          15.000  
> 2022  1 25  4  3 27.0000000  0 25                     
G 3                   -140018.489          -0.025          13.000                                                                  
G16                   -285193.008       -2933.450          16.000                                                                  
G26                   -132618.643        -766.374          23.000                                                                  
G29                     16453.825         411.968          19.000                                                                  
G31                    111606.824         572.972          24.000                                                                  
G32                    332307.207        2041.349          28.000                                                                  
R 2                                                        23.000  
R 3                                                        20.000  
R12                                                        22.000  
E 2                    125938.139        1083.280          20.000                       43796.242         809.294          17.000  
E 7                   -290816.374       -2279.931          11.000                                                                  
E 8                    -35693.931        -367.681          20.000                      -18264.286        -278.272          20.000  
E30                     -3796.115       -1197.014          19.000                      -32098.522        -896.695          18.000  
J 1                       -60.017         -10.490          15.000                                                                  
J 2                    174222.102         895.529          22.000                                                                  
C 1                      5100.098         276.809          24.000                                                                                                                                  
C 6                    -21386.250        -170.089          17.000                                                                                                                                  
C 7                     -5457.001        -593.309          21.000                                                                                                                                  
C 9                     -4496.146        -356.488          19.000                                                                                                                                  
C10                    -13415.577        -594.408          23.000                                                                                                                                  
C14                     46377.633         369.758          22.000                                                                                                                                  
C24                    -46749.867           0.001          17.000                                                                                                                                  
C26                    234932.696        1428.058          20.000                                                                                       26226.896        1074.165          18.000  
C33                   -151221.799       -1171.027          17.000                                                                                                                                  
C35                    -66064.609       -1061.973          19.000                                                                                      -45541.900        -798.455          16.000  
> 2022  1 25  4  3 28.0000000  0 25                     
G 3                   -143844.534          -0.025          14.000                                                                  
G16                   -300604.121       -2931.668          17.000                                                                  
G26                   -136650.076        -766.152          23.000                                                                  
G29                     18626.134         414.716          24.000                                                                  
G31                    114620.370         572.175          20.000                                                                  
G32                    343020.547        2036.054          28.000                                                                  
R 2                                                        20.000  
R 3                                                        21.000  
R12                                                        23.000  
E 2                    131626.579        1083.766          19.000                       46971.455         808.889          18.000  
E 7                   -302799.469       -2280.676          14.000                                                                  
E 8                    -37626.028        -367.490          20.000                      -19352.281        -278.314          19.000  
E30                    -10100.938       -1201.706          20.000                      -35621.043        -899.105          16.000  
J 1                      -121.350         -11.875          16.000                                                                  
J 2                    178916.176         891.841          24.000                                                                  
C 1                      6490.329         266.115          25.000                                                                                                                                  
C 6                    -22267.122        -168.656          18.000                                                                                                                                  
C 7                     -8544.766        -591.905          21.000                                                                                                                                  
C 9                     -6365.750        -360.059          20.000                                                                                                                                  
C10                    -16517.745        -595.922          21.000                                                                                                                                  
C14                     48297.326         368.735          21.000                                                                                                                                  
C24                    -49288.814           0.001          17.000                                                                                                                                  
C26                    242371.073        1427.677          22.000                                                                                       30442.888        1074.148          19.000  
C33                   -157321.249       -1171.517          15.000                                                                                                                                  
C35                    -71585.058       -1059.624          18.000                                                                                      -48666.679        -796.146          16.000  
> 2022  1 25  4  3 29.0000000  0 25                     
G 3                   -147675.258          -0.025          16.000                                                                  
G16                   -316008.145       -2931.833          16.000                                                                  
G26                   -140680.541        -766.999          24.000                                                                  
G29                     20819.617         417.241          24.000                                                                  
G31                    117623.648         571.497          22.000                                                                  
G32                    353719.927        2038.661          28.000                                                                  
R 2                                                        21.000  
R 3                                                        22.000  
R12                                                        24.000  
E 2                    137313.815        1081.685          20.000                       50153.418         811.129          17.000  
E 7                   -314785.853       -2281.165          14.000                                                                  
E 8                    -39561.342        -369.465          21.000                      -20448.276        -278.829          17.000  
E30                    -16422.543       -1204.516          17.000                      -39145.375        -898.199          15.000  
J 1                      -182.794         -11.413          14.000                                                                  
J 2                    183604.079         892.604          24.000                                                                  
C 1                      7916.833         261.728          27.000                                                                                                                                  
C 6                    -23152.487        -170.431          19.000                                                                                                                                  
C 7                    -11624.401        -590.424          21.000                                                                                                                                  
C 9                     -8237.717        -359.427          20.000                                                                                                                                  
C10                    -19626.878        -597.790          19.000                                                                                                                                  
C14                     50216.591         369.598          21.000                                                                                                                                  
C24                    -51829.574           0.001          18.000                                                                                                                                  
C26                    249805.747        1427.966          22.000                                                                                       34678.674        1079.951          18.000  
C33                   -163419.492           0.000          14.000                                                                                                                                  
C35                    -77103.022       -1059.367          18.000                                                                                      -51792.095        -798.839          16.000  
> 2022  1 25  4  3 30.0000000  0 26                     
G 3                   -151514.534          -0.025          13.000                                                                  
G16                   -331415.567       -2931.757          12.000                                                                  
G26                   -144714.889        -765.312          28.000                                                                  
G29                     23018.607         415.728          27.000                                                                  
G31                    120633.782         572.814          23.000                                                                  
G32                    364417.910        2035.479          27.000                                                                  
R 2                                                        21.000  
R 3                                                        23.000  
R12                                                        24.000  
E 2                    142999.132        1080.932          18.000                       53337.301         809.568          18.000  
E 7                   -326772.825       -2280.970          13.000                                                                  
E 8                    -41509.635        -370.314          20.000                      -21540.989        -278.274          18.000  
E30                    -22747.385       -1202.291          17.000                      -42662.793        -895.807          14.000  
J 1                      -226.590          -5.356          14.000                                                                  
J 2                    188293.798         893.919          22.000                                                                  
C 1                      9377.374         267.821          25.000                                                                                                                                  
C 6                    -24042.216        -170.133          19.000                                                                                                                                  
C 7                    -14700.528        -589.662          21.000                                                                                                                                  
C 9                    -10113.644        -358.563          20.000                                                                                                                                  
C10                    -22737.082        -594.909          19.000                                                                                                                                  
C14                     52138.429         369.865          20.000                                                                                                                                  
C21                    104904.752        3605.415          13.000                                                                                                                                  
C24                    -54370.192           0.001          18.000                                                                                                                                  
C26                    257244.834        1429.485          21.000                                                                                       38917.332        1080.159          20.000  
C33                   -169522.815           0.000          14.000                                                                                                                                  
C35                    -82619.738       -1059.322          19.000                                                                                      -54922.784        -796.025          16.000  
> 2022  1 25  4  3 31.0000000  0 25                     
G 3                   -155348.113          -0.025          12.000                                                                  
G16                   -346825.975       -2932.550          13.000                                                                  
G26                   -148730.493        -764.605          25.000                                                                  
G29                     25212.581         413.672          27.000                                                                  
G31                    123638.013         569.984          20.000                                                                  
G32                    375114.827        2036.133          26.000                                                                  
R 2                                                        24.000  
R 3                                                        20.000  
R12                                                        29.000  
E 2                    148682.541        1083.429          20.000                       56519.975         811.619          18.000  
E 7                   -338758.063       -2280.996          13.000                                                                  
E 8                    -43451.088        -369.359          20.000                      -22626.572        -276.020          17.000  
E30                    -29061.467       -1202.370          16.000                      -46178.823        -894.640          14.000  
J 1                      -252.592          -4.435          14.000                                                                  
J 2                    192986.955         891.266          24.000                                                                  
C 1                     10782.625         256.954          26.000                                                                                                                                  
C 6                    -24933.513        -170.962          18.000                                                                                                                                  
C 7                    -17764.664        -585.840          20.000                                                                                                                                  
C 9                    -11986.986        -358.888          19.000                                                                                                                                  
C10                    -25849.881        -598.196          22.000                                                                                                                                  
C14                     54056.980         368.243          19.000                                                                                                                                  
C21                    123656.946        3598.586          17.000                                                                                                                                  
C26                    264687.689        1427.767          21.000                                                                                       43156.927        1080.785          19.000  
C33                   -175623.976           0.000          15.000                                                                                                                                  
C35                    -88145.842       -1060.291          20.000                                                                                      -58045.849        -797.396          15.000  
> 2022  1 25  4  3 32.0000000  0 25                     
G 3                   -159172.443          -0.025          13.000                                                                  
G16                   -362234.646          -0.013          16.000                                                                  
G26                   -152748.472        -763.158          25.000                                                                  
G29                     27409.902         414.204          29.000                                                                  
G31                    126633.503         570.665          20.000                                                                  
G32                    385813.907        2037.327          28.000                                                                  
R 2                                                        22.000  
R 3                                                        20.000  
R12                                                        27.000  
E 2                    154382.298        1083.801          20.000                       59712.059         815.498          19.000  
E 7                   -350742.256       -2281.125          13.000                                                                  
E 8                    -45389.611        -368.515          20.000                      -23703.502        -274.644          19.000  
E30                                                                                    -49690.853        -894.024          15.000  
J 1                      -268.254          -0.829          14.000                                                                  
J 2                    197672.986         891.802          24.000                                                                  
C 1                     12190.673         275.230          26.000                                                                                                                                  
C 6                    -25822.962        -172.014          18.000                                                                                                                                  
C 7                    -20821.109        -586.988          20.000                                                                                                                                  
C 9                    -13863.259        -359.125          20.000                                                                                                                                  
C10                    -28963.971        -594.767          20.000                                                                                                                                  
C14                     55970.233         367.528          19.000                                                                                                                                  
C21                    142388.089        3596.231          17.000                                                                                                                                  
C26                    272120.265        1427.109          21.000                                                                                       47389.910        1077.662          20.000  
C33                   -181713.795           0.000          13.000                                                                                                                                  
C35                    -93668.265       -1060.985          24.000                                                                                      -61178.228        -798.986          18.000  
> 2022  1 25  4  3 33.0000000  0 25                     
G 3                   -162992.761          -0.025          13.000                                                                  
G16                   -377640.093          -0.013          16.000                                                                  
G26                   -156761.570        -763.505          25.000                                                                  
G29                     29599.720         412.562          28.000                                                                  
G31                    129639.273         571.106          20.000                                                                  
G32                    396510.825        2040.478          26.000                                                                  
R 2                                                        24.000  
R 3                                                        23.000  
R12                                                        24.000  
E 2                    160079.339        1082.728          20.000                       62898.074         809.678          18.000  
E 7                   -362726.978       -2280.661          12.000                                                                  
E 8                    -47335.236        -368.266          20.000                      -24776.965        -273.382          18.000  
E30                                                                                    -53196.004        -892.882          13.000  
J 1                      -257.038          -0.168          14.000                                                                  
J 2                    202362.992         892.600          24.000                                                                  
C 1                     13704.135         294.051          24.000                                                                                                                                  
C 6                    -26714.114        -168.702          18.000                                                                                                                                  
C 7                    -23888.014        -589.578          21.000                                                                                                                                  
C 9                    -15737.859        -361.110          18.000                                                                                                                                  
C10                    -32071.637        -596.634          21.000                                                                                                                                  
C14                     57895.645         372.222          20.000                                                                                                                                  
C21                    161130.068        3599.535          14.000                                                                                                                                  
C26                    279557.744        1429.197          21.000                                                                                       51605.239        1074.533          18.000  
C33                   -187796.435           0.000          13.000                                                                                                                                  
C35                    -99197.488       -1064.146          26.000                                                                                      -64311.906        -798.745          19.000  
> 2022  1 25  4  3 34.0000000  0 25                     
G 3                   -166812.977          -0.025          15.000                                                                  
G16                   -393037.939          -0.013          17.000                                                                  
G26                   -160780.060        -765.176          26.000                       -2384.906        -573.227          23.000  
G29                     31788.377         415.111          28.000                                                                  
G31                    132637.379         572.060          20.000                                                                  
G32                    407216.738        2037.748          25.000                                                                  
R 2                                                        23.000  
R 3                                                        22.000  
R12                                                        23.000  
E 2                    165765.615        1081.414          21.000                       66075.299         807.986          18.000  
E 7                   -374715.738       -2281.690           8.000                                                                  
E 8                    -49265.790        -367.771          19.000                      -25853.002        -276.324          18.000  
E30                                                                                    -56697.549        -893.647          13.000  
J 1                      -261.391          -0.954          13.000                                                                  
J 2                    207044.543         890.205          23.000                                                                  
C 1                     15265.333         304.078          25.000                                                                                                                                  
C 6                    -27598.913        -170.281          19.000                                                                                                                                  
C 7                    -26961.510        -589.397          20.000                                                                                                                                  
C 9                    -17613.719        -359.656          17.000                                                                                                                                  
C10                    -35180.940        -596.946          23.000                                                                                                                                  
C14                     59823.785         368.643          19.000                                                                                                                                  
C21                    179877.183        3601.779          15.000                                                                                                                                  
C24                    -64494.811        -489.079          18.000                                                                                                                                  
C26                    286998.672        1429.495          23.000                                                                                       55821.919        1071.812          18.000  
C35                   -104726.898       -1063.958          30.000                                                                                      -67451.800        -802.987          21.000  
> 2022  1 25  4  3 35.0000000  0 23                     
G16                   -408440.125          -0.013          16.000                                                                  
G26                   -164801.652        -764.905          25.000                       -4629.054        -567.942          23.000  
G29                     33983.555         414.155          28.000                                                                  
G31                    135655.253         574.589          20.000                                                                  
G32                    417926.449        2038.495          27.000                       20261.067        1518.978          17.000  
R 2                                                        20.000  
R 3                                                        20.000  
R12                                                        28.000  
E 2                    171466.190        1088.610          19.000                       69252.663         810.202          17.000  
E 7                   -386704.611       -2281.411           8.000                                                                  
E 8                    -51200.975        -365.401          18.000                      -26938.823        -278.038          17.000  
E30                                                                                    -60206.987        -897.919          12.000  
J 1                      -269.644          -1.415          13.000                                                                  
J 2                    211720.734         888.768          23.000                                                                  
C 1                     16817.375         279.799          24.000                                                                                                                                  
C 6                    -28493.315        -174.317          19.000                                                                                                                                  
C 7                    -30035.567        -590.269          20.000                                                                                                                                  
C 9                    -19493.906        -361.824          18.000                                                                                                                                  
C14                     61748.375         370.104          17.000                                                                                                                                  
C21                    198628.253          -0.013          17.000                                                                                                                                  
C24                    -67036.271        -487.404          17.000                                                                                                                                  
C26                    294429.929        1426.314          20.000                                                                                       60033.192        1074.542          18.000  
C35                   -110257.001       -1063.034          29.000                                                                                      -70621.615        -808.033          19.000  
> 2022  1 25  4  3 36.0000000  0 25                     
G16                   -423849.175          -0.013          13.000                                                                  
G26                   -168829.142        -766.539          26.000                       -6880.027        -573.986          21.000  
G29                     36174.624         416.287          33.000                                                                  
G31                    138670.957         574.328          21.000                                                                  
G32                    428636.412        2037.309          30.000                       26219.364        1518.301          21.000  
R 2                                                        21.000  
R 3                                                        18.000  
R12                                                        24.000  
E 2                    177182.250        1083.823          21.000                       72432.451         809.297          18.000  
E 7                   -398692.824       -2281.558           7.000                                                                  
E 8                    -53123.723        -367.469          19.000                      -28027.753        -277.783          17.000  
E30                                                                                    -63731.856        -899.208          14.000  
J 1                      -282.282          -2.984          13.000                                                                  
J 2                    216396.177         891.112          25.000                                                                  
C 1                     18186.473         255.599          25.000                                                                                                                                  
C 6                    -29396.469        -172.305          19.000                                                                                                                                  
C 7                    -33111.620        -591.133          19.000                                                                                                                                  
C 9                    -21379.107        -360.717          17.000                                                                                                                                  
C10                     -4456.495        -597.116          19.000                                                                                                                                  
C14                     63683.250         373.228          17.000                                                                                                                                  
C21                    217357.338        3595.718          17.000                                                                                                                                  
C24                    -69575.102        -488.069          16.000                                                                                                                                  
C26                    301862.194        1427.339          21.000                                                                                       64267.389        1077.484          19.000  
C33                                                                                                                                                     -9946.814        -883.668          17.000  
C35                   -115778.645       -1064.646          32.000                                                                                      -73780.599        -802.456          20.000  
> 2022  1 25  4  3 37.0000000  0 25                     
G16                   -439254.935          -0.013          19.000                                                                  
G26                   -172839.751        -760.193          26.000                       -9117.952        -568.515          21.000  
G29                     38374.650         414.473          30.000                                                                  
G31                    141682.531         572.323          20.000                                                                  
G32                    439343.938        2042.299          31.000                       32186.224        1523.930          19.000  
R 2                                                        18.000  
R 3                                                        17.000  
R12                                                        25.000  
E 2                    182882.375        1082.812          21.000                       75608.957         807.087          17.000  
E 7                   -410684.806       -2282.552           7.000                                                                  
E 8                    -55059.053        -368.478          18.000                      -29115.234        -276.827          17.000  
E30                                                                                    -67255.769        -897.504          11.000  
J 1                      -293.797          -2.663          12.000                                                                  
J 2                    221077.864         891.474          25.000                                                                  
C 1                     19539.834         257.951          23.000                                                                                                                                  
C 6                    -30300.161        -173.740          18.000                                                                                                                                  
C 7                    -36193.620        -590.082          22.000                                                                                                                                  
C 9                    -23248.219        -357.588          20.000                                                                                                                                  
C10                     -7585.906        -599.617          21.000                                                                                                                                  
C14                     65621.940         373.352          17.000                                                                                                                                  
C21                    236084.309        3594.164          17.000                                                                                                                                  
C24                    -72110.813        -487.523          15.000                                                                                                                                  
C26                    309291.786        1427.269          21.000                                                                                       68501.448        1076.725          17.000  
C33                                                                                                                                                    -13403.014        -880.026          15.000  
C35                   -121313.457       -1065.761          33.000                                                                                      -76912.272        -800.191          17.000  
> 2022  1 25  4  3 38.0000000  0 23                     
G16                   -454663.688          -0.013          18.000                                                                  
G26                   -176844.805        -761.821          26.000                      -11353.641        -570.694          20.000  
G29                     40572.480         413.257          27.000                                                                  
G31                    144691.914         574.289          20.000                                                                  
G32                    450044.630        2033.771          27.000                       38163.326        1522.688          18.000  
R 2                                                        17.000  
R 3                                                        17.000  
R12                                                        21.000  
E 2                    188578.792        1085.368          20.000                       78783.825         808.963          18.000  
E 7                   -422680.602       -2282.913           6.000                                                                  
E 8                    -56988.249        -366.355          18.000                      -30198.372        -275.656          16.000  
J 1                      -294.966           0.083          14.000                                                                  
J 2                    225757.046         888.451          22.000                                                                  
C 6                    -31210.423        -174.517          18.000                                                                                                                                  
C 7                    -39272.814        -591.056          20.000                                                                                                                                  
C 9                    -25116.770        -358.133          18.000                                                                                                                                  
C10                    -10710.797        -597.883          19.000                                                                                                                                  
C14                     67569.400         373.711          17.000                                                                                                                                  
C21                    254795.874        3590.970          18.000                                                                                                                                  
C24                    -74646.547        -486.496          17.000                                                                                                                                  
C26                    316727.950        1429.002          19.000                                                                                       72723.620        1074.208          17.000  
C33                                                                                                                                                    -16854.181        -881.792          16.000  
C35                   -126835.863       -1064.182          25.000                                                                                      -80041.035        -797.051          18.000  
> 2022  1 25  4  3 39.0000000  0 23                     
G16                   -470070.600          -0.013          17.000                                                                  
G26                   -180859.168        -764.599          25.000                      -13597.833        -568.977          22.000  
G29                     42761.453         419.254          23.000                                                                  
G31                    147705.346         572.839          19.000                                                                  
G32                    460744.412        2038.070          24.000                       44132.762        1520.043          18.000  
R 2                                                        17.000  
R 3                                                        20.000  
R12                                                        21.000  
E 2                    194277.903        1081.444          18.000                       81961.240         808.796          18.000  
E 7                   -434678.674       -2282.986           5.000                                                                  
E 8                    -58926.846        -370.067          20.000                      -31274.914        -273.708          17.000  
J 1                      -276.182           8.925          15.000                                                                  
J 2                    230421.173         887.098          22.000                                                                  
C 6                    -32121.915        -174.887          19.000                                                                                                                                  
C 7                    -42351.796        -592.083          20.000                                                                                                                                  
C 9                    -26989.914        -360.623          17.000                                                                                                                                  
C10                    -13839.324        -601.694          18.000                                                                                                                                  
C14                     69506.962         371.420          17.000                                                                                                                                  
C21                    273505.404        3594.637          16.000                                                                                                                                  
C24                    -77182.728        -487.222          13.000                                                                                                                                  
C26                    324172.318        1428.624          22.000                                                                                       76941.849        1073.261          18.000  
C33                                                                                                                                                    -20306.917        -879.094          16.000  
C35                   -132373.517       -1063.523          24.000                                                                                      -83173.291        -798.432          17.000  
> 2022  1 25  4  3 40.0000000  0 22                     
G26                   -184870.764        -765.080          24.000                      -15842.988        -572.444          22.000  
G29                     44966.430         416.458          23.000                                                                  
G31                    150726.695         575.526          19.000                                                                  
G32                    471446.732        2036.809          24.000                       50099.700        1520.347          17.000  
R 2                                                        19.000  
R 3                                                        18.000  
R12                                                        20.000  
E 2                    199970.102        1084.806          20.000                       85137.468         809.429          18.000  
E 7                   -446678.943       -2283.867           5.000                                                                  
E 8                    -60874.139        -369.768          18.000                      -32352.553        -276.230          17.000  
J 1                      -240.258           6.753          13.000                                                                  
J 2                    235081.509         886.952          23.000                                                                  
C 6                    -33022.535        -171.506          19.000                                                                                                                                  
C 7                    -45442.695        -594.483          19.000                                                                                                                                  
C 9                    -28863.068        -361.070          17.000                                                                                                                                  
C10                    -16982.546        -603.204          18.000                                                                                                                                  
C14                     71441.071         371.543          17.000                                                                                                                                  
C21                    292229.351        3595.156          17.000                                                                                                                                  
C24                    -79728.195        -490.059          15.000                                                                                                                                  
C26                    331609.371        1427.895          21.000                                                                                       81160.704        1075.241          17.000  
C33                                                                                                                                                    -23751.511        -876.457          13.000  
C35                   -137907.438       -1062.565          18.000                                                                                      -86302.005        -798.326          14.000  
> 2022  1 25  4  3 41.0000000  0 22                     
G26                   -188882.580        -762.152          22.000                      -18077.111        -569.879          23.000  
G29                     47168.857         420.019          24.000                                                                  
G31                    153750.134         573.753          18.000                                                                  
G32                    482154.196        2038.717          19.000                       56066.443        1520.584          13.000  
R 2                                                        19.000  
R 3                                                        17.000  
R12                                                        23.000  
E 2                    205664.575        1082.050          18.000                       88318.207         807.901          18.000  
E 7                   -458681.582       -2284.215           5.000                                                                  
E 8                    -62816.948        -368.650          18.000                      -33436.004        -277.406          17.000  
J 1                      -192.330          11.206          13.000                                                                  
J 2                    239746.080         887.646          20.000                                                                  
C 6                    -33920.546           0.099          21.000                                                                                                                                  
C 7                    -48543.349        -594.925          19.000                                                                                                                                  
C 9                    -30746.355        -364.066          17.000                                                                                                                                  
C10                    -20120.202        -601.809          17.000                                                                                                                                  
C14                     73379.510         373.300          17.000                                                                                                                                  
C21                    310955.273        3597.167          16.000                                                                                                                                  
C24                    -82279.418        -489.472          14.000                                                                                                                                  
C26                    339048.461        1428.210          21.000                                                                                       85380.788        1075.015          18.000  
C33                                                                                                                                                    -27188.736        -876.318          11.000  
C35                   -143441.477           0.027          18.000                                                                                      -89432.265        -797.266          13.000  
> 2022  1 25  4  3 42.0000000  0 21                     
G26                   -192887.930        -761.701          20.000                      -20315.741        -570.467          19.000  
G29                     49382.096         421.562          20.000                                                                  
G31                    156762.954         571.088          18.000                                                                  
G32                    492864.233        2038.029          16.000                                                                  
R 2                                                        20.000  
R 3                                                        17.000  
R12                                                        24.000  
E 2                    211348.183        1081.616          19.000                       91493.734         809.321          19.000  
E 7                   -470687.964       -2284.982           6.000                                                                  
E 8                    -64749.769        -367.178          18.000                      -34514.898        -274.206          17.000  
J 2                    244411.972         889.725          21.000                                                                  
C 6                    -34829.461        -173.633          19.000                                                                                                                                  
C 7                    -51641.630        -593.000          18.000                                                                                                                                  
C 9                    -32646.729        -364.623          17.000                                                                                                                                  
C10                    -23247.153        -600.555          17.000                                                                                                                                  
C14                     75318.238         372.936          17.000                                                                                                                                  
C21                    329694.131        3600.382          15.000                                                                                                                                  
C24                    -84831.002           0.001          15.000                                                                                                                                  
C26                    346485.185        1426.907          20.000                                                                                       89605.507        1076.723          18.000  
C33                    -29328.625       -1167.618          18.000                                                                                      -30626.938        -876.431          13.000  
C35                   -148984.937       -1065.137          18.000                                                                                      -92557.670        -794.598          15.000  
> 2022  1 25  4  3 43.0000000  0 22                     
G16                   -531701.519          -0.013          14.000                                                                  
G26                   -196895.907        -761.263          23.000                      -22537.771        -564.954          17.000  
G29                     51597.075         420.417          27.000                                                                  
G31                    159763.919         570.759          21.000                                                                  
G32                    503582.041        2039.288          17.000                                                                  
R 2                                                        17.000  
R 3                                                        18.000  
R12                                                        26.000  
E 2                    217037.904        1083.480          23.000                       94680.188         812.050          19.000  
E 7                   -482695.504       -2284.935           6.000                                                                  
E 8                    -66677.048        -366.197          20.000                      -35595.474        -277.052          17.000  
J 2                    249084.174         888.945          22.000                                                                  
C 6                    -35731.327        -172.985          25.000                                                                                                                                  
C 7                    -54734.344        -593.652          19.000                                                                                                                                  
C 9                    -34540.613        -363.032          18.000                                                                                                                                  
C10                    -26372.183        -598.413          18.000                                                                                                                                  
C14                     77258.138         371.251          15.000                                                                                                                                  
C21                    348445.508        3601.486          14.000                                                                                                                                  
C24                    -87387.478           0.001          16.000                                                                                                                                  
C26                    353917.181        1426.230          23.000                                                                                       93829.863        1074.796          17.000  
C33                    -35398.850       -1166.896          20.000                                                                                      -34063.853        -875.946          11.000  
C35                   -154519.184       -1061.430          20.000                                                                                      -95679.472        -796.296          15.000  
> 2022  1 25  4  3 44.0000000  0 22                     
G16                   -547105.988          -0.013          13.000                                                                  
G26                   -200900.027        -761.263          21.000                      -24754.558        -568.296          19.000  
G29                     53805.213         419.331          23.000                                                                  
G31                    162766.844         572.197          20.000                                                                  
G32                    514297.544        2040.214          16.000                                                                  
R 2                                                        20.000  
R 3                                                        17.000  
R12                                                        24.000  
E 2                    222728.929        1082.732          23.000                       97865.112         808.060          21.000  
E 7                   -494702.448       -2284.980           5.000                                                                  
E 8                    -68599.122        -364.719          18.000                      -36677.276        -273.817          17.000  
J 2                    253756.410         887.050          25.000                                                                  
C 6                    -36638.839        -174.873          22.000                                                                                                                                  
C 7                    -57823.138        -591.171          20.000                                                                                                                                  
C 9                    -36433.036        -362.706          19.000                                                                                                                                  
C10                    -29486.317        -598.478          18.000                                                                                                                                  
C14                     79194.578         373.251          17.000                                                                                                                                  
C21                    367191.010          -0.013          13.000                                                                                                                                  
C24                    -89942.247           0.001          15.000                                                                                                                                  
C26                    361343.443        1425.390          22.000                                                                                       98053.314        1075.441          19.000  
C33                    -41472.841       -1165.259          17.000                                                                                      -37502.378        -875.968          11.000  
C35                   -160033.573       -1058.772          24.000                                                                                      -98804.383        -796.579          16.000  
> 2022  1 25  4  3 45.0000000  0 22                     
G16                   -562515.696          -0.013          15.000                                                                  
G26                   -204891.107        -760.058          20.000                      -26983.960        -567.076          23.000  
G29                     56013.969         418.603          25.000                                                                  
G31                    165770.209         570.994          21.000                                                                  
G32                    525025.181        2043.661          16.000                                                                  
R 2                                                        18.000  
R 3                                                        17.000  
R12                                                        22.000  
E 2                    228422.676        1083.316          19.000                      101048.428         811.830          18.000  
E 7                   -506707.548       -2284.221           6.000                                                                  
E 8                    -70525.342        -367.079          17.000                      -37750.073        -273.437          17.000  
J 2                    258420.454         887.259          25.000                                                                  
C 6                    -37544.540        -170.524          19.000                                                                                                                                  
C 7                    -60900.744        -590.142          19.000                                                                                                                                  
C 9                    -38322.447        -362.705          19.000                                                                                                                                  
C10                    -32602.943        -597.038          17.000                                                                                                                                  
C14                     81142.189         374.378          17.000                                                                                                                                  
C21                    385934.851          -0.013          14.000                                                                                                                                  
C24                    -92492.297        -489.322          13.000                                                                                                                                  
C26                    368768.534        1426.370          23.000                                                                                      102274.492        1074.472          19.000  
C33                    -47528.342       -1165.572          17.000                                                                                      -40932.818        -873.556          12.000  
C35                   -165557.104       -1058.892          18.000                                                                                     -101921.104        -794.574          16.000  
> 2022  1 25  4  3 46.0000000  0 22                     
G16                   -577908.152          -0.013          14.000                                                                  
G26                   -208892.235        -761.142          25.000                      -29214.040        -567.140          23.000  
G29                     58235.080         421.340          28.000                                                                  
G31                    168776.183         573.626          19.000                                                                  
G32                    535758.841        2041.652          15.000                                                                  
R 2                                                        20.000  
R 3                                                        16.000  
R12                                                        22.000  
E 2                    234115.197        1083.637          19.000                      104228.474         809.013          17.000  
E 7                   -518711.079       -2284.824           9.000                                                                  
E 8                    -72442.860        -364.584          17.000                      -38831.601        -275.898          17.000  
J 2                    263091.566         886.542          25.000                       16352.509         665.561          19.000  
C 6                    -38445.709        -174.817          18.000                                                                                                                                  
C 7                    -63980.268        -591.959          23.000                                                                                                                                  
C 9                    -40207.258        -361.916          16.000                                                                                                                                  
C10                    -35715.930        -598.226          19.000                                                                                                                                  
C14                     83085.862         373.982          19.000                                                                                                                                  
C21                    404676.843          -0.013          14.000                                                                                                                                  
C24                    -95039.292        -488.754          15.000                                                                                                                                  
C26                    376188.847        1425.009          22.000                                                                                      106498.411        1076.546          20.000  
C33                    -53590.020       -1164.594          15.000                                                                                      -44365.221        -875.781          12.000  
C35                   -171085.050       -1065.126          16.000                                                                                     -105040.721        -796.558          15.000  
> 2022  1 25  4  3 47.0000000  0 22                     
G16                   -593298.348          -0.013          13.000                                                                  
G26                   -212898.027        -761.649          21.000                      -31439.698        -568.343          22.000  
G29                     60449.441         420.615          24.000                                                                  
G31                    171789.797         572.849          20.000                                                                  
G32                    546488.959        2043.139          14.000                                                                  
R 2                                                        19.000  
R 3                                                        17.000  
R12                                                        20.000  
E 2                    239804.047        1082.646          22.000                      107401.425         807.048          17.000  
E 7                   -530718.219       -2285.132           8.000                                                                  
E 8                    -74366.662        -364.568          18.000                      -39914.731        -276.385          17.000  
J 2                    267756.336         886.458          27.000                       18953.329         661.156          20.000  
C 6                    -39356.555        -173.965          19.000                                                                                                                                  
C 7                    -67068.071        -590.904          20.000                                                                                                                                  
C 9                    -42088.615        -362.500          19.000                                                                                                                                  
C10                    -38833.565        -599.413          17.000                                                                                                                                  
C14                     85039.390         375.298          18.000                                                                                                                                  
C21                    423411.997          -0.013          12.000                                                                                                                                  
C24                    -97581.856        -488.145          16.000                                                                                                                                  
C26                    383612.266        1425.406          24.000                                                                                      110723.232        1073.172          18.000  
C33                    -59653.287       -1164.821          13.000                                                                                      -47808.208        -877.700          11.000  
C35                   -176622.293       -1061.795          17.000                                                                                     -108166.050        -793.751          15.000  
> 2022  1 25  4  3 48.0000000  0 21                     
G16                   -608696.216          -0.013          16.000                                                                  
G26                   -216900.106        -760.848          21.000                      -33670.987        -570.275          18.000  
G29                     62665.329         424.379          23.000                                                                  
G31                    174801.225         573.927          17.000                                                                  
G32                    557232.556        2044.314          13.000                                                                  
R 2                                                        19.000  
R 3                                                        15.000  
R12                                                        21.000  
E 2                    245496.639        1081.963          21.000                      110571.624         808.837          17.000  
E 7                   -542727.303       -2285.248           7.000                                                                  
E 8                    -76287.544        -364.324          20.000                      -40992.444        -271.582          17.000  
J 2                    272430.197         888.832          27.000                       21551.082         662.326          18.000  
C 6                    -40255.046        -173.134          19.000                                                                                                                                  
C 7                    -70145.591        -591.751          18.000                                                                                                                                  
C 9                    -43980.438        -362.148          17.000                                                                                                                                  
C10                    -41953.580        -600.468          18.000                                                                                                                                  
C14                     86997.389         377.406          20.000                                                                                                                                  
C21                    442140.324          -0.013          15.000                                                                                                                                  
C26                    391040.678        1428.430          23.000                                                                                      114944.654        1076.347          17.000  
C33                    -65717.087       -1165.897          13.000                                                                                      -51254.380        -879.475           9.000  
C35                   -182146.194       -1061.099          17.000                                                                                     -111289.568        -795.942          14.000  
> 2022  1 25  4  3 49.0000000  0 21                     
G16                   -624094.781          -0.013          15.000                                                                  
G26                   -220896.522        -759.489          22.000                      -35896.231        -566.634          20.000  
G29                     64895.606         422.290          21.000                                                                  
G31                    177806.843         570.830          20.000                                                                  
G32                    567975.487          -0.011          14.000                                                                  
R 2                                                        17.000  
R 3                                                        16.000  
R12                                                        24.000  
E 2                    251174.873        1079.127          18.000                      113754.695         812.546          17.000  
E 7                   -554736.389       -2285.612           7.000                                                                  
E 8                    -78207.883        -363.917          18.000                      -42054.834        -271.910          17.000  
J 2                    277092.471         887.495          24.000                       24151.953         660.893          22.000  
C 6                    -41153.844        -173.139          19.000                                                                                                                                  
C 7                    -73230.240        -590.097          21.000                                                                                                                                  
C 9                    -45868.053        -363.487          17.000                                                                                                                                  
C10                    -45086.461        -601.618          20.000                                                                                                                                  
C14                     88967.546         379.063          17.000                                                                                                                                  
C21                    460881.280          -0.013          14.000                                                                                                                                  
C26                    398483.308        1427.349          24.000                                                                                      119168.967        1074.856          16.000  
C33                                                                                                                                                    -54699.573        -876.888           9.000  
C35                   -187667.029       -1059.533          15.000                                                                                     -114408.547        -793.460          14.000  
> 2022  1 25  4  3 50.0000000  0 21                     
G16                   -639491.236          -0.013          14.000                                                                  
G26                   -224883.360        -758.501          26.000                      -38120.107        -564.259          22.000  
G29                     67112.034         423.026          20.000                                                                  
G31                    180809.726         572.051          23.000                                                                  
G32                    578720.677          -0.011          13.000                                                                  
R 2                                                        18.000  
R 3                                                        15.000  
R12                                                        21.000  
E 2                    256855.424        1083.358          20.000                      116946.994         813.941          18.000  
E 7                   -566747.934       -2286.256           5.000                                                                  
E 8                    -80125.113        -365.288          17.000                      -43120.624        -271.567          17.000  
J 2                    281754.331         886.655          22.000                       26751.402         660.987          18.000  
C 6                    -42061.606        -175.296          20.000                                                                                                                                  
C 7                    -76310.353        -591.701          20.000                                                                                                                                  
C 9                    -47757.731        -362.266          18.000                                                                                                                                  
C10                    -48212.313        -599.121          18.000                                                                                                                                  
C14                     90940.653         379.035          17.000                                                                                                                                  
C21                    479620.508          -0.013          15.000                                                                                                                                  
C26                    405920.170        1424.890          25.000                                                                                      123381.933        1071.258          18.000  
C33                                                                                                                                                    -58141.883        -877.049           8.000  
C35                   -193188.024       -1061.224          22.000                                                                                     -117521.096        -795.104          12.000  
> 2022  1 25  4  3 51.0000000  0 21                     
G16                   -654876.917          -0.013          13.000                                                                  
G26                   -228868.887        -757.318          23.000                      -40327.672        -559.943          20.000  
G29                     69332.378         422.677          26.000                                                                  
G31                    183813.134         571.512          20.000                                                                  
G32                    589473.859          -0.011          14.000                                                                  
R 2                                                        17.000  
R 3                                                        14.000  
R12                                                        24.000  
E 2                    262549.197        1083.538          22.000                      120135.162         810.352          15.000  
E 7                   -578763.548       -2286.758           6.000                                                                  
E 8                    -82060.085        -369.889          16.000                      -44191.015        -273.853          14.000  
J 2                    286413.485         886.765          24.000                       29353.876         665.860          21.000  
C 6                    -42967.950        -173.635          19.000                                                                                                                                  
C 7                    -79397.503        -591.755          21.000                                                                                                                                  
C 9                    -49643.800        -362.529          17.000                                                                                                                                  
C10                    -51320.088        -595.973          21.000                                                                                                                                  
C14                     92916.258         380.555          17.000                                                                                                                                  
C21                    498355.185          -0.013          14.000                                                                                                                                  
C26                    413345.569        1426.322          23.000                                                                                      127592.830        1073.724          17.000  
C33                                                                                                                                                    -61582.837        -876.566           9.000  
C35                   -198706.694       -1057.600          18.000                                                                                                                                  
> 2022  1 25  4  3 52.0000000  0 21                     
G16                   -670243.143          -0.013          14.000                                                                  
G26                   -232855.697        -760.315          25.000                      -42547.358        -566.700          20.000  
G29                     71553.965         422.328          21.000                                                                  
G31                    186819.290         571.822          19.000                                                                  
G32                    600228.435          -0.011          14.000                                                                  
R 2                                                        17.000  
R 3                                                        13.000  
R12                                                        23.000  
E 2                    268249.615        1085.327          22.000                      123313.843         810.247          15.000  
E 7                   -590779.448       -2286.066           7.000                                                                  
E 8                    -84003.039        -367.762          17.000                      -45262.982        -271.252          16.000  
J 2                    291077.929         885.474          22.000                       31979.375         668.090          19.000  
C 6                    -43873.002        -173.757          23.000                                                                                                                                  
C 7                    -82479.066        -590.495          22.000                                                                                                                                  
C 9                    -51528.700        -363.102          18.000                                                                                                                                  
C10                    -54423.287        -593.995          20.000                                                                                                                                  
C14                     94891.018         378.698          18.000                                                                                                                                  
C21                    517082.665          -0.013          15.000                                                                                                                                  
C26                    420775.427        1426.483          20.000                                                                                      131807.769        1073.545          19.000  
C33                                                                                                                                                    -65025.554        -876.968           7.000  
C35                   -204215.926       -1060.397          21.000                                                                                                                                  
> 2022  1 25  4  3 53.0000000  0 22                     
G16                   -685606.126          -0.013          15.000                                                                  
G26                   -236849.371        -758.412          21.000                      -44762.205        -563.322          17.000  
G29                     73785.452         424.727          24.000                                                                  
G31                    189817.858         569.419          25.000                                                                  
G32                    610999.075          -0.011          12.000                                                                  
R 2                                                        18.000  
R 3                                                        14.000  
R12                                                        22.000  
E 2                    273944.548        1080.944          18.000                      126501.239         813.615          19.000  
E 7                   -602791.260       -2285.881           8.000                                                                  
E 8                    -85925.004        -364.134          17.000                      -46328.353        -271.531          16.000  
J 2                    295742.347         888.761          22.000                       34578.026         659.408          19.000  
C 6                    -44776.183        -172.114          19.000                                                                                                                                  
C 7                    -85554.482        -589.991          21.000                                                                                                                                  
C 9                    -53421.531        -362.699          17.000                                                                                                                                  
C10                    -57530.885        -598.116          20.000                                                                                                                                  
C14                     96860.209         378.697          17.000                                                                                                                                  
C21                    535814.333          -0.013          14.000                                                                                                                                  
C24                    -13777.508        -489.335          17.000                                                                                                                                  
C26                    428198.940        1424.794          21.000                                                                                      136022.547        1074.144          17.000  
C33                                                                                                                                                    -68470.677        -877.354           8.000  
C35                   -209735.330       -1061.208          19.000                                                                                                                                  
> 2022  1 25  4  3 54.0000000  0 22                     
G16                   -700966.187          -0.013          14.000                                                                  
G26                   -240839.414        -760.111          23.000                      -46982.424        -565.712          22.000  
G29                     76015.407         423.391          21.000                                                                  
G31                    192824.969         572.865          20.000                                                                  
G32                    621766.208          -0.011          12.000                                                                  
R 2                                                        17.000  
R 3                                                        15.000  
R12                                                        26.000  
E 2                    279625.884        1081.402          19.000                      129697.313         813.305          17.000  
E 7                   -614802.971       -2285.485           8.000                                                                  
E 8                    -87838.110        -362.545          17.000                      -47394.457        -272.459          16.000  
J 2                    300415.696         887.302          22.000                       37173.781         661.939          20.000  
C 6                    -45677.363        -174.473          21.000                                                                                                                                  
C 7                    -88634.597        -592.223          21.000                                                                                                                                  
C 9                    -55315.676        -364.959          16.000                                                                                                                                  
C10                    -60647.543        -596.522          19.000                                                                                                                                  
C14                     98834.167         379.600          17.000                                                                                                                                  
C21                    554541.114          -0.013          13.000                                                                                                                                  
C24                    -16315.007        -486.498          17.000                                                                                                                                  
C26                    435632.213        1428.475          19.000                                                                                      140234.552        1071.854          16.000  
C33                    -31374.201       -1168.456          14.000                                                                                      -71908.082        -875.260           7.000  
C35                   -215260.996       -1061.503          17.000                                                                                                                                  
> 2022  1 25  4  3 55.0000000  0 22                     
G16                   -716314.404          -0.013          15.000                                                                  
G26                   -244821.278        -757.109          24.000                      -49206.179        -563.884          22.000  
G29                     78234.238         421.274          19.000                                                                  
G31                    195836.507         573.039          22.000                                                                  
G32                    632529.063          -0.011          13.000                                                                  
R 2                                                        17.000  
R 3                                                        14.000  
R12                                                        27.000  
E 2                    285321.523        1085.609          23.000                      132887.396         813.691          17.000  
E 7                   -626813.102       -2285.542           8.000                                                                  
E 8                                                                                    -48467.794        -273.774          17.000  
J 2                    305071.248         886.037          22.000                       39768.701         657.349          20.000  
C 6                    -46584.471        -173.389          17.000                                                                                                                                  
C 7                    -91718.229        -591.012          20.000                                                                                                                                  
C 9                    -57211.444        -364.351          15.000                                                                                                                                  
C10                    -63767.535        -596.966          19.000                                                                                                                                  
C14                    100816.085         380.943          16.000                                                                                                                                  
C21                    573263.831          -0.013          13.000                                                                                                                                  
C24                    -18860.088        -488.271          18.000                                                                                                                                  
C26                    443063.937        1425.272          20.000                                                                                      144447.749        1074.482          17.000  
C33                    -37453.788       -1167.466          16.000                                                                                      -75337.953        -872.528           8.000  
C35                   -220789.598       -1060.555          21.000                                                                                                                                  
> 2022  1 25  4  3 56.0000000  0 22                     
G16                   -731664.945          -0.013          14.000                                                                  
G26                   -248801.677        -753.658          22.000                      -51422.330        -563.907          18.000  
G29                     80457.015         424.529          18.000                                                                  
G31                    198845.370         572.832          19.000                                                                  
G32                    643293.623          -0.011          13.000                                                                  
R 2                                                        20.000  
R 3                                                        14.000  
R12                                                        26.000  
E 2                    291016.784        1083.638          22.000                      136086.853         814.686          17.000  
E 7                   -638824.359       -2285.893           8.000                                                                  
E 8                    -91692.950        -367.374          18.000                      -49534.972        -270.012          18.000  
J 2                    309732.269         887.563          23.000                       42358.449         662.424          21.000  
C 6                    -47492.666        -175.417          19.000                                                                                                                                  
C 7                    -94789.052        -588.999          20.000                                                                                                                                  
C 9                    -59106.593        -364.244          17.000                                                                                                                                  
C10                    -66885.459        -598.376          20.000                                                                                                                                  
C14                    102798.954         380.783          17.000                                                                                                                                  
C21                    591990.151          -0.013          14.000                                                                                                                                  
C24                    -21396.819        -486.720          16.000                                                                                                                                  
C26                    450486.686        1425.247          20.000                                                                                      148666.527        1075.235          17.000  
C33                    -43524.430       -1164.809          16.000                                                                                      -78762.659        -871.373           9.000  
C35                   -226310.848       -1060.084          17.000                                                                                                                                  
> 2022  1 25  4  3 57.0000000  0 17                     
G16                   -747012.032          -0.013          13.000                                                                  
G26                   -252771.507        -756.065          19.000                      -53636.948        -564.164          17.000  
G29                     82696.682         428.287          19.000                                                                  
G31                    201848.856         571.348          23.000                                                                  
G32                    654053.221          -0.011          14.000                                                                  
R 2                                                        19.000  
R 3                                                        14.000  
R12                                                        21.000  
E 2                    296707.058        1087.127          18.000                      139282.300         814.639          18.000  
E 7                   -650836.952       -2285.772           8.000                                                                  
E 8                    -93621.786        -364.111          19.000                      -50591.160        -268.895          18.000  
J 2                    314394.896         885.652          23.000                       44952.676         656.304          20.000  
C 6                    -48405.027        -175.332          22.000                                                                                                                                  
C 9                    -61008.811        -365.694          17.000                                                                                                                                  
C21                    610708.653          -0.013          14.000                                                                                                                                  
C24                    -23945.564        -490.621          18.000                                                                                                                                  
C26                    457899.993        1423.478          21.000                                                                                      152887.603        1075.559          18.000  
> 2022  1 25  4  3 58.0000000  0 17                     
G16                   -762363.195          -0.013          12.000                                                                  
G26                   -256742.109        -756.640          18.000                      -55851.641        -563.425          15.000  
G29                     84933.496         425.057          17.000                                                                  
G31                    204851.642         572.079          25.000                                                                  
G32                    664809.941          -0.011          15.000                                                                  
R 2                                                        17.000  
R 3                                                        15.000  
R12                                                        25.000  
E 2                    302414.877        1085.223          21.000                      142472.587         812.288          20.000  
E 7                   -662848.926       -2285.366           7.000                                                                  
E 8                    -95531.953        -362.802          18.000                      -51649.683        -269.914          17.000  
J 2                    319042.647         884.100          22.000                       47517.336         654.654          19.000  
C 6                    -49318.314        -175.898          20.000                                                                                                                                  
C 9                    -62911.359        -365.646          17.000                                                                                                                                  
C21                    629432.958          -0.013          13.000                                                                                                                                  
C24                    -26492.769        -487.030          17.000                                                                                                                                  
C26                    465320.274          -0.009          21.000                                                                                      157123.471        1085.309          20.000  
> 2022  1 25  4  3 59.0000000  0 17                     
G16                   -777726.888          -0.013          12.000                                                                  
G26                   -260710.233        -755.152          17.000                      -58064.964        -565.321          14.000  
G29                     87172.652         426.651          17.000                                                                  
G31                    207849.240         570.608          24.000                                                                  
G32                    675568.046          -0.011          13.000                                                                  
R 2                                                        19.000  
R 3                                                        13.000  
R12                                                        25.000  
E 2                    308120.242        1084.876          23.000                      145657.047         810.456          17.000  
E 7                   -674857.627       -2285.059           7.000                                                                  
E 8                    -97436.507        -363.182          21.000                      -52710.871        -271.275          17.000  
J 2                    323690.171         884.774          22.000                       50107.145         660.793          20.000  
C 6                    -50233.618        -175.813          20.000                                                                                                                                  
C 9                    -64814.832        -365.707          17.000                                                                                                                                  
C21                    648149.950          -0.013          14.000                                                                                                                                  
C24                    -29026.610        -487.042          18.000                                                                                                                                  
C26                    472746.582        1425.154          23.000                                                                                      161376.573        1081.037          20.000  
> 2022  1 25  4  4  0.0000000  0 17                     
G16                   -793094.029          -0.013          13.000                                                                  
G26                   -264690.204        -756.951          17.000                      -60292.461        -566.760          15.000  
G29                     89410.695         426.030          19.000                                                                  
G31                    210863.510         574.175          23.000                                                                  
G32                    686323.264          -0.011          14.000                                                                  
R 2                                                        17.000  
R 3                                                        15.000  
R12                                                        24.000  
E 2                    313813.244        1084.063          23.000                      148840.705         812.147          17.000  
E 7                   -686864.803       -2284.798           8.000                                                                  
E 8                    -99337.675        -361.703          18.000                      -53773.432        -271.546          17.000  
J 2                    328343.830         886.139          20.000                       52711.609         662.617          20.000  
C 6                    -51138.000        -171.317          17.000                                                                                                                                  
C 9                    -66717.915        -365.908          16.000                                                                                                                                  
C21                    666869.063          -0.013          13.000                                                                                                                                  
C24                    -31563.740        -487.451          18.000                                                                                                                                  
C26                    480167.824        1425.178          22.000                                                                                      165613.813        1078.918          19.000  
> 2022  1 25  4  4  1.0000000  0 17                     
G16                   -808464.393          -0.013          14.000                                                                  
G26                   -268660.178        -753.651          17.000                      -62508.812        -562.795          16.000  
G29                     91648.736         424.061          17.000                                                                  
G31                    213879.364         571.918          24.000                                                                  
G32                    697083.109          -0.011          13.000                                                                  
R 2                                                        19.000  
R 3                                                        16.000  
R12                                                        22.000  
E 2                    319514.847        1084.415          23.000                      152029.833         813.300          20.000  
E 7                   -698869.964       -2284.289           9.000                                                                  
E 8                   -101236.860        -361.407          18.000                      -54843.808        -272.656          17.000  
J 2                    332997.288         885.342          22.000                       55309.738         661.402          20.000  
C 6                    -52036.907        -172.817          18.000                                                                                                                                  
C 9                    -68625.041        -366.394          16.000                                                                                                                                  
C21                    685597.933          -0.013          11.000                                                                                                                                  
C24                    -34103.031        -487.342          20.000                                                                                                                                  
C26                    487588.863        1424.005          23.000                                                                                      169842.632        1076.901          18.000  
> 2022  1 25  4  4  2.0000000  0 19                     
G16                   -823837.833          -0.013          13.000                                                                  
G26                   -272619.558        -753.573          15.000                      -64725.983        -564.087          12.000  
G29                     93881.971         425.725          18.000                                                                  
G31                    216886.301         573.647          22.000                                                                  
G32                    707854.952          -0.011          13.000                                                                  
R 2                                                        18.000  
R 3                                                        16.000  
R12                                                        21.000  
E 2                    325208.934        1082.888          19.000                      155220.772         812.964          17.000  
E 7                   -710873.958       -2284.181           8.000                                                                  
E 8                   -103137.012        -362.156          20.000                      -55918.771        -272.970          17.000  
J 2                    337652.369         885.877          20.000                       57905.523         663.276          21.000  
C 6                    -52941.461        -174.019          22.000                                                                                                                                  
C 9                    -70526.891        -364.797          18.000                                                                                                                                  
C21                    704339.658          -0.013          14.000                                                                                                                                  
C24                    -36647.684        -488.936          18.000                                                                                                                                  
C26                    495010.462        1425.835          21.000                                                                                      174060.990        1075.802          19.000  
C33                    -35556.408       -1158.941          19.000                                                                                                                                  
C35                    -25164.874       -1049.622          18.000                                                                                                                                  
> 2022  1 25  4  4  3.0000000  0 20                     
G16                   -839214.810          -0.013          13.000                                                                  
G26                   -276580.382        -755.006          18.000                      -66935.845        -563.388          13.000  
G29                     96126.360         427.892          24.000                                                                  
G31                    219925.171         576.441          21.000                                                                  
G32                    718624.125          -0.011          13.000                                                                  
R 2                                                        20.000  
R 3                                                        17.000  
R12                                                        21.000  
E 2                    330900.220        1084.182          18.000                      158413.612         813.246          17.000  
E 7                   -722877.295       -2284.235           8.000                                                                  
E 8                   -105026.866        -357.774          18.000                      -56987.331        -271.065          17.000  
J 2                    342312.041         886.711          22.000                       60504.369         662.583          19.000  
C 6                    -53854.114        -175.646          22.000                                                                                                                                  
C 9                    -72424.594        -365.371          18.000                                                                                                                                  
C10                     -6284.553        -599.450          20.000                                                                                                                                  
C21                    723076.296          -0.013          14.000                                                                                                                                  
C24                    -39196.496        -486.726          19.000                                                                                                                                  
C26                    502439.435        1426.871          20.000                                                                                      178280.928        1076.248          18.000  
C33                    -41586.646       -1154.267          19.000                                                                                                                                  
C35                    -30621.903       -1050.896          19.000                                                                                                                                  
> 2022  1 25  4  4  4.0000000  0 20                     
G16                   -854594.874          -0.013          14.000                                                                  
G26                   -280547.057        -755.214          17.000                      -69146.338        -563.245          13.000  
G29                     98379.258         430.001          19.000                                                                  
G31                    222956.717         577.792          28.000                                                                  
G32                    729387.735          -0.011          13.000                                                                  
R 1                                                        18.000  
R 2                                                        17.000  
R 3                                                        19.000  
R12                                                        23.000  
E 2                    336608.640        1086.771          22.000                      161604.588         812.591          19.000  
E 7                   -734880.179       -2284.032           8.000                                                                  
E 8                   -106915.521        -361.118          19.000                      -58049.819        -268.864          19.000  
J 2                    346975.875         887.852          23.000                       63100.811         662.138          19.000  
C 6                    -54776.022        -176.444          22.000                                                                                                                                  
C 9                    -74330.730        -366.766          17.000                                                                                                                                  
C21                    741811.076          -0.013          13.000                                                                                                                                  
C24                    -41739.345        -487.307          22.000                                                                                                                                  
C26                    509868.915        1425.601          27.000                                                                                      182501.002        1075.293          18.000  
C33                    -47593.318       -1153.415          20.000                                                                                                                                  
C35                    -36089.168       -1051.502          20.000                                                                                                                                  
> 2022  1 25  4  4  5.0000000  0 20                     
G16                   -869967.254          -0.013          12.000                                                                  
G26                   -284514.352        -754.472          14.000                      -71361.776        -563.085          14.000  
G29                    100641.405         430.162          18.000                                                                  
G31                    225992.598         576.032          24.000                                                                  
G32                    740154.307          -0.011          11.000                                                                  
R 1                                                        23.000  
R 2                                                        19.000  
R 3                                                        20.000  
R12                                                        23.000  
E 2                    342317.193        1087.888          23.000                      164807.043         816.507          18.000  
E 7                   -746881.882       -2283.526           9.000                                                                  
E 8                   -108825.334        -361.728          19.000                      -59107.199        -269.438          19.000  
J 2                    351642.373         886.958          20.000                       65695.826         662.243          21.000  
C 6                    -55690.664        -173.603          24.000                                                                                                                                  
C 9                    -76237.482        -366.633          19.000                                                                                                                                  
C21                    760554.282          -0.013          14.000                                                                                                                                  
C24                    -44277.878        -487.522          22.000                                                                                                                                  
C26                    517289.681        1426.250          23.000                                                                                      186721.525        1076.562          19.000  
C33                    -53600.958           0.000          17.000                                                                                                                                  
C35                    -41566.792       -1050.810          19.000                                                                                                                                  
> 2022  1 25  4  4  6.0000000  0 19                     
G26                   -288481.584        -754.455          15.000                                                                  
G29                    102890.192         426.569          19.000                                                                  
G31                    229014.393         575.352          28.000                                                                  
G32                    750915.978          -0.011          14.000                                                                  
R 1                                                        19.000  
R 2                                                        18.000  
R 3                                                        19.000  
R12                                                        23.000  
E 2                    348037.028        1088.716          27.000                      168004.042         813.870          17.000  
E 7                   -758881.897       -2283.319           8.000                                                                  
E 8                   -110726.330        -363.261          20.000                      -60162.941        -268.531          18.000  
J 2                    356303.003         885.951          20.000                       68291.260         659.996          20.000  
C 6                    -56594.556        -174.530          22.000                                                                                                                                  
C 9                    -78149.447        -365.735          19.000                                                                                                                                  
C21                    779301.939          -0.013          12.000                                                                                                                                  
C24                    -46817.522        -486.312          22.000                                                                                                                                  
C26                    524715.160        1425.582          22.000                                                                                      190947.622        1077.479          17.000  
C33                    -59602.390           0.000          17.000                                                                                                                                  
C35                    -47039.458       -1052.497          18.000                                                                                                                                  
> 2022  1 25  4  4  7.0000000  0 18                     
G26                   -292446.244        -754.692          13.000                                                                  
G29                    105122.835         424.841          18.000                                                                  
G31                    232033.089         572.904          24.000                                                                  
G32                    761670.364          -0.011          12.000                                                                  
R 1                                                        20.000  
R 2                                                        18.000  
R 3                                                        19.000  
R12                                                        25.000  
E 2                    353754.511        1088.058          24.000                      171198.752         813.874          22.000  
E 8                   -112623.426        -359.244          19.000                      -61217.686        -267.306          17.000  
J 2                    360953.512         885.473          21.000                       70885.066         662.470          20.000  
C 6                    -57509.049        -176.455          19.000                                                                                                                                  
C 9                    -80057.476        -367.070          18.000                                                                                                                                  
C21                    798049.221          -0.013          11.000                                                                                                                                  
C24                    -49353.614        -484.546          22.000                                                                                       -2862.835        -365.291          20.000  
C26                    532139.668        1426.457          26.000                                                                                      195179.783        1078.213          19.000  
C33                    -65607.155           0.000          17.000                                                                                                                                  
C35                    -52511.409       -1050.241          17.000                                                                                                                                  
> 2022  1 25  4  4  8.0000000  0 18                     
G26                   -296410.177        -752.828          16.000                                                                  
G29                    107363.897         429.697          18.000                                                                  
G31                    235036.380         571.954          23.000                                                                  
G32                    772423.309          -0.011          12.000                                                                  
R 1                                                        28.000  
R 2                                                        21.000  
R 3                                                        18.000  
R12                                                        22.000  
E 2                    359466.043        1087.308          20.000                      174399.792         819.151          20.000  
E 8                   -114507.135        -358.838          21.000                      -62274.230        -268.427          17.000  
J 2                    365609.971         886.461          20.000                       73491.322         662.432          18.000  
C 6                    -58419.345        -171.406          19.000                                                                                                                                  
C 9                    -81970.674        -366.404          19.000                                                                                                                                  
C21                    816790.738          -0.013          13.000                                                                                                                                  
C24                    -51873.719        -482.157          24.000                                                                                       -4291.730        -364.663          20.000  
C26                    539579.944        1430.258          26.000                                                                                      199403.420        1075.257          18.000  
C33                    -71617.829       -1152.826          17.000                                                                                      -11320.550        -873.000          17.000  
C35                    -57983.213       -1050.506          17.000                                                                                                                                  
> 2022  1 25  4  4  9.0000000  0 19                     
G26                   -300354.206        -749.521          16.000                                                                  
G29                    109619.060         428.661          22.000                                                                  
G31                    238046.941         574.663          30.000                                                                  
G32                    783168.932          -0.011          13.000                                                                  
R 1                                                        23.000  
R 2                                                        20.000  
R 3                                                        17.000  
R12                                                        25.000  
E 2                    365166.208        1085.217          17.000                      177592.429         811.073          18.000  
E 8                   -116402.367        -360.064          19.000                      -63327.160        -267.151          18.000  
J 2                    370255.000         884.448          22.000                       76088.185         662.779          20.000  
C 6                    -59327.949        -173.901          17.000                                                                                                                                  
C 7                     -4790.964        -584.517          18.000                                                                                                                                  
C 9                    -83881.612        -367.613          19.000                                                                                                                                  
C10                     -4810.829        -599.598          20.000                                                                                                                                  
C24                    -54398.505        -486.255          23.000                                                                                       -5711.949        -359.855          18.000  
C26                    547000.897        1425.674          20.000                                                                                      203617.109        1073.217          18.000  
C33                    -77633.368       -1156.016          19.000                                                                                      -14753.369        -876.460          15.000  
C35                    -63458.980       -1052.592          17.000                                                                                                                                  
> 2022  1 25  4  4 10.0000000  0 17                     
G26                   -304294.547        -749.446          17.000                                                                  
G29                    111868.106         430.034          20.000                                                                  
G31                    241043.475         569.926          24.000                                                                  
G32                    793920.174          -0.011          13.000                                                                  
R 1                                                        20.000  
R 2                                                        17.000  
R 3                                                        17.000  
R12                                                        23.000  
E 2                    370880.029        1085.133          21.000                      180773.723         810.581          18.000  
E 8                   -118293.492        -358.066          19.000                      -64381.596        -268.537          19.000  
J 2                    374900.176         883.575          20.000                       78690.636         663.027          19.000  
C 6                    -60239.251        -175.212          20.000                                                                                                                                  
C 9                    -85797.041        -367.313          20.000                                                                                                                                  
C24                    -56927.365        -487.791          23.000                                                                                       -7146.203        -366.767          20.000  
C26                    554421.702        1425.470          23.000                                                                                      207828.606        1073.708          18.000  
C33                    -83662.613       -1157.116          22.000                                                                                      -18190.705        -873.879          18.000  
C35                    -68938.706       -1052.131          17.000                                                                                                                                  
> 2022  1 25  4  4 11.0000000  0 17                     
G26                   -308229.381        -747.225          17.000                                                                  
G29                    114121.315         430.052          22.000                                                                  
G31                    244049.518         575.057          24.000                                                                  
G32                    804672.862          -0.011          12.000                                                                  
R 1                                                        19.000  
R 2                                                        17.000  
R 3                                                        16.000  
R12                                                        23.000  
E 2                    376582.183        1086.991          22.000                      183949.729         808.767          18.000  
E 8                   -120184.426        -360.446          21.000                      -65428.678        -267.455          20.000  
J 2                    379545.221         882.270          23.000                       81282.827         660.529          20.000  
C 6                    -61149.757        -176.842          21.000                                                                                                                                  
C 9                    -87715.391        -368.559          18.000                                                                                                                                  
C24                    -59470.049        -487.895          21.000                                                                                       -8588.492        -369.843          20.000  
C26                    561840.888        1425.788          25.000                                                                                                                                  
C33                    -89681.625       -1155.677          20.000                                                                                      -21619.295        -872.827          20.000  
C35                    -74418.182           0.027          18.000                                                                                                                                  
> 2022  1 25  4  4 12.0000000  0 17                     
G26                   -312158.407        -746.738          17.000                                                                  
G29                    116392.242         434.768          21.000                                                                  
G31                    247065.842         573.019          22.000                                                                  
G32                    815425.411          -0.011          13.000                                                                  
R 1                                                        19.000  
R 2                                                        15.000  
R 3                                                        18.000  
R12                                                        24.000  
E 2                    382299.630        1088.912          26.000                      187123.292         809.945          19.000  
E 8                   -122077.310        -359.074          18.000                      -66491.902        -271.511          21.000  
J 2                    384191.696         884.545          21.000                       83874.196         661.673          18.000  
C 6                    -62081.481        -179.175          19.000                                                                                                                                  
C 9                    -89626.702        -366.429          19.000                                                                                                                                  
C24                    -62000.103        -483.052          21.000                                                                                      -10028.949        -367.557          17.000  
C26                    569272.444        1427.527          28.000                                                                                                                                  
C33                    -95702.062       -1154.941          20.000                                                                                      -25032.532        -869.405          19.000  
C35                    -79915.765       -1055.699          20.000                                                                                                                                  
> 2022  1 25  4  4 13.0000000  0 18                     
G26                   -316081.146        -746.135          17.000                                                                  
G29                    118681.976         436.234          25.000                                                                  
G31                    250088.958         576.600          20.000                                                                  
G32                    826178.007          -0.011          13.000                                                                  
R 1                                                        23.000  
R 2                                                        14.000  
R 3                                                        17.000  
R12                                                        23.000  
E 2                    388024.133        1088.789          21.000                      190310.537         814.437          20.000  
E 8                   -123968.281        -359.751          18.000                      -67532.089        -263.605          19.000  
J 2                    388845.500         885.864          21.000                       86469.949         663.099          24.000  
C 6                    -63004.845        -175.818          19.000                                                                                                                                  
C 9                    -91530.218        -366.908          17.000                                                                                                                                  
C10                     -3426.336        -594.116          20.000                                                                                                                                  
C24                    -64520.929        -485.606          20.000                                                                                      -11469.220        -365.370          16.000  
C26                    576708.213        1427.290          24.000                                                                                      220475.858        1076.452          19.000  
C33                   -101719.657       -1153.674          20.000                                                                                      -28442.425        -868.164          19.000  
C35                    -85404.924       -1052.586          19.000                                                                                                                                  
> 2022  1 25  4  4 14.0000000  0 19                     
G26                   -320005.367        -746.829          15.000                                                                  
G29                    120985.444         439.511          26.000                                                                  
G31                    253121.429         578.682          20.000                                                                  
G32                    836926.345          -0.011          14.000                                                                  
R 1                                                        26.000  
R 2                                                        15.000  
R 3                                                        17.000  
R12                                                        21.000  
E 2                    393750.182        1088.364          19.000                      193505.729         815.518          21.000  
E 8                   -125854.065        -357.605          17.000                      -68586.718        -269.222          19.000  
J 2                    393493.018         885.007          21.000                       89060.985         664.595          25.000  
C 6                    -63917.040        -176.053          17.000                                                                                                                                  
C 7                     -7872.325        -590.502          20.000                                                                                                                                  
C 9                    -93444.219        -367.508          16.000                                                                                                                                  
C10                     -6536.810        -597.233          23.000                                                                                                                                  
C24                    -67046.902        -484.421          18.000                                                                                      -12901.440        -363.150          15.000  
C26                    584135.565        1427.668          25.000                                                                                      224706.530        1081.261          20.000  
C33                   -107735.358       -1155.039          18.000                                                                                      -31848.332        -867.639          22.000  
C35                    -90882.591       -1052.933          19.000                                                                                                                                  
> 2022  1 25  4  4 15.0000000  0 16                     
G26                   -323932.589        -748.829          14.000                                                                  
G29                    123298.724         439.835          25.000                                                                  
G31                    256160.881         575.981          19.000                                                                  
G32                    847678.173          -0.011          14.000                                                                  
R 1                                                        25.000  
R 2                                                        14.000  
R 3                                                        15.000  
R12                                                        24.000  
E 2                    399475.796        1089.982          19.000                      196698.103         813.154          19.000  
E 8                   -127736.637        -357.661          18.000                      -69652.657        -269.754          17.000  
J 2                    398139.924         884.011          22.000                       91649.525         659.564          19.000  
C 6                    -64835.048        -175.573          16.000                                                                                                                                  
C24                    -69566.819        -482.030          17.000                                                                                      -14329.765        -364.109          14.000  
C26                    591580.121        1429.291          19.000                                                                                      228957.680        1083.739          17.000  
C33                   -113751.589           0.000          20.000                                                                                      -35257.435        -870.820          20.000  
C35                    -96365.165           0.027          19.000                                                                                                                                  
> 2022  1 25  4  4 16.0000000  0 16                     
G26                   -327870.255        -749.065          15.000                                                                  
G29                    125617.074         436.866          23.000                                                                  
G31                    259193.167         577.707          21.000                                                                  
G32                    858434.326          -0.011          13.000                                                                  
R 1                                                        25.000  
R 2                                                        14.000  
R 3                                                        17.000  
R12                                                        19.000  
E 2                    405204.156        1090.154          18.000                      199893.302         819.013          20.000  
E 8                   -129625.751        -357.650          18.000                      -70708.330        -267.666          19.000  
J 2                    402785.883         885.093          22.000                       94254.533         666.205          20.000  
C 6                    -65749.876        -176.256          17.000                                                                                                                                  
C24                    -72080.258        -482.407          20.000                                                                                      -15768.476        -366.785          14.000  
C26                    599025.179        1429.622          23.000                                                                                      233207.741        1081.291          19.000  
C33                   -119755.244       -1151.076          20.000                                                                                      -38675.004        -863.708          22.000  
C35                   -101846.150           0.027          20.000                                                                                                                                  
> 2022  1 25  4  4 17.0000000  0 15                     
G26                   -331796.828           0.002          16.000                                                                  
G29                    127914.146         435.655          25.000                                                                  
G31                    262230.229         580.089          20.000                                                                  
G32                    869195.357          -0.011          14.000                                                                  
R 1                                                        27.000  
R 2                                                        14.000  
R 3                                                        18.000  
R12                                                        20.000  
E 2                    410932.106        1089.940          18.000                      203102.475         816.377          19.000  
E 8                   -131506.858        -361.185          18.000                      -71763.685        -265.739          18.000  
J 2                    407440.947         885.852          20.000                       96844.384         658.847          19.000  
C24                    -74590.365        -481.982          17.000                                                                                      -17205.151        -366.504          12.000  
C26                    606466.783        1428.151          22.000                                                                                      237447.657        1079.845          20.000  
C33                   -125749.534           0.000          22.000                                                                                      -42073.103        -867.064          19.000  
C35                   -107330.507           0.027          17.000                                                                                                                                  
> 2022  1 25  4  4 18.0000000  0 15                     
G26                   -335712.831           0.002          15.000                                                                  
G29                    130209.668         435.130          20.000                                                                  
G31                    265270.467         577.960          19.000                                                                  
G32                    879963.281          -0.011          16.000                                                                  
R 1                                                        26.000  
R 2                                                        15.000  
R 3                                                        18.000  
R12                                                        18.000  
E 2                    416655.226        1089.193          19.000                      206301.232         816.160          19.000  
E 8                   -133406.343        -363.341          18.000                      -72808.258        -265.727          17.000  
J 2                    412094.179         884.045          20.000                       99435.323         660.883          19.000  
C24                    -77101.441        -483.852          18.000                                                                                      -18647.099        -368.362          13.000  
C26                    613902.109        1426.272          19.000                                                                                      241684.452        1077.384          19.000  
C33                   -131739.274       -1151.072          18.000                                                                                      -45472.672        -864.769          17.000  
C35                   -112811.477           0.027          17.000                                                                                                                                  
> 2022  1 25  4  4 19.0000000  0 18                     
G16                     -6944.060       -2928.464          17.000                                                                  
G26                   -339622.617           0.002          16.000                                                                  
G29                    132513.169         438.707          24.000                                                                  
G31                    268307.382         577.797          19.000                                                                  
G32                    890728.643          -0.011          14.000                                                                  
R 1                                                        28.000  
R 2                                                        13.000  
R 3                                                        18.000  
R12                                                        21.000  
E 2                    422384.095        1088.594          18.000                      209498.079         815.289          18.000  
E 8                   -135326.142        -366.101          16.000                      -73849.905        -264.165          13.000  
J 2                    416744.117         884.733          23.000                      102026.087         662.341          21.000  
C 6                     -2416.700        -179.152          18.000                                                                                                                                  
C 9                     -4918.256        -366.518          17.000                                                                                                                                  
C24                    -79621.424        -482.462          17.000                                                                                                                                  
C26                    621341.844        1430.803          23.000                                                                                      245912.182        1080.824          20.000  
C33                   -137739.396       -1153.571          17.000                                                                                      -48874.608        -867.082          14.000  
C35                   -118292.508           0.027          17.000                                                                                                                                  
> 2022  1 25  4  4 20.0000000  0 20                     
G16                    -22336.869       -2928.564          20.000                                                                  
G26                   -343537.014           0.002          15.000                                                                  
G29                    134823.807         439.306          27.000                                                                  
G31                    271343.791         576.652          20.000                                                                  
G32                    901485.920          -0.011          14.000                                                                  
R 1                                                        27.000  
R 2                                                        14.000  
R 3                                                        22.000  
R12                                                        20.000  
E 2                    428113.289        1091.377          20.000                      212692.173         813.162          19.000  
E 8                   -137252.926        -363.836          13.000                      -74882.453        -262.268          12.000  
J 2                    421396.206         884.714          23.000                      104620.174         658.643          23.000  
C 6                     -3346.272        -177.645          19.000                                                                                                                                  
C 7                    -10966.714        -588.537          18.000                                                                                                                                  
C 9                     -6819.968        -363.988          17.000                                                                                                                                  
C10                     -6712.769        -594.185          20.000                                                                                                                                  
C24                    -82129.879        -481.553          17.000                                                                                                                                  
C26                    628799.658        1432.496          19.000                                                                                      250142.635        1075.203          20.000  
C33                   -143732.313           0.000          19.000                                                                                      -52278.804        -867.589          16.000  
C35                   -123770.087           0.027          16.000                                                                                                                                  
> 2022  1 25  4  4 21.0000000  0 18                     
G16                    -37719.024       -2925.907          20.000                                                                  
G26                   -347440.873           0.002          16.000                                                                  
G29                    137155.948         444.056          24.000                                                                  
G31                    274385.860         580.274          20.000                                                                  
G32                    912249.641          -0.011          15.000                                                                  
R 1                                                        25.000  
R 2                                                        13.000  
R 3                                                        20.000  
R12                                                        21.000  
E 2                    433852.749        1092.264          17.000                      215883.729         813.388          18.000  
E 8                   -139149.868        -360.274          12.000                      -75909.496        -260.507          14.000  
J 2                    426049.006         884.610          24.000                      107233.049         665.834          23.000  
C 6                     -4265.457        -174.899          17.000                                                                                                                                  
C 9                     -8720.989        -366.086          22.000                                                                                                                                  
C24                    -84632.918        -479.825          19.000                                                                                                                                  
C26                    636254.400        1428.751          20.000                                                                                      254358.442        1072.209          21.000  
C33                   -149717.953           0.000          17.000                                                                                      -55678.445        -864.267          14.000  
C35                   -129258.075           0.027          17.000                                                                                                                                  
> 2022  1 25  4  4 22.0000000  0 17                     
G16                    -53104.248       -2927.454          22.000                                                                  
G26                   -351340.120        -742.874          14.000                                                                  
G29                    139490.184         442.728          26.000                                                                  
G31                    277426.347         578.006          21.000                                                                  
G32                    923007.221          -0.011          15.000                                                                  
R 1                                                        28.000  
R 2                                                        15.000  
R 3                                                        17.000  
R12                                                        19.000  
E 2                    439585.494        1088.728          17.000                      219079.862         816.439          20.000  
E 8                   -141039.110        -359.364          12.000                      -76935.201        -261.733          14.000  
J 2                    430692.108         882.766          19.000                      109834.393         663.066          22.000  
C 6                     -5185.668        -177.670          19.000                                                                                                                                  
C 9                    -10641.610        -369.572          17.000                                                                                                                                  
C24                    -87127.403        -480.364          18.000                                                                                                                                  
C26                    643699.272        1429.997          20.000                                                                                      258557.099        1072.097          19.000  
C33                   -155692.896           0.000          14.000                                                                                      -59068.625        -862.287          12.000  
> 2022  1 25  4  4 23.0000000  0 17                     
G16                    -68485.982       -2925.781          20.000                                                                  
G26                   -355238.077        -741.377          16.000                                                                  
G29                    141824.152         444.063          28.000                                                                  
G31                    280464.781         578.153          20.000                                                                  
G32                    933772.262        2048.774          15.000                                                                  
R 1                                                        29.000  
R 2                                                        16.000  
R 3                                                        17.000  
R12                                                        19.000  
E 2                    445309.644        1088.821          18.000                      222280.473         816.474          19.000  
E 8                   -142924.213        -358.612          11.000                      -77967.066        -265.217          11.000  
J 2                    435331.442         883.245          20.000                      112428.391         661.152          24.000  
C 6                     -6112.701        -177.315          20.000                                                                                                                                  
C 9                    -12564.844        -368.331          17.000                                                                                                                                  
C24                    -89626.862        -480.518          17.000                                                                                                                                  
C26                    651157.135        1433.854          20.000                                                                                      262770.939        1075.308          19.000  
C33                   -161655.624           0.000          17.000                                                                                      -62461.889        -864.824          12.000  
> 2022  1 25  4  4 24.0000000  0 20                     
G16                    -83860.847       -2926.684          20.000                                                                  
G26                   -359136.823        -741.554          16.000                                                                  
G29                    144159.609         444.796          25.000                                                                  
G31                    283504.618         579.567          18.000                                                                  
G32                    944535.437        2048.378          15.000                                                                  
R 1                                                        30.000  
R 2                                                        15.000  
R 3                                                        19.000  
R12                                                        20.000  
E 2                    451036.142        1091.943          23.000                      225472.058         815.173          19.000  
E 7                    -83038.066       -2289.121          15.000                                                                  
E 8                   -144804.294        -356.767          12.000                      -78998.481        -261.505          12.000  
J 2                    439977.445         885.156          21.000                      115022.165         662.138          25.000  
C 6                     -7023.319        -175.534          17.000                                                                                                                                  
C 7                     -4860.658        -591.255          19.000                                                                                                                                  
C 9                    -14485.945        -370.490          15.000                                                                                                                                  
C14                      3344.215         397.048          16.000                                                                                                                                  
C24                    -92135.025        -482.296          17.000                                                                                                                                  
C26                    658615.808        1429.729          21.000                                                                                      266992.530        1076.212          20.000  
C33                   -167611.525           0.000          17.000                                                                                                                                  
> 2022  1 25  4  4 25.0000000  0 17                     
G16                    -99237.016       -2925.854          19.000                                                                  
G26                   -363029.055        -741.349          17.000                                                                  
G29                    146505.020         445.750          29.000                                                                  
G31                    286543.156         576.502          17.000                                                                  
G32                    955304.126        2051.334          16.000                                                                  
R 1                                                        30.000  
R 2                                                        15.000  
R 3                                                        17.000  
R12                                                        19.000  
E 2                    456773.167        1090.012          20.000                      228672.730         816.564          22.000  
E 7                    -95065.008       -2287.992          14.000                                                                  
E 8                   -146678.814        -356.560          10.000                      -80016.514        -258.135          13.000  
J 2                    444626.627         884.723          23.000                      117616.748         660.841          20.000  
C 6                     -7938.687        -176.306          14.000                                                                                                                                  
C24                    -94638.971        -479.546          19.000                                                                                                                                  
C26                    666057.108        1429.433          20.000                                                                                      271227.920        1080.729          19.000  
C33                   -173567.143           0.000          15.000                                                                                                                                  
> 2022  1 25  4  4 26.0000000  0 17                     
G16                   -114616.818       -2926.243          19.000                                                                  
G26                   -366926.809        -740.455          17.000                                                                  
G29                    148850.291         443.997          25.000                                                                  
G31                    289581.077         578.037          20.000                                                                  
G32                    966078.200        2050.443          14.000                                                                  
R 1                                                        26.000  
R 2                                                        14.000  
R 3                                                        19.000  
R12                                                        18.000  
E 2                    462507.970        1090.725          18.000                      231879.542         816.593          18.000  
E 7                   -107090.463       -2289.005          13.000                                                                  
E 8                   -148553.675        -356.477           8.000                      -81039.477        -259.940          15.000  
J 2                    449275.057         883.247          20.000                      120206.434         660.349          23.000  
C 6                     -8862.050        -178.032          12.000                                                                                                                                  
C24                    -97136.674        -479.632          18.000                                                                                                                                  
C26                    673503.198        1429.593          22.000                                                                                      275476.374        1083.812          21.000  
C33                   -179528.531           0.000          17.000                                                                                                                                  
> 2022  1 25  4  4 27.0000000  0 17                     
G16                   -129987.766       -2925.228          18.000                                                                  
G26                   -370814.369        -739.238          16.000                                                                  
G29                    151182.405         444.156          25.000                                                                  
G31                    292613.252         575.255          19.000                                                                  
G32                    976858.930        2052.505          15.000                                                                  
R 1                                                        28.000  
R 2                                                        12.000  
R 3                                                        17.000  
R12                                                        17.000  
E 2                    468240.064        1091.660          18.000                      235076.564         815.452          17.000  
E 7                   -119120.247       -2289.243          12.000                                                                  
E 8                   -150425.196        -355.900           7.000                      -82065.181        -260.653          13.000  
J 2                    453922.871         886.740          23.000                      122799.256         658.072          23.000  
C 6                     -9782.426        -176.718          13.000                                                                                                                                  
C24                    -99631.183        -478.483          17.000                                                                                                                                  
C26                    680949.217        1429.409          20.000                                                                                      279727.770        1085.057          20.000  
C33                   -185490.836       -1143.960          16.000                                                                                                                                  
> 2022  1 25  4  4 28.0000000  0 19                     
G16                   -145368.948       -2926.503          17.000                                                                  
G26                   -374697.372        -738.144          16.000                                                                  
G29                    153521.445         445.662          25.000                                                                  
G31                    295642.254         576.971          19.000                                                                  
G32                    987650.718          -0.011          15.000                                                                  
R 1                                                        28.000  
R 2                                                        13.000  
R 3                                                        18.000  
R12                                                        17.000  
E 2                    473981.277        1093.723          17.000                      238279.080         818.489          14.000  
E 7                   -131152.159       -2289.882          12.000                                                                  
E 8                   -152292.460        -354.997           8.000                      -83091.388        -260.815          15.000  
J 2                    458574.958         884.211          24.000                      125389.501         660.593          22.000  
C 6                    -10689.186        -172.304          12.000                                                                                                                                  
C 7                     -4412.681        -585.469          19.000                                                                                                                                  
C10                     -4498.201        -596.125          18.000                                                                                                                                  
C24                   -102121.478        -476.902          17.000                                                                                                                                  
C26                    688391.240        1427.816          21.000                                                                                      283977.471        1083.304          19.000  
C33                   -191453.172       -1145.632          15.000                                                                                                                                  
> 2022  1 25  4  4 29.0000000  0 18                     
G16                   -160746.393       -2924.816          16.000                                                                  
G26                   -378578.707        -738.430          16.000                                                                  
G29                    155868.168         445.130          26.000                                                                  
G31                    298674.552         575.911          18.000                                                                  
G32                    998448.205          -0.011          15.000                                                                  
R 1                                                        25.000  
R 2                                                        15.000  
R 3                                                        22.000  
R12                                                        18.000  
E 2                    479727.918        1093.639          14.000                      241493.748         816.496          17.000  
E 7                   -143183.974       -2290.242          12.000                                                                  
E 8                   -154156.231        -354.446          11.000                      -84114.240        -260.770          17.000  
J 2                    463219.499         882.855          21.000                      127990.364         659.185          24.000  
C 6                    -11583.122           0.099          14.000                                                                                                                                  
C24                   -104614.571        -478.802          19.000                                                                                                                                  
C26                    695832.127        1427.448          24.000                                                                                      288204.643        1077.808          21.000  
C33                   -197434.316       -1150.363          14.000                                                                                                                                  
C35                    -19519.383       -1051.224          22.000                                                                                                                                  
> 2022  1 25  4  4 30.0000000  0 18                     
G16                   -176121.358       -2925.776          17.000                                                                  
G26                   -382460.458        -737.758          20.000                       -5729.218        -555.232          19.000  
G29                    158206.098         442.728          25.000                                                                  
G31                    301697.383         573.100          17.000                                                                  
G32                   1009246.785        2054.513          17.000                                                                  
R 1                                                        26.000  
R 2                                                        16.000  
R 3                                                        18.000  
R12                                                        17.000  
E 2                    485467.502        1093.804          15.000                      244703.463         817.331          17.000  
E 7                   -155222.207       -2290.824          10.000                                                                  
E 8                   -156015.923        -353.556          12.000                      -85135.775        -258.853          15.000  
J 2                    467860.805         882.318          23.000                      130583.457         659.053          24.000  
C 6                    -12483.630           0.099          16.000                                                                                                                                  
C24                   -107113.167        -480.417          17.000                                                                                                                                  
C26                    703260.573        1427.812          23.000                                                                                      292451.259        1081.346          19.000  
C33                   -203420.781       -1148.557          14.000                                                                                                                                  
C35                    -24990.699       -1050.564          19.000                                                                                                                                  
> 2022  1 25  4  4 31.0000000  0 19                     
G16                   -191496.027       -2924.699          15.000                                                                  
G26                   -386338.135        -737.372          19.000                       -7906.912        -554.781          19.000  
G29                    160542.468         446.599          28.000                                                                  
G31                    304708.654         572.718          16.000                                                                  
G32                   1020044.416        2056.118          17.000                                                                  
R 1                                                        24.000  
R 2                                                        17.000  
R 3                                                        18.000  
R12                                                        15.000  
E 2                    491218.580        1094.427          12.000                      247911.506         816.906          17.000  
E 7                   -167254.166       -2288.614          13.000                                                                  
E 8                   -157871.094        -352.774          10.000                      -86154.108        -260.267          15.000  
E25                     96256.903        2647.218          12.000                                                                  
J 2                    472501.945         883.842          23.000                      133168.028         656.702          22.000  
C 6                    -13372.383           0.099          14.000                                                                                                                                  
C24                   -109619.690        -482.634          16.000                                                                                                                                  
C26                    710698.605        1428.845          20.000                                                                                      296687.087        1077.359          19.000  
C33                   -209394.244       -1146.822          17.000                                                                                                                                  
C35                    -30449.738       -1051.120          18.000                                                                                                                                  
> 2022  1 25  4  4 32.0000000  0 21                     
G16                   -206861.736       -2922.422          16.000                                                                  
G26                   -390211.745        -736.533          18.000                      -10071.415        -550.240          21.000  
G29                    162901.059         449.546          28.000                                                                  
G31                    307724.372          -0.004          14.000                                                                  
G32                   1030856.837        2058.217          17.000                                                                  
R 1                                                        25.000  
R 2                                                        14.000  
R 3                                                        18.000  
R12                                                        14.000  
E 2                    496966.330        1093.362          13.000                      251118.546         815.190          17.000  
E 7                   -179277.617       -2287.132          11.000                                                                  
E 8                   -159720.460        -351.434          10.000                      -87174.605        -261.363          17.000  
E25                    110167.746        2646.948          11.000                                                                  
E30                    -11149.732       -1185.759          18.000                                                                  
J 2                    477138.137         880.728          22.000                      135761.552         660.024          23.000  
C 6                    -14261.147           0.099          13.000                                                                                                                                  
C21                     48431.300        3577.236          15.000                                                                                                                                  
C24                   -112129.801        -480.907          19.000                                                                                                                                  
C26                    718139.727        1429.205          23.000                                                                                      300934.622        1079.787          21.000  
C33                   -215373.739           0.000          17.000                                                                                                                                  
C35                    -35926.425           0.027          17.000                                                                                                                                  
> 2022  1 25  4  4 33.0000000  0 21                     
G16                   -222217.557       -2922.227          13.000                                                                  
G26                   -394089.483           0.002          18.000                      -12236.156        -551.878          20.000  
G29                    165266.943         449.699          23.000                                                                  
G31                    310737.687          -0.004          16.000                                                                  
G32                   1041664.247        2055.853          17.000                                                                  
R 1                                                        26.000  
R 2                                                        15.000  
R 3                                                        18.000  
R12                                                        12.000  
E 2                    502714.815        1093.662          11.000                      254311.374         814.501          16.000  
E 7                   -191294.540       -2286.553          10.000                                                                  
E 8                   -161566.501        -350.941          10.000                      -88200.761        -261.876          17.000  
E25                    124077.572        2646.947          11.000                                                                  
E30                    -17371.345       -1183.320          17.000                                                                  
J 2                    481771.577         882.480          23.000                      138357.732         658.881          23.000  
C 6                    -15153.779           0.099          13.000                                                                                                                                  
C21                     67063.816        3581.701          15.000                                                                                                                                  
C24                   -114628.804        -478.268          20.000                                                                                                                                  
C26                    725586.089        1429.407          22.000                                                                                      305169.647        1078.129          20.000  
C33                   -221342.370           0.000          19.000                                                                                                                                  
C35                    -41381.717           0.027          16.000                                                                                                                                  
> 2022  1 25  4  4 34.0000000  0 20                     
G16                   -237569.645       -2921.110          16.000                                                                  
G26                   -397965.180        -738.375          18.000                      -14387.578        -548.626          18.000  
G29                    167632.723         450.898          25.000                                                                  
G31                    313751.362          -0.004          16.000                                                                  
G32                   1052472.772        2056.734          20.000                                                                  
R 1                                                        27.000  
R 2                                                        14.000  
R 3                                                        20.000  
R12                                                        15.000  
E 2                    508462.544        1093.047          10.000                      257515.893         815.545          14.000  
E 7                   -203312.020       -2286.250          11.000                                                                  
E 8                   -163407.031        -349.594          10.000                      -89229.752        -263.973          14.000  
E25                    137983.128        2645.214          10.000                                                                  
E30                    -23596.227       -1185.662          16.000                                                                  
J 2                    486410.917         881.870          21.000                      140950.614         660.432          20.000  
C 6                    -16041.576           0.099          12.000                                                                                                                                  
C24                   -117126.965        -481.606          16.000                                                                                                                                  
C26                    733029.717        1429.429          20.000                                                                                      309411.994        1081.335          19.000  
C33                   -227306.478           0.000          16.000                                                                                                                                  
C35                    -46838.168           0.027          17.000                                                                                                                                  
> 2022  1 25  4  4 35.0000000  0 20                     
G16                   -252916.309          -0.013          16.000                                                                  
G26                   -401844.862        -736.950          19.000                      -16534.594        -546.843          17.000  
G29                    169996.995         448.796          26.000                                                                  
G31                    316767.648         574.424          16.000                                                                  
G32                   1063286.696        2059.677          19.000                                                                  
R 1                                                        26.000  
R 2                                                        14.000  
R 3                                                        19.000  
R12                                                        17.000  
E 2                    514205.946        1093.081           8.000                      260716.454         814.520          13.000  
E 7                   -215323.350       -2285.344          10.000                                                                  
E 8                   -165242.139        -348.917          10.000                      -90259.669        -263.311          14.000  
E25                    151883.621        2645.262           9.000                                                                  
E30                    -29820.069       -1185.149          18.000                       -5607.509        -885.522          17.000  
J 2                    491056.264         885.171          24.000                      143543.997         658.553          24.000  
C 6                    -16937.673           0.099          10.000                                                                                                                                  
C24                   -119631.882        -480.026          16.000                                                                                                                                  
C26                    740465.966        1427.265          23.000                                                                                      313665.127        1083.204          19.000  
C33                   -233262.994           0.000          16.000                                                                                                                                  
C35                    -52287.447       -1047.644          16.000                                                                                                                                  
> 2022  1 25  4  4 36.0000000  0 21                     
G16                   -268264.527          -0.013          17.000                                                                  
G26                   -405715.678        -734.872          20.000                      -18679.525        -546.159          20.000  
G29                    172353.979         447.596          29.000                                                                  
G31                    319784.971         573.836          12.000                                                                  
G32                   1074122.668        2063.450          23.000                                                                  
R 1                                                        27.000  
R 2                                                        14.000  
R 3                                                        20.000  
R12                                                        17.000  
E 2                    519947.458        1092.577           9.000                      263917.025         816.186          12.000  
E 7                   -227331.344       -2284.858          10.000                                                                  
E 8                   -167074.712        -348.723          10.000                      -91283.723        -260.390          15.000  
E25                    165784.622        2645.314           8.000                                                                  
E30                    -36038.039       -1182.820          18.000                       -9079.242        -884.029          16.000  
J 2                    495712.118         885.069          20.000                      146129.009         660.094          20.000  
C 6                    -17829.436           0.099          13.000                                                                                                                                  
C21                    123105.961        3592.461          16.000                                                                                                                                  
C24                   -122136.967        -482.812          17.000                                                                                                                                  
C26                    747906.655        1428.450          20.000                                                                                      317906.330        1077.010          19.000  
C33                   -239217.842       -1143.250          15.000                                                                                                                                  
C35                    -57736.159       -1045.634          16.000                                                                                                                                  
> 2022  1 25  4  4 37.0000000  0 21                     
G16                   -283610.228       -2918.893          15.000                                                                  
G26                   -409579.949        -735.049          21.000                      -20829.540        -551.041          20.000  
G29                    174724.509         451.171          24.000                                                                  
G31                    322798.333          -0.004          16.000                                                                  
G32                   1084963.652        2061.596          23.000                                                                  
R 1                                                        28.000  
R 2                                                        16.000  
R 3                                                        19.000  
R12                                                        13.000  
E 2                    525690.051        1092.692           9.000                      267120.967         815.920          13.000  
E 7                   -239339.224       -2284.901          10.000                                                                  
E 8                   -168905.431        -347.936           9.000                      -92298.520        -258.229          14.000  
E25                    179683.937        2644.544           8.000                                                                  
E30                    -42251.185       -1183.712          18.000                      -12548.252        -884.777          17.000  
J 2                                                                                    148721.411         658.361          26.000  
C 6                    -18735.669           0.099          15.000                                                                                                                                  
C21                    141792.636        3588.887          16.000                                                                                                                                  
C24                   -124647.313        -480.929          16.000                                                                                                                                  
C26                    755344.572        1427.650          20.000                                                                                      322130.631        1075.385          20.000  
C33                   -245164.939       -1141.259          17.000                                                                                                                                  
C35                    -63176.636       -1042.953          16.000                                                                                                                                  
> 2022  1 25  4  4 38.0000000  0 21                     
G16                   -298957.336       -2920.065          16.000                                                                  
G26                   -413434.745        -733.425          18.000                      -22987.179        -548.742          22.000  
G29                    177104.545         452.677          25.000                                                                  
G31                    325817.703          -0.004          15.000                                                                  
G32                   1095805.403        2061.780          27.000                                                                  
R 1                                                        28.000  
R 2                                                        16.000  
R 3                                                        20.000  
R12                                                        14.000  
E 2                    531431.231        1092.681           9.000                      270327.168         816.516          14.000  
E 7                   -251347.287       -2284.739           9.000                                                                  
E 8                   -170735.012        -348.084          11.000                      -93318.886        -259.294          13.000  
E25                    193580.353        2644.168           8.000                                                                  
E30                    -48481.641       -1187.235          16.000                      -16015.156        -882.934          16.000  
J 2                                                                                    151289.405         657.634          23.000  
C 6                    -19655.862           0.099          14.000                                                                                                                                  
C21                    160479.073        3587.244          16.000                                                                                                                                  
C24                   -127141.849        -478.957          17.000                                                                                                                                  
C26                    762783.906        1427.762          19.000                                                                                      326359.886        1076.711          20.000  
C33                   -251106.728       -1140.678          15.000                                                                                                                                  
C35                    -68604.852       -1041.756          15.000                                                                                                                                  
> 2022  1 25  4  4 39.0000000  0 21                     
G16                   -314304.807       -2920.659          15.000                                                                  
G26                   -417302.940        -736.587          17.000                                                                  
G29                    179485.252         453.142          25.000                                                                  
G31                    328836.739          -0.004          15.000                                                                  
G32                   1106650.600        2066.373          35.000                                                                  
R 1                                                        26.000  
R 2                                                        14.000  
R 3                                                        19.000  
R12                                                        16.000  
E 2                    537173.064        1092.341           8.000                      273532.396         815.639          13.000  
E 7                   -263353.197       -2284.774           7.000                                                                  
E 8                   -172564.445        -347.988          10.000                      -94339.380        -260.959          13.000  
E25                    207474.827        2644.099          10.000                                                                  
E30                    -54707.949       -1182.414          18.000                      -19479.085        -882.617          15.000  
J 2                                                                                    153873.321         658.061          20.000  
C 6                    -20567.414           0.099          12.000                                                                                                                                  
C21                    179167.799        3588.320          17.000                                                                                                                                  
C24                   -129642.017        -480.519          17.000                                                                                                                                  
C26                    770221.699        1426.812          23.000                                                                                      330603.059        1081.290          19.000  
C33                   -257042.721       -1140.079          15.000                                                                                                                                  
C35                    -74027.661       -1041.126          16.000                                                                                                                                  
> 2022  1 25  4  4 40.0000000  0 22                     
G16                   -329654.034          -0.013          14.000                                                                  
G26                   -421165.241        -732.874          19.000                      -27290.536        -547.951          20.000  
G29                    181880.285         453.984          29.000                                                                  
G31                    331857.245          -0.004          17.000                                                                  
G32                   1117488.209        2061.340          26.000                                                                  
R 1                                                        25.000  
R 2                                                        13.000  
R 3                                                        24.000  
R12                                                        13.000  
E 2                    542911.960        1092.017           8.000                      276733.361         816.848          11.000  
E 7                   -275360.981       -2285.242           9.000                                                                  
E 8                   -174391.195        -347.186          10.000                      -95359.328        -259.437          13.000  
E25                    221368.516        2643.995          10.000                                                                  
E30                    -60909.898       -1181.464          20.000                      -22940.052        -882.644          16.000  
J 1                       168.795          -5.043          23.000                                                                  
J 2                    514287.280         882.052          23.000                      156459.587         657.688          22.000  
C 6                    -21482.101           0.099          10.000                                                                                                                                  
C21                    197855.124        3589.880          19.000                                                                                                                                  
C24                   -132139.933        -479.765          19.000                                                                                                                                  
C26                    777658.141        1428.786          23.000                                                                                      334851.223        1080.858          20.000  
C33                   -262971.972       -1137.278          17.000                                                                                                                                  
C35                    -79460.565       -1044.147          16.000                                                                                                                                  
> 2022  1 25  4  4 41.0000000  0 22                     
G16                   -345008.280          -0.013          16.000                                                                  
G26                   -425009.891        -731.782          21.000                      -29443.510        -548.897          22.000  
G29                    184299.731         460.337          23.000                                                                  
G31                    334879.094         574.987          17.000                                                                  
G32                   1128341.277        2066.574          24.000                       11274.185        1552.380          18.000  
R 1                                                        26.000  
R 2                                                        14.000  
R 3                                                        19.000  
R12                                                        15.000  
E 2                    548650.579        1092.255          10.000                      279939.483         816.404          12.000  
E 7                   -287368.986       -2284.637           8.000                                                                  
E 8                   -176214.657        -347.021           9.000                      -96374.823        -259.307          13.000  
E25                    235263.522        2644.160           9.000                                                                  
E30                    -67111.452       -1177.365          17.000                      -26403.199        -882.113          17.000  
J 1                       140.936          -3.079          24.000                                                                  
J 2                    518927.878         883.529          24.000                      159048.819         657.387          21.000  
C 6                    -22381.913           0.099          14.000                                                                                                                                  
C21                    216536.932        3587.004          18.000                                                                                                                                  
C24                   -134639.836        -480.895          19.000                                                                                                                                  
C26                    785107.033        1432.720          19.000                                                                                      339082.671        1076.111          20.000  
C33                   -268901.523       -1138.747          17.000                                                                                                                                  
C35                    -84894.817       -1043.942          16.000                                                                                                                                  
