     3.03           OBSERVATION DATA    M: Mixed            RINEX VERSION / TYPE
RTKCONV 2.4.3 b34                       20211107 100232 UTC PGM / RUN BY / DATE 
format: RINEX                                               COMMENT             
log: E:\Dropbox\211106_campus_RUNING\right_hw\0geo++\best\GACOMMENT             
                                                            MARKER NAME         
                                                            MARKER NUMBER       
                                                            MARKER TYPE         
                                                            OBSERVER / AGENCY   
                                                            REC # / TYPE / VERS 
                                                            ANT # / TYPE        
        0.0000        0.0000        0.0000                  APPROX POSITION XYZ 
        0.0000        0.0000        0.0000                  ANTENNA: DELTA H/E/N
G    8 C1C L1C D1C S1C C5Q L5Q D5Q S5Q                      SYS / # / OBS TYPES 
C    4 C2I L2I D2I S2I                                      SYS / # / OBS TYPES 
  2021    11    06    07    26   43.9999706     GPS         TIME OF FIRST OBS   
  2021    11    06    07    47   28.9993692     GPS         TIME OF LAST OBS    
G L1C                                                       SYS / PHASE SHIFT   
G L5Q  0.00000                                              SYS / PHASE SHIFT   
C L2I                                                       SYS / PHASE SHIFT   
  0                                                         GLONASS SLOT / FRQ #
                                                            GLONASS COD/PHS/BIS 
                                                            END OF HEADER       
> 2021 11 06 07 26 43.9999706  0  7                     
C10  38598949.903   200994894.1601        632.999          29.000  
C23  22417178.910   116732140.1601      -2151.122          32.000  
C32  22209227.871   115649278.1511        679.114          33.000  
C37  22637926.590   117881631.3661        512.976          35.000  
G10  20442814.734   107427715.8861      -2013.542          39.000                                                                  
G26  23065376.372   121209358.4101       2938.746          19.000                                                                  
G31  21196113.736   111386342.3171         91.193          34.000                                                                  
> 2021 11 06 07 26 44.9999700  0  9                     
C10  38598648.911   200993324.509         632.717          29.000  
C23  22417418.744   116733354.363       -2150.282          32.000  
C32  22208916.387                         678.803          34.000  
C37  22637648.382                         512.905          35.000  
G10  20443018.593   107428784.531       -2015.146          39.000                                                                  
G23  22431255.365   117877042.3391      -3846.538          23.000                                                                  
G26  23064634.086   121205474.124        2939.080          19.000                                                                  
G31  21195917.372                          90.474          34.000                                                                  
G32  21333447.462   112108015.9151        503.275          29.000                                                                  
> 2021 11 06 07 26 45.9999698  0  9                     
C10  38598468.137   200992380.067         631.847          29.000  
C23  22417769.501                       -2150.057          32.000  
C32  22208727.518                         678.566          34.000  
C37  22637489.792   117879349.8011        512.536          35.000  
G10  20443342.369   107430484.221       -2015.952          39.000                                                                  
G23  22431926.900   117880573.251       -3846.166          23.000                                                                  
G26  23064015.015   121202219.807        2938.654          20.000                                                                  
G31  21195843.023                          90.098          34.000                                                                  
G32  21333293.668   112107197.485         503.405          30.000                                                                  
> 2021 11 06 07 26 46.9999693  0  8                     
C10  38598198.024   200990968.894         629.455          29.000  
C23  22418036.316   116736580.1071      -2151.732          32.000  
C32  22208448.711   115645206.0791        676.671          34.000  
C37  22637241.564   117878057.139         512.246          35.000  
G10  20443575.307   107431712.194       -2016.736          39.000                                                                  
G23  22432508.198   117883632.385       -3848.035          22.000                                                                  
G31  21195673.041   111384014.9181         89.371          34.000                                                                  
G32  21333048.138   112105906.990         502.743          31.000                                                                  
> 2021 11 06 07 26 47.9999688  0  8                     
C10  38597928.210   200989558.844         629.774          29.000  
C23  22418299.834   116737952.574       -2154.156          32.000  
C32  22208169.904   115643748.286         677.347          35.000  
C37  22636994.535   117876765.194         511.162          34.000  
G10  20443809.145   107432941.127       -2016.245          39.000                                                                  
G26  23062599.994   121194767.3151       2937.961          20.000                                                                  
G31  21195509.654   111383138.125          89.366          34.000                                                                  
G32  21332802.608   112104616.282         502.852          30.000                                                                  
> 2021 11 06 07 26 48.9999685  0  9                     
C10  38597718.056   200988460.563         630.177          29.000  
C23  22418621.211   116739637.818       -2155.560          32.000  
C32  22207949.257   115642603.367         676.579          34.000  
C37  22636806.265   117875786.148         509.536          34.000  
G10  20444104.441   107434486.060       -2017.934          39.000    20444106.540    80227110.7881      -1505.314          28.000  
G23  22433001.956   117886221.1431      -3849.535          22.000                                                                  
G26  23061950.044   121191356.758        2937.751          20.000                                                                  
G31  21195399.930   111382577.147          90.068          34.000                                                                  
G32  21332617.037   112103641.642         501.549          31.000    21332614.638    83713761.5721        373.652          28.000  
> 2021 11 06 07 26 49.9999680  0  7                     
C10  38597447.043   200987049.146         631.374          29.000  
C23  22418881.132   116741011.321       -2154.391          32.000  
C32  22207669.550   115641146.812         677.424          35.000  
C37  22636557.138   117874495.578         507.976          33.000  
G10  20444337.380   107435716.806       -2019.148          40.000    20444340.378    80228029.271       -1507.455          28.000  
G31  21195234.145   111381701.631          87.917          34.000                                                                  
G32  21332370.008   112102352.666         501.371          31.000    21332369.708    83712799.511         373.718          28.000  
> 2021 11 06 07 26 50.9999675  0  8                     
C10  38597175.132   200985637.243         630.784          28.000  
C23  22419146.748   116742385.490       -2155.279          32.000  
C32  22207388.645   115639690.904         674.595          34.000  
C37  22636310.408   117873205.655         509.055          34.000  
G10  20444570.618   107436948.415       -2019.601          39.000    20444574.516    80228948.973       -1509.092          29.000  
G26  23060528.428   121183904.3151       2938.748          20.000                                                                  
G31  21195068.959   111380826.774          87.251          34.000                                                                  
G32  21332118.182   112101064.318         499.476          31.000    21332125.077    83711838.024         373.291          29.000  
> 2021 11 06 07 26 51.9999672  0  9                     
C10  38596963.478   200984538.486         630.318          29.000  
C23  22419470.823   116744072.325       -2155.602          32.000  
C32  22207169.796   115638547.737         674.309          35.000  
C37  22636121.839   117872228.559         508.395          34.000  
G10  20444866.214   107438495.982       -2021.102          40.000    20444870.111    80230105.777       -1509.583          28.000  
G23  22434810.904                       -3849.535          19.000                                                                  
G26  23059876.080   121180494.544        2936.574          21.000                                                                  
G31  21194961.633   111380267.577          85.481          35.000                                                                  
G32  21331926.615                         500.682          31.000    21331939.805    83711111.351         373.105          29.000  
> 2021 11 06 07 26 52.9999670  0  9                     
C10  38596782.703   200983596.042         629.888          29.000  
C23  22419825.178   116745915.838       -2155.404          32.000  
C32  22206981.527   115637561.380         673.705          35.000  
C37  22635964.748   117871408.193         507.558          34.000  
G10  20445191.189   107440201.893       -2020.807          40.000    20445194.486    80231380.508       -1510.763          28.000  
G23  22434750.945                       -3849.535          19.000                                                                  
G26  23059255.809   121177245.247        2931.318          20.000                                                                  
G31  21194886.086   111379866.565          85.170          35.000                                                                  
G32  21331774.620   112099215.3971        499.953          31.000    21331783.913    83710501.317         375.428          27.000  
> 2021 11 06 07 26 53.9999665  0  8                     
C10  38596512.590   200982186.145         628.526          29.000  
C23  22420094.092   116747291.540       -2158.182          32.000  
C32  22206701.820   115636107.182         673.147          35.000  
C37  22635716.220   117870120.123         508.834          34.000  
G10  20445425.926   107441436.035       -2022.847          40.000    20445429.224    80232302.478       -1508.879          28.000  
G26  23058550.997   121173526.767        2931.304          20.000                                                                  
G31  21194717.902   111378993.447          85.070          35.000                                                                  
G32                                                                  21331538.983    83709538.810         372.890          27.000  
> 2021 11 06 07 26 54.9999662  0  9                     
C10  38596302.436   200981089.213         628.686          29.000  
C23  22420417.868   116748980.073       -2155.735          32.000  
C32  22206481.473   115634965.940         672.409          35.000  
C37  22635529.149   117869145.066         505.462          33.000  
G10  20445722.421   107442986.306       -2023.793          40.000    20445723.920    80233458.802       -1511.816          28.000  
G23  22434511.111                         384.713          20.000                                                                  
G26  23057904.345   121170121.886        2932.430          21.000                                                                  
G31  21194612.975   111378436.217          83.223          35.000                                                                  
G32  21331352.812   112096955.6911        496.856          33.000    21331354.011    83708812.437         372.309          28.000  
> 2021 11 06 07 26 55.9999657  0  8                     
C10  38596030.524   200979680.586         628.171          29.000  
C23  22420681.085   116750356.802       -2155.209          32.000  
C32  22206206.563   115633512.978         672.882          34.000  
C37  22635283.619   117867858.212         506.220          33.000  
G10  20445957.458   107444222.141       -2023.718          40.000    20445959.857    80234382.674       -1512.629          27.000  
G26  23057195.636   121166401.012        2933.117          20.000                                                                  
G31  21194447.190   111377564.361          82.815          35.000                                                                  
G32  21331105.783   112095668.789         497.926          32.000    21331109.080    83707852.437         372.040          27.000  
> 2021 11 06 07 26 56.9999652  0  7                     
C10  38595759.811   200978271.474         629.335          30.000  
C23  22420943.704   116751733.921       -2157.081          32.000  
C32  22205925.957   115632060.431         671.756          35.000  
C37  22635038.389   117866571.949         506.802          33.000  
G10  20446191.596   107445458.756       -2025.013          40.000    20446195.194    80235307.054       -1512.538          28.000  
G31  21194279.606   111376692.992          84.697          35.000                                                                  
G32  21330864.150   112094382.083         499.104          32.000    21330864.750    83706892.066         372.658          28.000  
> 2021 11 06 07 26 57.9999649  0  7                     
C10  38595549.657   200977174.044         628.715          28.000  
C23  22421269.578   116753423.272       -2157.835          33.000  
C32  22205705.010   115630920.455         671.831          35.000  
C37  22634849.520   117865598.147         505.740          32.000  
G10  20446486.292   107447011.055       -2024.904          40.000    20446490.189    80236466.524       -1512.423          29.000  
G31  21194176.477   111376137.497          82.530          33.000                                                                  
G32  21330676.180   112093410.267         498.079          32.000    21330680.077    83706166.337         373.384          27.000  
> 2021 11 06 07 26 58.9999644  0  8                     
C10  38595279.544   200975764.121         629.347          25.000  
C23  22421533.995   116754801.078       -2159.793          36.000  
C32  22205421.706   115629468.671         670.711          32.000  
C37  22634603.090   117864312.025         505.598          33.000  
G10  20446722.229   107448248.987       -2026.346          40.000    20446725.826    80237390.553       -1512.051          29.000  
G26  23055123.170   121155552.9741       2934.051          20.000                                                                  
G31  21194013.690   111375266.974          79.112          32.000                                                                  
G32  21330428.552   112092123.819         498.652          36.000    21330434.547    83705205.493         372.761          26.000  
> 2021 11 06 07 26 59.9999639  0  8                     
C10  38595010.630   200974355.187         628.396          24.000  
C23  22421800.211   116756179.280       -2158.238          34.000  
C32  22205143.199   115628017.464         670.470          31.000  
C37  22634355.162   117863026.838         504.584          29.000  
G10  20446957.566   107449487.812       -2026.623          39.000    20446961.763    80238315.517       -1513.687          30.000  
G26  23054415.061   121151830.400        2934.508          19.000                                                                  
G31  21193845.806   111374397.719          82.509          25.000                                                                  
G32  21330186.919   112090837.616         498.368          36.000    21330189.617    83704244.753         371.968          25.000  
> 2021 11 06 07 27 00.9999636  0  7                     
C10  38594799.576   200973258.532         628.134          27.000  
C23  22422124.586   116757870.145       -2158.761          33.000  
C32  22204924.051   115626878.994         669.254          30.000  
C37  22634165.993   117862053.544         504.155          28.000  
G10  20447252.861   107451042.411       -2027.729          38.000    20447257.658    80239475.731       -1513.961          31.000  
G31  21193736.382   111373842.828          81.222          28.000                                                                  
G32  21330003.446   112089866.789         497.243          38.000    21330004.345    83703519.232         371.694          28.000  
> 2021 11 06 07 27 01.9999634  0  9                     
C10  38594619.701   200972317.928         628.813          27.000  
C23  22422480.140   116759717.697       -2160.458          34.000  
C32  22204735.781   115625897.212         669.949          30.000  
C37  22634008.002   117861237.565         503.317          30.000  
G10  20447579.635   107452755.347       -2028.338          39.000    20447584.432    80240755.372       -1516.089          30.000  
G23  22441742.405                       -3855.672          24.000                                                                  
G26  23053155.632   121145172.6001       2933.361          19.000                                                                  
G31  21193659.935   111373446.414          81.110          29.000                                                                  
G32  21329846.654   112089053.813         498.467          38.000    21329849.652    83702913.040         372.506          26.000  
> 2021 11 06 07 27 02.9999629  0  9                     
C10  38594348.089   200970909.633         627.305          26.000  
C23  22422742.458   116761097.355       -2160.051          34.000  
C32  22204454.576   115624447.614         668.573          30.000  
C37  22633761.873   117859953.911         502.914          29.000  
G10  20447816.771   107453996.466       -2029.325          39.000    20447820.668    80241683.047       -1515.692          29.000  
G23  22442329.698                       -3855.895          24.000                                                                  
G26  23052446.923   121141451.830        2932.305          19.000                                                                  
G31  21193494.449   111372578.135          80.259          29.000                                                                  
G32  21329602.623   112087768.488         497.088          38.000    21329605.322    83701952.566         371.319          25.000  
> 2021 11 06 07 27 03.9999626  0  9                     
C10  38594137.634   200969814.107         627.446          26.000  
C23  22423066.534   116762789.554       -2160.136          34.000  
C32  22204236.927   115623310.726         668.060          31.000  
C37  22633574.802   117858983.203         501.898          29.000  
G10  20448114.465   107455553.363       -2030.072          39.000    20448116.563    80242845.952       -1516.514          28.000  
G23  22442972.453   117938621.7171      -3855.329          24.000                                                                  
G26  23051798.772   121138047.480        2930.873          20.000                                                                  
G31  21193387.723   111372025.167          80.173          29.000                                                                  
G32  21329419.450   112086798.422         497.061          38.000    21329420.350    83701227.382         370.849          25.000  
> 2021 11 06 07 27 04.9999621  0  8                     
C10  38593867.222   200968406.621         626.808          26.000  
C23  22423329.752   116764170.178       -2160.636          34.000  
C32  22203960.818   115621862.117         667.039          31.000  
C37  22633328.673   117857701.752         500.634          29.000  
G10  20448351.001   107456796.051       -2030.612          39.000    20448353.400    80243774.551       -1517.027          29.000  
G23  22443555.550   117941689.631       -3856.216          25.000                                                                  
G31  21193220.739   111371157.670          79.320          30.000                                                                  
G32  21329174.820   112085513.632         497.029          37.000    21329176.318    83700269.311         369.423          26.000  
> 2021 11 06 07 27 05.9999616  0  9                     
C10  38593596.209   200966999.041         626.358          25.000  
C23  22423593.869   116765551.129       -2160.826          34.000  
C32  22203682.610   115620414.124         668.212          32.000  
C37  22633083.143   117856420.913         499.696          28.000  
G10  20448585.139   107458039.546       -2031.999          39.000    20448589.936    80244703.744       -1516.848          28.000  
G23  22443405.654   117940901.921         -98.405          23.000                                                                  
G26  23050395.143   121130610.3081       2931.521          19.000                                                                  
G31  21193052.255   111370290.547          79.367          22.000                                                                  
G32  21328931.688   112084229.066         496.537          38.000    21328931.688    83699310.101         370.471          25.000  
> 2021 11 06 07 27 06.9999613  0  8                     
C10  38593386.355   200965904.119         625.773          25.000  
C23  22423922.142   116767244.779       -2162.620          33.000  
C32  22203465.261   115619278.851         667.402          31.000  
C37  22632897.571   117855452.751         500.074          28.000  
G10  20448882.833   107459599.009       -2032.551          39.000    20448886.131    80245868.083       -1517.283          29.000  
G23  22444784.999                       -3857.029          24.000                                                                  
G31  21192945.229   111369739.120          78.461          23.000                                                                  
G32  21328746.116   112083259.949         496.831          38.000    21328746.716    83698586.148         368.818          26.000  
> 2021 11 06 07 27 07.9999608  0  9                     
C10  38593117.441   200964497.192         626.357          27.000  
C23  22424190.156   116768626.777       -2163.314          33.000  
C32  22203186.754   115617832.068         667.017          30.000  
C37  22632654.140   117854173.126         497.425          26.000  
G10  20449120.269   107460844.188       -2033.142          39.000    20449123.267    80246797.542       -1518.531          29.000  
G23  22445369.294                       -3857.796          23.000                                                                  
G26  23049044.279   121123489.2821       2929.241          18.000                                                                  
G31  21192778.844   111368873.076          77.575          23.000                                                                  
G32  21328501.785   112081976.107         496.047          38.000    21328502.385    83697629.881         367.055          25.000  
> 2021 11 06 07 27 08.9999603  0  7                     
C23  22424453.374   116770008.932       -2165.224          37.000  
C32  22202910.045   115616385.414         666.726          30.000  
C37  22632408.909   117852894.813         498.417          32.000  
G10  20449356.805   107462089.847       -2032.756          40.000    20449359.503    80247727.687       -1519.637          28.000  
G23  22445953.889   117954282.3051      -3858.174          19.000                                                                  
G26  23048336.169   121119772.584        2929.432          17.000                                                                  
G32  21328252.058   112080692.125         496.903          38.000    21328258.654    83696672.458         369.448          25.000  
> 2021 11 06 07 27 09.9999601  0  9                     
C10  38592661.456   200962147.8441        630.718          24.000  
C23  22424808.328   116771859.927       -2163.440          35.000  
C32  22202723.275   115615407.526         663.937          32.000  
C37  22632253.617   117852084.023         498.662          34.000  
G10  20449683.579   107463808.946       -2034.962          41.000    20449686.876    80249012.877       -1521.006          27.000  
G23  22446626.624   117957825.462       -3857.806          23.000                                                                  
G26  23047714.999   121116527.892        2927.224          24.000                                                                  
G31  21192541.409   111367616.0741         76.892          31.000                                                                  
G32  21328101.263   112079881.106         496.390          37.000    21328105.160    83696067.251         369.257          27.000  
> 2021 11 06 07 27 10.9999598  0  7                     
C10  38592451.901   200961050.158         628.110          26.000  
C23  22425135.702   116773555.089       -2163.918          37.000  
C32  22202505.325   115614274.344         665.083          33.000  
C37  22632065.647   117851117.560         496.706          31.000  
G10  20449981.273   107465371.255       -2034.766          38.000    20449984.270    80250180.475       -1520.461          28.000  
G23  22447268.779   117961209.886       -3857.402          21.000                                                                  
G32  21327915.991   112078912.774         495.175          39.000    21327921.987    83695345.393         369.078          27.000  
> 2021 11 06 07 27 11.9999593  0  9                     
C03                                       -81.443          29.000  
C10  38592180.589   200959640.550         628.992          24.000  
C23  22425402.517   116774938.976       -2164.121          37.000  
C32  22202226.518   115612829.320         665.046          34.000  
C37  22631823.415   117849838.957         497.846          35.000  
G10  20450217.809   107466618.987       -2035.839          40.000    20450221.406    80251112.593       -1520.660          29.000  
G26  23046354.241   121109412.0741       2928.799          22.000                                                                  
G31  21192288.384   111366202.8391         78.128          31.000                                                                  
G32  21327672.859   112077630.022         495.292          38.000    21327677.356    83694387.158         370.711          28.000  
> 2021 11 06 07 27 12.9999588  0  9                     
C10  38591910.776   200958232.009         626.877          31.000  
C23  22425669.632   116776323.095       -2161.961          34.000  
C32  22201953.108   115611385.835         663.764          31.000  
C37  22631580.283   117848562.687         494.887          32.000  
G10  20450457.043   107467868.720       -2036.442          33.000    20450460.041    80252045.632       -1521.117          29.000  
G23  22448434.972   117967347.7751      -3855.830          19.000                                                                  
G26  23045646.731   121105695.731        2928.099          28.000                                                                  
G31  21192122.899   111365341.283          74.637          29.000                                                                  
G32                                                                  21327433.625    83693425.493         374.558          17.000  
> 2021 11 06 07 27 13.9999585  0  9                     
C10  38591699.722   200957137.092         626.293          25.000  
C23  22425995.207   116778017.146       -2163.529          25.000  
C32  22201736.658   115610253.700         663.595          27.000  
C37  22631395.011   117847598.529         496.614          26.000  
G10  20450754.737   107469432.334       -2036.490          36.000    20450758.035    80253214.580       -1521.912          25.000  
G23  22449078.926   117970732.160       -3858.683          20.000                                                                  
G26  23044998.280   121102294.330        2928.645          29.000                                                                  
G31  21192012.875   111364793.229          75.761          26.000                                                                  
G32  21327254.349   112075383.0591        492.558          26.000    21327249.552    83692700.502         369.354          17.000  
> 2021 11 06 07 27 14.9999580  0  9                     
C10  38591431.708   200955730.990         625.183          27.000  
C23  22426261.122   116779401.854       -2165.834          27.000  
C32  22201459.949   115608809.672         663.970          27.000  
C37  22631149.481   117846321.821         495.835          28.000  
G10  20450991.873   107470681.850       -2038.493          33.000    20450996.969    80254148.444       -1521.719          29.000  
G23  22449660.823   117973802.715       -3859.041          21.000                                                                  
G26  23044288.971   121098578.217        2928.131          30.000                                                                  
G31  21191848.289   111363929.904          75.026          26.000                                                                  
G32  21327010.018   112074101.971         494.696          24.000    21327006.121    83691742.050         371.140          17.000  
> 2021 11 06 07 27 15.9999578  0  8                     
C10  38591252.732   200954794.015         624.347          30.000  
C23  22426616.377   116781256.601       -2168.515          25.000  
C32  22201275.877   115607832.319         665.552          22.000  
C37  22630994.189   117845513.916         496.434          27.000  
G10  20451321.345                       -2039.140          31.000    20451325.242    80255435.202       -1523.688          33.000  
G26  23043671.098   121095335.037        2927.823          28.000                                                                  
G31  21191771.242   111363539.721          74.778          21.000                                                                  
G32  21326851.728   112073292.297         494.707          17.000    21326851.728    83691136.699         369.584          16.000  
> 2021 11 06 07 27 16.9999572  0  6                     
C10  38590953.839   200953233.314         624.438          30.000  
G10  20451529.401   107473512.5561      -2039.482          22.000    20451533.598    80256253.289       -1524.072          32.000  
G23  22450885.775   117980260.6311      -3856.033          19.000                                                                  
G26  23042933.909   121091462.271        2927.174          28.000                                                                  
G31  21191578.475   111362520.034          73.707          25.000                                                                  
G32  21326572.321   112071851.643         496.522          14.000    21326578.017    83690061.892         369.223          16.000  
> 2021 11 06 07 27 17.9999567  0  6                     
C10  38590684.925   200951828.072         624.718          30.000  
C37  22630472.550   117842802.4091        497.220          17.000  
G10  20451765.637   107474764.870       -2040.637          27.000    20451771.333    80257188.954       -1524.171          30.000  
G23  22451471.270   117983326.852       -3854.396          18.000                                                                  
G26  23042227.298   121087747.339        2926.847          30.000                                                                  
G32                                                                  21326335.185    83689107.498         362.490          14.000  
> 2021 11 06 07 27 18.9999565  0  6                     
C10  38590508.347   200950891.474         624.605          30.000  
C23  22427478.580   116785733.0631      -2169.123          19.000  
G10  20452092.411   107476490.745       -2041.740          30.000    20452099.306    80258477.762       -1524.179          29.000  
G23  22452148.501   117986868.607       -3859.087          15.000                                                                  
G26  23041611.224   121084505.634        2926.684          29.000                                                                  
G32  21326186.788   112069760.7211        492.016          16.000    21326183.191    83688513.425         355.940          13.000  
> 2021 11 06 07 27 19.9999562  0  5                     
C10  38590297.893   200949797.807         624.954          29.000  
G10  20452388.606   107478060.325       -2042.731          29.000    20452397.900    80259649.407       -1525.152          30.000  
G26  23040964.872   121081106.810        2925.845          28.000                                                                  
G31  21191243.907   111360727.2151         73.197          19.000                                                                  
G32  21326013.508   112068796.488         489.293          15.000    21326002.416    83687813.490         352.621          10.000  
> 2021 11 06 07 27 20.9999557  0  6                     
C10  38590028.079   200948392.500         623.869          30.000  
C23  22428068.571   116788816.2501      -2163.861          20.000  
G10  20452625.742   107479315.534       -2043.219          31.000    20452636.235    80260586.722       -1525.294          28.000  
G26  23040257.961   121077393.120        2925.895          28.000                                                                  
G31  21191079.921   111359866.661          72.184          19.000                                                                  
G32  21325781.169   112067520.209         487.717          14.000                                                                  
> 2021 11 06 07 27 21.9999552  0  5                     
C10  38589758.866   200946988.134         623.871          30.000  
C23  22428332.688   116790200.168       -2165.972          20.000  
G10                                                                  20452875.769    80261524.870       -1526.571          28.000  
G26  23039552.250   121073679.085        2925.717          28.000                                                                  
G32  21325546.731   112066245.341         488.550          14.000                                                                  
> 2021 11 06 07 27 22.9999549  0  7                     
C10  38589549.011   200945896.157         623.626          30.000  
C23  22428660.961   116791897.193       -2165.350          21.000  
G10  20453161.771   107482142.8901      -2045.048          32.000    20453174.662    80262698.736       -1527.840          29.000  
G23  22454617.892   117999791.0411      -3860.158          13.000                                                                  
G26  23038906.497   121070281.066        2925.008          29.000                                                                  
G31  21190820.001   111358463.0291         68.597          19.000                                                                  
G32  21325373.451   112065593.428         492.232          13.000                                                                  
> 2021 11 06 07 27 23.9999544  0  6                     
C10  38589280.097   200944491.923         623.739          29.000  
C23  22428926.877   116793283.078       -2169.528          22.000  
G10  20453407.900   107483400.740       -2045.143          33.000    20453414.496    80263638.344       -1528.564          28.000  
G23  22455201.587   118002863.570       -3861.636          13.000                                                                  
G26  23038198.687   121066568.646        2924.828          29.000                                                                  
G31  21190661.111   111357607.138          66.837          20.000                                                                  
> 2021 11 06 07 27 24.9999539  0  6                     
C10  38589010.284   200943087.599         624.117          30.000  
C23  22429193.393   116794671.847       -2170.039          22.000  
C32  22198985.462   115595798.6121        659.877          17.000  
G10  20453649.233                       -2044.816          32.000    20453654.030    80264578.762       -1526.891          28.000  
G26  23037492.076   121062856.115        2924.747          28.000                                                                  
G31  21190501.621   111356752.802          65.048          20.000                                                                  
> 2021 11 06 07 27 25.9999537  0  4                     
C10  38588830.409   200942151.242         623.841          29.000  
C23  22429551.345   116796530.197       -2170.936          22.000  
G10  20453979.005   107486383.1351      -2047.659          32.000    20453983.502    80265870.757       -1528.396          27.000  
G26  23036875.103   121059616.578        2924.246          29.000                                                                  
> 2021 11 06 07 27 26.9999532  0  6                     
C10  38588560.895   200940746.561         623.564          29.000  
C23  22429820.558   116797920.473       -2170.786          24.000  
G10  20454222.436   107487643.024       -2048.213          32.000    20454222.436    80266811.798       -1530.672          25.000  
G26  23036168.492   121055904.762        2924.062          29.000                                                                  
G31  21190265.984   111355520.6161         63.540          21.000                                                                  
G32  21324509.150   112060944.8581        498.577          12.000                                                                  
> 2021 11 06 07 27 27.9999529  0  5                     
C06                                      2222.082          24.000  
C10  38588351.340   200939655.184         622.952          29.000  
C23  22430147.632   116799623.397       -2171.911          22.000  
G10  20454517.432   107489218.900       -2048.587          32.000    20454523.128    80267990.678       -1533.579          26.000  
G23  22457690.464   118015954.1291      -3866.528          14.000                                                                  
> 2021 11 06 07 27 28.9999526  0  7                     
C10  38588141.186   200938563.704         623.537          29.000  
C23  22430475.305   116801327.515       -2172.695          23.000  
G10  20454814.227   107490795.673       -2049.388          32.000    20454823.221    80269170.266       -1531.103          25.000  
G23  22458341.014   118019348.122       -3866.056          13.000                                                                  
G26  23034880.584   121049113.0451       2922.943          29.000                                                                  
G31  21190060.326   111354445.5071         66.095          21.000                                                                  
G32  21324144.302   112059000.1461        505.521          12.000                                                                  
> 2021 11 06 07 27 29.9999521  0  6                     
C06  36835594.948                        -544.315          21.000  
C10  38587871.073   200937159.236         624.206          30.000  
C23  22430742.120   116802719.053       -2170.966          23.000  
C32  22197813.873   115589684.4831        659.944          14.000  
G10  20455054.660   107492057.905       -2050.762          31.000    20455063.055    80270112.671       -1529.859          28.000  
G26  23034175.172   121045402.082        2922.641          29.000                                                                  
> 2021 11 06 07 27 30.9999516  0  6                     
C06  36835552.678   191812372.9051       -544.502          22.000  
C10  38587601.859   200935754.973         623.352          29.000  
C23  22431008.036   116804110.573       -2172.185          22.000  
G10  20455299.891   107493321.127       -2051.018          32.000    20455302.589    80271056.112       -1533.061          27.000  
G26  23033471.260   121041691.856        2922.320          29.000                                                                  
G31  21189733.553   111352740.8981         65.902          21.000                                                                  
> 2021 11 06 07 27 31.9999514  0  7                     
C06  36835596.447   191812604.980        -544.724          22.000  
C10  38587422.583   200934819.640         623.025          28.000  
C23  22431364.789   116805970.958       -2173.829          24.000  
G10  20455626.065   107495057.723       -2052.553          33.000    20455633.560    80272353.839       -1531.760          26.000  
G23  22460180.840   118029050.7451      -3866.936          12.000                                                                  
G26  23032856.985   121038454.731        2921.632          29.000                                                                  
G31  21189661.003   111352361.194          64.137          21.000                                                                  
> 2021 11 06 07 27 32.9999508  0  7                     
C06  36835520.300   191812211.983        -543.436          22.000  
C10  38587123.690   200933260.553         621.620          29.000  
C23  22431601.625   116807208.121       -2173.606          23.000  
G10  20455841.016   107496164.991       -2055.388          33.000    20455844.613    80273179.781       -1531.768          28.000  
G23  22460736.955   118031972.605       -3866.928          13.000                                                                  
G26  23032122.793   121034588.232        2920.868          29.000                                                                  
G31  21189467.337   111351351.459          64.561          22.000                                                                  
> 2021 11 06 07 27 33.9999503  0  6                     
C06  36835473.532   191811974.375        -543.092          24.000  
C07                                       596.752          28.000  
C10  38586853.577   200931858.477         621.152          29.000  
C23  22431867.241   116808601.874       -2175.148          23.000  
G10  20456085.347   107497430.733       -2053.228          33.000    20456085.946    80274125.176       -1533.943          26.000  
G26  23031418.880   121030879.668        2920.370          30.000                                                                  
> 2021 11 06 07 27 34.9999501  0  8                     
C06  36835517.902   191812205.735        -544.807          23.000  
C07  37844842.361                         730.090          28.000  
C10  38586674.601   200930925.140         620.988          29.000  
C23  22432225.793   116810465.379       -2175.598          23.000  
G10  20456411.821   107499169.804       -2053.271          33.000    20456416.617    80275423.962       -1534.031          26.000  
G23  22461997.283   118038598.8931      -3859.342          11.000                                                                  
G26  23030801.608   121027644.208        2920.341          29.000                                                                  
G31  21189227.203   111350122.0781         62.932          21.000                                                                  
> 2021 11 06 07 27 35.9999496  0  6                     
C06  36835472.333   191811969.528        -544.728          23.000  
C07  37844552.162                         729.030          28.000  
C10  38586405.387   200929523.051         621.463          29.000  
C23  22432495.007   116811861.361       -2176.246          23.000  
G10  20456652.254   107500437.026       -2056.404          32.000    20456657.651    80276369.890       -1534.769          26.000  
G26  23030097.395   121023936.281        2919.954          30.000                                                                  
> 2021 11 06 07 27 36.9999493  0  7                     
C06  36835487.623   191812046.337        -545.026          24.000  
C07  37844321.322   197065316.6661        729.620          27.000  
C10  38586196.132   200928433.348         620.994          29.000  
C23  22432823.280   116813569.022       -2175.902          23.000  
G10  20456954.145   107502020.289       -2057.405          33.000    20456958.942    80277552.411       -1537.507          25.000  
G23  22463222.834   118045056.2201      -3853.790          12.000                                                                  
G26  23029451.642   121020543.710        2919.798          30.000                                                                  
> 2021 11 06 07 27 37.9999488  0  5                     
C06  36835442.654   191811810.911        -545.768          24.000  
C07  37844032.022   197063806.610         729.477          27.000  
C10  38585927.218   200927031.611         621.117          29.000  
G10  20457194.879   107503289.315       -2057.937          33.000    20457200.875    80278501.813       -1537.649          27.000  
G26  23028747.430   121016836.500        2919.094          30.000                                                                  
> 2021 11 06 07 27 38.9999485  0  6                     
C06  36835456.744   191811887.903        -545.638          24.000  
C07  37843802.381   197062608.721         728.982          28.000  
C10  38585717.963   200925941.999         621.061          30.000  
C23  22433418.967   116816674.9081      -2178.119          23.000  
G10  20457499.168   107504874.363       -2059.650          33.000    20457501.866    80279685.887       -1535.892          26.000  
G26  23028101.977   121013444.845        2918.833          30.000                                                                  
> 2021 11 06 07 27 39.9999480  0  8                     
C06  36835410.576   191811653.161        -544.808          24.000  
C07  37843512.781   197061099.692         727.989          28.000  
C10  38585448.450   200924540.716         620.114          29.000  
C23  22433689.980   116818072.931       -2180.585          22.000  
G10  20457738.402   107506145.157       -2060.330          33.000    20457742.899    80280632.537       -1535.040          26.000  
G23  22465026.686   118054566.8781      -3848.923          13.000                                                                  
G26  23027394.167   121009738.403        2918.522          30.000                                                                  
G31  21188534.083   111346505.6651         59.597          18.000                                                                  
> 2021 11 06 07 27 40.9999475  0  7                     
C06  36835365.907   191811416.966        -544.042          23.000  
C07  37843223.182   197059591.045         727.921          28.000  
C10  38585178.637   200923140.600         619.172          29.000  
G10  20457982.733   107507416.802       -2059.187          32.000    20457984.832    80281580.865       -1538.735          26.000  
G23  22465608.283   118057631.388       -3854.993          12.000                                                                  
G26  23026686.057   121006032.537        2917.898          29.000                                                                  
G31  21188376.092   111345658.686          58.890          18.000                                                                  
> 2021 11 06 07 27 41.9999473  0  7                     
C06  36835409.976   191811648.986        -544.688          24.000  
C07  37843024.419   197058551.165         728.042          28.000  
C10  38584999.661   200922208.995         619.473          29.000  
C23  22434314.447   116821339.1511      -2178.148          23.000  
G10  20458318.201   107509162.006       -2059.669          33.000    20458317.601    80282884.332       -1539.099          26.000  
G26  23026069.384   121002799.670        2917.416          29.000                                                                  
G31  21188307.140   111345284.892          58.234          18.000                                                                  
> 2021 11 06 07 27 42.9999468  0  8                     
C06  36835364.108   191811413.299        -544.830          24.000  
C07  37842735.419   197057043.055         726.511          27.000  
C10  38584731.346   200920809.278         619.080          30.000  
C23  22434582.162   116822736.467       -2177.873          24.000  
G10  20458553.838   107510435.554       -2059.985          33.000    20458560.433    80283835.133       -1539.653          27.000  
G23  22466867.711   118064248.5801      -3863.311          12.000                                                                  
G26  23025363.373   120999094.681        2916.907          29.000                                                                  
G31  21188148.550   111344439.343          57.323          19.000                                                                  
> 2021 11 06 07 27 43.9999462  0  8                     
C06  36835290.959   191811022.300        -545.906          23.000  
C07  37842417.040   197055380.226         725.875          28.000  
C10  38584433.053   200919253.650         618.626          30.000  
C23  22434821.396   116823978.443       -2179.905          22.000  
G10  20458769.389   107511552.155       -2062.252          33.000    20458772.387    80284669.225       -1538.784          26.000  
G23  22467429.222   118067172.841       -3871.680          10.000                                                                  
G26  23024626.183   120995232.424        2916.830          29.000                                                                  
G31  21187960.880   111343436.800          57.222          19.000                                                                  
> 2021 11 06 07 27 44.9999462  0  8                     
C06  36835397.385   191811567.273        -545.579          24.000  
C07  37842278.836   197054654.026         726.694          27.000  
C10  38584314.635   200918634.846         618.962          29.000  
C23  22435239.907   116826158.587       -2182.105          24.000  
G10  20459162.716   107513614.874       -2062.388          33.000    20459164.815    80286207.950       -1539.435          26.000  
G23  22468165.812   118071046.660       -3870.785          11.000                                                                  
G26  23024070.668   120992315.871        2916.236          28.000                                                                  
G31  21187946.790   111343379.348          57.528          20.000                                                                  
> 2021 11 06 07 27 45.9999457  0  9                     
C06  36835353.316   191811331.615        -544.683          24.000  
C07  37841989.536   197053146.049         728.261          28.000  
C10  38584046.021   200917235.264         619.280          30.000  
C23  22435508.521   116827560.623       -2183.261          23.000  
C32  22193912.074   115569280.9451        645.793          20.000  
G10  20459406.148   107514890.697       -2064.443          33.000    20459407.647    80287159.385       -1540.277          26.000  
G23  22468752.207   118074130.908       -3873.678          10.000                                                                  
G26  23023365.556   120988612.108        2915.782          29.000                                                                  
G31  21187789.698   111342534.241          57.223          20.000                                                                  
> 2021 11 06 07 27 46.9999452  0  7                     
C06  36835308.946   191811095.924        -546.009          24.000  
C07  37841700.236   197051637.726         727.027          28.000  
C10  38583776.807   200915835.521         618.924          29.000  
C23  22435777.734   116828962.736       -2182.575          22.000  
G10  20459648.380   107516167.333       -2064.675          33.000    20459650.479    80288112.260       -1541.282          25.000  
G26  23022660.744   120984908.724        2915.481          29.000                                                                  
G31  21187630.209   111341689.863          56.538          24.000                                                                  
> 2021 11 06 07 27 47.9999450  0  7                     
C06  36835351.817   191811330.469        -546.698          24.000  
C07  37841500.274   197050598.644         726.233          27.000  
C10  38583598.131   200914904.911         618.226          29.000  
C23  22436138.684   116830833.559       -2182.371          24.000  
G10  20459974.554   107517917.579       -2064.835          33.000    20459984.148    80289418.413       -1542.154          26.000  
G26  23022044.970   120981678.372        2915.140          29.000                                                                  
G31  21187555.860   111341318.371          55.335          21.000                                                                  
> 2021 11 06 07 27 48.9999444  0  7                     
C06  36835275.969   191810940.111        -546.092          24.000  
C07  37841182.195   197048936.261         725.447          27.000  
C10  38583299.837   200913350.458         617.681          29.000  
C23  22436376.420   116832078.711       -2180.619          23.000  
G10  20460188.906   107519038.406       -2065.271          33.000    20460197.300    80290254.216       -1542.152          25.000  
G26  23021310.179   120977818.132        2914.692          29.000                                                                  
G31  21187364.893   111340318.218          54.630          20.000                                                                  
> 2021 11 06 07 27 49.9999439  0  6                     
C06  36835231.000   191810706.014        -546.917          24.000  
C07  37840893.495   197047431.287         724.059          28.000  
C10  38583031.223   200911952.525         617.324          30.000  
C32  22192866.998   115563884.9061        648.144          19.000  
G10  20460434.136   107520317.714       -2067.528          32.000    20460441.331    80291209.176       -1544.001          26.000  
G26  23020605.966   120974115.898        2913.524          29.000                                                                  
> 2021 11 06 07 27 50.9999434  0  8                     
C06  36835187.530   191810471.626        -546.150          24.000  
C07  37840604.495   197045926.082         725.358          28.000  
C10  38582763.209   200910554.978         617.237          30.000  
C23  22436911.549   116834880.6901      -2182.778          23.000  
C32  22192592.088   115562457.343         646.917          19.000  
G10  20460679.067   107521597.833       -2067.791          32.000    20460684.763    80292165.835       -1546.471          26.000  
G26  23019901.754   120970414.527        2913.059          28.000                                                                  
G31  21187039.618   111338636.6211         50.383          20.000                                                                  
> 2021 11 06 07 27 51.9999432  0  7                     
C06  36835233.698   191810704.672        -545.145          25.000  
C07  37840406.632   197044888.271         725.675          29.000  
C10  38582584.233   200909625.620         617.196          30.000  
C23  22437267.703   116836751.018       -2182.240          23.000  
G10  20461011.536   107523351.392       -2070.996          31.000    20461017.233    80293475.679       -1545.242          25.000  
G26  23019287.479   120967185.871        2913.581          28.000                                                                  
G31  21186967.667   111338270.479          51.308          24.000                                                                  
> 2021 11 06 07 27 52.9999427  0  7                     
C06  36835187.530   191810469.837        -547.454          24.000  
C07  37840117.632   197043381.622         725.839          28.000  
C10  38582315.619   200908227.756         618.004          30.000  
C23  22437535.417   116838152.787       -2182.347          22.000  
G10  20461250.171   107524633.229       -2070.669          32.000    20461261.264    80294432.152       -1544.541          28.000  
G26  23018583.266   120963484.908        2912.533          28.000                                                                  
G31  21186805.780   111337431.255          51.924          22.000                                                                  
> 2021 11 06 07 27 53.9999424  0  7                     
C06  36835203.719   191810550.005        -548.536          25.000  
C07  37839889.190   197042188.790         723.303          28.000  
C10  38582106.963   200907141.803         616.906          29.000  
C23  22437863.091   116839867.130       -2182.858          22.000  
G10  20461554.760   107526231.107       -2069.168          32.000    20461565.853    80295624.347       -1546.170          25.000  
G26  23017939.912   120960100.015        2912.210          29.000                                                                  
G31  21186705.049   111336907.218          51.344          22.000                                                                  
> 2021 11 06 07 27 54.9999421  0  7                     
C06  36835219.908   191810630.209        -547.973          25.000  
C07  37839660.448   197040996.474         724.186          28.000  
C10  38581897.708   200906056.344         617.158          30.000  
C23  22438194.061   116841581.907       -2184.233          23.000  
G10  20461858.450   107527829.838       -2072.245          31.000    20461869.842    80296817.049       -1546.465          27.000  
G26  23017295.058   120956715.683        2911.708          28.000                                                                  
G31  21186607.617   111336382.982          51.415          23.000                                                                  
> 2021 11 06 07 27 55.9999416  0  7                     
C06  36835174.639   191810398.357        -548.794          24.000  
C07  37839370.549   197039492.098         723.979          28.000  
C10  38581628.794   200904658.208         616.800          30.000  
C23  22438464.174   116842985.178       -2183.994          23.000  
G10  20462108.777   107529114.178       -2074.081          32.000    20462114.773    80297776.078       -1547.298          28.000  
G26  23016590.846   120953016.479        2910.764          28.000                                                                  
G31  21186446.029   111335543.274          51.889          24.000                                                                  
> 2021 11 06 07 27 56.9999411  0  7                     
C07  37839081.549   197037987.792         723.292          27.000  
C10  38581359.880   200903260.822         616.218          30.000  
C23  22438730.990   116844388.446       -2184.129          20.000  
C32  22191150.386   115555022.2791        637.004          18.000  
G10  20462354.007   107530399.414       -2072.943          28.000    20462359.104    80298735.494       -1548.479          29.000  
G26  23015887.533   120949317.728        2909.834          28.000                                                                  
G31  21186285.640   111334703.854          49.833          24.000                                                                  
> 2021 11 06 07 27 57.9999409  0  7                     
C06  36835174.939   191810400.1521       -546.785          19.000  
C07  37838882.187   197036952.117         723.663          29.000  
C10  38581181.804   200902332.387         616.328          30.000  
C32  22190967.213   115554072.753         637.041          20.000  
G10  20462687.077   107532157.263       -2073.044          35.000    20462694.272    80300049.044       -1548.767          31.000  
G26  23015275.656   120946092.761        2910.349          26.000                                                                  
G31  21186213.689   111334339.167          48.044          21.000                                                                  
> 2021 11 06 07 27 58.9999404  0  8                     
C06  36835128.171   191810166.008        -546.523          26.000  
C07  37838592.288   197035447.876         723.415          29.000  
C10  38580913.489   200900935.266         616.680          32.000  
C23  22439366.550   116847668.0471      -2187.889          31.000  
C32  22190695.002   115552654.316         638.579          26.000  
G10  20462930.808   107533443.396       -2074.330          37.000    20462938.303    80301010.026       -1549.201          28.000  
G26  23014573.842   120942394.695        2910.526          29.000                                                                  
G31  21186054.500   111333503.383          48.162          28.000                                                                  
> 2021 11 06 07 27 59.9999398  0  8                     
C06  36835052.024   191809775.450        -546.792          25.000  
C07  37838273.009   197033788.289         721.473          27.000  
C10  38580614.896   200899382.428         614.910          32.000  
C23  22439609.681   116848919.920       -2189.384          32.000  
C32  22190391.012   115551079.303         637.579          28.000  
G10  20463145.759   107534573.502       -2077.026          36.000    20463153.254    80301854.338       -1551.316          29.000  
G26  23013841.149   120938539.372        2909.127          31.000                                                                  
G31  21185865.331   111332511.038          46.398          27.000                                                                  
> 2021 11 06 07 28 00.9999393  0  7                     
C06  36835006.156   191809541.513        -546.663          31.000  
C07  37837982.510   197032287.199         719.396          23.000  
C10  38580347.781   200897988.037         612.888          28.000  
C23  22439883.392   116850328.953       -2189.631          35.000  
C32  22190116.402   115549661.641         636.001          28.000  
G10  20463393.987                       -2075.717          38.000    20463397.884    80302818.373       -1551.982          28.000  
G26  23013138.736   120934841.322        2910.692          30.000                                                                  
> 2021 11 06 07 28 01.9999393  0  7                     
C06  36835107.486   191810089.456        -549.423          29.000  
C07  37837844.006   197031568.254         717.905          26.000  
C10  38580230.262   200897374.713         613.606          29.000  
C23  22440306.099   116852518.406       -2189.657          34.000  
C32  22189995.286   115549025.699         635.228          27.000  
G10  20463789.413   107537938.4901      -2076.420          34.000    20463793.610    80304369.476       -1551.228          28.000  
G26  23012586.518   120931931.375        2909.606          28.000                                                                  
> 2021 11 06 07 28 02.9999388  0  8                     
C07  37837556.804   197030069.575         718.021          25.000  
C10  38579962.248   200895980.134         614.397          28.000  
C23  22440577.711   116853928.028       -2190.515          28.000  
C32  22189724.873   115547609.652         634.475          24.000  
G10  20464039.740   107539228.953       -2077.734          33.000    20464039.440    80305332.910       -1552.355          32.000  
G26  23011885.603   120928234.403        2908.880          24.000                                                                  
G31  21185546.651   111330801.3831         44.891          25.000                                                                  
G32  21316792.791   112020370.5781        478.639          24.000                                                                  
> 2021 11 06 07 28 03.9999383  0  9                     
C06  36835015.449   191809628.9721       -551.672          15.000  
C07  37837268.704   197028569.989         719.605          25.000  
C10  38579694.533   200894584.251         615.571          28.000  
C23  22440848.724   116855338.047       -2190.756          28.000  
C32  22189454.161   115546193.665         635.927          23.000  
G10  20464287.668   107540520.333       -2079.338          32.000    20464286.169    80306297.912       -1553.927          32.000  
G26  23011181.990   120924538.200        2907.998          24.000                                                                  
G31  21185391.359   111329968.788          44.814          25.000                                                                  
G32  21316553.257   112019103.977         479.036          24.000                                                                  
> 2021 11 06 07 28 04.9999380  0  8                     
C07  37837039.663   197027379.675         722.442          26.000  
C10  38579487.676   200893500.073         615.434          26.000  
C23  22441179.994   116857059.959       -2190.919          28.000  
C32  22189243.107   115545090.514         633.631          25.000  
G10  20464593.457   107542127.741       -2079.584          32.000    20464591.658    80307497.624       -1553.472          32.000  
G26  23010537.137   120921157.793        2907.599          24.000                                                                  
G31  21185292.727   111329451.275          44.847          25.000                                                                  
G32  21316372.482   112018152.452         478.786          25.000                                                                  
> 2021 11 06 07 28 05.9999375  0  8                     
C07  37836750.363   197025877.428         721.573          27.000  
C10  38579220.561   200892104.755         614.994          26.000  
C23  22441450.707   116858470.941       -2193.508          29.000  
C32  22188971.195   115543676.941         632.770          24.000  
G10  20464834.190   107543421.037       -2081.755          32.000    20464837.488    80308462.795       -1554.073          32.000  
G26  23009833.824   120917462.483        2907.466          25.000                                                                  
G31  21185136.535   111328618.727          44.733          25.000                                                                  
G32  21316132.049   112016886.183         478.147          27.000                                                                  
> 2021 11 06 07 28 06.9999370  0  7                     
C07  37836461.063   197024375.811         720.902          27.000  
C10  38578952.847   200890710.118         614.004          25.000  
C23  22441721.719   116859884.053       -2193.725          27.000  
C32  22188698.684   115542264.648         631.238          23.000  
G10  20465080.020   107544715.082       -2081.734          32.000    20465083.617    80309428.077       -1554.358          32.000  
G26  23009131.410   120913767.541        2906.800          26.000                                                                  
G31  21184977.345   111327786.687          43.779          24.000                                                                  
> 2021 11 06 07 28 07.9999365  0  9                     
C06  36834902.428   191809039.5721       -555.087          13.000  
C07  37836173.262   197022874.648         719.609          23.000  
C10  38578684.832   200889316.105         611.733          25.000  
C23  22441991.233   116861297.036       -2193.287          27.000  
C32  22188425.573   115540853.161         630.523          21.000  
G10  20465328.548   107546009.848       -2081.713          31.000    20465330.646    80310395.597       -1555.728          29.000  
G26  23008427.197   120910073.254        2906.259          26.000                                                                  
G31  21184819.954   111326955.759          42.585          21.000                                                                  
G32  21315659.876   112014355.6501        476.675          24.000                                                                  
> 2021 11 06 07 28 08.9999363  0  7                     
C07  37835976.299   197021842.976         719.676          22.000  
C10  38578507.955   200888392.498         610.291          26.000  
C23  22442351.284   116863178.347       -2193.858          27.000  
C32  22188243.898   115539909.374         631.741          23.000  
G10  20465663.716   107547778.049       -2083.320          32.000    20465667.313    80311715.746       -1555.738          30.000  
G26  23007812.623   120906851.988        2905.440          25.000                                                                  
G31  21184752.201   111326597.834          42.648          23.000                                                                  
> 2021 11 06 07 28 09.9999357  0  7                     
C07  37835658.818   197020186.208         720.030          23.000  
C10  38578211.460   200886844.602         611.727          28.000  
C23  22442591.717   116864435.708       -2194.396          27.000  
C37  22619406.910   117785186.9631        462.681          29.000  
G10  20465883.164   107548917.093       -2083.276          31.000    20465883.464    80312565.345       -1555.421          31.000  
G26  23007075.433   120903001.527        2904.429          26.000                                                                  
G32  21315230.273   112012141.1961        476.635          24.000                                                                  
> 2021 11 06 07 28 10.9999355  0  8                     
C07  37835461.555   197019154.810         718.465          26.000  
C10  38578034.582   200885920.186         612.276          28.000  
C23  22442953.567   116866318.083       -2194.466          26.000  
C32  22187761.532   115537396.9991        631.319          20.000  
G10  20466217.432   107550687.079       -2086.606          31.000    20466220.430    80313886.277       -1557.488          32.000  
G26  23006462.058   120899782.416        2904.366          25.000                                                                  
G31  21184502.474   111325254.0501         41.029          24.000                                                                  
G32  21315078.578   112011349.500         476.411          23.000                                                                  
> 2021 11 06 07 28 11.9999352  0  8                     
C07  37835235.212   197017968.353         717.848          26.000  
C10  38577828.025   200884840.436         610.958          29.000  
C23  22443285.137   116868044.264       -2194.556          27.000  
C37  22619083.434   117783481.3001        460.594          17.000  
G10  20466527.718   107552300.348       -2087.076          32.000    20466527.118                       -1558.309          32.000  
G26  23005815.705   120896404.066        2906.740          25.000                                                                  
G31  21184403.243   111324740.562          40.396          26.000                                                                  
G32  21314895.705   112010400.273         476.320          23.000                                                                  
> 2021 11 06 07 28 12.9999347  0  8                     
C07  37834948.310   197016469.536         718.038          26.000  
C10  38577560.611   200883448.981         610.924          29.000  
C23  22443556.449   116869457.551       -2193.464          27.000  
C32  22187281.565   115534886.9771        630.131          24.000  
G10  20466778.044   107553599.361       -2086.572          32.000    20466774.747    80316018.3821      -1558.281          32.000  
G26  23005111.493   120892712.272        2902.345          23.000                                                                  
G31  21184244.053   111323912.448          39.940          26.000                                                                  
G32  21314657.370   112009136.601         475.554          26.000                                                                  
> 2021 11 06 07 28 13.9999342  0  9                     
C07  37834659.011   197014971.699         716.765          26.000  
C10  38577293.495   200882057.572         611.758          29.000  
C23  22443827.462   116870870.579       -2194.719          28.000  
C32  22187010.852   115533478.022         627.949          24.000  
C37  22618610.362   117780999.1971        460.298          19.000  
G10  20467021.476   107554899.272       -2088.804          32.000    20467022.375    80316989.038       -1558.400          32.000  
G26  23004408.180   120889023.088        2901.392          23.000                                                                  
G31  21184086.362   111323084.963          39.508          24.000                                                                  
G32  21314415.737   112007873.417         475.287          24.000                                                                  
> 2021 11 06 07 28 14.9999337  0  8                     
C07  37834372.109   197013475.021         716.527          25.000  
C10  38577026.680   200880665.897         610.916          28.000  
C23  22444099.373   116872285.054       -2196.317          28.000  
C32  22186740.439   115532070.552         625.842          22.000  
G10  20467263.708   107556200.100       -2088.222          32.000    20467269.704    80317960.503       -1560.811          32.000  
G26  23003705.766   120885333.773        2902.034          23.000                                                                  
G31  21183927.472   111322258.063          38.724          26.000                                                                  
G32  21314176.503   112006610.596         474.607          25.000                                                                  
> 2021 11 06 07 28 15.9999334  0  8                     
C07  37834144.267   197012290.274         717.228          24.000  
C10  38576819.524   200879587.139         610.339          28.000  
C23  22444431.843   116874013.090       -2196.843          29.000  
C32  22186530.285   115530976.016         626.158          23.000  
G10  20467576.692   107557817.087       -2088.768          33.000    20467577.591    80319167.948       -1561.350          32.000  
G26  23003062.411   120881959.516        2899.959          23.000                                                                  
G31  21183827.641   111321746.897          38.024          25.000                                                                  
G32  21313996.327   112005663.698         474.168          24.000                                                                  
> 2021 11 06 07 28 16.9999329  0  8                     
C07  37833857.965   197010792.741         716.838          26.000  
C10  38576552.109   200878195.829         610.198          28.000  
C23  22444703.155   116875429.492       -2197.296          27.000  
C32  22186259.872   115529569.032         626.658          25.000  
G10  20467820.723   107559119.682       -2091.188          32.000    20467825.519    80320140.670       -1561.347          31.000  
G26  23002361.796   120878271.682        2900.673          22.000                                                                  
G31  21183668.751   111320921.594          37.136          24.000                                                                  
G32  21313755.894   112004402.175         473.395          25.000                                                                  
> 2021 11 06 07 28 17.9999324  0  8                     
C07  37833571.963   197009296.296         714.521          25.000  
C10  38576283.495   200876805.094         610.402          27.000  
C23  22444974.168   116876846.251       -2198.143          27.000  
C32  22185990.059   115528161.592         627.040          23.000  
G10  20468067.752   107560423.092       -2094.267          32.000    20468072.548    80321114.020       -1563.697          32.000  
G26  23001657.584   120874582.490        2902.384          20.000                                                                  
G31  21183509.561   111320096.946          36.723          25.000                                                                  
G32  21313516.060   112003140.935         473.333          26.000                                                                  
> 2021 11 06 07 28 18.9999324  0  8                     
C07  37833433.759   197008580.950         716.198          25.000  
C10  38576165.976   200876194.873         610.021          28.000  
C23  22445395.076   116879044.412       -2198.994          27.000  
C32  22185868.643   115527535.051         625.783          24.000  
G10  20468470.073   107562515.060       -2093.149          32.000    20468470.972    80322676.209       -1563.319          32.000  
G26  23001105.066   120871680.185        2903.552          24.000                                                                  
G31  21183502.366   111320059.557          38.679          25.000                                                                  
G32  21313426.422   112002667.281         473.808          27.000                                                                  
> 2021 11 06 07 28 19.9999319  0  8                     
C07  37833144.759   197007085.335         714.129          25.000  
C10  38575897.662   200874803.393         611.074          28.000  
C23  22445666.688   116880463.380       -2199.625          27.000  
C32  22185599.729   115526129.790         623.658          23.000  
G10  20468714.104   107563820.133       -2092.671          33.000    20468719.500    80323650.773       -1565.128          31.000  
G26  23000404.451   120867988.209        2903.905          22.000                                                                  
G31  21183343.177   111319233.578          37.626          24.000                                                                  
G32  21313186.288   112001405.945         473.156          27.000                                                                  
> 2021 11 06 07 28 20.9999314  0  7                     
C07  37832855.159   197005589.470         715.368          24.000  
C10  38575630.846   200873411.207         611.747          27.000  
C23  22445938.600   116881881.740       -2198.869          27.000  
G10  20468966.829   107565126.322       -2091.114          30.000    20468968.628    80324626.137       -1563.795          32.000  
G26  22999703.537   120864296.781        2902.058          24.000                                                                  
G31  21183189.383   111318409.193          34.209          24.000                                                                  
G32  21312947.953   112000145.015         473.462          28.000                                                                  
> 2021 11 06 07 28 21.9999311  0  5                     
C10  38575423.690   200872331.340         611.292          21.000  
C23  22446271.969   116883612.598       -2199.031          25.000  
G10  20469276.515   107566747.812       -2092.808          27.000    20469278.613    80325836.972       -1565.099          29.000  
G26  22999063.180   120860923.312        2898.573          24.000                                                                  
G32  21312768.377   111999198.828         473.487          32.000                                                                  
> 2021 11 06 07 28 22.9999306  0  4                     
C23  22446543.581   116885032.013       -2201.028          23.000  
G10  20469527.441   107568055.160       -2095.828          28.000    20469527.441    80326813.301       -1563.028          30.000  
G31  21182938.457   111317086.4811         26.729          10.000                                                                  
G32  21312528.843   111997938.706         471.881          33.000                                                                  
> 2021 11 06 07 28 23.9999301  0  6                     
C10  38574888.560   200869546.5861        611.119          25.000  
C23  22446818.791   116886451.927       -2199.208          25.000  
G10  20469772.971   107569363.013       -2096.996          32.000    20469775.969    80327789.973       -1564.351          31.000  
G26  22997667.346   120853552.2481       2900.481          20.000                                                                  
G31  21182782.265   111316272.618          27.783          16.000                                                                  
G32  21312289.909   111996679.647         470.854          30.000                                                                  
> 2021 11 06 07 28 24.9999296  0  7                     
C07  37831764.215   196999920.8581        714.694          25.000  
C10  38574619.647   200868155.327         609.792          27.000  
C23  22447091.602   116887870.653       -2199.620          25.000  
G10  20470024.197   107570671.891       -2097.652          30.000    20470023.897    80328767.253       -1566.233          32.000  
G26  22996964.633   120849863.076        2901.203          24.000                                                                  
G31  21182625.474   111315454.878          30.426          19.000                                                                  
G32  21312050.974   111995420.855         471.228          23.000                                                                  
> 2021 11 06 07 28 25.9999293  0  7                     
C07  37831537.572   196998737.427         715.208          25.000  
C10  38574413.389   200867077.727         609.105          29.000  
C23  22447425.271   116889601.141       -2199.388          20.000  
G10  20470331.784   107572298.130       -2099.501          25.000    20470332.684    80329980.568       -1567.760          32.000  
G26  22996323.077   120846490.275        2899.746          26.000                                                                  
G31  21182527.741   111314950.566          32.343          24.000                                                                  
G32  21311871.698   111994476.060         471.937          23.000                                                                  
> 2021 11 06 07 28 26.9999288  0  5                     
C07  37831248.871   196997240.978         715.816          25.000  
C10  38574147.174   200865688.098         609.229          29.000  
G10  20470577.914   107573609.253       -2098.463          25.000    20470582.111    80330959.665       -1569.936          31.000  
G26  22995622.162   120842803.155        2898.530          29.000                                                                  
G31  21182370.050   111314129.854          32.263          24.000                                                                  
> 2021 11 06 07 28 27.9999286  0  7                     
C07  37831050.709   196996213.099         716.296          22.000  
C10  38573971.195   200864767.185         608.738          29.000  
C32  22183656.174   115516006.5831        624.704          24.000  
C37  22615698.778   117765877.9221        450.233          26.000  
G10  20470911.283   107575392.342       -2098.539          25.000    20470920.876    80332291.000       -1565.640          23.000  
G31  21182303.496   111313782.353          31.368          21.000                                                                  
G32  21311486.165   111992428.1021        472.294          27.000                                                                  
> 2021 11 06 07 28 28.9999281  0  8                     
C07  37830764.407   196994715.750         716.760          24.000  
C10  38573705.879   200863378.701         607.645          30.000  
C32  22183386.361   115514602.493         622.485          23.000  
C37  22615458.944   117764647.780         449.464          26.000  
G10  20471158.012   107576703.696       -2099.726          24.000    20471170.304    80333268.980       -1566.856          25.000  
G26  22994310.870   120835904.5391       2897.204          26.000                                                                  
G31  21182147.305   111312964.581          27.615          20.000                                                                  
G32  21311246.331   111991168.206         471.524          25.000                                                                  
> 2021 11 06 07 28 29.9999278  0  7                     
C07  37830536.864   196993531.269         715.486          24.000  
C10  38573500.221   200862303.626         606.700          30.000  
C23  22448677.504   116896075.7831      -2207.632          20.000  
C32  22183176.506   115513511.932         621.950          25.000  
G10  20471466.199   107578330.135       -2099.468          25.000    20471479.989    80334483.297       -1567.982          27.000  
G26  22993667.515   120832534.533        2898.012          25.000                                                                  
G32  21311067.355   111990225.073         470.221          25.000                                                                  
> 2021 11 06 07 28 30.9999273  0  8                     
C07  37830249.963   196992036.198         713.283          24.000  
C10  38573234.006   200860916.580         606.600          30.000  
C23  22448951.814   116897501.674       -2204.226          24.000  
C32  22182907.593   115512110.403         619.029          25.000  
G10  20471715.926   107579642.931       -2101.202          28.000    20471730.316    80335463.623       -1570.764          24.000  
G26  22992966.600   120828849.057        2898.010          25.000                                                                  
G31  21181898.177   111311650.9301         27.093          16.000                                                                  
G32  21310830.819   111988967.836         468.497          24.000                                                                  
> 2021 11 06 07 28 31.9999268  0  8                     
C07  37829962.462   196990542.320         713.193          25.000  
C10  38572967.790   200859529.478         606.471          30.000  
C23  22449224.625   116898925.853       -2203.892          24.000  
C32  22182638.679   115510710.773         619.428          24.000  
G10  20471965.353   107580957.801       -2103.077          28.000    20471981.542    80336446.176       -1571.610          24.000  
G26  22992263.587   120825164.439        2896.062          25.000                                                                  
G31  21181743.484   111310836.159          27.338          17.000                                                                  
G32  21310592.184   111987711.679         468.476          25.000                                                                  
> 2021 11 06 07 28 32.9999265  0  8                     
C07  37829735.219   196989361.248         711.945          24.000  
C10  38572761.833   200858454.616         606.556          30.000  
C23  22449559.194   116900661.464       -2204.439          23.000  
C32  22182429.723   115509623.106         619.125          24.000  
G10  20472275.339   107582588.725       -2104.152          26.000    20472291.527    80337663.997       -1571.275          26.000  
G26  22991621.432   120821795.725        2895.827          25.000                                                                  
G31  21181645.152   111310334.720          29.858          17.000                                                                  
G32  21310413.208   111986770.002         469.304          25.000                                                                  
> 2021 11 06 07 28 33.9999260  0  8                     
C07  37829447.419   196987867.517         714.091          25.000  
C10  38572495.917   200857067.988         605.489          30.000  
C32  22182161.109   115508223.834         617.651          25.000  
C37  22614395.880   117759093.3651        447.998          25.000  
G10  20472523.567   107583905.332       -2104.711          28.000    20472542.754    80338647.542       -1573.529          27.000  
G26  22990918.718   120818112.132        2895.903          25.000                                                                  
G31  21181491.359   111309517.343          29.582          17.000                                                                  
G32  21310173.674   111985513.055         469.144          24.000                                                                  
> 2021 11 06 07 28 34.9999255  0  9                     
C07  37829160.217   196986373.234         713.090          24.000  
C10  38572230.001   200855681.799         605.986          30.000  
C23  22450099.420   116903505.5761      -2202.884          22.000  
C32  22181892.495   115506825.875         617.927          24.000  
C37  22614163.540   117757864.316         448.756          25.000  
G10  20472775.093   107585222.351       -2105.093          28.000    20472793.380    80339633.000       -1573.460          24.000  
G26  22990217.803   120814428.180        2896.280          25.000                                                                  
G31  21181337.865   111308700.351          28.440          18.000                                                                  
G32  21309930.542   111984255.737         469.528          26.000                                                                  
> 2021 11 06 07 28 35.9999252  0  8                     
C07  37828933.574   196985190.576         714.798          24.000  
C10  38572023.444   200854606.212         607.898          30.000  
C32  22181685.039   115505740.532         616.818          26.000  
C37  22613990.560   117756948.590         446.267          26.000  
G10  20473086.877   107586855.088       -2105.811          27.000    20473103.665    80340853.624       -1573.547          26.000  
G26  22989576.847   120811059.979        2895.738          24.000                                                                  
G31  21181242.831   111308199.644          27.472          18.000                                                                  
G32  21309752.465   111983313.703         469.336          25.000                                                                  
> 2021 11 06 07 28 36.9999250  0  8                     
C07  37828738.110   196984163.664         714.291          24.000  
C10  38571845.967   200853686.865         606.683          30.000  
C32  22181507.562   115504812.276         615.625          26.000  
C37  22613846.660   117756190.166         445.333          27.000  
G10  20473428.340   107588646.132       -2106.624          27.000    20473444.229    80342190.917       -1572.348          27.000  
G26  22988966.170   120807848.855        2895.320          26.000                                                                  
G31  21181177.476   111307857.257          26.683          18.000                                                                  
G32  21309604.368   111982529.552         468.690          25.000                                                                  
> 2021 11 06 07 28 37.9999245  0  9                     
C07  37828451.508   196982669.498         712.644          23.000  
C10  38571578.252   200852299.036         607.286          30.000  
C23  22451061.154   116908560.5961      -2208.676          20.000  
C32  22181238.948   115503417.077         614.668          25.000  
C37  22613612.522   117754964.376         445.828          27.000  
G10  20473682.265   107589965.473       -2107.514          28.000    20473694.556    80343175.332       -1573.693          26.000  
G26  22988266.454   120804165.995        2893.079          25.000                                                                  
G31  21181024.882   111307043.018          26.184          19.000                                                                  
G32  21309366.932   111981273.526         467.904          25.000                                                                  
> 2021 11 06 07 28 38.9999240  0  8                     
C07  37828163.707   196981177.271         711.152          24.000  
C10  38571310.537   200850910.981         607.201          30.000  
C32  22180970.634   115502021.648         614.758          25.000  
C37  22613377.485   117753738.214         445.410          26.000  
G10  20473937.088   107591285.356       -2107.843          28.000    20473946.981    80344160.234       -1573.626          25.000  
G26  22987562.841   120800484.224        2893.651          24.000                                                                  
G31  21180868.990   111306228.858          26.283          20.000                                                                  
G32  21309130.996   111980017.908         467.591          26.000                                                                  
> 2021 11 06 07 28 39.9999237  0  8                     
C07  37827937.664   196979997.280         712.413          23.000  
C10  38571102.781   200849835.337         606.304          29.000  
C32  22180762.578   115500938.403         615.080          27.000  
C37  22613203.605   117752824.867         445.241          27.000  
G10  20474249.772   107592921.023       -2108.695          30.000    20474258.166    80345380.947       -1574.670          25.000  
G26  22986923.084   120797117.608        2894.787          23.000                                                                  
G31  21180771.257   111305729.996          25.925          20.000                                                                  
G32  21308953.219   111979077.788         467.413          26.000                                                                  
> 2021 11 06 07 28 40.9999232  0  7                     
C07  37827652.861   196978503.985         712.372          23.000  
C10  38570836.865   200848448.297         606.212          29.000  
C32  22180494.563   115499542.333         615.713          25.000  
G10  20474501.897   107594242.631       -2109.856          30.000    20474508.793    80346367.028       -1573.980          23.000  
G26  22986219.471   120793434.972        2894.151          25.000                                                                  
G31  21180619.262   111304916.725          24.926          20.000                                                                  
G32  21308716.383   111977822.711         467.264          26.000                                                                  
> 2021 11 06 07 28 41.9999227  0  6                     
C07  37827365.959   196977010.153         713.313          19.000  
C10  38570570.350   200847061.809         605.605          25.000  
C32  22180227.148   115498146.088         614.901          25.000  
G10  20474755.222   107595565.127       -2110.838          27.000    20474760.618    80347354.049       -1576.495          28.000  
G31  21180467.268   111304105.096          23.572          21.000                                                                  
G32  21308476.249   111976567.796         467.246          26.000                                                                  
> 2021 11 06 07 28 42.9999222  0  7                     
C07  37827078.459   196975515.450         713.552          25.000  
C10  38570304.434   200845675.818         606.440          30.000  
C32  22179959.434   115496751.721         612.529          27.000  
G10  20475006.748   107596888.486       -2111.478          26.000    20475012.744    80348343.423       -1577.485          28.000  
G26  22984819.441   120786076.8661       2890.870          22.000                                                                  
G31  21180311.675   111303294.326          22.495          21.000                                                                  
G32  21308234.616   111975312.773         467.275          24.000                                                                  
> 2021 11 06 07 28 43.9999219  0  7                     
C07  37826853.015   196974333.533         712.859          27.000  
C10  38570098.177   200844601.144         605.664          31.000  
C32  22179752.877   115495671.481         611.247          27.000  
G10  20475318.532   107598527.600       -2112.201          29.000    20475324.828    80349567.750       -1577.526          31.000  
G26  22984178.784   120782713.547        2890.818          27.000                                                                  
G31  21180215.442   111302799.160          22.370          25.000                                                                  
G32  21308051.743   111974372.531         468.742          23.000                                                                  
> 2021 11 06 07 28 44.9999217  0  7                     
C07  37826656.950   196973308.888         712.156          29.000  
C10  38569920.700   200843683.288         605.100          30.000  
C32  22179575.699   115494747.895         612.136          24.000  
G10  20475660.295   107600325.003       -2112.973          32.000    20475667.191    80350910.169       -1578.460          33.000  
G26  22983569.306   120779507.448        2890.891          29.000                                                                  
G31  21180150.687   111302461.792          22.082          30.000                                                                  
G32  21307902.746   111973589.716         466.231          21.000                                                                  
> 2021 11 06 07 28 45.9999212  0  7                     
C07  37826370.649   196971816.811         709.502          26.000  
C10  38569654.784   200842297.399         604.757          28.000  
C37  22611940.279   117746306.3261        441.798          32.000  
G10  20475913.020   107601650.681       -2113.834          32.000    20475919.616    80351899.929       -1578.374          32.000  
G26  22982869.590   120775829.226        2890.372          29.000                                                                  
G31  21179996.893   111301652.039          21.810          30.000                                                                  
G32  21307664.111   111972335.893         465.328          24.000                                                                  
> 2021 11 06 07 28 46.9999206  0  8                     
C07  37826054.667   196970169.799         711.201          24.000  
C10  38569358.589   200840756.030         604.333          28.000  
C32  22179012.089   115491800.0411        615.125          18.000  
C37  22611675.263   117744927.987         440.263          31.000  
G10  20476132.468   107602819.078       -2113.092          32.000    20476142.062    80352772.120       -1578.126          32.000  
G26  22982140.195   120771993.300        2891.063          30.000                                                                  
G31  21179811.921   111300684.828          22.086          27.000                                                                  
G32  21307394.298   111970925.622         464.854          20.000                                                                  
> 2021 11 06 07 28 47.9999204  0  8                     
C07  37825858.303   196969145.789         711.661          27.000  
C10  38569181.711   200839839.714         603.996          29.000  
C32  22178834.013   115490872.454         613.264          19.000  
C37  22611530.463   117744176.191         438.879          22.000  
G10  20476473.033   107604616.393       -2113.680          28.000    20476483.825                       -1577.989          32.000  
G26  22981531.017   120768787.410        2890.296          27.000                                                                  
G31  21179745.367   111300348.685          20.485          25.000                                                                  
G32  21307240.804   111970145.395         465.185          18.000                                                                  
> 2021 11 06 07 28 48.9999199  0  8                     
C07  37825572.301   196967653.777         711.380          25.000  
C10  38568916.095   200838454.834         603.788          30.000  
C32  22178566.898   115489478.734         612.543          24.000  
C37  22611296.325   117742957.064         438.000          28.000  
G10  20476725.158   107605942.722       -2115.448          27.000    20476737.450    80355111.9231      -1582.043          32.000  
G26  22980830.402   120765109.077        2890.596          27.000                                                                  
G31  21179591.874   111299541.299          18.493          21.000                                                                  
G32  21307003.668   111968893.076         463.575          24.000                                                                  
> 2021 11 06 07 28 49.9999194  0  8                     
C07  37825286.299   196966162.662         709.526          28.000  
C10  38568650.479   200837070.191         603.841          30.000  
C32  22178299.183   115488086.817         610.273          19.000  
C37  22611062.187   117741738.220         438.164          28.000  
G10  20476977.284   107607270.466       -2116.287          25.000    20476990.175    80356104.240       -1583.280          32.000  
G26  22980130.387   120761430.628        2890.275          27.000                                                                  
G31  21179438.680   111298734.896          19.149          19.000                                                                  
G32  21306765.034   111967641.791         463.769          26.000                                                                  
> 2021 11 06 07 28 50.9999188  0  8                     
C07  37824968.819   196964516.188         709.449          26.000  
C10  38568354.284   200835529.386         604.446          30.000  
C32  22178002.388   115486541.203         608.060          27.000  
C37  22610797.770   117740363.698         437.403          29.000  
G10  20477199.430   107608442.065       -2117.442          30.000    20477212.321    80356978.694       -1581.767          27.000  
G26  22979400.692   120757594.585        2891.011          29.000                                                                  
G31  21179257.005   111297770.141          18.762          25.000                                                                  
G32  21306498.218   111966233.626         462.542          22.000                                                                  
> 2021 11 06 07 28 51.9999186  0  7                     
C07  37824773.654   196963495.004         708.956          26.000  
C10  38568178.006   200834613.035         603.980          31.000  
C32  22177823.712   115485621.090         607.653          24.000  
C37  22610653.870   117739613.773         438.231          29.000  
G10  20477543.292   107610245.030       -2118.967          28.000    20477555.583    80358324.927       -1582.756          27.000  
G26  22978791.214   120754388.943        2890.501          26.000                                                                  
G31  21179191.651   111297435.259          20.228          24.000                                                                  
> 2021 11 06 07 28 52.9999183  0  8                     
C07  37824547.611   196962318.160         708.058          30.000  
C10  38567972.648   200833540.360         603.967          28.000  
C32  22177618.354   115484545.562         607.095          25.000  
C37  22610479.691   117738706.396         438.810          27.000  
G10  20477858.374   107611892.272       -2120.400          26.000    20477868.567    80359554.769       -1582.750          29.000  
G26  22978150.857   120751025.000        2890.990          28.000                                                                  
G31  21179097.516   111296942.974          19.109          25.000                                                                  
G32  21306177.740   111964518.2531        465.552          24.000                                                                  
> 2021 11 06 07 28 53.9999178  0  6                     
C07  37824263.108   196960829.529         708.099          28.000  
C10  38567709.430   200832155.309         606.956          16.000  
C37  22610243.754   117737487.539         437.608          25.000  
G10  20478112.897   107613225.502       -2121.373          32.000    20478122.791    80360549.367       -1583.742          29.000  
G26  22977452.641   120747347.306        2890.749          28.000                                                                  
G31  21178943.423   111296137.273          17.131          30.000                                                                  
> 2021 11 06 07 28 54.9999176  0  5                     
C07  37824066.144   196959808.562         709.248          26.000  
C37  22610097.755   117736738.898         435.025          23.000  
G10  20478457.959   107615031.904       -2121.550          34.000    20478466.353    80361897.590       -1584.209          30.000  
G26  22976843.162   120744142.185        2889.239          22.000                                                                  
G31  21178878.667   111295805.249          16.643          31.000                                                                  
> 2021 11 06 07 28 55.9999171  0  7                     
C07  37823780.442   196958319.140         708.718          27.000  
C10  38567263.639   200829848.8291        606.402          21.000  
C37  22609864.517   117735523.967         432.563          29.000  
G10  20478716.679   107616365.867       -2123.232          35.000    20478720.277    80362893.649       -1585.627          30.000  
G26  22976144.046   120740465.795        2889.144          27.000                                                                  
G31  21178721.876   111295000.508          17.037          26.000                                                                  
G32  21305554.771   111961241.5961        460.950          18.000                                                                  
> 2021 11 06 07 28 56.9999165  0  7                     
C07  37823463.561   196956673.848         707.583          20.000  
C10  38566967.744   200828307.229         603.741          28.000  
C32  22176612.251   115479311.6651        607.727          18.000  
C37  22609601.898   117734154.822         432.579          26.000  
G10  20478940.025                       -2123.104          30.000    20478944.222    80363772.915       -1585.284          31.000  
G26  22975413.452   120736631.842        2887.675          24.000                                                                  
G32  21305287.057   111959835.732         460.060          24.000                                                                  
> 2021 11 06 07 28 57.9999160  0  7                     
C07  37823178.758   196955185.330         707.770          21.000  
C10  38566702.427   200826923.115         603.682          28.000  
C37  22609369.259   117732941.537         432.944          30.000  
G10  20479194.249   107618891.2991      -2123.362          31.000    20479198.746    80364770.476       -1585.915          32.000  
G26  22974713.137   120732956.720        2886.760          26.000                                                                  
G31  21178386.708   111293236.1861         15.851          24.000                                                                  
G32  21305048.122   111958587.418         460.034          24.000                                                                  
> 2021 11 06 07 28 58.9999158  0  6                     
C07  37822983.294   196954165.981         706.964          22.000  
C10  38566525.250   200826007.781         601.935          25.000  
C37  22609226.558   117732197.021         431.420          25.000  
G10  20479542.608   107620700.312       -2124.392          32.000    20479542.907    80366122.247       -1587.444          32.000  
G26  22974104.558   120729755.541        2886.528          26.000                                                                  
G32  21304897.626   111957812.223         461.023          21.000                                                                  
> 2021 11 06 07 28 59.9999153  0  7                     
C07  37822696.692   196952678.901         705.246          23.000  
C10  38566260.533   200824624.854         602.405          25.000  
C37  22608993.619   117730984.250         432.238          23.000  
G10  20479797.731   107622037.538       -2124.603          31.000    20479797.731                       -1586.707          32.000  
G26  22973405.742   120726080.974        2887.429          25.000                                                                  
G31  21178168.759   111292106.2301         12.371          21.000                                                                  
G32  21304658.991   111956562.950         462.031          21.000                                                                  
> 2021 11 06 07 29 00.9999150  0  6                     
C07  37822468.550   196951504.779         706.079          23.000  
C10  38566055.475   200823554.690         601.831          26.000  
G10  20480098.123   107623690.739       -2126.769          29.000    20480111.614    80368359.2961      -1589.811          32.000  
G26  22972766.285   120722721.553        2886.719          25.000                                                                  
G31  21178074.324   111291620.525          13.849          22.000                                                                  
G32  21304479.416   111955629.606         459.106          23.000                                                                  
> 2021 11 06 07 29 01.9999145  0  7                     
C07  37822182.848   196950016.527         708.999          22.000  
C10  38565790.459   200822172.580         601.533          26.000  
C32  22175425.073   115473172.7131        603.182          14.000  
G10  20480355.645   107625029.576       -2127.341          29.000    20480367.037    80369359.090       -1589.266          32.000  
G26  22972068.968   120719047.788        2884.822          26.000                                                                  
G31  21177922.030   111290819.670          12.761          23.000                                                                  
G32  21304238.682   111954383.083         458.257          24.000                                                                  
> 2021 11 06 07 29 02.9999142  0  7                     
C07  37821956.804   196948839.863         706.601          23.000  
C10  38565586.600   200821102.772         601.543          27.000  
C32  22175219.115   115472101.302         601.394          14.000  
G10  20480671.626   107626684.222       -2127.623          30.000    20480681.519    80370594.698       -1588.646          31.000  
G26  22971430.709   120715690.508        2884.593          25.000                                                                  
G31  21177828.794   111290334.374          12.617          23.000                                                                  
G32  21304060.306   111953451.290         460.164          23.000                                                                  
> 2021 11 06 07 29 03.9999137  0  9                     
C07  37821672.001   196947353.945         704.388          23.000  
C10  38565322.183   200819722.042         598.812          26.000  
C23  22458877.343   116949236.7431      -2218.371          25.000  
C32  22174953.499   115470722.602         596.049          13.000  
C37  22608188.976   117726772.2881        431.139          22.000  
G10  20480925.850   107628024.371       -2129.490          30.000    20480936.343    80371595.454       -1590.014          31.000  
G26  22970732.793   120712017.869        2884.488          25.000                                                                  
G31  21177676.500   111289534.171          12.013          24.000                                                                  
G32  21303821.671   111952203.134         460.721          23.000                                                                  
> 2021 11 06 07 29 04.9999132  0  9                     
C07  37821386.899   196945868.521         704.770          24.000  
C10  38565056.567   200818342.443         599.837          25.000  
C23  22459155.250   116950674.207       -2217.968          26.000  
C32  22174689.982   115469346.070         597.097          11.000  
C37  22607955.138   117725561.386         429.721          21.000  
G10  20481185.171   107629365.422       -2128.510          31.000    20481191.766    80372596.958       -1590.241          31.000  
G26  22970034.576   120708346.063        2884.029          26.000                                                                  
G31  21177525.704   111288734.865          11.333          25.000                                                                  
G32  21303585.135   111950954.943         459.966          24.000                                                                  
> 2021 11 06 07 29 05.9999127  0  3                     
C37  22607721.300   117724351.873         427.454          26.000  
G10  20481444.791   107630707.225       -2129.544          32.000    20481447.189    80373599.013       -1589.481          29.000  
G26  22969336.060   120704674.427        2884.657          26.000                                                                  
> 2021 11 06 07 29 06.9999124  0  6                     
C07  37820872.455   196943208.0451        706.088          25.000  
C10  38564587.991   200815892.6341        600.109          20.000  
C37  22607549.519   117723456.217         425.273          22.000  
G10  20481762.871   107632364.511       -2129.761          30.000    20481762.571    80374836.585       -1591.192          32.000  
G26  22968697.502   120701317.493        2884.212          23.000                                                                  
G31  21177289.468   111287453.7571         10.079          25.000                                                                  
> 2021 11 06 07 29 07.9999119  0  7                     
C07  37820587.352   196941721.381         706.708          22.000  
C10  38564323.574   200814512.302         599.480          27.000  
C23  22460049.231   116955303.0091      -2220.065          19.000  
C32  22173957.289   115465517.8571        599.032          16.000  
C37  22607318.379   117722249.510         426.848          24.000  
G10  20482015.296   107633707.881       -2132.559          29.000    20482017.994    80375839.757       -1591.295          32.000  
G26  22967997.786   120697646.216        2883.211          27.000                                                                  
> 2021 11 06 07 29 08.9999114  0  7                     
C07  37820302.849   196940234.415         706.086          24.000  
C10  38564057.958   200813132.107         598.811          25.000  
C23  22460325.940   116956743.563       -2222.152          24.000  
C37  22607087.239   117721041.877         427.951          21.000  
G10  20482272.518   107635052.198       -2130.446          30.000    20482273.717    80376843.622       -1592.193          31.000  
G26  22967298.670   120693974.869        2883.815          26.000                                                                  
G31  21176990.275   111285853.0601         12.109          19.000                                                                  
> 2021 11 06 07 29 09.9999114  0  5                     
C10  38563941.039   200812533.686         598.606          16.000  
C37  22607004.197   117720614.420         426.243          28.000  
G10  20482678.737   107637184.822       -2133.197          33.000    20482679.636    80378436.193       -1593.511          30.000  
G26  22966750.050   120691091.508        2882.918          25.000                                                                  
G31  21176989.675   111285842.242           9.436          26.000                                                                  
> 2021 11 06 07 29 10.9999109  0  5                     
C07  37819880.741   196938043.6601        704.382          22.000  
C37  22606772.157   117719407.772         426.354          29.000  
G10  20482938.357   107638530.564       -2133.089          32.000    20482935.659    80379441.221       -1594.591          31.000  
G26  22966049.435   120687420.620        2883.707          24.000                                                                  
G31  21176840.378   111285045.942           7.794          28.000                                                                  
> 2021 11 06 07 29 11.9999104  0  5                     
C07  37819597.138   196936558.333         705.451          25.000  
C37  22606540.418   117718200.834         425.373          26.000  
G10  20483190.183   107639877.068       -2135.815          33.000    20483192.281    80380446.613       -1594.682          30.000  
G26  22965350.918   120683749.880        2882.733          23.000                                                                  
G31  21176690.182   111284251.141           6.568          26.000                                                                  
> 2021 11 06 07 29 12.9999099  0  6                     
C07  37819312.934   196935072.424         705.129          26.000  
C10  38563145.990   200808391.3261        600.319          23.000  
C37  22606308.378   117716994.758         425.728          24.000  
G10  20483446.805   107641224.398       -2136.147          32.000    20483449.203    80381452.720       -1594.914          32.000  
G26  22964653.301   120680079.857        2881.296          24.000                                                                  
G31  21176537.888   111283457.069           6.385          25.000                                                                  
> 2021 11 06 07 29 13.9999096  0  6                     
C07  37819088.090   196933898.818         704.649          26.000  
C10  38562939.133   200807323.279         599.140          24.000  
C23  22461916.339   116965064.2781      -2225.167          16.000  
G10  20483756.790   107642887.366       -2136.719          29.000    20483764.585    80382694.639       -1594.896          32.000  
G26  22964015.043   120676727.427        2879.025          26.000                                                                  
G31  21176445.552   111282978.284           5.948          24.000                                                                  
> 2021 11 06 07 29 14.9999091  0  5                     
C07  37818804.486   196932413.821         704.460          25.000  
C10  38562673.217   200805943.077         599.503          26.000  
G10  20484015.511   107644236.239       -2132.753          27.000    20484022.107    80383701.872       -1597.522          32.000  
G26  22963314.728   120673060.251        2879.739          25.000                                                                  
G31  21176295.356   111282185.601           3.881          23.000                                                                  
> 2021 11 06 07 29 15.9999086  0  5                     
C07  37818519.684   196930929.506         703.987          26.000  
C10  38562409.999   200804562.956         599.074          27.000  
G10  20484270.035   107645585.482       -2137.222          26.000    20484278.729    80384709.800       -1597.009          33.000  
G26  22962615.312   120669392.454        2880.146          25.000                                                                  
G31  21176145.160   111281393.661           4.158          22.000                                                                  
> 2021 11 06 07 29 16.9999081  0  5                     
C07  37818234.281   196929445.801         702.896          26.000  
C10  38562145.882   200803183.610         598.453          26.000  
G10  20484526.357   107646935.046       -2137.658          25.000    20484535.651    80385718.094       -1597.647          32.000  
G26  22961917.096   120665725.493        2878.844          23.000                                                                  
G31  21175993.165   111280601.795           3.843          25.000                                                                  
> 2021 11 06 07 29 17.9999081  0  6                     
C07  37818099.974   196928741.499         704.532          25.000  
C10  38562031.361   200802585.825         598.173          26.000  
C23  22463172.769   116971616.9921      -2223.027          21.000  
G10  20484934.975   107649073.282       -2138.605          22.000    20484942.170    80387315.401       -1598.070          32.000  
G26  22961368.775   120662846.690        2878.646          23.000                                                                  
G31  21175993.165   111280597.826           3.799          25.000                                                                  
> 2021 11 06 07 29 18.9999076  0  6                     
C07  37817813.972   196927256.690         704.151          27.000  
C10  38561766.644   200801207.586         597.715          26.000  
C23  22463449.178   116973059.771       -2223.676          22.000  
G10  20485193.396   107650424.738       -2139.980          22.000    20485199.092    80388324.901       -1598.731          31.000  
G26  22960670.259   120659180.574        2878.917          26.000                                                                  
G31  21175842.070   111279806.236           3.842          24.000                                                                  
> 2021 11 06 07 29 19.9999071  0  6                     
C07  37817529.169   196925771.314         704.407          27.000  
C10  38561503.427   200799829.007         598.473          25.000  
G10  20485447.020   107651776.789       -2139.411          23.000    20485457.513    80389334.894       -1597.849          31.000  
G26  22959972.042   120655512.512        2881.647          26.000                                                                  
G31  21175693.672   111279013.456           4.952          24.000                                                                  
G32  21300453.203   111934482.8271        456.085          25.000                                                                  
> 2021 11 06 07 29 20.9999066  0  7                     
C07  37817244.067   196924286.146         703.808          26.000  
C10  38561239.010   200798449.074         599.560          25.000  
C23  22464003.194   116975945.9971      -2224.992          24.000  
G10  20485703.043   107653129.104       -2140.462          24.000    20485715.334    80390345.489       -1596.615          32.000  
G26  22959274.125   120651843.803        2880.117          25.000                                                                  
G31  21175541.678   111278221.417           4.517          25.000                                                                  
G32  21300219.965   111933239.159         455.983          25.000                                                                  
> 2021 11 06 07 29 21.9999063  0  6                     
C07  37817018.023   196923113.894         703.200          26.000  
C10  38561034.251   200797380.763         599.636          25.000  
G10  20486022.921   107654798.236       -2141.793          19.000    20486032.215    80391591.769       -1596.059          32.000  
G26  22958637.366   120648491.481        2878.703          25.000                                                                  
G31  21175450.840   111277745.966           2.041          25.000                                                                  
G32  21300045.186   111932310.113         456.118          25.000                                                                  
> 2021 11 06 07 29 22.9999058  0  7                     
C07  37816733.220   196921630.247         703.056          26.000  
C10  38560767.436   200796000.885         599.792          25.000  
C23  22464621.666   116979149.8611      -2227.492          20.000  
G10                                                                  20486289.437    80392603.177       -1599.938          32.000  
G26  22957937.351   120644824.476        2879.331          25.000                                                                  
G31  21175299.145   111276956.636           1.353          23.000                                                                  
G32  21299809.249   111931067.563         454.414          25.000                                                                  
> 2021 11 06 07 29 23.9999053  0  6                     
C07  37816448.118   196920146.880         702.662          27.000  
C10  38560502.120   200794621.112         598.579          26.000  
G10                                                                  20486546.959    80393615.153       -1599.510          30.000  
G26  22957241.233   120641157.690        2878.906          25.000                                                                  
G31  21175151.947   111276167.423           1.553          23.000                                                                  
G32  21299573.012   111929824.788         455.240          24.000                                                                  
> 2021 11 06 07 29 24.9999048  0  7                     
C07  37816165.114   196918664.341         701.510          27.000  
C10  38560237.703   200793242.698         597.617          26.000  
C23  22465182.278   116982045.1611      -2228.710          17.000  
G10                                                                  20486805.680    80394627.555       -1601.768          30.000  
G26  22956542.716   120637490.878        2880.577          26.000                                                                  
G31  21175004.449   111275378.341           1.277          22.000                                                                  
G32  21299334.378   111928580.904         456.944          24.000                                                                  
> 2021 11 06 07 29 25.9999045  0  6                     
C07  37815941.169   196917493.856         702.403          26.000  
C10  38560032.345   200792177.274         596.216          25.000  
G10                                                                  20487123.160    80395875.717       -1601.166          31.000  
G26  22955903.858   120634138.287        2878.280          26.000                                                                  
G31  21174912.113   111274904.743           0.038          23.000                                                                  
G32  21299156.901   111927651.585         456.933          24.000                                                                  
> 2021 11 06 07 29 26.9999043  0  7                     
C07  37815746.603   196916478.522         704.293          27.000  
C10  38559856.367   200791268.021         597.278          25.000  
C23  22465885.591   116985721.7151      -2228.569          19.000  
G10                                                                  20487470.020    80397241.957       -1602.293          30.000  
G26  22955296.779   120630944.889        2877.597          25.000                                                                  
G31  21174851.855   111274590.254          -0.665          23.000                                                                  
G32  21299009.103   111926879.963         455.575          24.000                                                                  
> 2021 11 06 07 29 27.9999037  0  6                     
C07  37815431.821   196914837.349         704.494          25.000  
C10  38559561.071   200789733.226         598.854          29.000  
G10  20487696.663   107663558.2281      -2145.371          30.000    20487698.761    80398137.871       -1601.732          28.000  
G26  22954569.782   120627121.963        2877.585          26.000                                                                  
G31  21174666.883   111273644.756           0.091          23.000                                                                  
G32  21298743.786   111925478.256         456.728          24.000                                                                  
> 2021 11 06 07 29 28.9999032  0  6                     
C07  37815147.618   196913353.023         703.282          26.000  
C10  38559296.654   200788353.804         598.677          28.000  
G10  20487954.784   107664916.439       -2146.360          32.000    20487957.782    80399152.402       -1603.519          28.000  
G26  22953873.964   120623456.616        2877.514          25.000                                                                  
G31  21174519.085   111272857.641          -0.140          23.000                                                                  
G32  21298508.749   111924233.616         456.360          20.000                                                                  
> 2021 11 06 07 29 29.9999030  0  6                     
C07  37814951.254   196912337.794         702.214          26.000  
C10  38559122.475   200787443.165         598.189          29.000  
C23  22466784.968   116990374.2681      -2228.444          19.000  
G10  20488302.843   107666748.102       -2147.225          34.000    20488306.441    80400520.847       -1604.845          26.000  
G26  22953266.284   120620264.177        2877.267          27.000                                                                  
G31  21174460.326   111272544.701          -3.169          23.000                                                                  
> 2021 11 06 07 29 30.9999025  0  7                     
C07  37814666.751   196910856.145         700.219          26.000  
C10  38558857.758   200786063.735         598.628          29.000  
C23  22467063.476   116991823.499       -2229.484          24.000  
G10  20488563.663   107668108.024       -2148.892          34.000    20488565.461    80401539.005       -1605.303          20.000  
G26  22952569.267   120616599.909        2876.171          27.000                                                                  
G31  21174311.030   111271759.669          -2.752          27.000                                                                  
G32  21298126.514   111922218.3781        453.755          20.000                                                                  
> 2021 11 06 07 29 31.9999020  0  6                     
C07  37814382.847   196909375.086         700.156          27.000  
C10  38558593.041   200784684.298         598.413          29.000  
C23  22467339.285   116993272.525       -2229.915          22.000  
G10  20488822.383   107669468.770       -2149.072          34.000    20488823.882    80402555.078       -1603.273          23.000  
G26  22951872.849   120612935.930        2876.228          29.000                                                                  
G31  21174161.133   111270974.212          -2.145          26.000                                                                  
> 2021 11 06 07 29 32.9999014  0  7                     
C07  37814068.065   196907738.036         700.372          24.000  
C10  38558297.746   200783148.999         598.459          29.000  
C23  22467588.412   116994567.401       -2231.678          24.000  
G10  20489050.525   107670672.298       -2148.577          35.000    20489051.125    80403452.396       -1602.404          21.000  
G26  22951146.152   120609114.181        2876.296          29.000                                                                  
G31  21173983.956   111270031.022          -2.308          27.000                                                                  
G32  21297626.760   111919577.4501        453.620          20.000                                                                  
> 2021 11 06 07 29 33.9999012  0  8                     
C07  37813874.399   196906724.305         701.293          28.000  
C10  38558122.967   200782238.800         596.222          27.000  
C23  22467956.557   116996486.916       -2231.434          26.000  
C32  22167807.047   115433350.8961        584.126          24.000  
G10  20489398.285   107672505.994       -2148.527          30.000    20489400.083    80404818.362       -1602.983          23.000  
G26  22950538.773   120605923.189        2874.791          27.000                                                                  
G31  21173923.698   111269717.822          -1.655          25.000                                                                  
G32  21297478.363   111918808.902         453.274          20.000                                                                  
> 2021 11 06 07 29 34.9999009  0  7                     
C07  37813649.855   196905554.357         701.810          32.000  
C10  38557917.010   200781174.745         595.943          25.000  
C32  22167604.687   115432298.052         584.336          24.000  
G10  20489715.465   107674182.511       -2150.325          30.000    20489720.562    80406070.475       -1606.093          29.000  
G26  22949903.812   120602576.452        2873.379          28.000                                                                  
G31  21173831.961   111269246.962          -2.346          32.000                                                                  
G32  21297300.586   111917883.176         452.895          25.000                                                                  
> 2021 11 06 07 29 35.9999004  0  8                     
C07  37813365.352   196904071.939         702.067          31.000  
C10  38557652.892   200779798.166         595.944          24.000  
C23  22468569.633   116999697.1031      -2229.919          26.000  
C32  22167342.668   115430932.712         584.964          27.000  
G10  20489972.987   107675545.640       -2151.344          29.000    20489981.081    80407088.766       -1607.633          30.000  
G26  22949209.793   120598915.020        2874.276          28.000                                                                  
G31  21173681.765   111268462.102          -3.255          31.000                                                                  
G32  21297062.850   111916642.872         452.340          22.000                                                                  
> 2021 11 06 07 29 36.9998999  0  8                     
C07  37813081.149   196902589.329         701.645          32.000  
C10  38557387.876   200778421.932         595.341          24.000  
C23  22468847.241   117001147.812       -2231.737          26.000  
C32  22167079.150   115429567.184         585.208          29.000  
G10  20490229.609   107676909.586       -2152.213          30.000    20490241.301    80408108.175       -1607.819          29.000  
G26  22948513.974   120595252.939        2874.337          28.000                                                                  
G31  21173530.970   111267678.750          -5.149          33.000                                                                  
G32  21296820.318   111915402.253         453.433          24.000                                                                  
> 2021 11 06 07 29 37.9998996  0  7                     
C07  37812856.904   196901419.387         701.409          28.000  
C10  38557184.017   200777357.287         596.572          22.000  
C23  22469187.205   117002910.667       -2231.347          25.000  
C32  22166872.893   115428512.884         586.959          27.000  
G10  20490548.289   107678589.416       -2152.792          30.000    20490561.479    80409362.216       -1607.325          30.000  
G31  21173442.531                          -3.806          31.000                                                                  
G32  21296640.143   111914476.438         453.086          22.000                                                                  
> 2021 11 06 07 29 38.9998991  0  7                     
C07  37812572.701   196899937.991         701.050          28.000  
C23  22469467.212   117004362.802       -2234.102          20.000  
C32  22166609.675   115427145.682         585.647          24.000  
G10  20490805.511   107679954.913       -2153.551          24.000    20490821.100    80410382.392       -1609.726          30.000  
G26  22947178.699   120588243.2201       2874.153          25.000                                                                  
G31  21173299.830   111266407.4991         -4.346          30.000                                                                  
G32  21296403.607   111913235.953         452.368          21.000                                                                  
> 2021 11 06 07 29 39.9998986  0  6                     
C07  37812288.198   196898456.387         701.460          29.000  
C32  22166347.957   115425779.640         584.125          22.000  
G10  20491063.032   107681321.100       -2154.354          25.000    20491081.619    80411403.086       -1608.651          28.000  
G26  22946483.180   120584580.781        2875.528          25.000                                                                  
G31  21173149.334   111265625.040          -6.234          30.000                                                                  
G32  21296172.467   111911996.446         452.024          19.000                                                                  
> 2021 11 06 07 29 40.9998981  0  6                     
C07  37812003.095   196896973.766         702.006          29.000  
C10  38556394.663   200773231.6711        594.669          18.000  
C32  22166085.638   115424415.303         583.594          24.000  
G10                                                                  20491341.839    80412423.413       -1608.581          29.000  
G26  22945784.964   120580918.304        2873.875          22.000                                                                  
G31  21173010.530   111264843.236          -6.581          30.000                                                                  
> 2021 11 06 07 29 41.9998979  0  6                     
C07  37811808.230   196895959.732         702.243          28.000  
C23  22470401.665   117009189.2061      -2232.898          13.000  
C32  22165915.056   115423519.420         582.160          16.000  
G10  20491681.504   107684527.8891      -2155.816          22.000    20491692.297    80413797.003       -1609.834          28.000  
G26  22945179.083   120577729.394        2874.109          26.000                                                                  
G32  21295799.825   111909989.5261        452.586          25.000                                                                  
> 2021 11 06 07 29 42.9998976  0  4                     
C07  37811582.786   196894789.846         700.536          28.000  
G10  20492008.278   107686211.712       -2156.885          22.000    20492012.475    80415054.964       -1610.753          29.000  
G26  22944541.125   120574383.424        2872.907          26.000                                                                  
G32  21295622.048   111909064.529         451.925          26.000                                                                  
> 2021 11 06 07 29 43.9998971  0  5                     
C07  37811298.882   196893308.733         700.845          28.000  
G10  20492271.496   107687581.057       -2157.135          24.000    20492273.294    80416077.010       -1609.972          28.000  
G26  22943842.308   120570722.997        2872.348          26.000                                                                  
G31  21172698.146   111263285.7031         -7.276          24.000                                                                  
G32  21295386.411   111907824.774         452.162          26.000                                                                  
> 2021 11 06 07 29 44.9998966  0  7                     
C07  37811013.180   196891828.248         700.077          28.000  
C10  38555491.089   200768508.4591        594.460          20.000  
C32  22165182.364   115419733.9641        583.498          13.000  
G10  20492533.814   107688950.775       -2158.040          24.000    20492533.514    80417098.650       -1610.239          27.000  
G26  22943145.891   120567062.920        2872.147          25.000                                                                  
G31  21172547.350   111262505.343          -7.415          26.000                                                                  
G32  21295149.575   111906584.892         451.700          25.000                                                                  
> 2021 11 06 07 29 45.9998963  0  6                     
C07  37810789.235   196890660.242         699.898          29.000  
C32  22164980.903   115418682.768         582.102          13.000  
G10  20492855.491   107690636.638       -2158.971          21.000    20492854.292    80418356.727       -1611.980          29.000  
G26  22942509.131   120563718.016        2872.358          26.000                                                                  
G31  21172456.813   111262041.278          -9.480          24.000                                                                  
G32  21294972.697   111905660.978         450.770          25.000                                                                  
> 2021 11 06 07 29 46.9998958  0  6                     
C07  37810504.432   196889180.324         699.015          29.000  
C23  22471911.719   117017089.5941      -2238.995          17.000  
C32  22164719.784   115417320.595         580.539          15.000  
G10  20493120.808   107692008.672       -2161.276          16.000    20493115.711    80419380.587       -1612.333          28.000  
G26  22941813.913   120560057.256        2872.716          25.000                                                                  
G31  21172305.118   111261263.111          -9.714          25.000                                                                  
> 2021 11 06 07 29 47.9998953  0  5                     
C07  37810219.929   196887700.321         699.033          28.000  
G10  20493381.927   107693382.244       -2161.506          20.000    20493377.130    80420405.402       -1613.737          29.000  
G26  22941117.195   120556396.895        2871.754          25.000                                                                  
G31  21172156.721   111260485.287         -10.298          25.000                                                                  
G32  21294499.325   111903185.4161        450.035          25.000                                                                  
> 2021 11 06 07 29 48.9998948  0  6                     
C07  37809935.426   196886220.883         699.024          29.000  
C10  38554497.577   200763314.4391        596.345          20.000  
G10                                                                  20493638.849    80421432.532       -1615.977          27.000  
G26  22940419.278   120552737.925        2871.471          25.000                                                                  
G31  21172009.523   111259708.034         -10.518          25.000                                                                  
G32  21294265.787   111901947.323         450.930          24.000                                                                  
> 2021 11 06 07 29 49.9998945  0  9                     
C07  37809711.182   196885053.925         697.979          28.000  
C10  38554294.018   200762249.484         596.718          20.000  
C23  22472802.403   117021779.9271      -2239.697          20.000  
C32  22163994.286   115413552.7811        580.042          18.000  
C37  22598742.516   117677582.2411        405.365          19.000  
G10  20493960.526   107696446.7741      -2163.733          21.000    20493960.526    80422695.049       -1615.878          28.000  
G26  22939782.819   120549394.194        2870.900          25.000                                                                  
G31  21171919.585   111259246.591         -12.434          25.000                                                                  
G32  21294088.010   111901024.438         449.232          25.000                                                                  
> 2021 11 06 07 29 50.9998940  0  6                     
C07  37809426.978   196883575.322         698.419          29.000  
C32  22163733.167   115412193.656         577.643          19.000  
G10  20494221.046   107697824.365       -2165.690          23.000    20494222.245    80423722.119       -1614.848          29.000  
G26  22939086.701   120545735.630        2870.520          25.000                                                                  
G31  21171769.989   111258471.027         -12.665          24.000                                                                  
G32  21293852.073   111899787.268         450.150          24.000                                                                  
> 2021 11 06 07 29 51.9998938  0  4                     
C07  37809232.413   196882564.891         698.210          28.000  
G10  20494570.604   107699674.287       -2163.663          23.000    20494573.602    80425101.749       -1615.041          28.000  
G26  22938481.120   120542550.785        2868.657          26.000                                                                  
G32  21293706.074   111899022.380         449.168          24.000                                                                  
> 2021 11 06 07 29 52.9998932  0  5                     
C07  37808918.231   196880930.531         697.293          28.000  
G10  20494799.346   107700892.107       -2163.838          22.000    20494805.641    80426011.818       -1617.214          27.000  
G26  22937756.222   120538736.026        2869.137          26.000                                                                  
G31  21171537.649   111257235.9101        -13.005          23.000                                                                  
G32  21293439.858   111897628.413         448.155          25.000                                                                  
> 2021 11 06 07 29 53.9998930  0  5                     
C07  37808724.565   196879920.049         698.595          29.000  
G10  20495148.904   107702740.596       -2162.752          22.000    20495157.897    80427393.645       -1618.059          28.000  
G26  22937148.842   120535552.290        2868.175          25.000                                                                  
G31  21171480.089   111256933.744         -13.468          23.000                                                                  
G32  21293294.159   111896865.360         448.501          24.000                                                                  
> 2021 11 06 07 29 54.9998925  0  5                     
C07  37808441.261   196878441.273         697.578          28.000  
G10  20495410.922   107704117.217       -2164.872          23.000    20495419.616    80428423.715       -1617.927          28.000  
G26  22936451.225   120531895.811        2868.954          25.000                                                                  
G31  21171333.191   111256160.497         -14.258          26.000                                                                  
G32  21293056.424   111895629.160         448.730          24.000                                                                  
> 2021 11 06 07 29 55.9998920  0  5                     
C07  37808157.357   196876963.612         697.410          28.000  
G10                                                                  20495682.234    80429453.849       -1618.614          28.000  
G26  22935755.407   120528240.079        2867.524          25.000                                                                  
G31  21171187.492   111255387.103         -14.044          25.000                                                                  
G32  21292820.187   111894393.268         447.894          23.000                                                                  
> 2021 11 06 07 29 56.9998915  0  5                     
C07  37807873.454   196875486.189         696.713          29.000  
G10                                                                  20495944.553    80430484.149       -1619.260          28.000  
G26  22935058.090   120524584.340        2867.144          25.000                                                                  
G31  21171039.095   111254613.319         -13.946          24.000                                                                  
G32  21292585.450   111893157.833         448.405          25.000                                                                  
> 2021 11 06 07 29 57.9998912  0  6                     
C07  37807650.408   196874320.975         697.364          29.000  
C23  22475248.409   117034534.9661      -2239.573          21.000  
G10  20496260.534   107708566.0451      -2167.644          30.000    20496266.830    80431750.768       -1620.715          28.000  
G26  22934422.829   120521244.236        2868.108          25.000                                                                  
G31  21170954.853   111254154.903         -14.222          28.000                                                                  
G32  21292409.172   111892237.196         447.336          25.000                                                                  
> 2021 11 06 07 29 58.9998907  0  5                     
C07  37807367.404   196872842.623         698.046          28.000  
G10  20496524.052   107709946.487       -2169.840          24.000    20496528.549    80432782.841       -1619.610          27.000  
G26  22933725.812   120517587.942        2868.359          25.000                                                                  
G31  21170809.154   111253382.167         -15.808          29.000                                                                  
G32  21292177.132   111891003.180         446.696          24.000                                                                  
> 2021 11 06 07 29 59.9998904  0  5                     
C07  37807145.258   196871677.252         696.033          26.000  
G10  20496848.127   107711642.809       -2168.525          29.000    20496850.526    80434050.387       -1620.288          27.000  
G26  22933091.451   120514247.378        2867.687          28.000                                                                  
G31  21170722.214   111252925.107         -15.856          25.000                                                                  
G32  21292000.555   111890083.791         448.279          25.000                                                                  
> 2021 11 06 07 30 00.9998899  0  6                     
C07  37806862.254   196870200.969         695.518          27.000  
C23  22476158.279   117039233.3651      -2244.219          24.000  
G10  20497110.746   107713024.169       -2169.567          31.000    20497113.144    80435082.511       -1620.388          31.000  
G26  22932397.731   120510592.500        2865.551          23.000                                                                  
G31  21170575.615   111252153.291         -16.363          30.000                                                                  
G32  21291763.719   111888847.947         447.633          24.000                                                                  
> 2021 11 06 07 30 01.9998897  0  5                     
C07  37806668.888   196869193.573         694.395          26.000  
G10  20497463.901   107714879.328       -2170.871          31.000    20497466.599    80436468.687       -1622.158          31.000  
G26  22931790.352   120507411.029        2866.420          23.000                                                                  
G31  21170520.454   111251854.820         -17.156          28.000                                                                  
G32  21291618.020   111888084.676         448.117          26.000                                                                  
> 2021 11 06 07 30 02.9998892  0  4                     
C07  37806384.385   196867717.801         695.543          27.000  
G10  20497726.219   107716263.275       -2172.518          28.000    20497729.817    80437502.182       -1622.174          29.000  
G26  22931095.733   120503756.801        2866.066          27.000                                                                  
G32  21291382.682   111886849.225         447.355          29.000                                                                  
> 2021 11 06 07 30 03.9998886  0  6                     
C07  37806071.102   196866085.302         696.307          27.000  
C10  38550919.554   200744736.5761        592.818          26.000  
C23  22477070.848   117043934.7981      -2242.718          26.000  
G10  20497958.858   107717490.922       -2173.442          26.000    20497963.355    80438418.094       -1623.296          29.000  
G26  22930371.434   120499945.698        2865.935          28.000                                                                  
G32  21291118.565   111885456.968         446.463          28.000                                                                  
> 2021 11 06 07 30 04.9998881  0  7                     
C07  37805786.898   196864608.522         696.412          23.000  
C10  38550658.435   200743362.399         594.587          21.000  
C23  22477352.353   117045396.451       -2241.999          24.000  
G10  20498222.376   107718876.709       -2173.753          31.000    20498227.173    80439453.533       -1625.147          26.000  
G26  22929676.515   120496291.260        2868.086          28.000                                                                  
G31  21170047.381   111249385.3881        -17.968          18.000                                                                  
G32  21290879.031   111884221.672         447.527          24.000                                                                  
> 2021 11 06 07 30 05.9998879  0  6                     
C07  37805591.434   196863600.912         695.506          25.000  
C10  38550484.555   200742453.801         595.264          21.000  
C23  22477723.796   117047328.165       -2244.515          25.000  
G10  20498574.932   107720735.358       -2173.913          34.000    20498581.228    80440843.405       -1624.236          28.000  
G31  21169990.720   111249088.053         -17.410          29.000                                                                  
G32  21290734.231   111883459.251         447.277          22.000                                                                  
> 2021 11 06 07 30 06.9998874  0  6                     
C07  37805308.430   196862125.376         695.992          28.000  
C10  38550218.939   200741079.282         591.994          26.000  
G10  20498837.850   107722121.985       -2174.824          36.000    20498845.045    80441880.139       -1626.471          27.000  
G26  22928376.016   120489448.1421       2868.369          12.000                                                                  
G31  21169845.321   111248317.632         -17.544          30.000                                                                  
G32  21290500.093   111882224.438         446.794          27.000                                                                  
> 2021 11 06 07 30 07.9998871  0  4                     
C07  37805084.185   196860961.327         695.759          25.000  
C10  38550015.080   200740019.875         590.877          26.000  
G10  20499164.324   107723824.945       -2176.900          34.000    20499169.420    80443153.481       -1624.750          25.000  
G26  22927741.355   120486108.056        2866.537          23.000                                                                  
> 2021 11 06 07 30 08.9998866  0  5                     
C07  37804800.281   196859485.055         696.028          27.000  
C10  38549750.063   200738647.136         592.835          27.000  
G10  20499431.739                       -2175.313          31.000    20499433.238    80444189.872       -1624.575          26.000  
G26  22927044.637   120482455.030        2864.737          25.000                                                                  
G32  21290093.275   111880075.3541        444.396          21.000                                                                  
> 2021 11 06 07 30 09.9998863  0  9                     
C07  37804577.835   196858321.418         695.179          28.000  
C10  38549545.905   200737585.298         593.922          28.000  
C23  22478958.641   117053803.5841      -2245.270          25.000  
C32  22159337.910   115389271.9751        567.723          26.000  
C37  22594739.387   117656736.8041        396.041          32.000  
G10  20499756.714   107726943.5881      -2178.743          30.000    20499756.414    80445461.109       -1625.470          26.000  
G26  22926409.077   120479118.901        2863.498          25.000                                                                  
G31  21169530.839                         -20.654          34.000                                                                  
G32  21289918.796   111879157.508         445.720          24.000                                                                  
> 2021 11 06 07 30 10.9998858  0  8                     
C07  37804294.232   196856844.718         697.700          20.000  
C23  22479239.546   117055268.054       -2244.126          23.000  
C32  22159079.189   115387923.450         568.351          26.000  
C37  22594513.044   117655559.849         395.386          30.000  
G10  20500021.131   107728333.116       -2180.074          28.000    20500020.231    80446497.911       -1625.111          23.000  
G26  22925719.854   120475467.676        2863.223          24.000                                                                  
G31  21169382.741   111245864.9881        -19.706          31.000                                                                  
G32  21289682.559   111877923.737         446.062          27.000                                                                  
> 2021 11 06 07 30 11.9998853  0  8                     
C07  37804009.129   196855366.647         697.650          28.000  
C10  38549017.371   200734834.4591        594.302          27.000  
C23  22479519.253   117056731.876       -2244.060          26.000  
C32  22158821.367   115386574.561         568.485          28.000  
C37  22594285.502   117654384.387         394.252          29.000  
G10                                                                  20500284.348    80447534.652       -1626.537          21.000  
G31  21169235.243   111245097.873         -20.636          35.000                                                                  
G32  21289447.522   111876690.035         445.856          29.000                                                                  
> 2021 11 06 07 30 12.9998848  0  7                     
C07  37803725.226   196853889.485         695.358          20.000  
C23  22479801.058   117058195.458       -2243.915          22.000  
C32  22158562.946   115385225.074         569.214          24.000  
C37  22594057.360   117653209.764         393.319          25.000  
G10  20500546.667   107731110.5231      -2178.244          20.000    20500550.264    80448573.446       -1625.758          21.000  
G26  22924331.216   120468166.6341       2863.396          18.000                                                                  
G31  21169088.045   111244329.768         -20.013          30.000                                                                  
> 2021 11 06 07 30 13.9998845  0  8                     
C07  37803500.081   196852724.800         695.700          23.000  
C10  38548551.793   200732403.0971        589.696          20.000  
C23  22480141.922   117059972.373       -2246.494          23.000  
C37  22593893.073   117652347.343         396.636          26.000  
G10  20500871.942   107732816.737       -2179.326          27.000    20500876.139    80449846.895       -1625.245          25.000  
G26  22923698.054   120464830.150        2863.561          19.000                                                                  
G31  21169003.204   111243878.175         -22.153          28.000                                                                  
G32  21289038.605   111874534.8061        443.292          19.000                                                                  
> 2021 11 06 07 30 14.9998840  0  6                     
C07  37803217.677   196851249.670         693.320          26.000  
C32  22158101.865   115382834.8921        570.563          16.000  
C37  22593669.728   117651170.189         395.639          18.000  
G10  20501136.359   107734209.313       -2181.366          31.000    20501141.755    80450884.423       -1626.774          22.000  
G31  21168858.104   111243113.487         -23.643          26.000                                                                  
G32  21288808.065   111873304.662         442.709          18.000                                                                  
> 2021 11 06 07 30 15.9998838  0  6                     
C07  37803024.910   196850244.250         692.612          25.000  
C10  38548120.392   200730133.0921        587.721          24.000  
C37  22593533.322   117650462.580         394.626          25.000  
G10  20501490.713   107736075.754       -2181.627          32.000    20501496.409    80452277.520       -1629.800          27.000  
G31  21168800.544   111242822.142         -25.036          23.000                                                                  
G32  21288668.062   111872546.690         443.143          19.000                                                                  
> 2021 11 06 07 30 16.9998833  0  9                     
C07  37802741.906   196848771.042         691.577          26.000  
C10  38547856.274   200728764.396         588.515          25.000  
C23  22481080.872   117064840.5991      -2247.937          19.000  
C32  22157675.560   115380604.8301        566.261          19.000  
C37  22593307.579   117649287.729         393.287          25.000  
G10  20501755.130   107737470.008       -2182.651          28.000    20501762.025    80453319.447       -1630.496          26.000  
G26  22921697.539   120454353.6051       2859.123          18.000                                                                  
G31  21168652.747   111242060.969         -28.052          18.000                                                                  
G32  21288434.823   111871315.912         442.964          20.000                                                                  
> 2021 11 06 07 30 17.9998830  0  7                     
C07  37802520.660   196847610.604         692.805          24.000  
C10  38547653.315   200727707.201         589.216          26.000  
C23  22481422.635   117066621.455       -2250.804          20.000  
G10  20502079.206   107739180.271       -2183.313          30.000    20502087.900    80454598.284       -1632.007          25.000  
G26  22921063.478   120451021.227        2860.265          18.000                                                                  
G31  21168568.505   111241615.645         -27.109          23.000                                                                  
G32  21288262.742   111870400.459         442.631          27.000                                                                  
> 2021 11 06 07 30 18.9998825  0  8                     
C07  37802237.655   196846137.235         692.908          26.000  
C10  38547388.598   200726336.506         590.605          27.000  
C23  22481702.941   117068092.539       -2252.476          20.000  
C32  22157215.379   115378218.1331        567.147          20.000  
C37  22592914.251   117647257.6271        390.038          22.000  
G10  20502343.623   107740576.685       -2185.143          28.000    20502354.715    80455642.069       -1630.102          17.000  
G31  21168423.405   111240855.185         -26.871          22.000                                                                  
G32  21288028.904   111869171.025         442.431          26.000                                                                  
> 2021 11 06 07 30 19.9998820  0  7                     
C10  38547124.481   200724966.001         589.753          22.000  
C32  22156957.857   115376872.378         563.643          20.000  
C37  22592686.708   117646086.835         390.213          22.000  
G10  20502606.541   107741973.960       -2185.745          23.000    20502620.032    80456683.024       -1629.195          18.000  
G26  22919679.036   120443725.0951       2860.311          22.000                                                                  
G31  21168278.006   111240094.589         -27.136          21.000                                                                  
G32  21287794.167   111867941.114         442.251          23.000                                                                  
> 2021 11 06 07 30 20.9998815  0  5                     
C32  22156700.635   115375529.283         562.699          24.000  
C37  22592460.965   117644915.986         388.931          25.000  
G10  20502871.258   107743372.687       -2186.869          23.000    20502884.448    80457724.146       -1630.340          19.000  
G26  22918985.317   120440077.537        2860.623          22.000                                                                  
G31  21168134.106   111239334.036         -26.038          22.000                                                                  
> 2021 11 06 07 30 21.9998812  0  5                     
C10  38546657.704   200722540.9081        586.941          20.000  
C32  22156501.873   115374499.892         560.482          24.000  
C37  22592295.479   117644059.079         386.914          22.000  
G10  20503198.931   107745087.107       -2187.538          23.000    20503210.323    80459001.953       -1629.890          19.000  
G31  21168048.665   111238887.141         -26.603          22.000                                                                  
> 2021 11 06 07 30 22.9998807  0  7                     
C10  38546393.287   200721172.326         590.119          20.000  
C23  22482892.517   117074283.5301      -2250.309          20.000  
C32  22156244.951   115373159.660         559.600          23.000  
G10  20503464.847   107746487.351       -2187.084          20.000    20503476.239    80460042.002       -1629.991          18.000  
G26  22917657.836   120433095.7041       2860.151          20.000                                                                  
G31  21167905.064   111238125.865         -26.349          24.000                                                                  
G32  21287150.213   111864571.8031        441.462          16.000                                                                  
> 2021 11 06 07 30 23.9998802  0  7                     
C10  38546131.868   200719801.279         589.962          27.000  
C23  22483175.521   117075754.064       -2252.882          25.000  
C32  22155987.729   115371819.662         559.443          28.000  
G10  20503730.463   107747886.458       -2187.214          27.000    20503743.354    80461086.420       -1635.584          20.000  
G26  22916963.516   120429447.672        2860.353          22.000                                                                  
G31  21167761.164   111237364.777         -27.739          35.000                                                                  
G32  21286915.175   111863342.226         442.138          27.000                                                                  
> 2021 11 06 07 30 24.9998799  0  5                     
C23  22483515.486   117077537.463       -2251.198          21.000  
C32  22155788.966   115370791.198         561.137          26.000  
G10  20504058.436   107749601.469       -2189.473          26.000                                                                  
G26  22916329.455   120426115.397        2859.364          21.000                                                                  
G31  21167677.222   111236920.657         -29.231          32.000                                                                  
> 2021 11 06 07 30 25.9998797  0  6                     
C23  22483887.229   117079476.998       -2251.040          24.000  
C32  22155623.481   115369917.824         560.852          19.000  
G10  20504413.690   107751476.006       -2190.410          26.000                                                                  
G26  22915725.973   120422942.276        2857.683          22.000                                                                  
G31  21167620.861   111236633.554         -28.605          27.000                                                                  
G32  21286595.597   111861669.4761        442.564          25.000                                                                  
> 2021 11 06 07 30 26.9998792  0  5                     
C10  38545487.015   200716475.9621        587.321          20.000  
C23  22484170.832   117080948.213       -2253.129          19.000  
C32  22155365.060   115368576.985         560.101          25.000  
G10  20504684.702   107752879.615       -2191.837          25.000                                                                  
G32  21286361.758   111860441.169         440.042          20.000                                                                  
> 2021 11 06 07 30 27.9998787  0  5                     
C10  38545224.696   200715106.999         588.746          18.000  
C32  22155107.538   115367237.065         558.750          25.000  
G10  20504952.117   107754284.246       -2192.404          27.000                                                                  
G31  21167332.760   111235118.0381        -31.238          21.000                                                                  
G32  21286128.220   111859213.062         440.229          27.000                                                                  
> 2021 11 06 07 30 28.9998781  0  4                     
C32  22154820.637   115365741.404         558.615          25.000  
G10  20505189.852   107755530.564       -2191.544          29.000                                                                  
G26  22913612.436   120411856.8921       2845.824          16.000                                                                  
G32  21285864.103   111857828.387         439.478          26.000                                                                  
> 2021 11 06 07 30 29.9998776  0  4                     
C10  38544668.881   200712216.4961        584.982          20.000  
C32  22154564.014   115364404.084         555.127          23.000  
G10  20505458.167   107756934.526       -2191.694          32.000                                                                  
G32  21285632.064   111856601.438         440.870          27.000                                                                  
> 2021 11 06 07 30 30.9998774  0  6                     
C10  38544495.001   200711318.409         587.221          19.000  
C32  22154397.030   115363534.869         557.334          23.000  
G10  20505814.620   107758812.365       -2193.894          33.000                                                                  
G26  22912327.226   120405062.3581       2850.254          14.000                                                                  
G31  21166969.112   111233164.0681        -31.461          31.000                                                                  
G32  21285487.264   111855845.448         440.745          27.000                                                                  
> 2021 11 06 07 30 31.9998769  0  6                     
C10  38544232.083   200709950.289         587.740          20.000  
C32  22154140.708   115362197.353         557.165          27.000  
G10  20506084.433   107760218.398       -2195.225          35.000                                                                  
G26  22911632.307   120401423.299        2852.793          13.000                                                                  
G31  21166825.811   111232408.072         -31.976          31.000                                                                  
G32  21285253.725   111854617.318         440.180          30.000                                                                  
> 2021 11 06 07 30 32.9998766  0  5                     
C10  38544028.524   200708893.966         587.988          24.000  
C32  22153943.744   115361172.065         556.554          26.000  
G10  20506413.305   107761940.490       -2194.883          30.000                                                                  
G31  21166741.270   111231967.557         -32.358          29.000                                                                  
G32  21285080.146   111853704.637         439.636          32.000                                                                  
> 2021 11 06 07 30 33.9998761  0  9                     
C10  38543764.707   200707524.778         588.614          24.000  
C20                                       389.195          27.000  
C23  22486271.778   117091889.3461      -2255.414          31.000  
C32  22153687.421   115359835.643         554.575          27.000  
C37  22589886.647   117631467.1761        382.915          28.000  
G10  20506680.121   107763347.806       -2195.139          32.000                                                                  
G26  22910303.327   120394452.4281       2857.492          14.000                                                                  
G31  21166598.269   111231212.754         -33.999          30.000                                                                  
G32  21284847.806   111852477.738         438.572          33.000                                                                  
> 2021 11 06 07 30 34.9998758  0  8                     
C10  38543562.047   200706467.578         588.564          28.000  
C20  25719074.155                        2280.333          27.000  
C23  22486614.141   117093677.149       -2256.491          29.000  
C32  22153490.458   115358812.612         553.691          24.000  
C37  22589723.860   117630615.398         383.288          27.000  
G10  20507005.695   107765070.538       -2195.836          33.000                                                                  
G26  22909671.365   120391122.377        2856.931          17.000                                                                  
G32  21284674.227   111851566.135         439.399          28.000                                                                  
> 2021 11 06 07 30 35.9998753  0  9                     
C10  38543301.228   200705098.926         586.861          30.000  
C20  25718486.262                        2278.657          25.000  
C23  22486898.944   117095153.129       -2256.092          25.000  
C32  22153234.435   115357478.747         553.868          24.000  
C37  22589500.814   117629450.249         384.086          29.000  
G10  20507272.211   107766479.880       -2199.821          33.000                                                                  
G26  22908974.047   120387478.669        2855.395          17.000                                                                  
G31  21166368.328   111230019.8761        -33.981          27.000                                                                  
G32  21284439.489   111850339.220         438.920          26.000                                                                  
> 2021 11 06 07 30 36.9998748  0  9                     
C10  38543043.106   200703732.881         585.503          25.000  
C20  25717899.569   133919846.0311       2280.494          27.000  
C23  22487181.348   117096629.007       -2256.999          29.000  
C32  22152979.611   115356144.944         552.502          25.000  
C37  22589277.469   117628285.513         383.432          22.000  
G10  20507541.125                       -2196.906          35.000    20507548.320    80476024.5361      -1642.406          31.000  
G26  22908279.128   120383836.471        2853.998          24.000                                                                  
G31  21166226.226   111229266.640         -34.915          28.000                                                                  
G32  21284206.850   111849112.938         438.159          29.000                                                                  
> 2021 11 06 07 30 37.9998743  0  8                     
C10  38542781.687   200702366.067         586.125          26.000  
C20  25717311.975   133916785.157        2280.354          24.000  
C23  22487465.851   117098106.280       -2258.506          28.000  
C37  22589053.524   117627122.566         380.531          28.000  
G10  20507811.537   107769266.1841      -2199.066          35.000    20507817.234    80477078.765       -1642.258          32.000  
G26  22907590.205   120380195.933        2851.100          16.000                                                                  
G31  21166085.624   111228514.028         -35.260          25.000                                                                  
G32  21283973.012   111847887.444         437.671          32.000                                                                  
> 2021 11 06 07 30 38.9998740  0  7                     
C20  25716783.441   133914036.651        2280.016          27.000  
C23  22487809.114   117099896.339       -2257.624          28.000  
C32  22152530.522   115353790.5521        552.801          26.000  
G10  20508134.414   107770992.921       -2201.174          23.000    20508145.207    80478367.807       -1642.932          29.000  
G26  22906958.842   120376871.753        2851.968          15.000                                                                  
G31  21166005.279   111228077.318         -36.280          25.000                                                                  
G32  21283798.233   111846977.311         436.964          32.000                                                                  
> 2021 11 06 07 30 39.9998735  0  8                     
C10  38542311.313   200699944.8501        586.531          18.000  
C20  25716195.248   133910976.369        2279.915          26.000  
C23  22488091.818   117101373.526       -2258.031          28.000  
C32  22152272.401   115352457.469         551.032          25.000  
G10  20508402.129   107772406.227       -2200.877          31.000    20508413.821    80479423.022       -1643.734          28.000  
G26  22906266.322   120373231.780        2852.569          16.000                                                                  
G31  21165860.779   111227325.598         -35.943          27.000                                                                  
G32  21283566.194   111845753.262         436.112          32.000                                                                  
> 2021 11 06 07 30 40.9998733  0  7                     
C20  25715696.094   133908384.675        2279.600          23.000  
C23  22488464.460   117103319.400       -2258.371          29.000  
C32  22152106.616   115351594.071         552.900          25.000  
G10                                                                  20508773.272    80480831.352       -1644.832          33.000  
G26  22905662.840   120370064.152        2852.067          18.000                                                                  
G31  21165810.115   111227046.825         -36.578          29.000                                                                  
G32  21283418.996                         434.152          32.000                                                                  
> 2021 11 06 07 30 41.9998728  0  7                     
C10  38541877.513   200697680.4241        584.966          18.000  
C20  25715108.501   133905326.604        2276.368          24.000  
C23  22488749.862   117104797.427       -2259.111          26.000  
C32  22151851.193   115350261.454         550.730          19.000  
G10  20509030.494   107775705.8511      -2201.899          31.000    20509042.186    80481887.485       -1644.927          28.000  
G31  21165662.617   111226296.687         -39.052          22.000                                                                  
G32  21283185.158   111843898.0391        435.290          29.000                                                                  
> 2021 11 06 07 30 42.9998723  0  6                     
C20  25714518.209   133902269.543        2275.923          23.000  
C23  22489036.764   117106276.811       -2260.564          28.000  
C32  22151595.470   115348930.124         550.382          26.000  
G10  20509297.609   107777119.942       -2201.630          29.000    20509311.399    80482944.555       -1646.355          28.000  
G31  21165527.410   111225548.511         -39.409          21.000                                                                  
G32  21282952.818   111842675.048         435.067          30.000                                                                  
> 2021 11 06 07 30 43.9998720  0  6                     
C20  25713992.074   133899524.970        2275.285          25.000  
C23  22489381.825   117108069.906       -2262.309          27.000  
C32  22151399.405   115347911.182         550.292          25.000  
G10  20509626.481   107778849.570       -2203.644          29.000    20509640.571    80484238.656       -1647.245          28.000  
G26  22903639.240   120359461.9671       2851.213          25.000                                                                  
G32  21282778.639   111841767.237         435.032          29.000                                                                  
> 2021 11 06 07 30 44.9998715  0  6                     
C20  25713402.082   133896467.885        2277.528          22.000  
C23  22489666.928   117109552.013       -2262.927          26.000  
C32  22151144.282   115346581.807         547.031          23.000  
G10  20509897.493   107780266.011       -2205.231          27.000    20509910.684    80485298.541       -1648.380          26.000  
G26  22902940.124   120355823.344        2848.483          18.000                                                                  
G32  21282546.300   111840544.419         434.699          28.000                                                                  
> 2021 11 06 07 30 45.9998710  0  5                     
C20  25712813.590   133893409.920        2276.761          25.000  
C23  22489951.431   117111034.752       -2264.150          28.000  
G10                                                                  20510179.598    80486357.546       -1647.215          25.000  
G31  21165157.466   111223618.0101        -40.858          24.000                                                                  
G32  21282313.961   111839322.569         433.383          27.000                                                                  
> 2021 11 06 07 30 46.9998705  0  7                     
C20  25712229.894   133890353.634        2275.863          25.000  
C23  22490234.734   117112518.030       -2263.777          27.000  
C32  22150636.433   115343927.5081        545.644          15.000  
G10  20510444.315   107783103.5111      -2207.976          26.000    20510450.011    80487418.587       -1649.286          24.000  
G26  22901560.180   120348550.7481       2848.501          17.000                                                                  
G31  21165014.465   111222871.941         -42.451          24.000                                                                  
G32  21282082.521   111838101.764         432.704          26.000                                                                  
> 2021 11 06 07 30 47.9998702  0  7                     
C10  38540434.612   200690121.5831        583.400          16.000  
C20  25711702.859   133887609.120        2276.489          27.000  
C23  22490579.796   117114313.742       -2265.005          30.000  
C32  22150440.669   115342913.437         545.855          20.000  
G10  20510774.686   107784839.371       -2209.008          32.000    20510780.982    80488715.044       -1650.106          30.000  
G31  21164932.622   111222442.172         -43.050          28.000                                                                  
G32  21281910.740   111837196.667         431.819          32.000                                                                  
> 2021 11 06 07 30 48.9998697  0  6                     
C20  25711116.165   133884552.472        2275.290          22.000  
C23  22490866.097   117115798.360       -2265.661          26.000  
C32  22150187.045   115341587.308         545.677          24.000  
G10  20511046.298   107786261.530       -2211.148          27.000    20511051.694    80489776.614       -1650.544          29.000  
G31  21164795.017   111221697.908         -43.906          25.000                                                                  
G32  21281680.199   111835976.809         432.118          29.000                                                                  
> 2021 11 06 07 30 49.9998694  0  8                     
C10  38539969.934   200687705.1141        580.305          26.000  
C20  25710589.130   133881809.288        2275.749          22.000  
C23  22491213.857   117117595.867       -2265.439          24.000  
C32  22149993.678   115340573.729         545.747          22.000  
G10  20511377.269   107788000.232       -2212.236          27.000    20511382.665    80491075.159       -1653.617          26.000  
G26  22899597.738   120338262.5001       2850.898          16.000                                                                  
G31  21164712.574   111221269.233         -44.562          27.000                                                                  
G32  21281509.318   111835072.480         430.548          27.000                                                                  
> 2021 11 06 07 30 50.9998689  0  8                     
C10  38539710.314   200686348.556         571.520          28.000  
C20  25710001.536   133878752.592        2278.470          24.000  
C23  22491498.060   117119078.563       -2261.881          25.000  
C32  22149738.255   115339246.960         546.562          25.000  
G10  20511647.382   107789426.909       -2216.097          34.000    20511654.577    80492140.477       -1654.236          29.000  
G26  22898907.017   120334628.200        2843.061          26.000                                                                  
G31  21164569.274   111220526.592         -46.413          27.000                                                                  
G32  21281275.180   111833850.680         437.248          29.000                                                                  
> 2021 11 06 07 30 51.9998684  0  7                     
C20  25709413.044   133875691.422        2282.943          23.000  
C23  22491779.565   117120556.993       -2258.118          26.000  
C32  22149481.333   115337918.600         547.644          22.000  
G10  20511920.793   107790857.434       -2220.460          33.000    20511926.789    80493209.750       -1659.221          30.000  
G26  22898217.194   120331003.464        2834.123          25.000                                                                  
G31  21164427.772   111219785.812         -48.506          28.000                                                                  
G32  21281041.941   111832624.004         440.842          29.000                                                                  
> 2021 11 06 07 30 52.9998682  0  6                     
C23  22492151.907   117122501.933       -2256.815          25.000  
C32  22149313.150   115337057.938         547.940          26.000  
G10  20512285.340   107792763.533       -2218.514          35.000    20512289.537    80494633.658       -1658.574          31.000  
G26  22897619.108   120327857.054        2828.707          21.000                                                                  
G31  21164378.606   111219520.124         -49.540          22.000                                                                  
G32  21280898.341   111831867.136         442.415          27.000                                                                  
> 2021 11 06 07 30 53.9998676  0  6                     
C20  25708292.719   133869876.7861       2281.111          22.000  
C23  22492406.131   117123820.807       -2253.396          26.000  
C32  22149027.148   115335573.004         548.219          28.000  
G10  20512528.172   107794040.474       -2223.061          36.000    20512532.070    80495587.194       -1661.173          30.000  
G31  21164207.724   111218623.561         -47.917          27.000                                                                  
G32  21280634.223   111830477.984         444.944          27.000                                                                  
> 2021 11 06 07 30 54.9998671  0  7                     
C20  25707704.526   133866813.818        2282.525          21.000  
C23  22492689.735   117125295.058       -2256.628          25.000  
C32  22148772.024   115334245.732         546.086          28.000  
G10  20512801.583                       -2216.061          35.000    20512805.180    80496660.215       -1662.541          31.000  
G26  22896218.178   120320473.9681       2821.668          25.000                                                                  
G31  21164067.121   111217884.456         -49.137          24.000                                                                  
G32  21280397.987   111829245.481         443.710          25.000                                                                  
> 2021 11 06 07 30 55.9998666  0  6                     
C20  25707116.334   133863751.426        2282.015          21.000  
C23  22492972.439   117126772.780       -2263.398          25.000  
C32  22148517.201   115332919.126         545.510          27.000  
G10  20513072.895   107796933.2211      -2223.929          35.000    20513078.591    80497733.149       -1660.549          31.000  
G31  21163927.418   111217146.294         -49.342          22.000                                                                  
G32  21280165.648   111828014.442         440.674          23.000                                                                  
> 2021 11 06 07 30 56.9998664  0  7                     
C20  25706616.879   133861158.534        2278.596          19.000  
C23  22493346.280   117128723.753       -2262.730          21.000  
C32  22148352.615   115332060.543         545.492          25.000  
G10  20513434.445   107798843.643       -2223.206          35.000    20513441.940    80499158.865       -1662.192          31.000  
G26  22894936.865   120313727.8391       2822.977          23.000                                                                  
G31  21163876.753   111216881.907         -50.269          24.000                                                                  
G32  21280024.146   111827260.543         436.891          22.000                                                                  
> 2021 11 06 07 30 57.9998661  0  5                     
C23  22493690.142   117130518.670       -2262.961          25.000  
G10  20513771.412   107800600.280       -2233.250          35.000    20513775.609    80500467.452       -1661.660          31.000  
G26  22894310.599   120310431.128        2823.920          27.000                                                                  
G31  21163797.008   111216459.084         -51.529          23.000                                                                  
G32  21279856.262   111826354.547         431.512          21.000                                                                  
> 2021 11 06 07 30 58.9998656  0  6                     
C20  25705502.851   133855354.6331       2276.309          20.000  
C23  22493974.645   117132001.858       -2264.352          26.000  
G10  20514046.021   107802041.267       -2226.940          35.000    20514049.319    80501541.342       -1663.590          31.000  
G26  22893624.074   120306818.926        2824.645          23.000                                                                  
G31  21163656.106   111215722.490         -51.991          25.000                                                                  
G32  21279626.021   111825135.830         433.103          23.000                                                                  
> 2021 11 06 07 30 59.9998651  0  6                     
C20  25704917.356   133852298.910        2274.309          21.000  
C23  22494257.949   117133485.924       -2264.466          26.000  
G10  20514320.631   107803482.058       -2229.610          35.000    20514323.030    80502616.756       -1663.094          31.000  
G26  22892938.149   120303202.873        2829.861          20.000                                                                  
G31  21163514.604   111214986.711         -51.002          22.000                                                                  
G32  21279394.582   111823915.637         431.162          23.000                                                                  
> 2021 11 06 07 31 00.9998646  0  5                     
C23  22494541.553   117134969.888       -2264.196          25.000  
G10  20514593.143   107804926.036       -2234.757          34.000                                                                  
G26  22892249.825   120299585.299        2830.312          20.000                                                                  
G31  21163375.800   111214250.683         -53.375          25.000                                                                  
G32  21279166.140   111822697.567         429.951          22.000                                                                  
> 2021 11 06 07 31 01.9998643  0  4                     
C23  22494886.014   117136766.831       -2267.626          24.000  
G10  20514926.512   107806682.161       -2225.584          33.000                                                                  
G26  22891620.261   120296282.323        2829.875          20.000                                                                  
G31  21163296.055   111213831.960         -54.214          26.000                                                                  
> 2021 11 06 07 31 02.9998638  0  4                     
C23  22495172.316   117138253.246       -2266.127          25.000  
G10  20515202.921                       -2229.979          34.000                                                                  
G26  22890937.933   120292668.836        2821.099          23.000                                                                  
G31  21163158.150   111213098.198         -54.074          25.000                                                                  
> 2021 11 06 07 31 03.9998633  0  4                     
G10  20515474.832   107809566.2641      -2234.765          32.000                                                                  
G26  22890251.708   120289059.812        2822.767          23.000                                                                  
G31  21163012.751   111212362.809         -53.491          22.000                                                                  
G32  21278506.596   111819350.3301        435.770          22.000                                                                  
> 2021 11 06 07 31 04.9998628  0  3                     
G10  20515748.543   107811012.524       -2232.485          32.000                                                                  
G31  21162871.849   111211630.726         -56.792          23.000                                                                  
G32  21278273.358   111818126.718         435.431          27.000                                                                  
> 2021 11 06 07 31 05.9998625  0  3                     
G10  20516085.510   107812772.032       -2233.215          33.000                                                                  
G31  21162788.506   111211218.032         -62.709          21.000                                                                  
G32  21278098.579   111817218.092         435.558          27.000                                                                  
> 2021 11 06 07 31 06.9998623  0  4                     
G10  20516452.156   107814691.415       -2236.822          34.000                                                                  
G26  22888353.423   120279007.7071       2824.639          21.000                                                                  
G31  21162737.542   111210964.824         -59.913          23.000                                                                  
G32  21277955.878   111816466.677         436.826          27.000                                                                  
> 2021 11 06 07 31 07.9998618  0  4                     
G10  20516726.466   107816140.375       -2236.040          34.000                                                                  
G26  22887671.395   120275397.697        2819.781          23.000                                                                  
G31  21162597.838   111210235.892         -57.074          26.000                                                                  
G32  21277722.040   111815243.632         433.719          26.000                                                                  
> 2021 11 06 07 31 08.9998612  0  3                     
G10  20516972.595   107817429.204       -2232.399          34.000                                                                  
G31  21162426.357   111209347.486         -58.082          23.000                                                                  
G32  21277460.021   111813864.916         433.063          26.000                                                                  
> 2021 11 06 07 31 09.9998607  0  3                     
G10  20517249.004   107818877.113       -2237.935          34.000                                                                  
G31  21162286.054   111208617.787         -56.703          27.000                                                                  
G32  21277227.982   111812644.666         431.879          28.000                                                                  
> 2021 11 06 07 31 10.9998602  0  4                     
G10  20517523.314                       -2245.049          34.000                                                                  
G26  22885571.648   120264411.8061       2818.292          20.000                                                                  
G31  21162146.351   111207887.607         -58.752          26.000                                                                  
G32  21276994.143   111811424.843         432.415          26.000                                                                  
> 2021 11 06 07 31 11.9998600  0  2                     
G10  20517891.160   107822241.8431      -2241.160          33.000                                                                  
G31  21162097.185   111207631.273         -58.784          25.000                                                                  
> 2021 11 06 07 31 12.9998595  0  4                     
G10  20518165.769   107823693.180       -2238.924          34.000                                                                  
G26  22884281.641   120257665.2941       2822.158          20.000                                                                  
G31  21161958.981   111206902.749         -58.996          26.000                                                                  
G32  21276624.799   111809466.2891        424.414          25.000                                                                  
> 2021 11 06 07 31 13.9998592  0  4                     
G10  20518501.537                       -2230.867          33.000                                                                  
G26  22883654.476   120254370.384        2822.759          24.000                                                                  
G31  21161881.035   111206490.046         -59.240          26.000                                                                  
G32  21276453.917   111808568.736         424.154          24.000                                                                  
> 2021 11 06 07 31 14.9998587  0  4                     
G10  20518776.447   107826899.2561      -2234.358          31.000                                                                  
G26  22882965.553   120250756.870        2827.702          25.000                                                                  
G31  21161740.432   111205761.257         -59.893          20.000                                                                  
G32  21276223.677   111807357.594         422.831          28.000                                                                  
> 2021 11 06 07 31 15.9998582  0  3                     
G10  20519049.857   107828345.750       -2233.728          28.000                                                                  
G31  21161604.026   111205033.471         -60.234          29.000                                                                  
G32  21275993.436   111806148.897         416.984          31.000                                                                  
> 2021 11 06 07 31 16.9998579  0  4                     
G10  20519383.826   107830105.687       -2231.656          29.000                                                                  
G26  22881633.874   120243824.0191       2844.629          16.000                                                                  
G31  21161528.179   111204621.648         -61.444          30.000                                                                  
G32  21275825.852   111805261.307         413.675          33.000                                                                  
> 2021 11 06 07 31 17.9998574  0  4                     
G10  20519658.136   107831549.012       -2230.049          29.000                                                                  
G26  22880946.450   120240189.477        2848.899          18.000                                                                  
G31  21161392.972   111203897.045         -64.871          30.000                                                                  
G32  21275597.710   111804060.534         412.016          32.000                                                                  
> 2021 11 06 07 31 18.9998569  0  4                     
G10  20519933.046   107832991.003       -2229.428          29.000                                                                  
G26  22880250.932   120236550.761        2853.206          19.000                                                                  
G31  21161256.867   111203174.466         -64.925          32.000                                                                  
G32  21275371.667   111802863.068         406.606          33.000                                                                  
> 2021 11 06 07 31 19.9998564  0  4                     
G10  20520206.756   107834432.501       -2229.297          30.000                                                                  
G26  22879557.212   120232910.205        2851.341          18.000                                                                  
G31  21161121.361   111202451.748         -64.991          32.000                                                                  
G32  21275144.124   111801666.933         410.475          35.000                                                                  
> 2021 11 06 07 31 20.9998559  0  4                     
G10  20520482.566   107835875.198       -2231.016          29.000                                                                  
G26  22878861.694   120229271.748        2849.610          18.000                                                                  
G31  21160981.357   111201728.021         -64.061          31.000                                                                  
G32  21274916.282                         408.103          35.000                                                                  
> 2021 11 06 07 31 21.9998559  0  4                     
G10  20520906.772   107838106.890       -2232.044          30.000                                                                  
G26  22878318.470   120226422.218        2846.712          17.000                                                                  
G31  21160993.649   111201792.303         -64.322          30.000                                                                  
G32  21274839.535   111800029.0381        406.864          33.000                                                                  
> 2021 11 06 07 31 22.9998554  0  3                     
G10  20521181.682   107839551.872       -2233.737          28.000                                                                  
G31  21160856.044   111201069.043         -65.584          26.000                                                                  
G32  21274613.192   111798835.441         404.303          34.000                                                                  
> 2021 11 06 07 31 23.9998548  0  3                     
G10  20521427.212   107840840.551       -2234.146          28.000                                                                  
G31  21160687.561   111200189.846         -66.607          31.000                                                                  
G32  21274354.171                         407.673          35.000                                                                  
> 2021 11 06 07 31 24.9998543  0  3                     
G10  20521701.522   107842287.365       -2235.926          28.000                                                                  
G31  21160549.357   111199469.947         -68.230          27.000                                                                  
G32  21274126.029   111796287.5681        409.519          34.000                                                                  
> 2021 11 06 07 31 25.9998538  0  4                     
G10  20521976.132   107843735.152       -2235.984          26.000                                                                  
G26  22875531.299   120211740.1721       2843.586          14.000                                                                  
G31  21160411.752   111198752.085         -70.692          25.000                                                                  
G32  21273899.686   111795094.450         404.581          32.000                                                                  
> 2021 11 06 07 31 26.9998536  0  4                     
G10  20522343.677   107845657.289       -2239.776          25.000                                                                  
G26  22874930.515   120208582.399        2842.598          16.000                                                                  
G31  21160365.884   111198507.573         -70.725          23.000                                                                  
G32  21273764.479   111794375.729         402.240          29.000                                                                  
> 2021 11 06 07 31 27.9998531  0  4                     
G10  20522621.285   107847109.100       -2240.323          28.000                                                                  
G26  22874242.192   120204952.583        2841.315          18.000                                                                  
G31  21160228.279   111197791.098         -71.076          26.000                                                                  
G32  21273539.935   111793185.134         403.657          28.000                                                                  
> 2021 11 06 07 31 28.9998525  0  4                     
G10  20522868.913   107848404.325       -2241.177          26.000                                                                  
G26  22873523.889   120201165.235        2841.764          19.000                                                                  
G31  21160061.594   111196916.752         -70.786          29.000                                                                  
G32  21273284.212   111791835.675         405.328          31.000                                                                  
> 2021 11 06 07 31 29.9998523  0  4                     
G10  20523237.358   107850331.686       -2243.093          27.000                                                                  
G26  22872923.405   120198009.227        2841.639          19.000                                                                  
G31  21160014.527   111196672.543         -70.718          31.000                                                                  
G32  21273147.806   111791115.333         406.264          29.000                                                                  
> 2021 11 06 07 31 30.9998518  0  3                     
G10  20523514.666   107851787.218       -2243.890          26.000                                                                  
G26  22872232.983   120194381.242        2838.990          20.000                                                                  
G32  21272921.463   111789921.522         406.271          28.000                                                                  
> 2021 11 06 07 31 31.9998513  0  4                     
G10  20523791.974   107853243.963       -2244.704          28.000                                                                  
G26  22871544.060   120190756.041        2836.509          24.000                                                                  
G31  21159747.112   111195241.8671        -74.687          27.000                                                                  
G32  21272695.419   111788728.601         403.713          30.000                                                                  
> 2021 11 06 07 31 32.9998510  0  3                     
G10  20524128.342   107855016.858       -2246.229          29.000                                                                  
G26  22870914.495   120187446.777        2836.213          26.000                                                                  
G31  21159673.363   111194845.523         -76.978          26.000                                                                  
> 2021 11 06 07 31 33.9998505  0  4                     
G10  20524405.050   107856475.870       -2247.535          30.000                                                                  
G26  22870226.172   120183822.267        2837.636          24.000                                                                  
G31  21159539.056   111194133.478         -75.417          29.000                                                                  
G32  21272299.993   111786662.6651        401.711          30.000                                                                  
> 2021 11 06 07 31 34.9998500  0  4                     
G10  20524682.958   107857936.035       -2247.521          29.000                                                                  
G26  22869537.549   120180198.028        2837.043          24.000                                                                  
G31  21159403.550   111193421.497         -76.008          30.000                                                                  
G32  21272074.249   111785472.676         401.959          28.000                                                                  
> 2021 11 06 07 31 35.9998495  0  4                     
G10  20524960.565   107859396.274       -2248.882          30.000                                                                  
G26  22868848.626   120176574.110        2834.235          23.000                                                                  
G31  21159268.643   111192710.649         -77.751          27.000                                                                  
G32  21271848.506   111784283.213         401.216          31.000                                                                  
> 2021 11 06 07 31 36.9998490  0  3                     
G10  20525237.873   107860858.251       -2250.024          31.000                                                                  
G31  21159133.137   111192000.758         -78.353          26.000                                                                  
G32  21271622.162   111783095.244         400.202          29.000                                                                  
> 2021 11 06 07 31 37.9998490  0  3                     
G10  20525667.476   107863109.494       -2251.926          30.000                                                                  
G31  21159147.227   111192078.845         -78.496          25.000                                                                  
G32  21271544.816   111782695.066         400.252          31.000                                                                  
> 2021 11 06 07 31 38.9998484  0  3                     
G10  20525917.803   107864417.184       -2253.356          31.000                                                                  
G31  21158982.341   111191212.602         -79.778          28.000                                                                  
G32  21271288.493   111781349.784         399.770          30.000                                                                  
> 2021 11 06 07 31 39.9998479  0  3                     
G10  20526197.209   107865883.070       -2254.389          29.000                                                                  
G31  21158846.535   111190504.613         -80.256          31.000                                                                  
G32  21271062.750   111780162.521         398.325          31.000                                                                  
> 2021 11 06 07 31 40.9998474  0  3                     
G10  20526476.916   107867350.742       -2257.067          29.000                                                                  
G31  21158712.528   111189797.103         -79.235          29.000                                                                  
G32  21270835.507   111778976.829         397.766          33.000                                                                  
> 2021 11 06 07 31 41.9998469  0  4                     
G10  20526754.823   107868820.248       -2258.081          30.000                                                                  
G26  22864831.706   120155505.2541       2825.128          17.000                                                                  
G31  21158576.722   111189090.028         -81.616          31.000                                                                  
G32  21270608.564   111777790.383         399.172          34.000                                                                  
> 2021 11 06 07 31 42.9998464  0  3                     
G10  20527034.230   107870291.052       -2259.654          29.000                                                                  
G31  21158441.816   111188384.241         -83.592          32.000                                                                  
G32  21270381.921   111776601.656         402.588          37.000                                                                  
> 2021 11 06 07 31 43.9998461  0  3                     
G10  20527374.794   107872079.402       -2262.887          28.000                                                                  
G31  21158366.568   111187995.835         -85.128          30.000                                                                  
G32  21270213.737   111775723.289         404.060          35.000                                                                  
> 2021 11 06 07 31 44.9998456  0  4                     
G10  20527656.599   107873555.765       -2265.797          32.000                                                                  
G26  22862829.992   120144997.5221       2812.774          16.000                                                                  
G31  21158235.858   111187294.064         -86.039          26.000                                                                  
G32  21269988.294   111774531.673         403.916          29.000                                                                  
> 2021 11 06 07 31 45.9998454  0  4                     
C20  25679033.875   133717598.9561       2257.595          23.000  
G10  20528027.442   107875508.178       -2269.478          34.000                                                                  
G31  21158196.585   111187066.621         -88.349          23.000                                                                  
G32  21269851.888   111773811.735         405.102          28.000                                                                  
> 2021 11 06 07 31 46.9998449  0  5                     
C20  25678449.579   133714559.963        2259.228          24.000  
G10  20528308.348   107876992.075       -2271.016          35.000                                                                  
G26  22861554.975   120138277.4501       2801.476          18.000                                                                  
G31  21158064.377   111186366.529         -87.350          26.000                                                                  
G32  21269626.744   111772616.959         408.620          27.000                                                                  
> 2021 11 06 07 31 47.9998444  0  5                     
C20  25677863.785   133711519.104        2262.038          20.000  
G10  20528593.450   107878478.819       -2274.095          36.000                                                                  
G26  22860872.947   120134692.458        2795.115          19.000                                                                  
G31  21157930.669   111185666.460         -87.512          26.000                                                                  
G32  21269398.002   111771418.865         412.124          28.000                                                                  
> 2021 11 06 07 31 48.9998438  0  5                     
C20  25677251.009   133708319.768        2264.139          24.000  
G10  20528843.777                       -2273.716          35.000                                                                  
G26  22860160.340   120130954.688        2791.220          20.000                                                                  
G31  21157767.582   111184809.556         -88.729          22.000                                                                  
G32  21269138.981   111770061.033         413.216          26.000                                                                  
> 2021 11 06 07 31 49.9998436  0  5                     
C20  25676756.651   133705744.570        2262.053          20.000  
G10  20529215.520   107881762.3721      -2276.639          36.000                                                                  
G26  22859567.950   120127848.651        2790.965          20.000                                                                  
G31  21157724.112   111184584.235         -91.084          27.000                                                                  
G32  21268999.878   111769332.854         412.920          27.000                                                                  
> 2021 11 06 07 31 50.9998431  0  5                     
C20  25676173.255   133702703.482        2259.592          21.000  
G10  20529501.522   107883254.664       -2280.087          35.000                                                                  
G26  22858887.122   120124269.374        2792.410          20.000                                                                  
G31  21157593.103   111183886.888         -91.323          23.000                                                                  
G32  21268769.937   111768132.548         411.858          24.000                                                                  
> 2021 11 06 07 31 51.9998426  0  4                     
G10  20529785.725   107884746.404       -2280.584          36.000                                                                  
G26  22858205.693   120120688.715        2793.011          25.000                                                                  
G31  21157459.995   111183191.268         -93.272          21.000                                                                  
G32  21268541.495   111766934.629         409.337          24.000                                                                  
> 2021 11 06 07 31 52.9998420  0  4                     
G10  20530038.750   107886083.740       -2283.205          35.000                                                                  
G26  22857494.286   120116949.709        2794.865          27.000                                                                  
G31  21157296.908   111182339.477         -92.815          22.000                                                                  
G32  21268284.573   111765580.694         407.729          24.000                                                                  
> 2021 11 06 07 31 53.9998418  0  5                     
C20  25674484.224   133693901.3341       2254.287          18.000  
G10  20530411.392   107888050.420       -2282.343          34.000                                                                  
G26  22856903.095   120113840.494        2793.163          28.000                                                                  
G31  21157255.237   111182116.067         -90.586          24.000                                                                  
G32  21268149.367   111764858.404         407.082          25.000                                                                  
> 2021 11 06 07 31 54.9998413  0  5                     
C20  25673903.227   133690866.412        2252.695          18.000  
G10  20530697.094   107889543.771       -2281.692          35.000    20530703.390    80566883.5941      -1703.837          30.000  
G26  22856225.265   120110259.277        2793.685          24.000                                                                  
G31  21157123.928   111181420.059         -92.673          24.000                                                                  
G32  21267922.124   111763665.158         404.904          24.000                                                                  
> 2021 11 06 07 31 55.9998408  0  5                     
C20  25673319.831   133687832.436        2254.877          20.000  
G10  20530983.696                       -2278.946          34.000    20530987.893    80568000.531       -1705.731          29.000  
G26  22855544.136   120106676.254        2796.572          23.000                                                                  
G31  21156991.719   111180725.501         -93.294          23.000                                                                  
G32  21267694.881   111762471.844         404.651          26.000                                                                  
> 2021 11 06 07 31 56.9998405  0  4                     
C20  25672797.592   133685110.096        2253.029          20.000  
G10  20531327.558   107892858.8641      -2282.081          33.000    20531332.654    80569353.553       -1706.201          29.000  
G31  21156917.970   111180345.404         -92.949          24.000                                                                  
G32  21267526.398   111761594.338         404.541          23.000                                                                  
> 2021 11 06 07 31 57.9998400  0  5                     
C20  25672216.894   133682077.694        2250.906          20.000  
G10  20531614.159   107894360.602       -2292.392          33.000    20531617.457    80570470.365       -1704.106          29.000  
G26  22854236.441   120099823.5871       2794.718          20.000                                                                  
G31  21156786.062   111179651.123         -94.067          26.000                                                                  
G32  21267297.956   111760402.052         404.226          23.000                                                                  
> 2021 11 06 07 31 58.9998395  0  5                     
C20  25671633.198   133679043.841        2253.984          21.000  
G10  20531896.264   107895860.225       -2285.604          33.000    20531902.260    80571587.878       -1706.973          30.000  
G26  22853556.512   120096240.938        2794.477          22.000                                                                  
G31  21156652.954   111178958.340         -97.758          27.000                                                                  
G32  21267073.112   111759209.542         405.135          24.000                                                                  
> 2021 11 06 07 31 59.9998390  0  5                     
C20  25671049.202   133676009.955        2253.004          22.000  
G10  20532180.167                       -2289.441          34.000    20532187.662    80572707.203       -1706.237          30.000  
G26  22852874.484   120092658.379        2794.275          19.000                                                                  
G31  21156525.542   111178269.480         -98.626          21.000                                                                  
G32  21266846.169   111758016.737         404.173          24.000                                                                  
> 2021 11 06 07 32 00.9998385  0  4                     
C20  25670466.406   133672977.196        2252.533          25.000  
G10  20532466.469   107898833.7101      -2286.548          32.000                                                                  
G26  22852193.656   120089078.097        2790.167          19.000                                                                  
G32  21266621.624   111756825.609         402.856          26.000                                                                  
> 2021 11 06 07 32 01.9998382  0  3                     
C20  25669944.767   133670258.413        2249.437          19.000  
G10  20532810.331   107900647.949       -2287.607          31.000                                                                  
G32  21266454.640   111755949.313         404.168          26.000                                                                  
> 2021 11 06 07 32 02.9998377  0  5                     
C20  25669363.170   133667227.604        2247.742          20.000  
G10  20533098.732   107902148.580       -2290.839          34.000                                                                  
G26  22850898.552   120082236.6161       2791.294          20.000                                                                  
G31  21156190.674   111176521.8951       -100.641          20.000                                                                  
G32  21266226.498   111754757.908         403.713          27.000                                                                  
> 2021 11 06 07 32 03.9998374  0  4                     
G10  20533443.793   107903965.734       -2289.436          34.000                                                                  
G26  22850276.783   120078973.938        2788.936          20.000                                                                  
G31  21156120.223   111176149.770        -100.015          23.000                                                                  
G32  21266060.113   111753881.367         404.197          26.000                                                                  
> 2021 11 06 07 32 04.9998369  0  4                     
G10  20533728.595   107905466.833       -2288.517          34.000                                                                  
G26  22849592.656   120075397.801        2788.738          21.000                                                                  
G31  21155987.714   111175460.846         -98.297          26.000                                                                  
G32  21265832.271   111752689.744         404.014          28.000                                                                  
> 2021 11 06 07 32 05.9998364  0  3                     
G10  20534016.396                       -2286.207          34.000                                                                  
G31  21155856.705   111174773.119         -99.824          24.000                                                                  
G32  21265604.129   111751497.414         404.779          28.000                                                                  
> 2021 11 06 07 32 06.9998359  0  4                     
G10  20534300.899   107908486.3371      -2291.223          34.000    20534307.795    80581024.3281      -1712.542          30.000  
G26  22848228.600   120068245.6931       2788.339          21.000                                                                  
G31  21155726.895   111174084.285         -98.523          25.000                                                                  
G32  21265375.987   111750305.319         403.941          29.000                                                                  
> 2021 11 06 07 32 07.9998354  0  4                     
G10  20534590.199   107909988.252       -2290.721          34.000    20534593.797    80582148.196       -1712.344          30.000  
G26  22847548.671   120064668.718        2790.659          21.000                                                                  
G31  21155594.387   111173394.409         -97.479          25.000                                                                  
G32  21265147.545   111749113.725         403.672          29.000                                                                  
> 2021 11 06 07 32 08.9998351  0  3                     
G10  20534937.359                       -2294.927          34.000    20534940.057    80583507.325       -1712.255          30.000  
G31  21155523.336   111173019.835        -100.820          26.000                                                                  
G32  21264979.961   111748238.168         401.328          28.000                                                                  
> 2021 11 06 07 32 09.9998349  0  3                     
G10  20535311.799   107913802.6541      -2292.161          34.000    20535316.296    80584984.489       -1712.750          30.000  
G31  21155482.864   111172806.336        -102.470          25.000                                                                  
G32  21264841.457   111747521.631         401.437          26.000                                                                  
> 2021 11 06 07 32 10.9998344  0  4                     
G10  20535598.401   107915309.603       -2296.908          34.000    20535602.898    80586109.227       -1712.865          30.000  
G26  22845659.079   120054710.2051       2791.797          23.000                                                                  
G31  21155351.855   111172120.771        -101.603          26.000                                                                  
G32  21264614.214   111746333.989         398.990          26.000                                                                  
> 2021 11 06 07 32 11.9998339  0  3                     
G10  20535882.604                       -2291.006          31.000    20535889.500    80587233.409       -1713.183          29.000  
G26  22844977.951   120051131.080        2791.872          26.000                                                                  
G32  21264386.971   111745147.754         398.220          26.000                                                                  
> 2021 11 06 07 32 12.9998333  0  4                     
G10  20536141.325   107918133.0891      -2287.903          27.000                                                                  
G26  22844260.847   120047389.384        2801.417          25.000                                                                  
G31  21155059.857   111170588.7521       -100.125          26.000                                                                  
G32  21264131.548   111743806.151         393.259          33.000                                                                  
> 2021 11 06 07 32 13.9998328  0  3                     
G10  20536426.428   107919633.100       -2287.429          30.000                                                                  
G31  21154927.948   111169901.889        -102.247          29.000                                                                  
G32  21263907.603   111742627.946         387.510          30.000                                                                  
> 2021 11 06 07 32 14.9998323  0  3                     
G10  20536710.031   107921131.998       -2286.240          31.000                                                                  
G31  21154796.039   111169217.128        -103.876          31.000                                                                  
G32  21263683.358   111741454.320         384.669          33.000                                                                  
> 2021 11 06 07 32 15.9998318  0  3                     
G10  20536992.736   107922630.283       -2286.217          30.000                                                                  
G31  21154664.431   111168533.807        -104.755          32.000                                                                  
G32  21263463.011   111740283.732         382.410          35.000                                                                  
> 2021 11 06 07 32 16.9998316  0  3                     
G10  20537365.977   107924601.042       -2286.050          29.000                                                                  
G31  21154621.860   111168323.819        -105.543          32.000                                                                  
G32  21263327.804                         393.130          35.000                                                                  
> 2021 11 06 07 32 17.9998313  0  4                     
G10  20537710.739   107926414.518       -2285.790          29.000                                                                  
G26  22840972.724   120030171.3161       2816.959          17.000                                                                  
G31  21154550.210   111167956.042        -104.691          30.000                                                                  
G32  21263169.214   111738681.7281        382.679          34.000                                                                  
> 2021 11 06 07 32 18.9998308  0  2                     
G10  20537995.841   107927913.271       -2287.202          29.000                                                                  
G32  21262947.368   111737513.191         380.048          35.000                                                                  
> 2021 11 06 07 32 19.9998303  0  4                     
G10  20538282.143   107929413.606       -2288.841          30.000                                                                  
G26  22839607.469   120022956.2331       2822.717          16.000                                                                  
G31  21154289.990   111166589.5601       -103.536          29.000                                                                  
G32  21262725.521   111736344.808         381.036          34.000                                                                  
> 2021 11 06 07 32 20.9998298  0  3                     
G10  20538567.546   107930914.871       -2289.204          30.000                                                                  
G31  21154157.482   111165905.603        -104.726          27.000                                                                  
G32  21262500.377   111735174.936         380.724          33.000                                                                  
> 2021 11 06 07 32 21.9998292  0  2                     
G10  20538824.168   107932258.735       -2289.313          28.000                                                                  
G32  21262248.252   111733843.926         387.597          34.000                                                                  
> 2021 11 06 07 32 22.9998287  0  3                     
G10  20539111.369   107933761.218       -2291.577          29.000                                                                  
G31  21153866.683   111164385.4591       -108.099          28.000                                                                  
G32  21262027.904                         385.261          34.000                                                                  
> 2021 11 06 07 32 23.9998282  0  4                     
G10  20539397.071   107935265.625       -2292.637          26.000                                                                  
G26  22836840.984   120008384.7391       2811.503          17.000                                                                  
G31  21153738.971   111163705.814        -109.108          26.000                                                                  
G32  21261804.559   111731540.0521        381.125          34.000                                                                  
> 2021 11 06 07 32 24.9998282  0  4                     
G10  20539834.768   107937559.323       -2294.204          26.000                                                                  
G26  22836307.653   120005574.708        2808.031          17.000                                                                  
G31  21153761.755   111163815.139        -109.402          25.000                                                                  
G32  21261732.609   111731159.304         379.883          30.000                                                                  
> 2021 11 06 07 32 25.9998277  0  4                     
G10  20540122.869   107939065.115       -2294.216          29.000                                                                  
G26  22835626.825   120001980.194        2806.752          19.000                                                                  
G31  21153634.943   111163137.015        -109.823          26.000                                                                  
G32  21261510.762   111729991.539         379.894          30.000                                                                  
> 2021 11 06 07 32 26.9998272  0  4                     
G10  20540408.571   107940572.560       -2297.181          27.000                                                                  
G26  22834944.797   119998386.012        2806.009          23.000                                                                  
G31  21153507.232   111162459.861        -111.087          28.000                                                                  
G32  21261288.916   111728824.371         378.595          31.000                                                                  
> 2021 11 06 07 32 27.9998267  0  4                     
G10  20540695.173   107942081.751       -2297.748          29.000                                                                  
G26  22834263.069   119994793.781        2803.880          20.000                                                                  
G31  21153379.220   111161783.360        -111.552          33.000                                                                  
G32  21261066.170   111727657.323         379.336          28.000                                                                  
> 2021 11 06 07 32 28.9998262  0  4                     
G10  20540984.772   107943592.657       -2299.139          28.000                                                                  
G26  22833579.842   119991204.075        2800.083          20.000                                                                  
G31  21153251.509   111161107.952        -113.848          29.000                                                                  
G32  21260845.223   111726490.831         379.038          27.000                                                                  
> 2021 11 06 07 32 29.9998257  0  4                     
G10  20541272.273   107945104.152       -2299.182          29.000                                                                  
G26  22832899.013   119987615.918        2801.107          19.000                                                                  
G31  21153121.998   111160434.080        -113.746          27.000                                                                  
G32  21260624.876   111725324.771         377.946          30.000                                                                  
> 2021 11 06 07 32 30.9998252  0  4                     
G10  20541559.474   107946616.097       -2300.173          28.000                                                                  
G26  22832216.685   119984026.566        2801.823          23.000                                                                  
G31  21152994.587   111159761.343        -116.289          26.000                                                                  
G32  21260403.029   111724159.187         377.862          31.000                                                                  
> 2021 11 06 07 32 31.9998249  0  4                     
G10  20541906.634   107948443.235       -2300.200          29.000                                                                  
G26  22831593.117   119980752.056        2804.049          22.000                                                                  
G31  21152925.934   111159405.052        -117.257          29.000                                                                  
G32  21260239.642   111723309.518         375.577          31.000                                                                  
> 2021 11 06 07 32 32.9998246  0  4                     
G10  20542255.892   107950271.160       -2300.985          30.000                                                                  
G26  22830969.848   119977476.026        2804.228          24.000                                                                  
G31  21152857.581   111159049.178        -116.818          29.000                                                                  
G32  21260077.455   111722460.894         375.748          30.000                                                                  
> 2021 11 06 07 32 33.9998241  0  4                     
G10  20542543.693   107951785.767       -2303.202          30.000                                                                  
G26  22830284.223   119973884.888        2802.354          25.000                                                                  
G31  21152729.270   111158378.473        -117.841          30.000                                                                  
G32  21259855.608   111721297.330         376.161          30.000                                                                  
> 2021 11 06 07 32 34.9998236  0  4                     
G10  20542832.393   107953301.393       -2304.156          29.000                                                                  
G26  22829595.900   119970293.629        2803.713          22.000                                                                  
G31  21152602.458   111157708.966        -118.352          28.000                                                                  
G32  21259633.762   111720134.236         374.814          32.000                                                                  
> 2021 11 06 07 32 35.9998231  0  4                     
G10  20543119.894   107954818.706       -2305.702          30.000                                                                  
G26  22828912.972   119966704.589        2799.704          23.000                                                                  
G31  21152474.746   111157039.688        -118.604          25.000                                                                  
G32  21259412.515   111718971.672         374.212          31.000                                                                  
> 2021 11 06 07 32 36.9998226  0  4                     
G10  20543407.395   107956337.100       -2306.733          29.000                                                                  
G26  22828236.341   119963118.835        2795.851          19.000                                                                  
G31  21152348.234   111156371.331        -119.738          27.000                                                                  
G32  21259191.268   111717809.842         373.861          33.000                                                                  
> 2021 11 06 07 32 37.9998221  0  3                     
G10  20543695.795   107957856.657       -2307.987          30.000                                                                  
G31  21152220.522   111155703.668        -120.368          30.000                                                                  
G32  21258971.820   111716649.043         372.242          33.000                                                                  
> 2021 11 06 07 32 38.9998216  0  4                     
G10  20543984.495   107959377.386       -2309.098          29.000                                                                  
G26  22826870.786   119955951.6611       2794.415          19.000                                                                  
G31  21152092.511   111155036.876        -121.052          32.000                                                                  
G32  21258752.672   111715489.029         372.894          34.000                                                                  
> 2021 11 06 07 32 39.9998213  0  4                     
G10  20544333.754   107961215.056       -2310.551          30.000                                                                  
G26  22826245.419   119952681.659        2802.973          19.000                                                                  
G31  21152026.557   111154685.331        -122.139          31.000                                                                  
G32  21258591.084   111714646.673         368.819          35.000                                                                  
> 2021 11 06 07 32 40.9998211  0  3                     
G10  20544717.488   107963211.818       -2312.427          27.000                                                                  
G31  21151987.584   111154493.021        -123.564          32.000                                                                  
G32  21258458.276   111713960.547         371.700          35.000                                                                  
> 2021 11 06 07 32 41.9998205  0  4                     
G10  20544980.706   107964580.520       -2316.429          21.000                                                                  
G26  22824943.720   119945825.1931       2789.972          18.000                                                                  
G31  21151832.591   111153671.208        -123.441          25.000                                                                  
G32  21258205.251   111712642.269         374.096          31.000                                                                  
> 2021 11 06 07 32 42.9998200  0  2                     
G10  20545273.903   107966110.077       -2318.793          28.000                                                                  
G32  21257984.903   111711479.597         376.440          30.000                                                                  
> 2021 11 06 07 32 43.9998195  0  3                     
G10  20545564.702   107967642.455       -2321.551          31.000                                                                  
G31  21151581.665   111152344.0761       -126.006          24.000                                                                  
G32  21257763.956   111710314.392         377.858          32.000                                                                  
> 2021 11 06 07 32 44.9998190  0  4                     
G10  20545857.599   107969178.268       -2324.668          32.000                                                                  
G26  22822900.035   119935125.3001       2770.354          17.000                                                                  
G31  21151455.152   111151682.496        -126.274          26.000                                                                  
G32  21257543.009   111709148.022         379.329          32.000                                                                  
> 2021 11 06 07 32 45.9998185  0  4                     
G10  20546149.297   107970717.525       -2329.212          35.000                                                                  
G26  22822222.804   119931569.515        2765.347          23.000                                                                  
G31  21151328.640   111151022.205        -128.320          28.000                                                                  
G32  21257319.664   111707975.927         384.578          31.000                                                                  
> 2021 11 06 07 32 46.9998180  0  2                     
G10  20546437.997   107972259.489       -2327.466          36.000                                                                  
G32  21257095.719   111706803.671         384.170          28.000                                                                  
> 2021 11 06 07 32 47.9998177  0  4                     
G10  20546793.251   107974113.701       -2324.227          35.000                                                                  
G26  22820931.898   119924779.7931       2764.754          20.000                                                                  
G31  21151142.169   111150017.7511       -128.143          22.000                                                                  
G32  21256935.330   111705947.343         384.397          28.000                                                                  
> 2021 11 06 07 32 48.9998175  0  3                     
G10  20547176.086                       -2334.402          34.000                                                                  
G31  21151107.993   111149831.322        -129.495          24.000                                                                  
G32  21256802.522   111705248.315         383.132          25.000                                                                  
> 2021 11 06 07 32 49.9998170  0  4                     
G10  20547472.581   107977680.4451      -2330.512          34.000                                                                  
G26  22819672.769   119918144.5991       2766.066          18.000                                                                  
G31  21150983.279   111149173.327        -129.681          22.000                                                                  
G32  21256577.977   111704078.033         382.000          24.000                                                                  
> 2021 11 06 07 32 50.9998164  0  4                     
G10  20547735.199   107979069.294       -2333.943          34.000                                                                  
G26  22818965.859   119914434.995        2763.669          25.000                                                                  
G31  21150827.087   111148356.651        -128.581          22.000                                                                  
G32  21256326.152   111702751.731         380.581          27.000                                                                  
> 2021 11 06 07 32 51.9998159  0  4                     
G10  20548030.494   107980615.640       -2334.788          34.000                                                                  
G26  22818288.328   119910884.309        2762.724          29.000                                                                  
G31  21150701.174   111147696.691        -128.664          23.000                                                                  
G32  21256104.305   111701582.641         382.122          27.000                                                                  
> 2021 11 06 07 32 52.9998154  0  4                     
G10  20548326.390   107982163.626       -2337.341          34.000                                                                  
G26  22817613.795   119907333.355        2763.715          29.000                                                                  
G31  21150577.660   111147038.162        -129.694          21.000                                                                  
G32  21255881.559   111700414.177         380.591          25.000                                                                  
> 2021 11 06 07 32 53.9998149  0  4                     
G10  20548621.385   107983712.651       -2336.839          34.000                                                                  
G26  22816937.163   119903782.173        2762.668          30.000                                                                  
G31  21150452.946   111146381.784        -132.204          24.000                                                                  
G32  21255659.113   111699246.200         378.944          24.000                                                                  
> 2021 11 06 07 32 54.9998144  0  4                     
G10  20548915.482   107985261.541       -2336.736          32.000                                                                  
G26  22816260.532   119900232.116        2761.865          30.000                                                                  
G31  21150329.731   111145726.938        -133.520          23.000                                                                  
G32  21255439.366   111698079.166         379.741          24.000                                                                  
> 2021 11 06 07 32 55.9998141  0  4                     
G10  20549268.637   107987126.566       -2337.261          33.000                                                                  
G26  22815642.659   119896997.521        2762.145          28.000                                                                  
G31  21150267.075   111145389.059        -133.885          20.000                                                                  
G32  21255275.379   111697226.807         380.558          27.000                                                                  
> 2021 11 06 07 32 56.9998136  0  4                     
G10  20549562.734   107988676.423       -2338.226          33.000                                                                  
G26  22814965.728   119893447.305        2762.200          26.000                                                                  
G31  21150142.061   111144736.182        -137.423          22.000                                                                  
G32  21255053.832   111696058.939         378.807          25.000                                                                  
> 2021 11 06 07 32 57.9998131  0  4                     
G10  20549855.631   107990227.040       -2337.682          33.000                                                                  
G26  22814289.996   119889896.738        2763.577          21.000                                                                  
G31  21150019.746   111144086.028        -138.527          25.000                                                                  
G32  21254831.386   111694893.610         376.811          24.000                                                                  
> 2021 11 06 07 32 58.9998129  0  4                     
G10  20550241.764   107992253.315       -2345.857          33.000                                                                  
G26  22813701.803   119886818.490        2762.553          20.000                                                                  
G31  21149985.570   111143908.706        -136.545          28.000                                                                  
G32  21254699.178   111694200.793         378.551          24.000                                                                  
> 2021 11 06 07 32 59.9998124  0  3                     
G10  20550537.059   107993806.411       -2339.841          32.000                                                                  
G31  21149861.156   111143258.118        -137.033          26.000                                                                  
G32  21254477.332   111693035.358         376.507          26.000                                                                  
> 2021 11 06 07 33 00.9998118  0  3                     
G10  20550802.076   107995201.298       -2340.947          33.000                                                                  
G31  21149708.561   111142449.467        -136.635          22.000                                                                  
G32  21254227.005   111691714.109         375.063          25.000                                                                  
> 2021 11 06 07 33 01.9998113  0  3                     
G10  20551097.671   107996756.817       -2342.952          31.000                                                                  
G31  21149583.548   111141799.027        -139.411          21.000                                                                  
G32  21254005.158   111690553.701         372.825          25.000                                                                  
> 2021 11 06 07 33 02.9998108  0  3                     
G10  20551392.967   107998311.568       -2342.742          30.000                                                                  
G26  22810963.499   119872457.4961       2756.227          19.000                                                                  
G32  21253782.712   111689391.078         375.422          27.000                                                                  
> 2021 11 06 07 33 03.9998106  0  4                     
G10  20551777.600   108000339.081       -2342.756          33.000                                                                  
G26  22810380.402   119869387.153        2756.724          19.000                                                                  
G31  21149422.260   111140976.2021       -140.463          21.000                                                                  
G32  21253650.804   111688700.005         377.628          29.000                                                                  
> 2021 11 06 07 33 04.9998100  0  3                     
G26  22809673.791   119865684.920        2757.340          24.000                                                                  
G31  21149267.567   111140171.023        -140.236          25.000                                                                  
G32  21253396.880   111687377.180         377.079          28.000                                                                  
> 2021 11 06 07 33 05.9998095  0  3                     
G26  22808995.961   119862138.437        2760.483          20.000                                                                  
G31  21149144.352   111139523.226        -139.942          25.000                                                                  
G32  21253172.635   111686211.708         378.460          28.000                                                                  
> 2021 11 06 07 33 06.9998090  0  2                     
G10  20552642.502   108004851.4761      -2345.007          34.000                                                                  
G32  21252950.189   111685044.943         379.991          29.000                                                                  
> 2021 11 06 07 33 07.9998085  0  3                     
G10  20552939.896   108006409.114       -2348.425          34.000                                                                  
G31  21148901.820   111138229.0291       -140.113          23.000                                                                  
G32  21252728.342   111683877.884         378.468          28.000                                                                  
> 2021 11 06 07 33 08.9998083  0  3                     
G10  20553330.525   108008442.384       -2346.054          35.000                                                                  
G31  21148869.143   111138054.167        -140.966          25.000                                                                  
G32  21252596.434   111683185.006         377.835          28.000                                                                  
> 2021 11 06 07 33 09.9998077  0  4                     
G10  20553593.743   108009841.745       -2346.257          35.000                                                                  
G26  22806373.976   119848265.3611       2761.191          18.000                                                                  
G31  21148715.049   111137248.878        -140.077          24.000                                                                  
G32  21252345.507   111681862.171         377.322          29.000                                                                  
> 2021 11 06 07 33 10.9998072  0  3                     
G10  20553888.439   108011401.165       -2349.366          35.000                                                                  
G31  21148591.835   111136601.019        -139.649          25.000                                                                  
G32  21252122.762   111680697.564         376.610          27.000                                                                  
> 2021 11 06 07 33 11.9998070  0  5                     
C01                                      -590.662          30.000  
G10  20554275.771   108013434.379       -2346.628          35.000                                                                  
G26  22805113.648   119841637.2071       2761.802          23.000                                                                  
G31  21148556.759   111136425.213        -139.290          25.000                                                                  
G32  21251989.654   111680005.790         374.989          28.000                                                                  
> 2021 11 06 07 33 12.9998065  0  4                     
G10  20554571.966   108014992.352       -2344.510          34.000                                                                  
G26  22804438.516   119838087.787        2762.515          28.000                                                                  
G31  21148431.745   111135777.150        -140.799          23.000                                                                  
G32  21251767.807   111678843.688         374.263          28.000                                                                  
> 2021 11 06 07 33 13.9998060  0  4                     
G10  20554865.763   108016549.470       -2345.384          33.000                                                                  
G26  22803763.083   119834535.951        2765.619          24.000                                                                  
G31  21148308.231   111135129.750        -141.131          26.000                                                                  
G32  21251547.760   111677683.957         368.600          24.000                                                                  
> 2021 11 06 07 33 14.9998054  0  4                     
G10  20555131.079   108017950.108       -2344.920          28.000                                                                  
G26  22803054.074   119830822.759        2769.511          29.000                                                                  
G31  21148154.737   111134326.679        -142.879          28.000                                                                  
G32  21251298.932   111676371.647         365.668          25.000                                                                  
> 2021 11 06 07 33 15.9998049  0  5                     
C23  22536613.827   117353990.4301      -2355.385          29.000  
G10  20555427.873   108019506.318       -2342.644          25.000                                                                  
G26  22802376.543   119827264.383        2771.250          27.000                                                                  
G31  21148031.223   111133682.684        -144.068          32.000                                                                  
G32  21251080.083   111675219.073         362.976          30.000                                                                  
> 2021 11 06 07 33 16.9998044  0  5                     
C23  22536915.718   117355566.590       -2359.024          31.000  
G10  20555725.567   108021060.575       -2341.061          31.000                                                                  
G26  22801696.014   119823700.132        2780.989          22.000                                                                  
G31  21147906.509   111133038.459        -143.374          31.000                                                                  
G32  21250861.235   111674070.474         359.075          32.000                                                                  
> 2021 11 06 07 33 17.9998039  0  4                     
C23  22537218.508   117357145.906       -2360.168          31.000  
G10  20556019.963   108022613.082       -2340.177          30.000                                                                  
G26  22801017.884   119820133.012        2779.233          22.000                                                                  
G32  21250643.885   111672925.318         356.341          34.000                                                                  
> 2021 11 06 07 33 18.9998039  0  4                     
C23  22537671.495   117359506.862       -2361.861          31.000  
G10  20556464.556   108024953.279       -2340.580          30.000                                                                  
G31  21147809.976   111132537.9811       -143.658          33.000                                                                  
G32  21250572.535   111672567.510         356.883          34.000                                                                  
> 2021 11 06 07 33 19.9998034  0  5                     
C23  22537975.484   117361088.139       -2361.858          32.000  
G10  20556759.551   108026506.990       -2342.195          30.000                                                                  
G26  22799807.022   119813785.5201       2780.108          17.000                                                                  
G31  21147691.558   111131894.691        -144.184          33.000                                                                  
G32  21250356.384   111671423.434         358.297          35.000                                                                  
> 2021 11 06 07 33 20.9998029  0  5                     
C23  22538276.776   117362668.242       -2359.990          31.000  
G10  20557055.746   108028062.268       -2343.670          30.000                                                                  
G26  22799128.292   119810219.006        2777.897          16.000                                                                  
G31  21147567.444   111131251.736        -145.362          31.000                                                                  
G32  21250138.735   111670276.598         361.021          35.000                                                                  
> 2021 11 06 07 33 21.9998024  0  4                     
C23  22538578.966   117364248.303       -2361.048          32.000  
G10  20557350.442   108029618.401       -2344.120          29.000                                                                  
G31  21147444.829   111130610.066        -145.565          32.000                                                                  
G32  21249918.687                         351.590          34.000                                                                  
> 2021 11 06 07 33 22.9998019  0  4                     
C23  22538881.157   117365826.054       -2360.000          31.000  
G10  20557646.937   108031174.662       -2343.941          30.000                                                                  
G31  21147323.113   111129968.489        -146.160          27.000                                                                  
G32  21249700.738   111667937.5171        358.619          34.000                                                                  
> 2021 11 06 07 33 23.9998013  0  3                     
C23  22539153.968   117367251.122       -2362.981          31.000  
G10  20557914.652   108032573.488       -2344.448          30.000                                                                  
G32  21249453.709   111666631.390         362.521          35.000                                                                  
> 2021 11 06 07 33 24.9998008  0  5                     
C23  22539458.258   117368831.501       -2361.285          32.000  
G10  20558212.046   108034130.836       -2345.672          29.000                                                                  
G26  22796388.489   119795797.2381       2778.044          17.000                                                                  
G31  21147049.103   111128527.6171       -146.054          30.000                                                                  
G32  21249237.859   111665484.746         356.226          34.000                                                                  
> 2021 11 06 07 33 25.9998003  0  5                     
C23  22539761.648   117370413.228       -2362.892          31.000  
G10  20558508.541   108035688.442       -2344.488          27.000                                                                  
G26  22795711.257   119792231.786        2780.510          18.000                                                                  
G31  21146927.087   111127886.560        -146.692          27.000                                                                  
G32  21249019.310                         357.140          35.000                                                                  
> 2021 11 06 07 33 26.9998001  0  4                     
C23  22540156.175   117372464.124       -2363.858          30.000  
G10  20558892.875   108037719.212       -2347.695          27.000                                                                  
G31  21146894.709   111127718.653        -147.533          28.000                                                                  
G32  21248895.796   111663683.6621        352.824          31.000                                                                  
> 2021 11 06 07 33 27.9997996  0  5                     
C23  22540461.064   117374047.260       -2363.813          29.000  
G10  20559191.468   108039280.219       -2349.280          29.000                                                                  
G26  22794442.236   119785567.1171       2780.626          19.000                                                                  
G31  21146774.193   111127080.054        -150.614          25.000                                                                  
G32  21248679.345   111662540.751         355.813          29.000                                                                  
> 2021 11 06 07 33 28.9997990  0  4                     
C23  22540736.573   117375475.193       -2364.812          29.000  
G10  20559458.583   108040686.283       -2351.938          29.000                                                                  
G31  21146624.596   111126285.930        -150.576          27.000                                                                  
G32  21248431.717   111661239.651         356.072          31.000                                                                  
> 2021 11 06 07 33 29.9997988  0  5                     
C23  22541131.100   117377528.147       -2365.875          28.000  
G10  20559846.215   108042723.693       -2354.075          27.000                                                                  
G26  22793143.535   119778748.4531       2776.617          21.000                                                                  
G31  21146592.818   111126121.617        -151.098          31.000                                                                  
G32  21248304.005   111660568.934         354.919          29.000                                                                  
> 2021 11 06 07 33 30.9997983  0  5                     
C23  22541436.888   117379113.559       -2366.830          27.000  
G10  20560144.808   108044289.919       -2353.712          28.000                                                                  
G26  22792465.105   119775184.658        2775.926          20.000                                                                  
G31  21146470.803   111125485.240        -151.515          31.000                                                                  
G32  21248086.656   111659426.589         354.455          28.000                                                                  
> 2021 11 06 07 33 31.9997978  0  4                     
C23  22541742.976   117380699.768       -2366.688          29.000  
G26  22791788.473   119771622.557        2773.974          21.000                                                                  
G31  21146349.387   111124849.562        -152.463          30.000                                                                  
G32  21247870.206   111658284.346         354.823          29.000                                                                  
> 2021 11 06 07 33 32.9997972  0  5                     
C23  22542017.286   117382129.959       -2366.973          29.000  
G10  20560714.114   108047266.5951      -2355.677          28.000                                                                  
G26  22791078.565   119767901.590        2774.158          22.000                                                                  
G31  21146197.092   111124057.343        -153.869          27.000                                                                  
G32  21247622.877   111656985.457         352.193          32.000                                                                  
> 2021 11 06 07 33 33.9997970  0  4                     
G10  20561105.043   108049306.885       -2355.541          30.000                                                                  
G26  22790488.573   119764811.390        2774.473          23.000                                                                  
G31  21146166.214   111123897.397        -155.724          28.000                                                                  
G32  21247494.865   111656318.161         351.055          31.000                                                                  
> 2021 11 06 07 33 34.9997965  0  4                     
G10  20561401.838   108050875.023       -2356.489          28.000                                                                  
G26  22789809.543   119761248.693        2774.478          24.000                                                                  
G31  21146045.697   111123265.945        -156.386          30.000                                                                  
G32  21247278.115   111655178.788         351.612          31.000                                                                  
> 2021 11 06 07 33 35.9997960  0  4                     
G10  20561698.632   108052444.411       -2357.426          30.000                                                                  
G26  22789132.012   119757688.168        2771.445          24.000                                                                  
G31  21145925.480   111122634.365        -157.241          30.000                                                                  
G32  21247060.766   111654040.250         350.014          27.000                                                                  
> 2021 11 06 07 33 36.9997955  0  3                     
G10  20561996.626   108054014.696       -2358.436          29.000                                                                  
G31  21145806.463   111122003.811        -156.276          28.000                                                                  
G32  21246844.316   111652902.419         350.462          30.000                                                                  
> 2021 11 06 07 33 37.9997949  0  4                     
G10  20562266.739   108055429.168       -2361.087          29.000                                                                  
G26  22787745.172   119750412.6191       2771.068          21.000                                                                  
G31  21145656.267   111121214.856        -156.344          27.000                                                                  
G32  21246596.687   111651607.725         348.813          31.000                                                                  
> 2021 11 06 07 33 38.9997944  0  3                     
G10  20562566.831   108057003.134       -2363.035          28.000                                                                  
G31  21145536.949   111120584.717        -158.368          27.000                                                                  
G32  21246379.937   111650471.256         348.135          33.000                                                                  
> 2021 11 06 07 33 39.9997939  0  4                     
G10  20562866.923   108058578.347       -2363.340          29.000                                                                  
G26  22786388.611   119743298.4151       2765.937          19.000                                                                  
G31  21145419.731   111119956.144        -159.982          29.000                                                                  
G32  21246163.487   111649334.817         347.554          32.000                                                                  
> 2021 11 06 07 33 40.9997934  0  3                     
G10  20563166.116   108060154.040       -2363.793          30.000                                                                  
G31  21145301.313   111119328.371        -160.304          32.000                                                                  
G32  21245949.135   111648198.746         346.699          33.000                                                                  
> 2021 11 06 07 33 41.9997934  0  4                     
G10  20563615.505   108062518.923       -2365.016          30.000                                                                  
G26  22785187.643   119736990.1281       2757.412          19.000                                                                  
G31  21145332.491   111119489.566        -161.745          31.000                                                                  
G32  21245878.984   111647852.971         350.029          35.000                                                                  
> 2021 11 06 07 33 42.9997929  0  3                     
G10  20563914.698   108064097.388       -2367.756          30.000                                                                  
G31  21145213.773   111118864.147        -162.612          32.000                                                                  
G32  21245664.632   111646716.659         347.667          35.000                                                                  
> 2021 11 06 07 33 43.9997924  0  3                     
G10  20564212.692   108065679.583       -2372.028          22.000                                                                  
G31  21145094.156   111118239.497        -163.787          29.000                                                                  
G32  21245450.281   111645580.598         348.413          32.000                                                                  
> 2021 11 06 07 33 44.9997919  0  4                     
G10  20564515.782   108067264.945       -2374.077          27.000                                                                  
G26  22783161.046   119726354.2871       2757.729          18.000                                                                  
G31  21144974.539   111117615.586        -163.959          23.000                                                                  
G32  21245233.531   111644442.973         350.460          28.000                                                                  
> 2021 11 06 07 33 45.9997914  0  3                     
G10  20564818.273   108068852.961       -2377.970          32.000                                                                  
G31  21144860.318   111116991.738        -164.020          23.000                                                                  
G32  21245018.580   111643303.861         353.322          27.000                                                                  
> 2021 11 06 07 33 46.9997908  0  4                     
G10  20565089.285   108070286.757       -2380.520          32.000                                                                  
G26  22781787.397   119719117.0981       2748.534          23.000                                                                  
G31  21144712.520   111116210.165        -162.207          26.000                                                                  
G32  21244772.150   111642004.755         354.272          34.000                                                                  
> 2021 11 06 07 33 47.9997903  0  4                     
G10  20565392.975   108071878.891       -2379.708          32.000                                                                  
G26  22781118.260   119715583.114        2744.420          25.000                                                                  
G31  21144592.004   111115586.391        -165.581          24.000                                                                  
G32  21244553.901   111640862.165         354.951          31.000                                                                  
> 2021 11 06 07 33 48.9997901  0  3                     
G10  20565784.504   108073944.145       -2379.117          27.000                                                                  
G31  21144562.924   111115438.013        -167.823          28.000                                                                  
G32  21244424.991                         350.654          33.000                                                                  
> 2021 11 06 07 33 49.9997896  0  3                     
G10  20566086.994   108075534.784       -2378.357          32.000                                                                  
G31  21144445.705   111114818.982        -169.249          30.000                                                                  
G32  21244206.742                         351.418          36.000                                                                  
> 2021 11 06 07 33 50.9997891  0  3                     
G26  22779199.588   119705477.1321       2739.367          15.000                                                                  
G31  21144328.186   111114201.357        -170.528          37.000                                                                  
G32  21243989.992   111637930.9991        348.494          34.000                                                                  
> 2021 11 06 07 33 51.9997885  0  9                     
C06  36828164.892   191773918.5751       -602.634          32.000  
C09                                      -603.833          29.000  
C23  22548056.605   117413593.6621      -2374.569          36.000  
C32  22108973.076   115126975.0341        416.815          38.000  
C37  22551822.298   117433256.5191        239.565          33.000  
G10  20566664.395   108078561.6351      -2381.587          31.000                                                                  
G26  22778498.674   119701791.668        2742.447          17.000                                                                  
G31  21144181.887   111113426.858        -171.086          37.000                                                                  
G32  21243743.862   111636636.663         349.635          36.000                                                                  
> 2021 11 06 07 33 52.9997880  0  9                     
C06  36828129.217   191773740.460        -602.849          28.000  
C09                                      -602.634          26.000  
C23  22548361.494   117415188.999       -2377.770          32.000  
C32  22108742.836   115125778.920         414.272          34.000  
C37  22551621.437   117432235.988         239.308          35.000  
G10  20566965.986   108080155.902       -2382.034          31.000                                                                  
G26  22777824.440   119698258.861        2747.078          19.000                                                                  
G31  21144064.669   111112809.089        -170.340          40.000                                                                  
G32  21243528.611   111635500.971         344.449          37.000                                                                  
> 2021 11 06 07 33 53.9997875  0  8                     
C06  36828094.441   191773564.269        -605.865          27.000  
C09                                      -602.849          25.000  
C23  22548667.582   117416786.164       -2377.723          31.000  
C32  22108513.495   115124584.391         413.737          32.000  
C37  22551419.977   117431217.769         239.279          31.000  
G10  20567269.076   108081749.788       -2382.269          28.000                                                                  
G31  21143946.550   111112193.699        -171.849          33.000                                                                  
G32  21243313.060   111634367.518         346.446          32.000                                                                  
> 2021 11 06 07 33 54.9997870  0  9                     
C06  36828060.564   191773390.162        -606.585          29.000  
C09                                      -602.634          25.000  
C23  22548973.071   117418382.050       -2375.771          28.000  
C32  22108284.453   115123390.755         413.157          30.000  
C37  22551226.011   117430198.453         237.833          24.000  
G10  20567575.764   108083345.989       -2385.118          26.000                                                                  
G26  22776475.674   119691186.4701       2748.529          20.000                                                                  
G31  21143829.631   111111577.444        -171.590          28.000                                                                  
G32  21243103.805   111633232.791         346.550          31.000                                                                  
> 2021 11 06 07 33 55.9997865  0  8                     
C06  36828026.388   191773216.101        -607.035          25.000  
C09                                      -602.634          22.000  
C23  22549280.358   117419977.709       -2377.372          27.000  
C32  22108055.412   115122196.710         413.410          24.000  
C37  22551030.546   117429178.934         238.759          26.000  
G10  20567878.854   108084944.159       -2386.180          25.000                                                                  
G31  21143711.513   111110960.794        -170.935          27.000                                                                  
G32  21242889.154   111632098.788         345.685          28.000                                                                  
> 2021 11 06 07 33 56.9997862  0  9                     
C06  36828051.870   191773355.227        -608.539          23.000  
C09                                      -602.634          23.000  
C23  22549648.503   117421887.386       -2378.429          27.000  
C32  22107886.629   115121315.585         411.583          26.000  
C37  22550897.139   117428472.688         238.020          32.000  
G10  20568242.802   108086858.223       -2387.176          25.000                                                                  
G26  22775187.766   119684427.4841       2749.304          21.000                                                                  
G31  21143655.152   111110659.148        -170.955          30.000                                                                  
G32  21242732.962   111631280.698         345.139          30.000                                                                  
> 2021 11 06 07 33 57.9997857  0  9                     
C06  36828019.792   191773183.291        -607.900          24.000  
C09                                      -603.833          22.000  
C23  22549956.690   117423485.065       -2378.999          27.000  
C32  22107657.587   115120123.708         410.995          29.000  
C37  22550703.473   117427454.276         237.769          28.000  
G10  20568548.290   108088456.486       -2385.898          27.000                                                                  
G26  22774514.732   119680890.609        2747.239          25.000                                                                  
G31  21143537.633   111110042.969        -171.906          25.000                                                                  
G32  21242516.512   111630148.334         343.498          31.000                                                                  
> 2021 11 06 07 33 58.9997855  0  8                     
C06  36828078.252   191773479.647        -607.057          23.000  
C09                                      -605.387          25.000  
C23  22550355.114   117425551.702       -2379.297          24.000  
C32  22107518.783   115119401.288         409.559          22.000  
C37  22550600.644   117426904.877         236.960          28.000  
G10  20568942.817   108090527.337       -2387.274          29.000                                                                  
G26  22773930.136   119677827.778        2748.633          20.000                                                                  
G31  21143508.254   111109900.554        -173.653          30.000                                                                  
> 2021 11 06 07 33 59.9997850  0  6                     
C09                                      -605.387          25.000  
C32  22107291.541   115118211.387         409.006          26.000  
C37  22550406.379   117425887.311         236.328          26.000  
G10  20569246.807   108092126.930       -2387.642          30.000                                                                  
G31  21143389.236   111109286.707        -174.672          27.000                                                                  
G32  21242175.648   111628358.9921        343.327          31.000                                                                  
