     3.04           OBSERVATION DATA    M: Mixed            RINEX VERSION / TYPE
Higeo_Hi1105        Huawei CBG          20210720 020356 UTC PGM / RUN BY / DATE 
************************************************************COMMENT             
* If you have any problem,                                 *COMMENT             
*     please contact with LBS Technology Group, thanks.    *COMMENT             
*                                                          *COMMENT             
* Version Higeo2RinexV1.1 2020.07.21                       *COMMENT             
* Fuction:  Convert Higeo Log to Rinex file                *COMMENT             
*                                                          *COMMENT             
* Note that the verision support B1C B2A signal            *COMMENT             
*     BDS: C1D L1D D1D S1D indicate BDS B1C                *COMMENT             
*     BDS: C5D L5D D5D S5D indicate BDS B2A                *COMMENT             
*     Reference: RINEX V3.04                               *COMMENT             
*                                                          *COMMENT             
* Copyright(C) Huawei Technologies Co., Ltd. 2019 - 2020   *COMMENT             
*     All rights reserved.                                 *COMMENT             
************************************************************COMMENT             
                                                            MARKER NAME         
                                                            MARKER NUMBER       
                                                            MARKER TYPE         
                                                            OBSERVER / AGENCY   
                                                            REC # / TYPE / VERS 
                                                            ANT # / TYPE        
        0.0000        0.0000        0.0000                  APPROX POSITION XYZ 
        0.0000        0.0000        0.0000                  ANTENNA: DELTA H/E/N
G    8 C1C L1C D1C S1C C5I L5I D5I S5I                      SYS / # / OBS TYPES 
R    4 C1C L1C D1C S1C                                      SYS / # / OBS TYPES 
E    8 C1C L1C D1C S1C C5I L5I D5I S5I                      SYS / # / OBS TYPES 
J    8 C1C L1C D1C S1C C5I L5I D5I S5I                      SYS / # / OBS TYPES 
C   12 C2I L2I D2I S2I C1D L1D D1D S1D C5D L5D D5D S5D      SYS / # / OBS TYPES 
  2021     5    17     8    40   28.0000000     GPS         TIME OF FIRST OBS   
  2021     5    17     8    55   13.0000000     GPS         TIME OF LAST OBS    
G                                                           SYS / PHASE SHIFT   
R                                                           SYS / PHASE SHIFT   
E                                                           SYS / PHASE SHIFT   
J                                                           SYS / PHASE SHIFT   
C                                                           SYS / PHASE SHIFT   
  0                                                         GLONASS SLOT / FRQ #
 C1C    0.000 C1P    0.000 C2C    0.000 C2P    0.000        GLONASS COD/PHS/BIS 
                                                            END OF HEADER       
> 2021  5 17  8 40 28.0000000  0 11                     
G 2  21999738.467       -6217.272       -1654.938          13.000                                                                  
G 6  20840395.077       -1750.698        -192.747          23.000                                                                  
G 9  23725012.014      -20112.734       -2293.338          25.000                                                                  
G12  22579901.055      -24459.347       -2788.736          13.000                                                                  
G14  24615267.957       11780.129        3080.491          16.000                                                                  
G17  21931330.562        8261.209         777.706          28.000                                                                  
G28  22998419.031       26318.022        2493.370          26.000                                                                  
R 7  20665317.990      -32713.568       -3185.492          30.000  
R 8  23273639.063      -40045.360       -5089.785          20.000  
R22  20488353.657       -9580.087       -1136.370          20.000  
J 3  39026009.381      -11976.521       -1407.850          25.000                                                                  
> 2021  5 17  8 40 29.0000000  0 10                     
G 6  20840360.138       -1942.118        -191.388          26.000                                                                  
G 9  23724576.762      -22405.568       -2291.613          24.000                                                                  
G12  22579370.484      -27247.716       -2787.748          16.000                                                                  
G14  24615850.533       14856.819        3073.699          16.000                                                                  
G17  21931479.390        9038.747         777.496          28.000                                                                  
G28  22998893.044       28813.375        2496.366          24.000                                                                  
R 7  20664720.613      -35900.737       -3187.619          29.000  
R 8  23272688.165      -45137.392       -5084.199          20.000  
R22  20488123.606      -10810.291       -1130.703          18.000  
J 3  39025740.668      -13383.320       -1407.275          25.000                                                                  
> 2021  5 17  8 40 30.0000000  0 11                     
G 6  20840322.255       -2132.324        -191.425          23.000                                                                  
G 9  23724139.686      -24697.601       -2293.909          19.000                                                                  
G12  22578840.218      -30034.465       -2783.026          14.000                                                                  
G14  24616435.429       17930.349        3074.227          14.000                                                                  
G17  21931628.208        9816.574         777.151          28.000                                                                  
G28  22999369.863       31309.724        2496.208          24.000                                                                  
R 7  20664123.924      -39086.699       -3186.004          28.000  
R 8  23271737.696      -50219.946       -5080.814          18.000  
R21  21591513.589        2026.835         803.047          17.000  
R22  20487892.596      -12042.837       -1138.086          20.000  
J 3  39025473.989      -14791.770       -1409.625          27.000                                                                  
> 2021  5 17  8 40 31.0000000  0 11                     
G 6  20840285.542       -2322.078        -188.004          20.000                                                                  
G 9  23723702.955      -26992.662       -2295.117          20.000                                                                  
G12  22578310.593      -32817.729       -2780.625          15.000                                                                  
G14  24617018.989       21004.484        3072.336          16.000                                                                  
G17  21931776.522       10594.806         777.018          25.000                                                                  
G28  22999845.852       33805.901        2495.340          25.000                                                                  
R 7  20663526.830      -42272.272       -3185.250          30.000  
R 8  23270788.557      -55300.512       -5069.378          20.000  
R21  21591663.657        2829.492         810.910          17.000  
R22  20487661.119      -13278.899       -1137.414          19.000  
J 3  39025206.244      -16201.251       -1408.903          26.000                                                                  
> 2021  5 17  8 40 33.0000000  0 12                     
G 2  21998311.488      -13739.457       -1655.255          17.000                                                                  
G 6  20840228.045       -2616.833        -189.020          26.000                                                                  
G 9  23723024.592      -30557.899       -2293.995          22.000                                                                  
G12  22577489.312      -37133.685       -2780.715          15.000                                                                  
G14  24617923.397       25783.996        3078.191          17.000                                                                  
G17  21932006.215       11803.169         778.190          24.000                                                                  
G28  23000583.693       37684.365        2496.487          22.000                                                                  
R 7  20662601.295      -47222.590       -3184.509          29.000  
R 8  23269318.760      -63178.074       -5074.597          23.000  
R21  21591892.534        4081.379         803.501          20.000  
R22  20487301.360      -15197.960       -1134.558          17.000  
J 3  39024789.547      -18391.455       -1410.136          25.000                                                                  
> 2021  5 17  8 40 34.0000000  0 13                     
G 2  21998004.980      -15392.382       -1650.695          18.000                                                                  
G 6  20840193.521       -2805.297        -188.402          23.000                                                                  
G 9  23722588.376      -32850.591       -2292.451          22.000                                                                  
G12  22576959.954      -39915.571       -2784.468          15.000                                                                  
G14  24618509.473       28863.781        3076.175          17.000                                                                  
G17  21932154.354       12581.905         779.119          22.000                                                                  
G28  23001058.116       40181.141        2497.467          20.000                                                                  
R 7  20662006.984      -50407.324       -3185.063          28.000  
R 8  23268368.002      -68254.541       -5079.734          20.000  
R21  21592041.838        4892.860         808.618          19.000  
R22  20487069.892      -16434.261       -1131.057          16.000  
E33  25785979.424         938.426         810.086          15.000                                                                  
J 3  39024520.219      -19801.779       -1408.850          23.000                                                                  
> 2021  5 17  8 40 35.0000000  0 12                     
G 2  21997692.027      -17040.727       -1646.752          19.000                                                                  
G 6  20840156.646       -2995.195        -190.742          21.000                                                                  
G 9  23722153.534      -35143.073       -2292.268          23.000                                                                  
G14  24619088.291       31939.377        3075.089          18.000                                                                  
G17  21932301.983       13358.588         774.773          25.000                                                                  
G28  23001533.757       42677.927        2497.128          18.000                                                                  
R 7  20661412.302      -53590.349       -3184.342          26.000  
R 8  23267416.878      -73347.951       -5095.200          20.000  
R21  21592137.456        5703.969         814.274          21.000  
R22  20486838.420      -17670.399       -1126.701          18.000  
E11  26296869.460       -2301.997       -2178.338          16.000                                                                  
J 3  39024249.805      -21210.187       -1407.051          23.000                                                                  
> 2021  5 17  8 40 36.0000000  0 12                     
G 2  21997379.237      -18684.734       -1641.406          16.000                                                                  
G 6  20840120.769       -3184.796        -189.000          20.000                                                                  
G 9  23721717.418      -37434.267       -2290.137          23.000                                                                  
G14  24619673.565       35014.916        3076.256          16.000                                                                  
G17  21932449.717       14134.677         777.809          25.000                                                                  
G28  23002008.791       45174.133        2495.484          17.000                                                                  
R 7  20660818.615      -56774.701       -3185.561          24.000  
R 8  23266468.040      -78433.740       -5082.798          17.000  
R21  21592286.892        6503.470         795.362          17.000  
R22  20486607.091      -18905.923       -1149.953          17.000  
E24  24723398.008         800.936         363.867          17.000                                                                  
J 3  39023981.040      -22616.820       -1406.386          20.000                                                                  
> 2021  5 17  8 40 37.0000000  0 11                     
G 2  21997066.516      -20328.405       -1646.182          15.000                                                                  
G 6  20840084.504       -3375.712        -190.064          17.000                                                                  
G 9  23721282.371      -39724.364       -2290.015          19.000                                                                  
G14  24620258.178       38092.111        3077.191          15.000                                                                  
G17  21932599.304       14915.294         781.217          22.000                                                                  
G28  23002489.300       47670.710        2497.733          15.000                                                                  
R 7  20660221.608      -59959.395       -3184.684          23.000  
R 8  23265517.865      -83522.056       -5095.956          18.000  
R21  21592435.795        7300.193         810.798          16.000  
E24  24723473.785        1165.748         366.429          15.000                                                                  
J 3  39023713.723      -24023.555       -1406.085          19.000                                                                  
> 2021  5 17  8 40 38.0000000  0 12                     
G 2  21996753.005      -21976.432       -1648.954          17.000                                                                  
G 6  20840048.458       -3565.169        -189.287          17.000                                                                  
G 9  23720846.543      -42014.763       -2288.835          17.000                                                                  
G14  24620843.386       41167.298        3077.744          16.000                                                                  
G17  21932748.484       15698.909         785.591          17.000                                                                  
G28  23002969.901       50168.482        2498.250          20.000                                                                  
R 7  20659625.919      -63143.347       -3183.298          25.000  
R 8  23264568.407      -88606.594       -5074.199          24.000  
R21  21592578.668        8111.252         801.465          20.000  
E24  24723543.092        1529.365         363.096          20.000                                                                  
E33  25786595.875        4176.471         806.340          16.000                                                                  
J 3  39023447.161      -25429.747       -1406.857          20.000                                                                  
> 2021  5 17  8 40 39.0000000  0 13                     
G 2  21996440.759      -23626.482       -1650.347          17.000                                                                  
G 6  20840010.780       -3753.290        -189.032          29.000                                                                  
G 9  23720411.470      -44301.148       -2285.663          17.000                                                                  
G14  24621431.452       44246.747        3080.592          13.000                                                                  
G17  21932897.906       16483.878         784.761          19.000                                                                  
G28  23003441.977       52667.467        2499.455          20.000                                                                  
R 7  20659031.041      -66325.406       -3182.760          27.000  
R 8  23263618.949      -93682.787       -5072.471          20.000  
R21  21592740.825        8916.982         804.485          20.000  
E11  26295227.449      -11011.499       -2176.885          20.000                                                                  
E24  24723615.214         184.585         367.240          29.000                                                                  
E33  25786749.332        4982.790         807.707          18.000                                                                  
J 3  39023179.390      -26837.132       -1406.808          23.000                                                                  
> 2021  5 17  8 40 40.0000000  0 13                     
G 2  21996127.092      -25275.140       -1649.070          18.000                                                                  
G 6  20839971.523       -3942.358        -190.643          20.000                                                                  
G 9  23719990.252      -46588.842       -2289.572          19.000                                                                  
G14  24622015.478       47315.320        3063.542          13.000                                                                  
G17  21933068.992       17267.530         783.432          25.000                                                                  
G28  23003910.777       55165.546        2498.395          25.000                                                                  
R 7  20658436.827      -69507.105       -3180.286          23.000  
R 8  23262671.839      -98755.188       -5072.688          20.000  
R21  21592890.787        9723.264         806.285          18.000  
E11  26294818.464      -13187.870       -2176.679          23.000                                                                  
E24  24723686.363         551.626         367.242          29.000                                                                  
E33  25786899.700        5793.690         811.242          19.000                                                                  
J 3  39022913.051      -28244.731       -1408.214          20.000                                                                  
> 2021  5 17  8 40 41.0000000  0 14                     
G 2  21995778.000      -26924.957       -1652.013          20.000                                                                  
G 6  20839933.443       -4131.962        -188.113          22.000                                                                  
G 9  23719555.864      -48879.229       -2291.172          19.000                                                                  
G14  24622598.394       50378.832        3065.717          16.000                                                                  
G17  21933198.447       18048.964         780.036          28.000                                                                  
G28  23004389.116       57662.951        2497.350          24.000                                                                  
R 7  20657843.428      -72688.939       -3182.437          24.000  
R 8  23261724.288     -103829.693       -5071.802          20.000  
R21  21593042.491       10534.329         804.926          18.000  
R22  20485444.413      -25120.678       -1131.169          17.000  
E11  26294405.901      -15364.935       -2176.698          23.000                                                                  
E24  24723756.661         919.172         367.848          30.000                                                                  
E33  25787049.105        6603.422         808.169          17.000                                                                  
J 3  39022645.154      -29653.121       -1408.452          19.000                                                                  
> 2021  5 17  8 40 42.0000000  0 13                     
G 2  21995463.578      -28577.781       -1653.954          17.000                                                                  
G 6  20839897.379       -4319.374        -187.414          21.000                                                                  
G 9  23719112.611      -51169.827       -2285.801          20.000                                                                  
G14  24623174.431       53448.176        3071.575          15.000                                                                  
G17  21933346.019       18831.671         783.837          25.000                                                                  
G28  23004862.802       60161.206        2498.950          22.000                                                                  
R 7  20657249.366      -75866.697       -3175.393          28.000  
R 8  23260788.542     -108908.812       -5075.177          23.000  
R21  21593201.991       11345.244         815.510          20.000  
R22  20485212.997      -26356.934       -1127.286          17.000  
E24  24723827.099        1289.180         370.687          25.000                                                                  
E33  25787198.060        7411.534         806.266          17.000                                                                  
J 3  39022377.514      -31060.610       -1408.943          22.000                                                                  
> 2021  5 17  8 40 43.0000000  0 13                     
G 2  21995165.785      -30228.187       -1650.157          17.000                                                                  
G 6  20839862.384       -4506.513        -186.075          19.000                                                                  
G 9  23718671.548      -53457.377       -2287.190          23.000                                                                  
G14  24623759.085       56520.399        3073.064          15.000                                                                  
G17  21933492.937       19614.968         783.049          25.000                                                                  
G28  23005335.127       62661.200        2500.080          23.000                                                                  
R 7  20656658.362      -79043.802       -3177.611          29.000  
R 8  23259838.495     -113986.110       -5078.457          24.000  
R21  21593356.787       12164.182         817.890          20.000  
R22  20484985.360      -27573.033       -1110.706          15.000  
E24  24723896.547        1659.167         369.678          23.000                                                                  
E33  25787352.141        8219.910         809.842          15.000                                                                  
J 3  39022109.325      -32468.626       -1408.007          24.000                                                                  
> 2021  5 17  8 40 44.0000000  0 14                     
G 2  21994860.389      -31877.935       -1649.386          21.000                                                                  
G 6  20839826.874       -4693.666        -186.705          19.000                                                                  
G 9  23718238.071      -55744.554       -2287.431          23.000                                                                  
G14  24624344.176       59594.798        3075.773          14.000                                                                  
G17  21933641.124       20397.925         782.719          26.000                                                                  
G28  23005809.934       65161.444        2500.551          27.000                                                                  
R 7  20656064.933      -82220.127       -3175.416          30.000  
R 8  23258888.680     -119065.103       -5078.586          27.000  
R21  21593512.168       12967.449         797.369          18.000  
R22  20484758.708      -28783.626       -1112.546          15.000  
E24  24723967.455        2029.230         370.554          26.000                                                                  
E33  25787506.261        9029.518         806.695          13.000                                                                  
J 1  38422140.384      -11333.388        -590.526          27.000                                                                  
J 3  39021840.442      -33876.459       -1407.916          22.000                                                                  
> 2021  5 17  8 40 45.0000000  0 13                     
G 2  21994547.415      -33527.526       -1649.411          23.000                                                                  
G 6  20839790.823       -4880.285        -186.673          22.000                                                                  
G 9  23717803.077      -58032.232       -2287.170          19.000                                                                  
G14  24624945.170       62672.408          -0.009          12.000                                                                  
G17  21933790.356       21182.373         786.525          19.000                                                                  
G28  23006286.443       67662.012        2500.869          27.000                                                                  
R 7  20655470.792      -85398.033       -3178.959          20.000  
R 8  23257939.937     -124141.854       -5076.428          26.000  
R21  21593657.062       13759.666         795.016          16.000  
R22  20484529.098      -30009.904       -1134.722          18.000  
E24  24724037.382        2398.598         369.487          29.000                                                                  
J 1  38422028.323      -11922.234        -590.205          20.000                                                                  
J 3  39021572.489      -35284.298       -1406.675          20.000                                                                  
> 2021  5 17  8 40 46.0000000  0 14                     
G 2  21994233.399      -35176.645       -1649.195          19.000                                                                  
G 6  20839756.330       -5068.216        -187.946          20.000                                                                  
G 9  23717369.317      -60318.383       -2287.364          16.000                                                                  
G14  24625530.750       65749.446          -0.009          13.000                                                                  
G17  21933940.140       21965.112         782.589          19.000                                                                  
G19  20573063.017          76.967          10.291          22.000                                                                  
G28  23006762.420       70163.011        2500.999          19.000                                                                  
R 7  20654878.091      -88576.101       -3177.722          20.000  
R 8  23256989.132     -129218.960       -5077.934          29.000  
R21  21593807.505       14564.512         798.758          18.000  
R22  20484295.749      -31256.494       -1156.842          17.000  
E24  24724108.025        2768.495         370.495          28.000                                                                  
J 1  38421916.136      -12511.931        -592.425          15.000                                                                  
J 3  39021305.161      -36692.067       -1407.738          20.000                                                                  
> 2021  5 17  8 40 47.0000000  0 12                     
G 2  21993918.959      -36826.452       -1651.967          19.000                                                                  
G 6  20839720.558       -5256.437        -188.227          16.000                                                                  
G 9  23716934.196      -62605.056       -2286.417          16.000                                                                  
G17  21934089.924       22748.317         784.563          18.000                                                                  
G19  20573061.006          86.480          10.094          18.000                                                                  
G28  23007238.353       72664.128          -0.011          16.000                                                                  
R 7  20654284.671      -91753.065       -3175.483          18.000  
R 8  23256040.163     -134298.041       -5079.759          20.000  
R21  21593957.668       15359.202         791.705          18.000  
R22  20484058.889      -32521.129       -1170.813          16.000  
E24  24724178.611        3139.650         371.807          22.000                                                                  
J 3  39021037.299      -38100.094       -1407.521          17.000                                                                  
> 2021  5 17  8 40 48.0000000  0 12                     
G 2  21993608.397      -38477.354       -1650.730          19.000                                                                  
G 6  20839684.716       -5445.192        -188.545          22.000                                                                  
G 9  23716488.029      -64889.428          -0.004          17.000                                                                  
G17  21934238.975       23530.729         781.486          19.000                                                                  
G19  20573070.151          97.237          10.845          19.000                                                                  
G28  23007713.173       75164.311        2500.011          26.000                                                                  
R 7  20653693.362      -94927.841       -3173.381          23.000  
R 8  23255090.653     -139376.245       -5075.882          23.000  
R21  21594106.567       16156.224         794.988          17.000  
R22  20483820.772      -33792.215       -1163.655          16.000  
E24  24724249.058        3511.032         372.518          27.000                                                                  
J 3  39020769.311      -39508.570       -1409.503          18.000                                                                  
> 2021  5 17  8 40 49.0000000  0 13                     
G 2  21993296.099      -40125.400       -1645.643          18.000                                                                  
G 6  20839668.734       -5633.538        -186.776          19.000                                                                  
G 9  23716062.990      -67172.581       -2284.040          18.000                                                                  
G17  21934387.586       24311.413         783.006          16.000                                                                  
G19  20573071.177         107.517           8.777          26.000                                                                  
G28  23008195.983       77663.834        2498.553          25.000                                                                  
R 7  20653098.859      -98102.011       -3175.269          23.000  
R 8  23254145.178     -144455.823       -5083.876          19.000  
R21  21594256.386       16957.785         814.196          18.000  
E11  26291093.450      -32745.208       -2172.793          18.000                                                                  
E24  24724319.836        3882.274         370.679          32.000                                                                  
J 3  39020492.915      -40917.186       -1408.961          16.000                                                                  
C13  36665917.620        -646.210        -570.168          22.000                                                                                                                                  
> 2021  5 17  8 40 50.0000000  0 17                     
G 2  21992982.135      -41770.467       -1645.401          18.000                                                                  
G 6  20839618.810       -5820.568        -187.857          20.000                                                                  
G 9  23715628.554      -69455.536       -2282.955          17.000                                                                  
G14  24627872.092       78052.287          -0.009          17.000                                                                  
G17  21934536.803       25095.369         785.919          17.000                                                                  
G19  20573067.696         117.652          11.648          25.000                                                                  
G28  23008668.260       80163.391        2500.713          23.000                                                                  
R 7  20652505.909     -101275.954       -3174.831          21.000  
R 8  23253196.035     -149538.760       -5081.821          17.000  
R21  21594408.490       17770.931         805.960          21.000  
E11  26290679.330      -34919.427       -2178.573          20.000                                                                  
E12  23935025.917        -915.992        -659.208          20.000                                                                  
E24  24724390.247        4253.399         371.353          32.000                                                                  
J 1  38421464.253      -14868.999        -587.229          19.000                                                                  
J 3  39020235.798      -42327.521       -1409.092          24.000                                                                  
C13  36665798.447       -1217.410        -569.530          24.000                                                                                                                                  
C35  22805384.977       -1417.624       -2137.277          26.000                                                                                                                                  
> 2021  5 17  8 40 51.0000000  0 20                     
G 2  21992667.242      -43416.814       -1647.152          23.000                                                                  
G 6  20839565.230       -6009.001        -187.136          24.000                                                                  
G 9  23715194.392      -71737.316       -2281.994          15.000                                                                  
G14  24628457.636       81129.203          -0.009          16.000                                                                  
G17  21934684.069       25880.122         783.260          17.000                                                                  
G19  20573070.755         127.100           8.271          29.000                                                                  
G28  23009144.568       82663.606        2500.518          23.000                                                                  
R 7  20651911.459     -104449.422       -3173.283          23.000  
R 8  23252249.548     -154620.066       -5081.723          17.000  
R21  21594560.404       18577.969         810.763          22.000  
E11  26290268.203      -37098.019       -2179.020          20.000                                                                  
E12  23934895.621       -1575.352        -659.103          23.000                                                                  
E24  24724460.558        4625.449         371.770          33.000                                                                  
J 1  38421349.331      -15457.819        -589.474          20.000                                                                  
J 3  39019955.459      -43737.398       -1408.710          20.000                                                                  
C 2  37681992.922       -1300.003        -732.894          25.000                                                                                                                                  
C13  36665688.480       -1788.940        -572.462          24.000                                                                                                                                  
C20  23153800.229         118.065          83.429          25.000                                                                                                                                  
C29  22438261.172           4.399           4.237          19.000                                                                                                                                  
C35  22804968.798       -3554.820       -2137.324          24.000                                                                                                                                  
> 2021  5 17  8 40 52.0000000  0 19                     
G 2  21992352.909      -45064.945       -1650.432          22.000                                                                  
G 6  20839535.418       -6196.919        -187.670          24.000                                                                  
G 9  23714773.755      -74018.815          -0.004          16.000                                                                  
G14  24629037.547       84203.677        3073.055          14.000                                                                  
G17  21934848.398       26662.226         782.680          20.000                                                                  
G19  20573073.552         135.690          10.303          30.000                                                                  
G28  23009621.260       85163.931        2498.231          19.000                                                                  
R 7  20651318.370     -107622.987       -3173.195          20.000  
R 8  23251300.566     -159702.322       -5081.602          15.000  
R21  21594711.850       19390.505         811.626          22.000  
E11  26289855.894      -39276.644       -2177.852          20.000                                                                  
E12  23934773.700       -2235.273        -659.433          25.000                                                                  
E24  24724531.768        4997.157         372.115          32.000                                                                  
J 1  38421237.680      -16045.784        -588.645          19.000                                                                  
J 3  39019697.784      -45147.688       -1411.224          22.000                                                                  
C13  36665578.600       -2360.426        -568.266          24.000                                                                                                                                  
C20  23153816.628         202.901          84.822          27.000                                                                                                                                  
C29  22438262.010           8.301           3.989          24.000                                                                                                                                  
C35  22804557.797       -5691.196       -2137.312          23.000                                                                                                                                  
> 2021  5 17  8 40 53.0000000  0 21                     
G 2  21992038.696      -46715.701       -1650.408          20.000                                                                  
G 6  20839504.755       -6383.761        -186.156          24.000                                                                  
G 9  23714339.781      -76299.450          -0.004          14.000                                                                  
G14  24629622.112       87275.402        3070.963          15.000                                                                  
G17  21934992.452       27445.689         781.706          18.000                                                                  
G19  20573071.973         145.661          10.280          30.000                                                                  
G28  23010097.110       87662.626        2498.067          19.000                                                                  
R 7  20650724.870     -110796.956       -3173.262          20.000  
R 8  23250351.510     -164784.655       -5081.425          16.000  
R21  21594864.975       20200.647         802.598          24.000  
E11  26289443.266      -41453.273       -2174.822          19.000                                                                  
E12  23934648.700       -2894.532        -659.541          24.000                                                                  
E24  24724602.795        5369.419         372.387          31.000                                                                  
E33  25788892.711       16307.630         811.279          19.000                                                                  
J 1  38421125.545      -16634.237        -587.421          20.000                                                                  
J 3  39019424.988      -46558.008       -1410.851          22.000                                                                  
C 5  39227703.263       -2470.920        -729.047          25.000                                                                                                                                  
C13  36665468.314       -2930.580        -570.791          25.000                                                                                                                                  
C20  23153832.425         288.396          87.176          25.000                                                                                                                                  
C29  22438263.353          11.985           3.495          25.000                                                                                                                                  
C35  22804147.467       -7828.269       -2137.009          23.000                                                                                                                                  
> 2021  5 17  8 40 54.0000000  0 24                     
G 2  21991723.336      -48366.182       -1650.540          20.000                                                                  
G 6  20839471.160       -6571.292        -185.701          25.000                                                                  
G 9  23713914.397      -78579.576          -0.004          17.000                                                                  
G14  24630206.583       90346.729        3071.941          17.000                                                                  
G17  21935141.573       28228.850         781.731          18.000                                                                  
G19  20573072.842         155.660          10.643          31.000                                                                  
G28  23010572.847       90160.601        2499.064          20.000                                                                  
R 7  20650131.197     -113968.097       -3167.023          19.000  
R 8  23249403.387     -169864.479       -5078.370          18.000  
R21  21595015.165       21004.791         816.765          25.000  
R22  20482424.572      -41244.058       -1098.568          16.000  
E11  26289029.312      -43627.444       -2174.718          16.000                                                                  
E12  23934523.278       -3553.798        -659.058          25.000                                                                  
E24  24724673.952        5742.054         373.271          31.000                                                                  
E33  25789047.351       17118.592         810.420          23.000                                                                  
J 1  38421022.200      -17222.149        -587.711          20.000                                                                  
J 3  39019156.942      -47967.545       -1408.809          27.000                                                                  
C 5  39227563.416       -3188.235        -709.304          26.000                                                                                                                                  
C10  36352565.385         305.775         206.164          20.000                                                                                                                                  
C13  36665358.303       -3502.438        -572.466          24.000                                                                                                                                  
C20  23153849.517         376.219          89.053          28.000                                                                                                                                  
C29  22438263.602          15.624           4.863          23.000                                                                                                                                  
C30  26063087.811        2152.797        1501.397          17.000                                                                                                                                  
C35  22803737.090       -9966.033       -2138.318          24.000                                                                                                                                  
> 2021  5 17  8 40 55.0000000  0 24                     
G 2  21991409.236      -50014.711       -1648.276          21.000                                                                  
G 6  20839436.972       -6754.546        -182.602          21.000                                                                  
G 9  23713474.808      -80860.056       -2281.790          19.000                                                                  
G14  24630791.133       93418.515        3070.601          17.000                                                                  
G17  21935291.117       29011.855         783.679          17.000                                                                  
G19  20573074.549         162.076           5.634          18.000                                                                  
G28  23011048.548       92661.859        2503.401          21.000                                                                  
R 7  20649539.299     -117134.400       -3165.599          19.000  
R 8  23248456.150     -174943.068       -5080.341          19.000  
R21  21595166.293       21818.215         826.462          17.000  
R22  20482198.050      -42453.905       -1121.705          16.000  
E11  26288615.205      -45803.743       -2180.069          18.000                                                                  
E12  23934398.225       -4211.754        -657.102          17.000                                                                  
E24  24724744.184        6116.635         375.232          29.000                                                                  
J 1  38420911.544      -17811.037        -590.381          19.000                                                                  
J 3  39018888.509      -49375.841       -1406.422          19.000                                                                  
C 8  36454538.330        -798.485        -319.645          16.000                                                                                                                                  
C10  36352611.386         509.156         203.531          21.000                                                                                                                                  
C13  36665248.671       -4074.269        -570.607          22.000                                                                                                                                  
C19  22821888.634       -8859.039       -2815.649          26.000                                                                                                                                  
C20  23153866.666         464.073          87.240          18.000                                                                                                                                  
C29  22438263.829          19.739           4.394          19.000                                                                                                                                  
C30  26063378.547        3654.629        1504.666          16.000                                                                                                                                  
C35  22803326.756      -12104.270       -2138.736          17.000                                                                                                                                  
> 2021  5 17  8 40 56.0000000  0 26                     
G 2  21991094.783      -51662.043       -1647.460          21.000                                                                  
G 6  20839401.427       -6939.170        -184.782          27.000                                                                  
G 9  23713040.512      -83142.554       -2283.889          16.000                                                                  
G14  24631375.299       96487.853        3068.536          15.000                                                                  
G17  21935446.570       29795.001         783.355          22.000                                                                  
G19  20573073.323         171.943           9.882          25.000                                                                  
G28  23011524.760       95164.773        2502.191          21.000                                                                  
R 7  20648949.870     -120302.235       -3169.569          26.000  
R 8  23247519.699     -180023.872       -5080.404          22.000  
R21  21595321.273       22647.014         812.465          20.000  
R22  20481970.356      -43669.968       -1128.631          20.000  
E11  26288200.224      -47983.446       -2177.604          18.000                                                                  
E12  23934273.238       -4867.063        -656.747          20.000                                                                  
E24  24724814.718        6490.421         373.585          22.000                                                                  
J 1  38420792.917      -18399.825        -589.995          25.000                                                                  
J 3  39018622.139      -50784.384       -1410.388          19.000                                                                  
C 7  37468630.047        2045.978         588.272          19.000                                                                                                                                  
C 8  36454478.079       -1117.522        -315.732          17.000                                                                                                                                  
C10  36352650.384         713.085         203.101          18.000                                                                                                                                  
C13  36665139.450       -4642.805        -567.739          18.000                                                                                                                                  
C19  22821356.630      -11674.830       -2815.809          22.000                                                                                                                                  
C20  23153884.117         551.152          87.708          20.000                                                                                                                                  
C22  26116245.945      -14956.494       -4109.045          22.000                                                                                                                                  
C29  22438265.294          25.135           4.531          20.000                                                                                                                                  
C30  26063659.936        5156.974        1499.031          15.000                                                                                                                                  
C35  22802916.305      -14241.889       -2136.467          17.000                                                                                                                                  
> 2021  5 17  8 40 57.0000000  0 26                     
G 2  21990781.342      -53309.326       -1647.802          19.000                                                                  
G 6  20839367.644       -7123.487        -183.417          25.000                                                                  
G 9  23712606.499      -85423.404       -2280.960          17.000                                                                  
G14  24631961.613       99557.498          -0.009          15.000                                                                  
G17  21935582.508       30578.768         783.978          24.000                                                                  
G19  20573076.413         183.646          11.037          25.000                                                                  
G28  23012001.169       97668.790        2504.448          20.000                                                                  
R 7  20648358.325     -123471.510       -3169.027          27.000  
R 8  23246565.478     -185104.885       -5080.035          23.000  
R21  21595473.138       23456.776         811.935          18.000  
R22  20481742.840      -44891.909       -1117.179          19.000  
E11  26287786.113      -50160.181       -2176.142          18.000                                                                  
E12  23934147.675       -5525.714        -657.880          19.000                                                                  
E24  24724886.238        6864.047         373.868          19.000                                                                  
E33  25789508.172       19558.371         813.409          18.000                                                                  
J 1  38420679.181      -18988.555        -588.326          25.000                                                                  
J 3  39018354.691      -52194.862       -1409.262          19.000                                                                  
C 8  36454417.919       -1430.942        -313.638          17.000                                                                                                                                  
C10  36352688.431         917.979         204.849          18.000                                                                                                                                  
C13  36665030.062       -5212.786        -571.721          18.000                                                                                                                                  
C19  22820818.596      -14490.273       -2814.659          22.000                                                                                                                                  
C20  23153901.122         639.537          90.468          19.000                                                                                                                                  
C22  26115461.178      -19066.832       -4111.348          24.000                                                                                                                                  
C29  22438266.105          27.900          -0.023          19.000                                                                                                                                  
C30  26063945.888        6660.842        1510.353          14.000                                                                                                                                  
C35  22802504.375      -16378.314       -2137.081          17.000                                                                                                                                  
> 2021  5 17  8 40 58.0000000  0 26                     
G 2  21990466.702      -54956.801       -1647.586          24.000                                                                  
G 6  20839332.047       -7310.230        -186.386          25.000                                                                  
G 9  23712161.339      -87703.451       -2278.767          14.000                                                                  
G14  24632546.001      102628.130          -0.009          13.000                                                                  
G17  21935731.092       31362.975         783.819          21.000                                                                  
G19  20573078.713         195.793          12.260          20.000                                                                  
G28  23012477.697      100173.007        2503.192          17.000                                                                  
R 7  20647768.468     -126639.361       -3164.298          22.000  
R 8  23245618.027     -190183.674       -5077.129          21.000  
R21  21595625.984       24273.505         811.377          20.000  
R22  20481515.463      -46106.142       -1125.451          19.000  
E11  26287371.836      -52337.404       -2176.861          18.000                                                                  
E12  23934022.863       -6181.894        -656.146          19.000                                                                  
E24  24724957.413        7238.410         375.976          23.000                                                                  
E33  25789663.112       20372.292         815.996          15.000                                                                  
J 1  38420567.823      -19575.830        -586.869          19.000                                                                  
J 3  39018086.659      -53603.566       -1408.426          17.000                                                                  
C 8  36454357.546       -1745.580        -316.534          18.000                                                                                                                                  
C10  36352726.243        1120.103         201.949          17.000                                                                                                                                  
C13  36664920.745       -5782.802        -570.226          19.000                                                                                                                                  
C19  22820278.654      -17304.548       -2812.822          25.000                                                                                                                                  
C20  23153918.708         729.308          89.260          20.000                                                                                                                                  
C22  26114668.196      -23176.335       -4106.583          20.000                                                                                                                                  
C29  22438266.904          29.655           0.536          23.000                                                                                                                                  
C30  26064235.244        8167.368        1506.458          15.000                                                                                                                                  
C35  22802094.167      -18514.730       -2136.296          20.000                                                                                                                                  
> 2021  5 17  8 40 59.0000000  0 27                     
G 2  21990154.160      -56603.247       -1644.917          21.000                                                                  
G 6  20839297.654       -7496.333        -186.783          28.000                                                                  
G 9  23711727.799      -89981.621       -2278.564          17.000                                                                  
G14  24633130.298      105698.480          -0.009          14.000                                                                  
G17  21935882.023       32147.613         784.585          22.000                                                                  
G19  20573082.618         208.520          10.649          20.000                                                                  
G28  23012953.970      102675.646        2503.498          19.000                                                                  
R 7  20647179.319     -129804.599       -3166.023          22.000  
R 8  23244670.053     -195259.990       -5075.026          18.000  
R21  21595780.044       25087.235         812.307          20.000  
R22  20481284.580      -47340.777       -1132.670          19.000  
E11  26286957.677      -54514.186       -2177.165          22.000                                                                  
E12  23933897.195       -6840.080        -661.410          20.000                                                                  
E24  24725029.683        7613.836         377.271          20.000                                                                  
E33  25789818.214       21186.691         814.206          16.000                                                                  
J 1  38420455.749      -20164.787        -593.026          18.000                                                                  
J 3  39017818.417      -55012.774       -1411.055          19.000                                                                  
C 7  37468968.180        3809.493         587.842          17.000                                                                                                                                  
C 8  36454295.201       -2061.094        -315.136          18.000                                                                                                                                  
C10  36352763.670        1324.854         204.304          19.000                                                                                                                                  
C13  36664811.039       -6353.196        -571.648          17.000                                                                                                                                  
C19  22819738.521      -20117.249       -2813.341          19.000                                                                                                                                  
C20  23153935.761         817.727          88.028          19.000                                                                                                                                  
C22  26113879.730      -27282.203       -4106.013          18.000                                                                                                                                  
C29  22438267.458          31.328           2.480          24.000                                                                                                                                  
C30  26064524.455        9673.210        1504.938          15.000                                                                                                                                  
C35  22801673.831      -20651.136       -2136.775          23.000                                                                                                                                  
> 2021  5 17  8 41  0.0000000  0 27                     
G 2  21989841.666      -58249.085       -1645.747          25.000                                                                  
G 6  20839262.253       -7682.305        -188.807          18.000                                                                  
G 9  23711294.061      -92260.992       -2279.782          17.000                                                                  
G14  24633714.630      108770.240          -0.009          14.000                                                                  
G17  21936032.143       32932.395         784.364          20.000                                                                  
G19  20573084.263         220.644          12.078          24.000                                                                  
G28  23013436.831      105177.906        2502.484          19.000                                                                  
R 7  20646590.365     -132971.350       -3167.281          22.000  
R 8  23243723.125     -200337.893       -5080.207          22.000  
R21  21595934.735       25894.118         803.519          20.000  
R22  20481055.027      -48567.078       -1130.409          20.000  
E11  26286543.911      -56689.196       -2174.530          16.000                                                                  
E12  23933771.435       -7500.544        -661.418          19.000                                                                  
E24  24725100.876        7988.905         374.626          26.000                                                                  
E33  25789969.940       22000.897         811.999          19.000                                                                  
J 1  38420343.688      -20757.533        -590.157          22.000                                                                  
J 3  39017547.222      -56423.601       -1412.591          25.000                                                                  
C 7  37469080.840        4395.925         586.121          16.000                                                                                                                                  
C 8  36454236.481       -2377.696        -315.104          18.000                                                                                                                                  
C10  36352803.157        1530.195         206.131          18.000                                                                                                                                  
C13  36664701.116       -6925.703        -573.207          16.000                                                                                                                                  
C19  22819198.302      -22930.015       -2812.319          17.000                                                                                                                                  
C20  23153952.596         907.920          90.039          24.000                                                                                                                                  
C22  26113090.134      -31387.543       -4102.367          16.000                                                                                                                                  
C29  22438269.220          35.987           6.016          28.000                                                                                                                                  
C30  26064812.558       11175.839           0.003          17.000                                                                                                                                  
C35  22801262.092      -22787.929       -2136.309          22.000                                                                                                                                  
> 2021  5 17  8 41  1.0000000  0 27                     
G 2  21989528.609      -59895.642       -1647.477          22.000                                                                  
G 6  20839225.160       -7869.392        -184.422          24.000                                                                  
G 9  23710865.872      -94542.033       -2282.597          17.000                                                                  
G14  24634299.386      111843.053          -0.009          13.000                                                                  
G17  21936179.602       33717.126         786.379          20.000                                                                  
G19  20573085.996         232.311          10.547          20.000                                                                  
G28  23013897.311      107680.376        2502.414          19.000                                                                  
R 7  20645998.633     -136139.605       -3168.668          22.000  
R 8  23242767.412     -205418.937       -5081.950          25.000  
R21  21596085.170       26698.019         809.391          20.000  
R22  20480824.095      -49801.318       -1138.247          18.000  
E11  26286129.250      -58863.878       -2173.049          21.000                                                                  
E12  23933645.942       -8158.868        -654.965          19.000                                                                  
E24  24725173.058        8363.433         375.703          27.000                                                                  
E33  25790126.246       22813.157         813.536          18.000                                                                  
J 1  38420233.162      -21347.869        -590.372          20.000                                                                  
J 3  39017277.955      -57836.421       -1410.405          20.000                                                                  
C 7  37469188.618        4976.282         576.376          15.000                                                                                                                                  
C 8  36454177.054       -2694.251        -317.418          17.000                                                                                                                                  
C10  36352842.102        1732.694         201.489          18.000                                                                                                                                  
C13  36664591.244       -7498.048        -572.365          20.000                                                                                                                                  
C19  22818658.318      -25741.561       -2812.877          18.000                                                                                                                                  
C20  23153970.548         998.282          90.321          20.000                                                                                                                                  
C22  26112302.492      -35489.223       -4101.080          18.000                                                                                                                                  
C29  22438270.660          44.256           8.645          20.000                                                                                                                                  
C30  26065100.992       12677.728           0.003          16.000                                                                                                                                  
C35  22800850.353      -24926.118       -2138.232          21.000                                                                                                                                  
> 2021  5 17  8 41  2.0000000  0 28                     
G 2  21989214.806      -61544.860       -1649.715          24.000                                                                  
G 6  20839192.407       -8054.470        -184.480          28.000                                                                  
G 9  23710434.502      -96824.135       -2282.141          23.000                                                                  
G14  24634884.482      114917.429          -0.009          12.000                                                                  
G17  21936329.547       34503.971         788.256          19.000                                                                  
G19  20573086.162         243.188          12.198          28.000                                                                  
G28  23014374.108      110183.514        2503.014          19.000                                                                  
R 7  20645406.805     -139307.688       -3164.671          23.000  
R 8  23241816.497     -210499.958       -5080.271          25.000  
R21  21596237.641       27511.298         818.055          20.000  
R22  20480590.018      -51045.838       -1141.553          19.000  
E11  26285714.179      -61039.403       -2176.831          23.000                                                                  
E12  23933521.173       -8814.491        -657.408          18.000                                                                  
E24  24725244.464        8739.017         376.276          26.000                                                                  
E33  25790281.208       23627.096         815.491          15.000                                                                  
J 1  38420120.696      -21936.810        -589.300          17.000                                                                  
J 3  39017010.656      -59246.717       -1409.950          26.000                                                                  
C 7  37469302.614        5557.740         584.522          18.000                                                                                                                                  
C 8  36454113.243       -3011.119        -317.147          22.000                                                                                                                                  
C10  36352882.480        1935.055         204.059          18.000                                                                                                                                  
C13  36664481.954       -8070.634        -572.420          24.000                                                                                                                                  
C19  22818117.573      -28555.078       -2814.168          22.000                                                                                                                                  
C20  23153987.915        1088.413          90.866          18.000                                                                                                                                  
C22  26111515.151      -39591.332       -4101.921          17.000                                                                                                                                  
C26  25300628.714         661.332         521.637          22.000                                                                                                                                  
C29  22438272.003          51.410           5.295          17.000                                                                                                                                  
C30  26065391.168       14180.520        1503.405          15.000                                                                                                                                  
C35  22800440.879      -27064.607       -2138.360          21.000                                                                                                                                  
> 2021  5 17  8 41  3.0000000  0 28                     
G 2  21988900.296      -63192.749       -1645.823          26.000                                                                  
G 6  20839157.595       -8238.934        -185.574          29.000                                                                  
G 9  23709979.239      -99105.648       -2280.424          23.000                                                                  
G14  24635469.411      117991.325          -0.009          11.000                                                                  
G17  21936482.437       35293.570         789.245          22.000                                                                  
G19  20573085.212         256.664          13.651          31.000                                                                  
G28  23014847.079      112685.956        2500.665          19.000                                                                  
R 7  20644815.404     -142472.329       -3164.216          19.000  
R 8  23240867.293     -215580.477       -5080.030          25.000  
R21  21596390.156       28325.574         820.526          22.000  
R22  20480364.600      -52274.297       -1128.680          22.000  
E11  26285300.779      -63215.603       -2176.664          26.000                                                                  
E12  23933395.527       -9473.530        -658.648          23.000                                                                  
E24  24725316.389        9114.782         376.467          29.000                                                                  
E33  25790436.017       24440.257         815.042          15.000                                                                  
J 1  38420008.696      -22527.173        -591.723          19.000                                                                  
J 3  39016742.921      -60658.049       -1411.123          27.000                                                                  
C 7  37469415.086        6143.275         586.721          16.000                                                                                                                                  
C 8  36454047.521       -3328.449        -317.991          21.000                                                                                                                                  
C10  36352921.844        2139.781         204.226          15.000                                                                                                                                  
C13  36664369.778       -8644.689        -574.273          21.000                                                                                                                                  
C19  22817577.000      -31369.547       -2814.319          26.000                                                                                                                                  
C20  23154005.550        1179.798          91.916          18.000                                                                                                                                  
C22  26110727.340      -43693.837       -4103.320          16.000                                                                                                                                  
C26  25300736.465        1183.043         521.718          27.000                                                                                                                                  
C29  22438272.474          55.769           3.105          22.000                                                                                                                                  
C30  26065679.851       15683.550        1502.399          15.000                                                                                                                                  
C35  22800029.092      -29203.002       -2136.865          25.000                                                                                                                                  
> 2021  5 17  8 41  4.0000000  0 28                     
G 2  21988586.319      -64839.269       -1647.823          25.000                                                                  
G 6  20839123.486       -8424.580        -185.362          28.000                                                                  
G 9  23709540.026     -101386.324       -2280.593          23.000                                                                  
G14  24636054.587      121066.257          -0.009          12.000                                                                  
G17  21936631.622       36082.668         787.709          20.000                                                                  
G19  20573087.228         270.349          15.275          30.000                                                                  
G28  23015327.021      115187.358        2502.050          19.000                                                                  
R 7  20644224.265     -145636.698       -3166.624          20.000  
R 8  23239917.992     -220659.956       -5079.780          25.000  
R21  21596541.175       29137.718         816.100          20.000  
R22  20480138.594      -53500.386       -1119.952          20.000  
E11  26284887.113      -65392.395       -2176.082          26.000                                                                  
E12  23933270.514      -10132.080        -658.533          23.000                                                                  
E24  24725387.952        9491.924         376.851          29.000                                                                  
E33  25790586.949       25252.801         807.670          15.000                                                                  
J 1  38419896.316      -23117.819        -589.509          19.000                                                                  
J 3  39016473.244      -62069.154       -1410.963          26.000                                                                  
C 7  37469527.432        6728.132         585.049          16.000                                                                                                                                  
C 8  36453986.371       -3646.245        -318.083          19.000                                                                                                                                  
C10  36352960.724        2343.952         204.522          13.000                                                                                                                                  
C13  36664259.528       -9217.717        -572.481          20.000                                                                                                                                  
C19  22817035.904      -34183.166       -2812.823          25.000                                                                                                                                  
C20  23154026.429        1270.353           0.025          17.000                                                                                                                                  
C22  26109939.235      -47797.809       -4104.167          17.000                                                                                                                                  
C26  25300835.159        1704.723         523.265          28.000                                                                                                                                  
C29  22438273.625          59.710           3.949          20.000                                                                                                                                  
C30  26065968.303       17185.561        1500.631          17.000                                                                                                                                  
C35  22799618.318      -31339.718       -2136.666          25.000                                                                                                                                  
> 2021  5 17  8 41  5.0000000  0 29                     
G 2  21988272.673      -66486.992       -1648.117          24.000                                                                  
G 6  20839086.872       -8609.047        -184.173          28.000                                                                  
G 9  23709103.631     -103666.349       -2279.267          22.000                                                                  
G12  22560661.217       -5061.364       -2757.156          20.000                                                                  
G14  24636639.880      124142.072          -0.009          13.000                                                                  
G17  21936782.409       36870.675         787.846          20.000                                                                  
G19  20573086.723         284.437          12.847          31.000                                                                  
G28  23015806.527      117689.273        2501.685          17.000                                                                  
R 7  20643634.578     -148803.585       -3166.269          19.000  
R 8  23238971.379     -225738.441       -5079.230          26.000  
R21  21596692.376       29950.328         811.576          22.000  
R22  20479909.839      -54725.926       -1129.407          21.000  
E11  26284472.805      -67568.546       -2176.137          27.000                                                                  
E12  23933145.501      -10791.309        -658.732          23.000                                                                  
E24  24725459.777        9868.988         377.198          26.000                                                                  
E33  25790740.903       26061.787         809.823          14.000                                                                  
J 1  38419783.893      -23707.603        -590.839          18.000                                                                  
J 3  39016203.785      -63479.174       -1410.130          26.000                                                                  
C 7  37469639.940        7314.439         588.059          16.000                                                                                                                                  
C 8  36453926.151       -3962.157        -314.574          20.000                                                                                                                                  
C10  36353000.142        2549.031         205.641          13.000                                                                                                                                  
C13  36664148.673       -9790.799        -572.699          20.000                                                                                                                                  
C19  22816495.096      -36996.076       -2812.977          25.000                                                                                                                                  
C20  23154043.739        1360.213           0.025          15.000                                                                                                                                  
C22  26109151.642      -51902.671       -4105.223          14.000                                                                                                                                  
C26  25300935.786        2229.291         524.912          29.000                                                                                                                                  
C29  22438274.729          65.922           7.309          23.000                                                                                                                                  
C30  26066256.005       18687.819        1503.712          13.000                                                                                                                                  
C35  22799208.337      -33475.392       -2137.415          25.000                                                                                                                                  
> 2021  5 17  8 41  6.0000000  0 29                     
G 2  21987959.978      -68134.416       -1646.984          26.000                                                                  
G 6  20839051.527       -8793.561        -183.907          26.000                                                                  
G 9  23708674.609     -105945.574       -2277.816          25.000                                                                  
G12  22560134.515       -7819.000       -2756.976          21.000                                                                  
G14  24637224.784      127215.389          -0.009          14.000                                                                  
G17  21936933.332       37657.459         788.167          20.000                                                                  
G19  20573088.617         299.403          16.297          29.000                                                                  
G28  23016279.528      120190.619        2501.242          22.000                                                                  
R 7  20643043.461     -151970.237       -3167.218          19.000  
R 8  23238024.861     -230819.208       -5082.301          25.000  
R21  21596842.955       30759.535         816.269          21.000  
R22  20479680.299      -55956.372       -1130.806          20.000  
E11  26284059.154      -69744.637       -2175.282          25.000                                                                  
E12  23933019.602      -11449.929        -657.723          23.000                                                                  
E24  24725532.169       10246.549         378.669          25.000                                                                  
E33  25790895.203       26872.620         811.107          13.000                                                                  
J 1  38419670.781      -24296.287        -587.952          16.000                                                                  
J 3  39015935.779      -64889.510       -1410.992          24.000                                                                  
C 7  37469753.166        7903.843         588.542          14.000                                                                                                                                  
C 8  36453865.646       -4276.813        -316.045          19.000                                                                                                                                  
C10  36353039.789        2755.225         207.006          14.000                                                                                                                                  
C13  36664037.891      -10363.929        -572.232          23.000                                                                                                                                  
C19  22815954.006      -39809.611       -2811.917          28.000                                                                                                                                  
C20  23154060.688        1448.317           0.025          16.000                                                                                                                                  
C22  26108363.350      -56007.764       -4105.374          12.000                                                                                                                                  
C26  25301035.876        2753.926         524.338          25.000                                                                                                                                  
C29  22438276.243          72.759           8.106          23.000                                                                                                                                  
C30  26066544.850       20191.682        1503.007          12.000                                                                                                                                  
C35  22798798.147      -35611.128       -2135.611          23.000                                                                                                                                  
> 2021  5 17  8 41  7.0000000  0 29                     
G 2  21987646.542      -69782.389       -1647.583          19.000                                                                  
G 6  20839016.402       -8977.123        -183.173          23.000                                                                  
G 9  23708241.019     -108222.092       -2278.217          19.000                                                                  
G12  22559610.056      -10575.409       -2757.701          17.000                                                                  
G14  24637810.066      130290.816          -0.009          13.000                                                                  
G17  21937083.329       38445.896         787.598          17.000                                                                  
G19  20573092.299         317.757          17.348          22.000                                                                  
G28  23016760.506      122691.793        2503.312          17.000                                                                  
R 7  20642452.029     -155134.342       -3163.970          17.000  
R 8  23237075.142     -235900.272       -5080.804          23.000  
R21  21596993.821       31576.616         818.977          19.000  
R22  20479451.239      -57182.149       -1130.393          20.000  
E11  26283644.646      -71919.698       -2174.758          24.000                                                                  
E12  23932894.811      -12104.743        -655.377          19.000                                                                  
E24  24725603.366       10625.503         379.625          28.000                                                                  
E33  25791049.729       27684.711         812.063          11.000                                                                  
J 1  38419559.130      -24883.439        -589.205          14.000                                                                  
J 3  39015666.935      -66300.779       -1412.443          18.000                                                                  
C 7  37469866.516        8492.979         589.425          22.000                                                                                                                                  
C 8  36453805.421       -4592.822        -317.194          19.000                                                                                                                                  
C10  36353083.590        2963.912         207.041          21.000                                                                                                                                  
C13  36663928.045      -10935.214        -572.389          21.000                                                                                                                                  
C19  22815414.262      -42621.090       -2811.622          19.000                                                                                                                                  
C20  23154077.955        1539.163          91.271          16.000                                                                                                                                  
C22  26107574.216      -60114.307       -4107.174          20.000                                                                                                                                  
C26  25301136.951        3278.205         524.087          24.000                                                                                                                                  
C29  22438277.869          80.815           6.444          17.000                                                                                                                                  
C30  26066834.113       21693.994           0.003          15.000                                                                                                                                  
C35  22798388.551      -37746.049       -2135.556          24.000                                                                                                                                  
> 2021  5 17  8 41  8.0000000  0 29                     
G 2  21987333.371      -71428.250           0.003          17.000                                                                  
G 6  20838980.744       -9160.595        -183.667          21.000                                                                  
G 9  23707806.478     -110501.417          -0.004          16.000                                                                  
G12  22559085.377      -13332.885       -2759.173          16.000                                                                  
G14  24638395.170      133365.434          -0.009          16.000                                                                  
G17  21937233.541       39235.336         788.480          17.000                                                                  
G19  20573095.637         334.977          17.859          16.000                                                                  
G28  23017236.971      125195.367        2504.458          17.000                                                                  
R 7  20641861.345     -158296.573       -3163.104          16.000  
R 8  23236124.655     -240981.102       -5080.719          24.000  
R21  21597146.266       32393.395         816.228          22.000  
R22  20479222.209      -58406.120       -1127.265          20.000  
E11  26283230.404      -74095.369       -2175.510          23.000                                                                  
E12  23932769.680      -12762.092        -657.744          17.000                                                                  
E24  24725674.991       11003.740         379.127          29.000                                                                  
E33  25791204.460       28497.852         813.386          11.000                                                                  
J 1  38419447.130      -25472.234        -590.026          18.000                                                                  
J 3  39015398.122      -67713.619       -1412.069          17.000                                                                  
C 7  37469979.268        9082.720         589.472          20.000                                                                                                                                  
C 8  36453744.284       -4911.490        -318.560          17.000                                                                                                                                  
C10  36353125.328        3170.941         206.369          22.000                                                                                                                                  
C13  36663817.851      -11508.087        -573.058          20.000                                                                                                                                  
C19  22814873.886      -45435.063       -2815.590          16.000                                                                                                                                  
C20  23154095.540        1630.595          91.568          15.000                                                                                                                                  
C22  26106776.711      -64222.199       -4109.109          21.000                                                                                                                                  
C26  25301237.779        3802.243         524.506          23.000                                                                                                                                  
C29  22438279.575          89.546          10.743          14.000                                                                                                                                  
C30  26067122.570       23195.953           0.003          17.000                                                                                                                                  
C35  22797979.028      -39880.718       -2134.000          23.000                                                                                                                                  
> 2021  5 17  8 41  9.0000000  0 29                     
G 2  21987026.317      -73073.167       -1644.801          16.000                                                                  
G 6  20838944.343       -9344.201        -181.952          24.000                                                                  
G 9  23707373.106     -112778.958          -0.004          17.000                                                                  
G12  22558570.476      -16092.096       -2757.654          17.000                                                                  
G14  24638980.433      136440.910          -0.009          12.000                                                                  
G17  21937360.618       40023.124         788.197          20.000                                                                  
G19  20573099.368         354.501          21.634          15.000                                                                  
G28  23017714.849      127699.558        2504.515          18.000                                                                  
R 7  20641272.989     -161459.786       -3163.530          13.000  
R 8  23235172.397     -246061.750       -5081.509          25.000  
R21  21597298.942       33208.339         813.752          23.000  
R22  20478993.389      -59628.213       -1123.247          22.000  
E11  26282816.511      -76270.551       -2175.498          21.000                                                                  
E12  23932644.387      -13420.875        -662.970          16.000                                                                  
E24  24725745.974       11383.430         379.257          30.000                                                                  
E33  25931861.870       29310.598         812.260           7.000                                                                  
J 1  38419334.166      -26064.252        -592.751          19.000                                                                  
J 3  39015141.821      -69122.959       -1407.600          15.000                                                                  
C 7  37470093.795        9671.633         589.064          23.000                                                                                                                                  
C 8  36453683.405       -5228.521        -316.321          18.000                                                                                                                                  
C10  36353166.328        3376.585         204.007          21.000                                                                                                                                  
C13  36663707.766      -12081.499        -572.878          23.000                                                                                                                                  
C19  22814333.077      -48251.398       -2816.855          16.000                                                                                                                                  
C20  23154114.103        1722.181           0.025          15.000                                                                                                                                  
C22  26105987.712      -68331.115       -4108.095          25.000                                                                                                                                  
C26  25301338.523        4326.265         524.673          21.000                                                                                                                                  
C29  22438281.534          99.454           8.981          12.000                                                                                                                                  
C30  26067411.009       24697.853           0.003          17.000                                                                                                                                  
C35  22797569.302      -42015.294       -2134.618          21.000                                                                                                                                  
> 2021  5 17  8 41 10.0000000  0 29                     
G 2  21986713.291      -74718.135       -1643.977          14.000                                                                  
G 6  20838909.785       -9526.488        -182.931          21.000                                                                  
G 9  23706939.250     -115057.794          -0.004          18.000                                                                  
G12  22558051.326      -18848.244          -0.011          17.000                                                                  
G14  24639565.511      139515.331          -0.009          13.000                                                                  
G17  21937517.451       40811.978         788.157          20.000                                                                  
G19  20573113.141         376.061           0.004          12.000                                                                  
G28  23018191.314      130203.445        2504.028          17.000                                                                  
R 7  20640681.688     -164625.024       -3165.237          12.000  
R 8  23234223.646     -251141.352       -5080.074          24.000  
R21  21597450.868       34022.597         814.741          21.000  
R22  20478765.947      -60855.539       -1119.446          20.000  
E11  26282402.500      -78445.626       -2175.432          22.000                                                                  
E12  23932518.697      -14081.743        -661.137          15.000                                                                  
E24  24725818.505       11762.945         379.746          29.000                                                                  
E33  25932016.487       30123.086         812.587           8.000                                                                  
J 1  38419222.005      -26655.686        -590.425          18.000                                                                  
J 3  39014873.989      -70530.506       -1406.691          15.000                                                                  
C 7  37470207.227       10260.252         588.649          22.000                                                                                                                                  
C 8  36453621.902       -5544.750        -315.318          17.000                                                                                                                                  
C10  36353204.969        3580.348         203.269          21.000                                                                                                                                  
C13  36663598.169      -12653.450        -571.942          24.000                                                                                                                                  
C19  22813793.541      -51066.245       -2814.711          17.000                                                                                                                                  
C20  23154131.842        1814.249           0.025          16.000                                                                                                                                  
C22  26105199.272      -72440.106       -4109.345          25.000                                                                                                                                  
C26  25301439.398        4850.705         524.493          21.000                                                                                                                                  
C29  22438283.449         109.220           0.008          13.000                                                                                                                                  
C30  26067697.419       26200.373        1503.312          16.000                                                                                                                                  
C35  22797159.273      -44149.605       -2134.836          22.000                                                                                                                                  
> 2021  5 17  8 41 11.0000000  0 29                     
G 2  21986400.430      -76362.072       -1643.598          14.000                                                                  
G 6  20838873.267       -9709.294        -183.586          20.000                                                                  
G 9  23706512.915     -117335.545       -2277.681          17.000                                                                  
G12  22557527.024      -21603.641          -0.011          17.000                                                                  
G14  24640150.318      142588.459          -0.009          14.000                                                                  
G17  21937676.604       41601.597         789.318          20.000                                                                  
G19  20573117.326         398.066           0.004          13.000                                                                  
G28  23018667.583      132706.229        2501.598          16.000                                                                  
R 7  20640090.549     -167789.177       -3164.710          17.000  
R 8  23233274.655     -256218.990       -5077.016          21.000  
R21  21597602.332       34836.355         812.363          20.000  
R22  20478538.235      -62075.578       -1116.855          22.000  
E11  26281988.895      -80621.208       -2175.664          23.000                                                                  
E12  23932395.119      -14745.748        -663.972          14.000                                                                  
E24  24725890.169       12142.956         380.357          30.000                                                                  
E33  25932171.092       30935.489         812.485           6.000                                                                  
J 1  38419110.555      -27243.161        -586.544          16.000                                                                  
J 3  39014606.625      -71935.664       -1404.602          13.000                                                                  
C 7  37470320.607       10849.195         589.665          23.000                                                                                                                                  
C 8  36453560.730       -5859.947        -316.373          18.000                                                                                                                                  
C10  36353243.653        3784.607         205.325          22.000                                                                                                                                  
C13  36663488.167      -13225.598        -572.092          25.000                                                                                                                                  
C19  22813253.531      -53878.297       -2810.038          17.000                                                                                                                                  
C20  23154149.912        1908.260           0.025          15.000                                                                                                                                  
C22  26104409.964      -76549.947       -4110.670          24.000                                                                                                                                  
C26  25301540.453        5376.166         526.273          22.000                                                                                                                                  
C29  22438285.129         117.880           0.008          13.000                                                                                                                                  
C30  26067986.242       27704.226        1504.154          17.000                                                                                                                                  
C35  22796749.794      -46283.388       -2132.830          22.000                                                                                                                                  
> 2021  5 17  8 41 12.0000000  0 29                     
G 2  21986086.558      -78004.815       -1644.207          19.000                                                                  
G 6  20838839.297       -9892.451        -182.951          24.000                                                                  
G 9  23706076.023     -119613.225          -0.004          18.000                                                                  
G12  22557002.830      -24358.663          -0.011          17.000                                                                  
G14  24640734.689      145659.194          -0.009          15.000                                                                  
G17  21937832.099       42392.538         790.680          20.000                                                                  
G19  20573121.833         421.420           0.004          16.000                                                                  
G28  23019138.207      135208.059        2502.106          21.000                                                                  
R 7  20639510.137     -170953.809       -3161.985          20.000  
R 8  23232327.077     -261297.228       -5079.635          22.000  
R21  21597753.019       35648.881         812.765          19.000  
R22  20478308.821      -63302.357       -1115.189          19.000  
E11  26281574.317      -82797.723       -2175.868          20.000                                                                  
E12  23932269.037      -15408.237        -661.712          15.000                                                                  
E24  24725962.683       12522.523         379.864          25.000                                                                  
E33  25791815.712       31747.825         812.210           9.000                                                                  
J 1  38418999.554      -27830.823        -588.654          19.000                                                                  
J 3  39014338.924      -73342.501           0.017          15.000                                                                  
C 7  37470433.982       11440.191         590.558          19.000                                                                                                                                  
C 8  36453501.966       -6177.614        -319.865          18.000                                                                                                                                  
C10  36353282.866        3990.666         206.843          21.000                                                                                                                                  
C13  36663378.775      -13797.806        -572.448          24.000                                                                                                                                  
C19  22812714.166      -56688.607       -2810.549          18.000                                                                                                                                  
C20  23154168.147        2003.671          95.292          17.000                                                                                                                                  
C22  26103620.556      -80660.289       -4114.175          21.000                                                                                                                                  
C26  25301642.091        5902.113         524.920          23.000                                                                                                                                  
C29  22438290.560         128.328           0.008          15.000                                                                                                                                  
C30  26068273.113       29209.081        1506.096          14.000                                                                                                                                  
C35  22796340.194      -48417.490       -2134.667          18.000                                                                                                                                  
> 2021  5 17  8 41 13.0000000  0 29                     
G 2  21985764.658      -79649.163       -1644.313          19.000                                                                  
G 6  20838805.066      -10075.729        -182.841          17.000                                                                  
G 9  23705642.695     -121890.229          -0.004          17.000                                                                  
G12  22556481.803      -27112.210       -2752.225          16.000                                                                  
G14  24641319.188      148730.493          -0.009          14.000                                                                  
G17  21937983.807       43182.711         790.780          19.000                                                                  
G19  20573123.151         443.382          20.753          20.000                                                                  
G28  23019622.328      137709.865        2502.945          21.000                                                                  
R 7  20638919.744     -174114.781       -3161.066          17.000  
R 8  23231379.042     -266377.301       -5080.492          19.000  
R21  21597904.639       36461.306         811.237          15.000  
R22  20478083.896      -64511.444       -1110.407          14.000  
E11  26281159.752      -84974.254       -2177.592          20.000                                                                  
E12  23932143.295      -16069.069        -660.151          17.000                                                                  
E24  24726035.280       12903.207         380.843          22.000                                                                  
E33  25791970.194       32559.547         811.314          12.000                                                                  
J 1  38418887.637      -28419.303        -589.243          14.000                                                                  
J 3  39014070.595      -74753.029           0.017          15.000                                                                  
C 7  37470547.035       12028.843         587.201          18.000                                                                                                                                  
C 8  36453440.624       -6497.264        -320.903          16.000                                                                                                                                  
C10  36353322.269        4196.288         204.897          17.000                                                                                                                                  
C13  36663269.153      -14368.827        -571.506          18.000                                                                                                                                  
C19  22812174.623      -59498.284       -2809.838          17.000                                                                                                                                  
C20  23154186.596        2099.410          96.028          16.000                                                                                                                                  
C22  26102830.715      -84773.347       -4113.249          19.000                                                                                                                                  
C26  25301742.858        6426.349         527.258          25.000                                                                                                                                  
C29  22438292.260         136.953           0.008          17.000                                                                                                                                  
C30  26068562.425       30715.431        1506.485          15.000                                                                                                                                  
C35  22795930.191      -50551.920       -2134.031          19.000                                                                                                                                  
> 2021  5 17  8 41 14.0000000  0 29                     
G 2  21985451.073      -81294.083       -1644.881          22.000                                                                  
G 6  20838770.215      -10258.765        -181.823          19.000                                                                  
G 9  23705209.511     -124166.739          -0.004          16.000                                                                  
G12  22555958.116      -29864.299       -2751.060          16.000                                                                  
G14  24641904.030      151803.623          -0.009          11.000                                                                  
G17  21938134.472       43972.600         789.133          20.000                                                                  
G19  20573127.950         462.149          18.368          19.000                                                                  
G28  23020102.139      140212.397        2501.514          20.000                                                                  
R 7  20638329.469     -177275.093       -3159.525          18.000  
R 8  23230430.793     -271457.378       -5079.660          22.000  
R21  21598056.373       37272.446         811.659          15.000  
R22  20477859.788      -65711.006       -1103.823          16.000  
E11  26280745.519      -87149.603       -2174.931          17.000                                                                  
E12  23932017.867      -16728.432        -659.111          19.000                                                                  
E24  24726107.973       13283.709         381.597          22.000                                                                  
E33  25792124.459       33370.192         810.372          13.000                                                                  
J 1  38418775.314      -29009.698        -589.565          17.000                                                                  
J 3  39013797.315      -76165.197       -1412.991          17.000                                                                  
C 7  37470659.464       12615.648         589.127          19.000                                                                                                                                  
C 8  36453379.191       -6817.379        -319.160          15.000                                                                                                                                  
C10  36353361.730        4401.674         205.191          17.000                                                                                                                                  
C13  36663159.368      -14939.549        -570.754          17.000                                                                                                                                  
C19  22811634.921      -62308.792       -2810.326          17.000                                                                                                                                  
C20  23154205.373        2196.872          98.336          17.000                                                                                                                                  
C22  26102041.503      -88886.445       -4113.348          20.000                                                                                                                                  
C26  25301844.187        6952.899         527.395          22.000                                                                                                                                  
C29  22438294.170         146.683           0.008          17.000                                                                                                                                  
C30  26068851.631       32221.355        1506.318          14.000                                                                                                                                  
C35  22795519.871      -52687.736       -2135.333          18.000                                                                                                                                  
> 2021  5 17  8 41 15.0000000  0 29                     
G 2  21985142.509      -82939.041       -1643.752          18.000                                                                  
G 6  20838737.470      -10439.553        -179.708          20.000                                                                  
G 9  23704777.308     -126445.043          -0.004          17.000                                                                  
G12  22555436.335      -32614.211       -2748.828          17.000                                                                  
G14  24642488.580      154875.083          -0.009          14.000                                                                  
G17  21938284.762       44762.260         788.365          19.000                                                                  
G19  20573129.426         480.317          18.889          19.000                                                                  
G28  23020579.298      142715.870        2504.824          25.000                                                                  
R 7  20637713.564     -180432.975       -3157.361          21.000  
R 8  23229482.864     -276538.291       -5082.953          19.000  
R21  21598208.422       38085.856         813.684          17.000  
R22  20477630.876      -66929.182       -1128.573          18.000  
E11  26280331.347      -89326.392       -2175.278          19.000                                                                  
E12  23931891.414      -17386.697        -658.172          18.000                                                                  
E24  24726180.090       13665.320         381.410          24.000                                                                  
E33  25792278.636       34180.383         809.819          12.000                                                                  
J 1  38418665.234      -29599.958        -591.510          17.000                                                                  
J 3  39013528.576      -77577.809       -1412.384          17.000                                                                  
C 7  37470772.717       13204.862         588.104          19.000                                                                                                                                  
C 8  36453317.282       -7135.128           0.000          14.000                                                                                                                                  
C10  36353401.299        4607.413         205.667          17.000                                                                                                                                  
C13  36663049.663      -15510.979        -571.424          20.000                                                                                                                                  
C19  22811092.385      -65118.314       -2809.978          21.000                                                                                                                                  
C20  23154227.316        2294.220          96.624          19.000                                                                                                                                  
C22  26101252.016      -92997.149       -4110.181          23.000                                                                                                                                  
C26  25301945.847        7481.233         528.067          20.000                                                                                                                                  
C29  22438298.289         158.845          13.514          15.000                                                                                                                                  
C30  26069141.074       33728.428           0.003          17.000                                                                                                                                  
C35  22795109.638      -54824.235       -2137.482          18.000                                                                                                                                  
> 2021  5 17  8 41 16.0000000  0 29                     
G 2  21984829.117      -84583.835       -1646.497          16.000                                                                  
G 6  20838705.874      -10620.388        -180.261          21.000                                                                  
G 9  23704353.923     -128722.924          -0.004          18.000                                                                  
G12  22554912.735      -35365.700       -2751.688          16.000                                                                  
G14  24643072.836      157945.164          -0.009          12.000                                                                  
G17  21938437.294       45551.136         790.004          21.000                                                                  
G19  20573129.108         499.936          19.561          18.000                                                                  
G28  23021052.389      145221.056        2505.898          19.000                                                                  
R 7  20637118.835     -183590.330       -3157.822          28.000  
R 8  23228533.826     -281620.278       -5079.031          19.000  
R21  21598360.711       38900.811          -0.005          17.000  
R22  20477401.013      -68156.925       -1119.092          16.000  
E11  26279917.665      -91501.074       -2175.563          19.000                                                                  
E12  23931765.782      -18047.289        -661.162          16.000                                                                  
E24  24726253.215       14046.139         381.940          28.000                                                                  
E33  25792432.643       34989.637         808.546          13.000                                                                  
J 1  38418550.970      -30191.379        -590.807          19.000                                                                  
J 3  39013259.732      -78990.814       -1413.269          14.000                                                                  
C 7  37470885.927       13794.470         591.272          16.000                                                                                                                                  
C 8  36453256.097       -7454.017           0.000          15.000                                                                                                                                  
C10  36353439.956        4813.197         204.560          18.000                                                                                                                                  
C13  36662939.377      -16082.670        -571.384          19.000                                                                                                                                  
C19  22810549.391      -67928.687       -2811.473          20.000                                                                                                                                  
C20  23154245.713        2389.877          94.986          18.000                                                                                                                                  
C22  26100462.594      -97108.640       -4110.633          18.000                                                                                                                                  
C26  25302046.967        8009.121         526.653          22.000                                                                                                                                  
C29  22438300.784         171.688          12.419          15.000                                                                                                                                  
C30  26069428.357       35234.525        1505.302          17.000                                                                                                                                  
C35  22794699.119      -56962.128       -2138.321          16.000                                                                                                                                  
> 2021  5 17  8 41 17.0000000  0 28                     
G 2  21984515.951      -86229.973       -1646.047          17.000                                                                  
G 6  20838671.873      -10798.930        -177.630          17.000                                                                  
G12  22554389.103      -38117.583       -2752.087          15.000                                                                  
G14  24643657.300      161016.495          -0.009          14.000                                                                  
G17  21938582.764       46341.233         790.154          22.000                                                                  
G19  20573134.645         519.040          17.866          21.000                                                                  
G28  23021529.835      147727.183        2504.948          17.000                                                                  
R 7  20636529.488     -186746.836       -3155.872          29.000  
R 8  23227585.140     -286700.485       -5079.275          25.000  
R21  21598509.168       39716.851         816.340          20.000  
R22  20477172.900      -69375.216       -1118.225          16.000  
E11  26279503.261      -93678.835       -2176.336          20.000                                                                  
E12  23931642.710      -18710.833        -662.335          11.000                                                                  
E24  24726326.157       14427.408         381.620          24.000                                                                  
E33  25792589.520       35797.383         808.097          14.000                                                                  
J 1  38418438.791      -30781.142        -588.805          17.000                                                                  
J 3  39012999.910      -80403.546       -1411.560          20.000                                                                  
C 7  37470999.351       14384.846         589.998          17.000                                                                                                                                  
C 8  36453195.680       -7772.621        -319.025          15.000                                                                                                                                  
C10  36353480.561        5018.252         205.386          24.000                                                                                                                                  
C13  36662829.432      -16655.468        -574.798          16.000                                                                                                                                  
C19  22810008.465      -70738.780       -2810.012          23.000                                                                                                                                  
C20  23154269.494        2487.454          98.901          24.000                                                                                                                                  
C22  26099673.055     -101219.127       -4110.169          17.000                                                                                                                                  
C26  25302148.859        8535.523         527.104          25.000                                                                                                                                  
C29  22438305.299         181.810           8.943          27.000                                                                                                                                  
C30  26069717.468       36739.881        1505.438          13.000                                                                                                                                  
C35  22794288.586      -59100.083       -2138.377          17.000                                                                                                                                  
> 2021  5 17  8 41 18.0000000  0 28                     
G 2  21984198.466      -87876.230       -1646.077          19.000                                                                  
G 6  20838638.156      -10976.503        -179.708          16.000                                                                  
G12  22553872.959      -40870.092       -2752.600          15.000                                                                  
G14  24644241.588      164086.814          -0.009          16.000                                                                  
G17  21938737.844       47131.861         791.510          24.000                                                                  
G19  20573132.543         537.966          19.341          23.000                                                                  
G28  23022006.920      150231.421        2503.860          20.000                                                                  
R 7  20635942.206     -189902.017       -3157.045          27.000  
R 8  23226651.959     -291779.882       -5078.175          24.000  
R21  21598685.066       40532.900         815.204          22.000  
R22  20476947.304      -70579.852       -1100.626          16.000  
E11  26279089.120      -95856.386       -2176.079          19.000                                                                  
E12  23931516.832      -19372.412        -661.633          11.000                                                                  
E24  24726400.094       14809.346         381.942          24.000                                                                  
E33  25792743.305       36605.446         808.077          13.000                                                                  
J 1  38418326.538      -31371.281        -591.058          12.000                                                                  
J 3  39012714.498      -81815.538       -1412.147          21.000                                                                  
C 7  37471112.403       14975.883         592.875          16.000                                                                                                                                  
C 8  36453134.421       -8091.695        -318.865          13.000                                                                                                                                  
C10  36353517.543        5225.872         207.544          24.000                                                                                                                                  
C13  36662719.198      -17229.776        -574.046          14.000                                                                                                                                  
C19  22809468.577      -73547.614       -2808.305          22.000                                                                                                                                  
C20  23154292.057        2586.431          99.202          22.000                                                                                                                                  
C22  26098883.821     -105328.995       -4110.074          15.000                                                                                                                                  
C26  25302250.235        9062.016         525.032          24.000                                                                                                                                  
C29  22438303.140         189.041           7.021          26.000                                                                                                                                  
C30  26070006.596       38245.422        1506.259          12.000                                                                                                                                  
C35  22793877.946      -61238.017       -2136.907          18.000                                                                                                                                  
> 2021  5 17  8 41 19.0000000  0 28                     
G 2  21983885.387      -89521.746       -1646.189          18.000                                                                  
G 6  20838615.904      -11155.652        -179.186          15.000                                                                  
G12  22553348.958      -43623.815       -2754.875          16.000                                                                  
G14  24644825.798      167156.760          -0.009          16.000                                                                  
G17  21938890.313       47921.069         787.476          23.000                                                                  
G19  20573140.775         557.022          19.334          23.000                                                                  
G28  23022483.359      152735.174        2505.175          19.000                                                                  
R 7  20635356.441     -193057.431       -3154.321          29.000  
R 8  23225700.403     -296859.444       -5079.585          24.000  
R21  21598846.001       41347.289         814.907          21.000  
R22  20476727.078      -71774.021       -1094.906          10.000  
E11  26278674.263      -98033.399       -2180.013          18.000                                                                  
E12  23931390.854      -20033.290        -660.766          10.000                                                                  
E24  24726473.934       15191.629         382.643          25.000                                                                  
E33  25792897.106       37413.616         808.028          13.000                                                                  
J 1  38418214.630      -31959.713        -587.946          14.000                                                                  
J 3  39012445.502      -83227.702       -1412.745          19.000                                                                  
C 7  37471226.154       15568.028         591.369          16.000                                                                                                                                  
C 8  36453073.132       -8411.019        -320.058          12.000                                                                                                                                  
C10  36353559.015        5432.393         206.412          24.000                                                                                                                                  
C13  36662610.701      -17802.842           0.024          16.000                                                                                                                                  
C19  22808929.815      -76355.679       -2808.111          24.000                                                                                                                                  
C20  23154312.945        2686.669         100.393          21.000                                                                                                                                  
C22  26098094.220     -109440.797       -4114.863          14.000                                                                                                                                  
C26  25302351.542        9588.514         528.844          25.000                                                                                                                                  
C29  22438303.505         195.135           5.761          24.000                                                                                                                                  
C30  26070295.615       39750.299           0.003          13.000                                                                                                                                  
C35  22793467.965      -63373.068       -2133.138          17.000                                                                                                                                  
> 2021  5 17  8 41 20.0000000  0 29                     
G 2  21983560.228      -91166.864       -1644.797          17.000                                                                  
G 6  20838581.812      -11334.956        -178.844          14.000                                                                  
G12  22552810.795      -46377.920       -2753.323          17.000                                                                  
G14  24645405.344      170227.058        3069.630          15.000                                                                  
G17  21939040.023       48710.571         790.908          23.000                                                                  
G19  20573145.016         576.045          18.957          24.000                                                                  
G28  23022960.736      155239.689        2503.037          20.000                                                                  
R 7  20647492.484     -196212.553       -3153.985          28.000  
R 8  23224750.287     -301940.050       -5080.788          24.000  
R12  21595468.614       47436.691        1443.743          30.000  
R21  21598995.183       42160.654         813.268          19.000  
R22  20476503.073      -72969.842       -1098.024          12.000  
E11  26278259.331     -100211.002       -2178.021          20.000                                                                  
E12  23931265.225      -20693.674        -659.833          14.000                                                                  
E24  24726547.256       15574.366         382.905          26.000                                                                  
E33  25793050.860       38221.507         807.998          12.000                                                                  
J 1  38418103.158      -32545.715        -586.374          15.000                                                                  
J 3  39012176.854      -84640.998       -1413.703          20.000                                                                  
C 7  37471337.885       16157.928         587.557          17.000                                                                                                                                  
C 8  36453010.385       -8731.614           0.000          11.000                                                                                                                                  
C10  36353598.633        5638.637         206.892          23.000                                                                                                                                  
C13  36662500.915      -18374.658           0.024          16.000                                                                                                                                  
C19  22808390.673      -79163.549       -2808.615          23.000                                                                                                                                  
C20  23154333.397        2786.905         100.091          22.000                                                                                                                                  
C22  26097304.170     -113555.110       -4114.805          13.000                                                                                                                                  
C26  25302453.600       10115.975         525.478          25.000                                                                                                                                  
C29  22438303.994         201.654           5.906          24.000                                                                                                                                  
C30  26070584.429       41254.147           0.003          13.000                                                                                                                                  
C35  22793058.383      -65505.992       -2132.763          17.000                                                                                                                                  
> 2021  5 17  8 41 21.0000000  0 29                     
G 2  21983248.441      -92813.163       -1646.629          17.000                                                                  
G 6  20838548.090      -11512.449        -176.919          14.000                                                                  
G12  22552286.976      -49130.705       -2752.587          17.000                                                                  
G14  24645989.520      173296.574        3067.591          15.000                                                                  
G17  21939190.396       49501.024         790.559          23.000                                                                  
G19  20573147.194         595.985          20.541          25.000                                                                  
G28  23023438.614      157744.176        2505.839          19.000                                                                  
R 7  20646903.614     -199367.465       -3155.572          27.000  
R 8  23223799.359     -307020.291       -5080.035          25.000  
R12  21595762.859       49008.871        1443.267          29.000  
R21  21599147.306       42974.189         812.327          19.000  
R22  20476278.821      -74166.878       -1097.880          12.000  
E11  26277844.749     -102389.594       -2176.792          22.000                                                                  
E12  23931144.025      -21352.744        -659.410          15.000                                                                  
E24  24726620.193       15957.342         383.580          26.000                                                                  
E33  25793204.610       39029.404         807.537          14.000                                                                  
J 1  38417991.171      -33134.486        -591.195          13.000                                                                  
J 3  39011912.430      -86054.418       -1413.415          21.000                                                                  
C 7  37471450.519       16744.290         585.079          15.000                                                                                                                                  
C 8  36452948.895       -9052.087           0.000          14.000                                                                                                                                  
C10  36353638.106        5845.846         207.120          23.000                                                                                                                                  
C13  36662392.816      -18945.194        -570.947          18.000                                                                                                                                  
C19  22807851.309      -81972.078       -2808.126          23.000                                                                                                                                  
C20  23154352.881        2887.807         101.866          21.000                                                                                                                                  
C22  26096514.203     -117668.690       -4112.676          13.000                                                                                                                                  
C26  25302555.282       10643.667         529.603          25.000                                                                                                                                  
C29  22438305.006         208.226           6.454          23.000                                                                                                                                  
C30  26070872.240       42757.233           0.003          13.000                                                                                                                                  
C35  22792646.805      -67639.516       -2132.783          18.000                                                                                                                                  
> 2021  5 17  8 41 22.0000000  0 28                     
G 2  21982944.545      -94459.280       -1647.105          19.000                                                                  
G 6  20838505.282      -11689.938           0.007          17.000                                                                  
G12  22551763.245      -51883.227       -2751.522          14.000                                                                  
G14  24646573.359      176364.367        3067.313          14.000                                                                  
G17  21939340.629       50292.869         792.601          21.000                                                                  
G19  20573151.047         617.059          20.780          20.000                                                                  
G28  23023915.188      160248.599        2505.970          17.000                                                                  
R 7  20646317.247     -202521.504       -3154.606          28.000  
R 8  23222849.256     -312099.022       -5079.062          22.000  
R12  21664888.873       50580.196        1443.261          30.000  
R21  21599295.061       43789.113         817.231          20.000  
E11  26277430.271     -104565.791       -2175.735          20.000                                                                  
E12  23931018.750      -22011.204        -658.099          16.000                                                                  
E24  24726692.943       16340.762         383.671          25.000                                                                  
E33  25793358.324       39837.045         807.625          16.000                                                                  
J 1  38417879.316      -33722.467        -585.111          12.000                                                                  
J 3  39011644.629      -87467.832       -1412.984          21.000                                                                  
C 7  37471562.969       17329.667         585.391          14.000                                                                                                                                  
C 8  36452887.082       -9374.251           0.000          14.000                                                                                                                                  
C10  36353677.366        6052.817         206.765          23.000                                                                                                                                  
C13  36662283.354      -19515.360        -570.037          17.000                                                                                                                                  
C19  22807311.530      -84780.274       -2808.053          23.000                                                                                                                                  
C20  23154373.079        2989.392         101.910          20.000                                                                                                                                  
C22  26095724.341     -121781.806           0.005          14.000                                                                                                                                  
C26  25302656.864       11173.476         531.413          25.000                                                                                                                                  
C29  22438306.062         215.832           8.382          24.000                                                                                                                                  
C30  26071161.120       44261.199           0.003          13.000                                                                                                                                  
C35  22792238.933      -69773.737       -2136.368          19.000                                                                                                                                  
> 2021  5 17  8 41 23.0000000  0 22                     
G 2  21982654.767      -96105.420       -1646.210          24.000                                                                  
G 6  20838470.784      -11867.610        -178.694          20.000                                                                  
G12  22551255.010      -54634.475       -2750.750          19.000                                                                  
G14  24647152.312      179430.987          -0.009          13.000                                                                  
G17  21939492.354       51086.178         793.128          17.000                                                                  
G19  20573154.324         636.043          19.129          22.000                                                                  
G28  23024392.016      162754.412        2505.956          23.000                                                                  
R 7  20645729.170     -205673.867       -3152.332          21.000  
R 8  23221900.640     -317178.773       -5078.268          20.000  
R12  21665181.932       52154.007        1444.656          30.000  
R21  21599443.597       44605.603         816.559          21.000  
E11  26277016.112     -106742.076       -2175.554          17.000                                                                  
E12  23930893.649      -22668.764        -656.853          13.000                                                                  
E24  24726765.562       16726.390         385.877          30.000                                                                  
E33  25793512.091       40644.955         807.948          15.000                                                                  
J 3  39011376.409      -88877.547       -1411.152          17.000                                                                  
C13  36662175.381      -20085.091        -569.237          22.000                                                                                                                                  
C19  22806772.482      -87588.331       -2808.945          20.000                                                                                                                                  
C20  23154392.637        3091.282         102.818          17.000                                                                                                                                  
C26  25302758.490       11704.338         529.888          20.000                                                                                                                                  
C29  22438307.541         223.888           7.655          17.000                                                                                                                                  
C35  22791828.311      -71909.729       -2135.332          19.000                                                                                                                                  
> 2021  5 17  8 41 24.0000000  0 21                     
G 2  21982334.796      -97752.301       -1647.207          25.000                                                                  
G 6  20838443.672      -12047.700        -180.696          21.000                                                                  
G12  22550718.296      -57383.145       -2747.861          21.000                                                                  
G14  24647735.893      182497.761          -0.009          14.000                                                                  
G17  21939643.294       51879.143         791.678          16.000                                                                  
G19  20573158.626         655.527          21.190          19.000                                                                  
G28  23024870.718      165261.077        2507.294          28.000                                                                  
R 7  20645141.028     -208825.500       -3151.844          19.000  
R 8  23220951.244     -322256.909       -5078.488          23.000  
R12  21665479.641       53728.792        1446.819          32.000  
R21  21599597.281       45421.188         814.510          20.000  
E11  26276601.914     -108918.865       -2177.892          14.000                                                                  
E12  23930768.736      -23325.247        -656.236          15.000                                                                  
E24  24726838.556       17111.436         385.512          30.000                                                                  
E33  25793665.871       41453.005         808.099          14.000                                                                  
J 3  39011108.211      -90287.179       -1406.978          14.000                                                                  
C13  36662067.821      -20656.099        -571.613          23.000                                                                                                                                  
C19  22806233.113      -90395.814       -2807.075          22.000                                                                                                                                  
C20  23154412.596        3194.960         102.384          17.000                                                                                                                                  
C26  25302860.282       12234.329         528.700          19.000                                                                                                                                  
C35  22791422.972      -74045.288       -2135.064          19.000                                                                                                                                  
> 2021  5 17  8 41 25.0000000  0 22                     
G 2  21982019.806      -99398.429       -1645.560          22.000                                                                  
G 6  20838412.582      -12227.890        -177.511          19.000                                                                  
G12  22550214.418      -60130.768       -2747.511          24.000                                                                  
G14  24648319.419      185564.167          -0.009          14.000                                                                  
G17  21939793.986       52670.973         791.386          14.000                                                                  
G19  20573161.842         675.552          18.907          20.000                                                                  
G28  23025347.877      167765.989        2503.990          25.000                                                                  
R 7  20644551.272     -211977.083       -3149.756          17.000  
R 8  23220001.786     -327335.825       -5078.881          23.000  
R12  21665773.712       55304.137        1447.211          31.000  
R21  21599747.222       46234.983         813.550          21.000  
E11  26276187.000     -111099.450       -2180.733          15.000                                                                  
E12  23930644.032      -23980.653        -655.653          12.000                                                                  
E24  24726911.528       17496.745         385.695          28.000                                                                  
E33  25793824.913       42261.962         808.895          15.000                                                                  
J 3  39010840.196      -91696.002           0.017          15.000                                                                  
C10  36353792.973         327.468         209.197          21.000                                                                                                                                  
C13  36661957.723      -21228.106        -571.939          20.000                                                                                                                                  
C19  22805694.150      -93202.908       -2807.030          21.000                                                                                                                                  
C20  23154432.624        3299.213         105.312          17.000                                                                                                                                  
C26  25302962.300       12765.164         532.770          18.000                                                                                                                                  
C35  22791012.887      -76180.800       -2135.427          15.000                                                                                                                                  
> 2021  5 17  8 41 26.0000000  0 22                     
G 2  21981706.941     -101043.526       -1644.010          23.000                                                                  
G 6  20838378.005      -12407.166        -179.418          17.000                                                                  
G12  22549679.776      -62878.535       -2746.765          20.000                                                                  
G14  24648902.909      188630.291          -0.009          14.000                                                                  
G17  21939944.941       53463.882           0.012          13.000                                                                  
G19  20573165.542         694.724          17.519          18.000                                                                  
G28  23025824.446      170271.659        2507.847          24.000                                                                  
R 7  20643963.252     -215127.871       -3150.413          19.000  
R 8  23219053.502     -332414.580       -5077.623          19.000  
R12  21666070.322       56880.864        1446.239          28.000  
R21  21599900.017       47049.527         814.766          20.000  
E11  26275782.117     -113277.617       -2177.069          14.000                                                                  
E12  23930520.546      -24636.548        -655.268          15.000                                                                  
E24  24726985.461       17882.450         385.762          29.000                                                                  
E33  25793978.893       43070.938         808.633          15.000                                                                  
J 3  39010571.435      -93108.422           0.017          15.000                                                                  
C10  36353831.863         537.386         207.645          23.000                                                                                                                                  
C13  36661847.345      -21800.434        -572.166          20.000                                                                                                                                  
C19  22805155.336      -96008.991       -2805.862          22.000                                                                                                                                  
C20  23154452.897        3404.388         105.503          18.000                                                                                                                                  
C26  25303064.776       13298.810         534.884          17.000                                                                                                                                  
C35  22790602.828      -78316.292       -2135.953          15.000                                                                                                                                  
> 2021  5 17  8 41 27.0000000  0 23                     
G 2  21981395.119     -102686.383       -1642.700          24.000                                                                  
G 6  20838343.926      -12586.233        -179.593          18.000                                                                  
G 9  23699888.430       -2158.774       -2272.248          21.000                                                                  
G12  22549158.362      -65625.462       -2744.533          18.000                                                                  
G14  24649486.999      191699.542          -0.009          14.000                                                                  
G17  21940096.056       54257.794           0.012          17.000                                                                  
G19  20573169.674         713.034          19.245          17.000                                                                  
G28  23026303.699      172781.321        2509.844          22.000                                                                  
R 7  20643375.934     -218277.119       -3148.923          19.000  
R 8  23218105.488     -337491.313       -5075.993          23.000  
R12  21666365.981       58456.398        1444.240          28.000  
R21  21600052.056       47862.648         812.958          17.000  
E11  26275368.006     -115453.788       -2175.758          15.000                                                                  
E12  23930396.004      -25291.120        -653.958          14.000                                                                  
E24  24727058.812       18268.632         386.141          24.000                                                                  
E33  25794132.774       43879.554         809.370          14.000                                                                  
J 3  39010300.988      -94520.154       -1410.556          17.000                                                                  
C10  36353873.478         746.402         209.925          20.000                                                                                                                                  
C13  36661737.295      -22373.755        -572.165          18.000                                                                                                                                  
C19  22804617.125      -98813.866       -2803.260          23.000                                                                                                                                  
C20  23154472.175        3509.856         103.669          18.000                                                                                                                                  
C26  25303167.270       13832.825         533.635          21.000                                                                                                                                  
C35  22790194.314      -80451.861       -2134.911          17.000                                                                                                                                  
> 2021  5 17  8 41 28.0000000  0 24                     
G 2  21981080.382     -104329.374       -1642.864          20.000                                                                  
G 6  20838308.617      -12766.945        -179.907          19.000                                                                  
G 9  23699452.825       -4430.655       -2276.181          18.000                                                                  
G12  22548635.835      -68371.243       -2745.507          17.000                                                                  
G14  24650071.771      194772.383          -0.009          14.000                                                                  
G17  21940244.767       55054.170         796.722          20.000                                                                  
G19  20573173.562         733.369          21.478          17.000                                                                  
G28  23026779.719      175291.299        2512.351          23.000                                                                  
R 7  20642788.486     -221425.456       -3146.888          19.000  
R 8  23217157.226     -342567.640       -5078.056          19.000  
R12  21666658.046       60029.869        1444.441          33.000  
R21  21600204.397       48677.605         816.413          17.000  
E11  26274954.026     -117629.366       -2175.808          20.000                                                                  
E12  23930271.448      -25945.807        -654.885          15.000                                                                  
E24  24727131.867       18654.337         385.929          22.000                                                                  
E33  25794286.846       44689.085         809.105          15.000                                                                  
J 3  39010032.799      -95929.925       -1410.666          16.000                                                                  
C 7  37472239.012        1697.107         589.730          17.000                                                                                                                                  
C10  36353913.239         955.622         209.480          19.000                                                                                                                                  
C13  36661627.445      -22945.848        -573.576          19.000                                                                                                                                  
C19  22804079.074     -101617.904       -2804.212          19.000                                                                                                                                  
C20  23154492.065        3613.010         102.028          17.000                                                                                                                                  
C26  25303270.083       14366.155         532.443          24.000                                                                                                                                  
C35  22789784.887      -82587.168       -2134.404          19.000                                                                                                                                  
> 2021  5 17  8 41 29.0000000  0 25                     
G 2  21980768.074     -105970.742       -1640.986          16.000                                                                  
G 6  20838274.551      -12946.103        -179.858          17.000                                                                  
G 9  23699020.605       -6702.124       -2273.196          17.000                                                                  
G12  22548113.490      -71116.464       -2744.178          20.000                                                                  
G14  24650656.598      197845.452          -0.009          14.000                                                                  
G17  21940387.723       55849.888         795.721          18.000                                                                  
G19  20573177.685         756.156          23.850          19.000                                                                  
G28  23027258.527      177801.538        2508.320          19.000                                                                  
R 7  20642201.373     -224572.790       -3146.727          17.000  
R 8  23216208.798     -347646.804       -5078.510          18.000  
R12  21666954.966       61607.114        1445.383          30.000  
R21  21600349.164       49495.041         817.227          17.000  
E11  26274539.937     -119805.548       -2175.557          23.000                                                                  
E12  23930146.806      -26600.851        -654.445          15.000                                                                  
E24  24727205.067       19039.916         385.295          19.000                                                                  
E33  25794441.830       45497.922         808.501          16.000                                                                  
J 3  39009764.361      -97340.925       -1412.487          17.000                                                                  
C 7  37472351.280        2285.010         588.153          19.000                                                                                                                                  
C10  36353953.524        1162.083         204.864          17.000                                                                                                                                  
C13  36661517.748      -23518.759        -571.706          22.000                                                                                                                                  
C19  22803540.621     -104421.750       -2803.330          17.000                                                                                                                                  
C20  23154514.567        3715.727         102.930          14.000                                                                                                                                  
C26  25303372.895       14899.380         533.403          20.000                                                                                                                                  
C29  22438308.604          43.232          13.775          12.000                                                                                                                                  
C35  22789379.710      -84722.612       -2135.634          21.000                                                                                                                                  
> 2021  5 17  8 41 30.0000000  0 25                     
G 2  21980455.767     -107612.201       -1641.778          17.000                                                                  
G 6  20838240.293      -13126.319        -179.817          17.000                                                                  
G 9  23698588.201       -8974.589       -2270.422          19.000                                                                  
G12  22547590.361      -73860.437       -2743.789          18.000                                                                  
G14  24651241.244      200917.324          -0.009          13.000                                                                  
G17  21940541.301       56643.999         792.832          19.000                                                                  
G19  20573182.035         778.970          23.734          18.000                                                                  
G28  23027736.048      180310.694        2508.594          20.000                                                                  
R 7  20641614.086     -227718.806       -3146.066          20.000  
R 8  23215255.048     -352726.064       -5079.724          24.000  
R12  21667250.293       63185.860        1448.070          26.000  
R21  21600500.318       50312.912         817.745          17.000  
E11  26274113.885     -121979.910       -2174.149          19.000                                                                  
E12  23930022.281      -27254.968        -654.324          14.000                                                                  
E24  24727278.662       19427.611         389.204          24.000                                                                  
E33  25794595.658       46306.230         808.965          14.000                                                                  
J 3  39009486.386      -98753.618       -1413.207          18.000                                                                  
C 7  37472472.290        2873.270         590.326          19.000                                                                                                                                  
C10  36353993.211        1367.918         205.852          17.000                                                                                                                                  
C13  36661407.729      -24091.446        -574.181          20.000                                                                                                                                  
C19  22803003.412     -107225.688       -2805.148          27.000                                                                                                                                  
C20  23154534.281        3818.163         103.100          17.000                                                                                                                                  
C26  25303475.616       15433.570         534.447          21.000                                                                                                                                  
C29  22438311.086          55.920          13.453          17.000                                                                                                                                  
C35  22788968.282      -86857.925       -2134.394          22.000                                                                                                                                  
> 2021  5 17  8 41 31.0000000  0 25                     
G 2  21980124.410     -109254.887       -1643.337          20.000                                                                  
G 6  20838201.141      -13307.192        -181.054          21.000                                                                  
G 9  23801873.490      -11243.910       -2268.115          16.000                                                                  
G12  22547068.144      -76604.732       -2744.682          17.000                                                                  
G14  24651828.031      203989.392          -0.009          14.000                                                                  
G17  21940692.153       57435.866         792.672          23.000                                                                  
G19  20573185.857         802.295          22.433          16.000                                                                  
G28  23028213.735      182818.799        2507.285          24.000                                                                  
R 7  20641027.297     -230865.324       -3145.504          28.000  
R 8  23214305.433     -357805.604       -5080.805          21.000  
R12  21667545.350       64763.624        1447.070          31.000  
R21  21600653.112       51130.306         818.130          18.000  
E11  26273704.359     -124153.902       -2175.124          23.000                                                                  
E12  23929897.778      -27909.259        -654.189          15.000                                                                  
E24  24727352.546       19815.460         387.287          27.000                                                                  
E33  25794749.726       47115.758         809.058          15.000                                                                  
J 3  39009216.627     -100166.025       -1412.331          17.000                                                                  
C 7  37472588.187        3463.076         590.882          21.000                                                                                                                                  
C10  36354032.724        1573.600         206.474          17.000                                                                                                                                  
C13  36661297.316      -24665.573        -572.833          20.000                                                                                                                                  
C19  22802465.861     -110029.782       -2803.572          26.000                                                                                                                                  
C20  23154551.517        3921.681         105.170          20.000                                                                                                                                  
C26  25303577.769       15965.851         530.362          20.000                                                                                                                                  
C29  22438310.470          68.531          12.893          30.000                                                                                                                                  
C35  22788556.913      -88992.229       -2133.419          18.000                                                                                                                                  
> 2021  5 17  8 41 32.0000000  0 25                     
G 2  21979811.689     -110898.470       -1642.583          17.000                                                                  
G 6  20838155.597      -13487.508        -179.289          20.000                                                                  
G 9  23801441.907      -13511.976       -2267.824          13.000                                                                  
G12  22546546.141      -79347.992       -2742.646          19.000                                                                  
G14  24652412.586      207060.996          -0.009          14.000                                                                  
G17  21940848.542       58229.884         795.672          20.000                                                                  
G19  20573191.403         826.163          22.675          21.000                                                                  
G28  23028690.736      185325.124        2506.972          18.000                                                                  
R 7  20640440.398     -234009.330       -3145.112          19.000  
R 8  23213357.371     -362885.476       -5079.871          21.000  
R12  21667840.014       66341.571        1448.118          32.000  
R21  21600805.736       51946.547         814.740          17.000  
E11  26273295.557     -126329.691       -2177.649          21.000                                                                  
E12  23929773.345      -28563.224        -653.866          15.000                                                                  
E24  24727425.192       20202.329         387.121          30.000                                                                  
E33  25794903.659       47924.649         808.776          14.000                                                                  
J 3  39008947.525     -101580.355       -1413.333          17.000                                                                  
C 7  37472698.901        4053.348         589.551          18.000                                                                                                                                  
C10  36354072.795        1781.189         209.322          20.000                                                                                                                                  
C13  36661187.205      -25239.182        -571.446          18.000                                                                                                                                  
C19  22801927.665     -112833.601       -2804.774          20.000                                                                                                                                  
C20  23154578.330        4027.013         104.825          20.000                                                                                                                                  
C26  25303679.521       16496.464         529.725          18.000                                                                                                                                  
C29  22438308.634          80.006          10.955          25.000                                                                                                                                  
C35  22788147.129      -91126.319       -2134.351          18.000                                                                                                                                  
> 2021  5 17  8 41 33.0000000  0 24                     
G 2  21979498.911     -112542.298       -1643.176          15.000                                                                  
G 6  20838121.518      -13666.464        -179.490          15.000                                                                  
G12  22546023.295      -82091.580       -2744.712          18.000                                                                  
G14  24652994.275      210133.828          -0.009          14.000                                                                  
G17  21941002.305       59025.095         794.633          22.000                                                                  
G19  20573195.705         848.572          23.434          18.000                                                                  
G28  23029168.303      187832.849        2507.297          23.000                                                                  
R 7  20627129.899     -237154.601       -3145.185          22.000  
R 8  23212409.292     -367967.723       -5082.317          20.000  
R12  21668133.632       67919.459        1447.968          30.000  
R21  21600937.215       52761.857         815.140          22.000  
E11  26272881.014     -128506.574       -2173.826          21.000                                                                  
E12  23929648.969      -29216.972        -654.596          10.000                                                                  
E24  24727498.757       20589.297         387.060          30.000                                                                  
E33  25795055.502       48733.734         809.914          12.000                                                                  
J 3  39008674.590     -102993.115       -1411.705          16.000                                                                  
C 7  37472810.946        4643.060         589.216          19.000                                                                                                                                  
C10  36354115.346        1990.112         207.979          20.000                                                                                                                                  
C13  36661077.442      -25810.866        -573.237          16.000                                                                                                                                  
C19  22801389.130     -115638.122       -2802.747          18.000                                                                                                                                  
C20  23154599.078        4131.557         104.114          20.000                                                                                                                                  
C26  25303781.252       17025.891         529.444          17.000                                                                                                                                  
C29  22438310.998          89.646          10.680          24.000                                                                                                                                  
C35  22787737.323      -93260.431       -2134.009          19.000                                                                                                                                  
> 2021  5 17  8 41 34.0000000  0 24                     
G 2  21979201.145     -114185.417       -1642.455          17.000                                                                  
G 6  20838087.452      -13845.679        -179.210          17.000                                                                  
G12  22545490.917      -84835.046       -2743.231          18.000                                                                  
G14  24653579.061      213206.660          -0.009          17.000                                                                  
G17  21941154.715       59818.739         793.985          24.000                                                                  
G19  20573201.150         873.020          22.904          18.000                                                                  
G28  23029646.029      190341.259        2507.997          23.000                                                                  
R 7  20626542.699     -240299.070       -3143.577          23.000  
R 8  23211460.315     -373049.988       -5081.630          16.000  
R12  21668428.920       69497.805        1448.697          29.000  
R21  21601102.756       53576.272         813.747          22.000  
E11  26272467.483     -130683.572       -2175.990          23.000                                                                  
E12  22368629.600      -29871.679        -654.097           8.000                                                                  
E24  24727572.092       20977.270         388.501          29.000                                                                  
E33  25795209.566       49543.271         809.154          14.000                                                                  
J 3  39008405.947     -104405.486       -1413.174          17.000                                                                  
C 7  37472931.524        5231.954         588.696          21.000                                                                                                                                  
C10  36354154.222        2197.524         207.664          20.000                                                                                                                                  
C13  36660967.934      -26381.313        -569.628          15.000                                                                                                                                  
C19  22800851.729     -118438.589       -2799.589          19.000                                                                                                                                  
C20  23154619.076        4236.707         105.648          20.000                                                                                                                                  
C26  25303883.309       17557.330         532.957          16.000                                                                                                                                  
C29  22438313.795          99.303           9.706          25.000                                                                                                                                  
C35  22787325.698      -95394.935       -2136.865          18.000                                                                                                                                  
> 2021  5 17  8 41 35.0000000  0 24                     
G 2  21978881.780     -115827.840       -1644.229          17.000                                                                  
G 6  20838054.594      -14025.773        -180.033          21.000                                                                  
G12  22544983.912      -87579.273       -2746.226          19.000                                                                  
G14  24654163.510      216277.759          -0.009          14.000                                                                  
G17  21941308.360       60614.200         797.167          23.000                                                                  
G19  20573206.168         895.769          22.984          19.000                                                                  
G28  23030122.777      192849.160        2508.943          24.000                                                                  
R 7  20625955.853     -243443.766       -3144.826          22.000  
R 8  23210511.326     -378132.399       -5081.856          14.000  
R12  21668725.116       71077.978        1450.820          30.000  
R21  21601260.419       54390.032         814.608          20.000  
E11  26272052.543     -132859.939       -2176.799          22.000                                                                  
E12  23929401.380      -30526.461        -655.002          10.000                                                                  
E24  24727645.626       21365.196         388.369          28.000                                                                  
E33  25795363.463       50351.913         807.825          15.000                                                                  
J 3  39008137.064     -105818.866       -1414.981          17.000                                                                  
C 7  37473041.375        5820.893         588.483          21.000                                                                                                                                  
C10  36354195.737        2405.523         208.170          19.000                                                                                                                                  
C13  36660858.620      -26952.525           0.024          15.000                                                                                                                                  
C19  22800313.793     -121241.062       -2802.401          22.000                                                                                                                                  
C20  23154641.068        4343.406         107.029          20.000                                                                                                                                  
C26  25303987.090       18091.970         535.023          17.000                                                                                                                                  
C29  22438315.431         108.373           8.647          26.000                                                                                                                                  
C35  22786918.715      -97530.605       -2135.676          17.000                                                                                                                                  
> 2021  5 17  8 41 36.0000000  0 25                     
G 2  21978568.919     -117472.099       -1644.260          17.000                                                                  
G 6  20838006.699      -14205.160        -178.859          20.000                                                                  
G12  22544462.388      -90321.581       -2739.620          17.000                                                                  
G14  24654750.804      219349.164          -0.009          14.000                                                                  
G17  21941459.727       61408.833         794.800          23.000                                                                  
G19  20573211.098         919.832          25.689          18.000                                                                  
G28  23030601.288      195357.325        2507.508          22.000                                                                  
R 7  20625369.033     -246588.160       -3144.694          21.000  
R 8  23209559.888     -383213.721          -0.001          15.000  
R12  21669021.041       72660.157        1449.876          31.000  
R21  21601409.985       55204.832         814.734          21.000  
E11  26271638.482     -135035.631       -2175.596          21.000                                                                  
E12  23929276.655      -31181.975        -655.677          11.000                                                                  
E24  24727719.157       21753.996         389.093          29.000                                                                  
E33  25795517.169       51159.433         807.405          12.000                                                                  
J 3  39007886.019     -107232.063       -1413.680          18.000                                                                  
C 7  37473153.542        6409.828         588.670          19.000                                                                                                                                  
C 8  36452032.239        -900.015        -319.845          18.000                                                                                                                                  
C10  36354236.113        2615.762         209.725          18.000                                                                                                                                  
C13  36660748.610      -27525.617           0.024          14.000                                                                                                                                  
C19  22799776.148     -124043.690       -2802.526          23.000                                                                                                                                  
C20  23154662.017        4450.597         107.674          20.000                                                                                                                                  
C26  25304089.645       18625.784         533.244          17.000                                                                                                                                  
C29  22438317.166         116.885           6.852          24.000                                                                                                                                  
C35  22786508.350      -99667.638       -2137.822          17.000                                                                                                                                  
> 2021  5 17  8 41 37.0000000  0 25                     
G 2  21978256.054     -119116.317       -1643.583          17.000                                                                  
G 6  20837976.656      -14383.989        -178.340          22.000                                                                  
G12  22543942.003      -93060.319       -2739.846          17.000                                                                  
G14  24655335.024      222419.118          -0.009          12.000                                                                  
G17  21941611.878       62203.951         796.903          23.000                                                                  
G19  20573217.464         946.376          26.252          18.000                                                                  
G28  23031078.648      197864.991        2508.002          21.000                                                                  
R 7  20624783.499     -249732.290       -3143.859          20.000  
R 8  23208611.176     -388293.964          -0.001          12.000  
R12  21669316.726       74240.527        1450.613          31.000  
R21  21601563.922       56020.038         815.722          23.000  
E11  26271224.794     -137208.972       -2168.719          20.000                                                                  
E12  23929151.825      -31838.011        -656.303          10.000                                                                  
E24  24727793.103       22143.467         389.918          29.000                                                                  
E33  25795670.731       51966.568         806.538          11.000                                                                  
J 3  39007611.483     -108646.047       -1415.153          20.000                                                                  
C 7  37473266.210        6998.711         588.561          18.000                                                                                                                                  
C 8  36451964.925       -1218.340        -317.173          18.000                                                                                                                                  
C10  36354276.376        2825.215         208.750          17.000                                                                                                                                  
C13  36660638.405      -28099.858           0.024          16.000                                                                                                                                  
C19  22799238.214     -126845.803       -2801.133          20.000                                                                                                                                  
C20  23154683.307        4557.604         108.299          21.000                                                                                                                                  
C26  25304191.358       19159.663         534.511          17.000                                                                                                                                  
C29  22438319.360         125.117           9.452          25.000                                                                                                                                  
C35  22786097.974     -101804.808       -2136.718          16.000                                                                                                                                  
> 2021  5 17  8 41 38.0000000  0 25                     
G 2  21977952.006     -120759.906       -1643.120          20.000                                                                  
G 6  20837941.604      -14562.584        -178.484          23.000                                                                  
G12  22543420.147      -95802.832       -2743.427          18.000                                                                  
G14  24655919.029      225488.055          -0.009          14.000                                                                  
G17  21941762.025       63001.278         797.904          21.000                                                                  
G19  20573223.799         972.774          26.571          23.000                                                                  
G28  23031555.828      200373.387        2508.680          23.000                                                                  
R 7  20624195.981     -252876.479       -3142.876          23.000  
R 8  23207656.950     -393374.727       -5080.358          20.000  
R12  21669613.197       75824.817        1453.796          29.000  
R21  21601718.165       56836.788         817.752          22.000  
E11  26270811.756     -139380.787       -2174.167          22.000                                                                  
E12  23929026.986      -32494.097        -656.416          12.000                                                                  
E24  24727867.864       22534.862         392.592          27.000                                                                  
E33  25795824.223       52772.914         806.635          15.000                                                                  
J 3  39007335.288     -110060.202       -1412.309          18.000                                                                  
C 7  37473379.782        7590.031         593.076          17.000                                                                                                                                  
C 8  36451902.252       -1535.139        -317.386          19.000                                                                                                                                  
C10  36354315.980        3033.112         206.696          21.000                                                                                                                                  
C13  36660530.367      -28672.322        -570.800          19.000                                                                                                                                  
C19  22798700.377     -129646.656       -2800.527          20.000                                                                                                                                  
C20  23154704.552        4667.004         110.918          20.000                                                                                                                                  
C26  25304294.589       19694.985         535.792          22.000                                                                                                                                  
C29  22438321.476         134.485          10.599          20.000                                                                                                                                  
C35  22785689.149     -103940.525       -2134.409          17.000                                                                                                                                  
> 2021  5 17  8 41 39.0000000  0 25                     
G 2  21977632.427     -122402.878       -1643.647          20.000                                                                  
G 6  20837908.650      -14740.862        -177.965          20.000                                                                  
G12  22542905.591      -98545.013       -2742.362          21.000                                                                  
G14  24656502.983      228556.576          -0.009          13.000                                                                  
G17  21941913.676       63801.053         801.288          17.000                                                                  
G19  20573232.930        1000.320          26.814          19.000                                                                  
G28  23032032.136      202882.634        2509.733          23.000                                                                  
R 7  20623610.129     -256019.267       -3142.125          25.000  
R 8  23206719.996     -398453.558       -5078.752          22.000  
R12  21669908.934       77409.570        1454.384          30.000  
R21  21601870.099       57654.087         816.959          21.000  
E11  26270397.763     -141556.215       -2176.031          21.000                                                                  
E12  23928902.038      -33150.762        -656.778          16.000                                                                  
E24  24727943.009       22925.734         391.378          27.000                                                                  
E33  25795977.798       53579.674         807.463          14.000                                                                  
J 3  39007066.693     -111472.063       -1412.836          15.000                                                                  
C 7  37473493.612        8182.600         592.704          20.000                                                                                                                                  
C 8  36451841.286       -1852.907        -319.455          16.000                                                                                                                                  
C10  36354352.212        3239.641         207.119          24.000                                                                                                                                  
C13  36660420.652      -29243.772        -571.725          18.000                                                                                                                                  
C19  22798162.433     -132447.886       -2800.618          18.000                                                                                                                                  
C20  23154725.789        4777.381         112.479          18.000                                                                                                                                  
C26  25304397.602       20231.331         537.357          18.000                                                                                                                                  
C29  22438324.107         145.687          11.839          17.000                                                                                                                                  
C35  22785279.788     -106074.811       -2133.632          19.000                                                                                                                                  
> 2021  5 17  8 41 40.0000000  0 25                     
G 2  21977319.819     -124045.720       -1641.817          18.000                                                                  
G 6  20837874.803      -14918.825        -176.409          16.000                                                                  
G12  22542394.062     -101285.033       -2739.043          22.000                                                                  
G14  24657086.744      231624.121          -0.009          15.000                                                                  
G17  21942066.134       64601.848         799.144          17.000                                                                  
G19  20573238.611        1029.944          30.036          15.000                                                                  
G28  23032507.908      205393.169        2510.061          27.000                                                                  
R 7  20623021.381     -259162.275       -3143.826          24.000  
R 8  23205772.213     -403532.168       -5078.424          16.000  
R12  21670202.617       78993.277        1453.672          25.000  
R21  21602022.872       58471.452         817.222          17.000  
E11  26269984.489     -143731.103       -2174.637          19.000                                                                  
E12  23928777.064      -33807.570        -656.949          20.000                                                                  
E24  24728019.065       23317.903         392.088          25.000                                                                  
E33  25796131.434       54386.904         807.234          14.000                                                                  
J 3  39006803.333     -112886.893           0.016          13.000                                                                  
C 7  37473606.237        8775.778         594.589          17.000                                                                                                                                  
C 8  36451780.131       -2171.421        -316.079          15.000                                                                                                                                  
C10  36354392.224        3445.859         204.934          22.000                                                                                                                                  
C13  36660309.921      -29815.121        -571.712          18.000                                                                                                                                  
C19  22797624.730     -135247.608       -2799.186          20.000                                                                                                                                  
C20  23154747.105        4890.135         112.239          23.000                                                                                                                                  
C26  25304503.743       20768.746         537.746          17.000                                                                                                                                  
C29  22438326.436         157.627          11.925          19.000                                                                                                                                  
C35  22784869.730     -108210.298       -2135.245          16.000                                                                                                                                  
> 2021  5 17  8 41 41.0000000  0 25                     
G 2  21977012.207     -125687.965       -1641.402          19.000                                                                  
G 6  20837840.972      -15096.813        -179.440          17.000                                                                  
G12  22541858.190     -104023.933       -2737.913          21.000                                                                  
G14  24657666.601      234690.514          -0.009          14.000                                                                  
G17  21942228.643       65399.547         795.728          16.000                                                                  
G19  20573244.143        1058.659          29.109          13.000                                                                  
G28  23032983.496      207902.785        2511.357          29.000                                                                  
R 7  20622433.252     -262304.787       -3139.425          26.000  
R 8  23204823.759     -408610.714       -5078.964          17.000  
R12  21670499.258       80577.826        1452.690          25.000  
R21  21602175.557       59288.040         818.358          18.000  
E11  26269570.391     -145906.135       -2176.723          20.000                                                                  
E12  23928652.011      -34464.786        -656.478          23.000                                                                  
E24  24728093.538       23709.427         392.583          27.000                                                                  
E33  25796280.586       55194.521         808.252          14.000                                                                  
J 3  39006533.334     -114305.553           0.016          15.000                                                                  
C 7  37473720.363        9369.935         592.144          17.000                                                                                                                                  
C 8  36451720.186       -2488.180        -316.749          14.000                                                                                                                                  
C10  36354431.767        3653.444         208.508          23.000                                                                                                                                  
C13  36660198.928      -30387.756        -573.660          19.000                                                                                                                                  
C19  22797087.277     -138046.394       -2798.666          20.000                                                                                                                                  
C20  23154768.289        5001.737         111.390          21.000                                                                                                                                  
C26  25304608.514       21304.829         534.886          18.000                                                                                                                                  
C29  22438333.901         170.788          14.596          19.000                                                                                                                                  
C35  22784460.120     -110343.444       -2131.952          14.000                                                                                                                                  
> 2021  5 17  8 41 42.0000000  0 25                     
G 2  21976700.005     -127328.526       -1641.943          17.000                                                                  
G 6  20837808.542      -15275.524        -177.725          18.000                                                                  
G12  22541338.738     -106762.909       -2737.501          20.000                                                                  
G14  24658250.213      237757.302          -0.009          15.000                                                                  
G17  21942379.976       66194.750         795.100          18.000                                                                  
G19  20573250.051        1089.312           0.004          14.000                                                                  
G28  23033460.303      210413.540        2509.827          29.000                                                                  
R 7  20621846.924     -265444.171       -3141.332          29.000  
R 8  23203873.529     -413689.380       -5079.042          17.000  
R12  21670796.858       82162.573        1454.502          25.000  
R21  21602323.343       60106.047         817.671          17.000  
E11  26269156.450     -148081.129       -2173.204          18.000                                                                  
E12  23928511.140      -35121.687        -657.045          25.000                                                                  
E24  24728168.268       24101.853         392.367          25.000                                                                  
E33  25796434.471       56003.172         808.863          14.000                                                                  
J 3  39006263.246     -115725.103           0.016          17.000                                                                  
C 7  37473832.949        9961.300         590.287          18.000                                                                                                                                  
C 8  36451659.223       -2805.970        -319.140          15.000                                                                                                                                  
C10  36354471.708        3861.788         207.748          23.000                                                                                                                                  
C13  36660087.852      -30960.745        -573.516          18.000                                                                                                                                  
C19  22796549.535     -140847.443       -2800.880          22.000                                                                                                                                  
C20  23154789.836        5113.593         111.716          19.000                                                                                                                                  
C26  25304713.320       21841.430         537.818          17.000                                                                                                                                  
C29  22438340.160         186.118          14.587          19.000                                                                                                                                  
C35  22784050.724     -112473.333           0.028          12.000                                                                                                                                  
> 2021  5 17  8 41 43.0000000  0 25                     
G 2  21976384.924     -128970.434       -1642.389          21.000                                                                  
G 6  20837778.616      -15451.797        -176.446          22.000                                                                  
G12  22540819.409     -109500.772       -2737.244          18.000                                                                  
G14  24658833.576      240823.157          -0.009          13.000                                                                  
G17  21942525.821       66990.334         796.725          17.000                                                                  
G19  20573255.766        1119.127           0.004          18.000                                                                  
G28  23033937.218      212923.226        2508.163          25.000                                                                  
R 7  20621260.030     -268584.504       -3138.056          24.000  
R 8  23202925.119     -418767.855       -5077.920          17.000  
R12  21671094.135       83747.334        1452.988          28.000  
R21  21602476.133       60923.570         818.223          17.000  
E11  26268742.836     -150254.470       -2176.229          20.000                                                                  
E12  23928385.326      -35779.486        -659.468          18.000                                                                  
E24  24728242.641       24492.707         390.821          25.000                                                                  
E33  25796588.456       56812.188         808.688          13.000                                                                  
J 3  39006001.619     -117143.126       -1415.838          18.000                                                                  
C 7  37473946.206       10551.045         589.600          17.000                                                                                                                                  
C 8  36451599.059       -3125.194           0.000          16.000                                                                                                                                  
C10  36354511.835        4070.046         208.812          19.000                                                                                                                                  
C13  36659977.628      -31533.493        -573.511          17.000                                                                                                                                  
C19  22796011.770     -143648.633       -2800.981          21.000                                                                                                                                  
C20  23154811.296        5224.801         112.868          18.000                                                                                                                                  
C26  25304816.477       22378.399         536.173          17.000                                                                                                                                  
C29  22438343.598         199.256          11.523          18.000                                                                                                                                  
C35  22783641.974     -114601.896           0.028          15.000                                                                                                                                  
> 2021  5 17  8 41 44.0000000  0 25                     
G 2  21976072.709     -130613.044       -1642.028          21.000                                                                  
G 6  20837751.618      -15629.036        -177.512          28.000                                                                  
G12  22540302.042     -112237.388       -2738.062          20.000                                                                  
G14  24659416.739      243887.697          -0.009          16.000                                                                  
G17  21942677.592       67787.756         799.227          14.000                                                                  
G19  20573250.100        1147.989          28.065          28.000                                                                  
G28  23034415.027      215433.050        2511.838          29.000                                                                  
R 7  20620673.772     -271722.939       -3137.680          18.000  
R 8  23201976.737     -423846.591       -5080.742          16.000  
R12  21671389.393       85332.080        1454.729          26.000  
R21  21602623.805       61742.272         818.024          16.000  
E11  26268328.607     -152429.644       -2175.326          20.000                                                                  
E12  23928259.902      -36438.947        -658.895          19.000                                                                  
E24  24728316.739       24884.945         392.064          25.000                                                                  
E33  25796742.362       57620.812         808.741          12.000                                                                  
J 3  39005728.809     -118557.365       -1412.898          24.000                                                                  
C 7  37474059.595       11141.239         589.023          17.000                                                                                                                                  
C 8  36451541.827       -3445.009        -321.435          19.000                                                                                                                                  
C10  36354551.749        4278.535         207.922          18.000                                                                                                                                  
C13  36659867.359      -32107.986        -574.479          15.000                                                                                                                                  
C19  22795474.888     -146448.325       -2797.659          27.000                                                                                                                                  
C20  23154833.357        5339.451         116.298          17.000                                                                                                                                  
C26  25304919.433       22914.232         535.061          18.000                                                                                                                                  
C29  22438345.731         208.705           8.970          18.000                                                                                                                                  
C35  22783230.422     -116734.960       -2134.820          19.000                                                                                                                                  
> 2021  5 17  8 41 45.0000000  0 25                     
G 2  21975761.864     -132254.837       -1642.065          20.000                                                                  
G 6  20837718.455      -15807.331        -179.591          28.000                                                                  
G12  22539778.325     -114974.953       -2738.240          20.000                                                                  
G14  24659999.799      246951.872          -0.009          17.000                                                                  
G17  21942832.956       68586.577           0.012          17.000                                                                  
G19  20573264.166        1175.688          27.739          27.000                                                                  
G28  23034892.207      217943.907        2509.788          30.000                                                                  
R 7  20620088.348     -274861.615       -3140.140          20.000  
R 8  23201026.302     -428927.820       -5081.528          17.000  
R12  21671686.343       86916.691        1454.317          27.000  
R21  21602776.547       62559.445         816.923          14.000  
E11  26267914.505     -154604.499       -2176.522          20.000                                                                  
E12  23928135.063      -37095.946        -656.993          18.000                                                                  
E24  24728391.186       25277.167         393.078          27.000                                                                  
E33  25796896.221       58429.321         808.481          13.000                                                                  
J 3  39005460.197     -119971.825       -1413.688          24.000                                                                  
C 7  37474173.093       11730.794         591.300          17.000                                                                                                                                  
C 8  36451479.988       -3767.674        -324.239          19.000                                                                                                                                  
C10  36354591.833        4486.836         209.817          17.000                                                                                                                                  
C13  36659757.248      -32681.699        -573.842          14.000                                                                                                                                  
C19  22794938.342     -149247.905       -2798.888          28.000                                                                                                                                  
C20  23154855.750        5455.844         116.379          14.000                                                                                                                                  
C26  25305020.714       23450.621         537.824          17.000                                                                                                                                  
C29  22438345.757         220.925          14.454          21.000                                                                                                                                  
C35  22782814.221     -118868.978       -2133.806          20.000                                                                                                                                  
> 2021  5 17  8 41 46.0000000  0 25                     
G 2  21975448.336     -133896.263       -1641.535          20.000                                                                  
G 6  20837683.953      -15986.555        -180.080          24.000                                                                  
G12  22539257.844     -117713.699       -2739.316          18.000                                                                  
G14  24660582.664      250017.966        3066.404          16.000                                                                  
G17  21942989.166       69384.972         798.344          17.000                                                                  
G19  20573270.222        1204.618          29.446          26.000                                                                  
G28  23035369.597      220455.776        2514.185          29.000                                                                  
R 7  20619501.903     -277999.688       -3136.230          18.000  
R 8  23200077.176     -434010.373       -5082.142          15.000  
R12  21671983.015       88501.866        1456.328          29.000  
R21  21602929.250       63376.668         817.494          17.000  
E11  26267500.055     -156781.705       -2177.950          19.000                                                                  
E12  23928010.272      -37751.632        -655.961          17.000                                                                  
E24  24728465.908       25670.679         394.084          26.000                                                                  
E33  25797052.697       59237.753         808.544          12.000                                                                  
J 3  39005189.006     -121386.088       -1415.370          25.000                                                                  
C 7  37474286.621       12321.769         591.326          17.000                                                                                                                                  
C 8  36451417.856       -4092.137        -322.328          19.000                                                                                                                                  
C10  36354630.199        4695.949         209.286          19.000                                                                                                                                  
C13  36659646.652      -33256.082           0.024          12.000                                                                                                                                  
C19  22794401.377     -152045.762       -2796.750          26.000                                                                                                                                  
C20  23154879.997        5572.460           0.025          16.000                                                                                                                                  
C26  25305124.198       23989.217         538.852          16.000                                                                                                                                  
C29  22438347.323         232.958          11.148          21.000                                                                                                                                  
C35  22782403.102     -121000.908       -2129.514          20.000                                                                                                                                  
> 2021  5 17  8 41 47.0000000  0 26                     
G 2  21975136.370     -135537.572       -1641.510          18.000                                                                  
G 6  20837649.621      -16165.438        -175.489          20.000                                                                  
G12  22538736.646     -120452.892       -2738.292          17.000                                                                  
G14  24661166.499      253085.822        3069.137          15.000                                                                  
G17  21943147.718       70184.520         799.245          22.000                                                                  
G19  20573275.283        1235.517          31.041          18.000                                                                  
G28  23035847.314      222968.733        2512.605          25.000                                                                  
R 7  20618913.002     -281135.459       -3136.485          25.000  
R 8  23199142.656     -439091.063       -5079.659          20.000  
R12  21672282.639       90091.619        1458.775          30.000  
R21  21603091.110       64195.321         818.249          16.000  
R22  20470165.671       -7436.000       -1120.669          16.000  
E11  26267085.831     -158957.652       -2177.624          20.000                                                                  
E12  23927885.150      -38409.494        -658.965          21.000                                                                  
E24  24728541.593       26065.348         395.497          32.000                                                                  
E33  25797206.477       60045.683         807.831          13.000                                                                  
J 3  39004919.547     -122802.303       -1417.559          20.000                                                                  
C 7  37474400.306       12914.247         593.848          19.000                                                                                                                                  
C 8  36451356.510       -4411.799        -319.340          17.000                                                                                                                                  
C10  36354672.338        4906.030         210.507          21.000                                                                                                                                  
C13  36659536.511      -33829.811           0.024          19.000                                                                                                                                  
C19  22793864.126     -154843.196       -2797.601          23.000                                                                                                                                  
C20  23154902.303        5688.415           0.025          22.000                                                                                                                                  
C26  25305227.970       24529.258         540.676          18.000                                                                                                                                  
C29  22438346.337         244.705          12.095          17.000                                                                                                                                  
C35  22781993.618     -123133.361       -2134.352          17.000                                                                                                                                  
> 2021  5 17  8 41 48.0000000  0 26                     
G 2  21974823.827     -137179.963       -1642.242          15.000                                                                  
G 6  20837617.047      -16340.867        -176.078          20.000                                                                  
G12  22538214.883     -123190.248       -2735.272          19.000                                                                  
G14  24661750.848      256156.264        3071.757          14.000                                                                  
G17  21943298.231       70983.855         799.832          22.000                                                                  
G19  20573281.212        1266.445          31.014          17.000                                                                  
G28  23036324.482      225480.795        2512.370          28.000                                                                  
R 7  20618329.274     -284271.143       -3135.020          26.000  
R 8  23198191.436     -444168.744       -5076.106          20.000  
R12  21672582.504       91680.682        1456.755          27.000  
R21  21603244.183       65014.606         819.100          15.000  
R22  20469936.785       -8658.049       -1118.928          18.000  
E11  26266671.759     -161134.968       -2176.239          18.000                                                                  
E12  23927762.798      -39068.216        -655.021          21.000                                                                  
E24  24728617.048       26460.056         395.108          29.000                                                                  
E33  25797360.209       60853.456         807.993          12.000                                                                  
J 3  39004648.431     -124219.554       -1416.803          19.000                                                                  
C 7  37474513.110       13507.762         593.307          17.000                                                                                                                                  
C 8  36451294.937       -4732.593        -322.143          17.000                                                                                                                                  
C10  36354710.814        5115.377         209.196          22.000                                                                                                                                  
C13  36659428.262      -34402.852        -572.644          20.000                                                                                                                                  
C19  22793327.379     -157640.680       -2796.558          20.000                                                                                                                                  
C20  23154925.673        5803.591         116.157          20.000                                                                                                                                  
C26  25305329.980       25069.208         539.966          22.000                                                                                                                                  
C29  22438348.618         256.411          10.358          16.000                                                                                                                                  
C35  22781583.905     -125266.964       -2134.045          17.000                                                                                                                                  
> 2021  5 17  8 41 49.0000000  0 26                     
G 2  21974515.438     -138821.576           0.003          13.000                                                                  
G 6  20837583.291      -16518.311        -177.996          18.000                                                                  
G12  22537682.815     -125925.658       -2734.883          21.000                                                                  
G14  24662335.404      259227.702          -0.009          14.000                                                                  
G17  21943452.399       71782.604         797.370          18.000                                                                  
G19  20573287.390        1298.420          31.934          21.000                                                                  
G28  23036802.068      227993.491        2512.354          30.000                                                                  
R 7  20617744.256     -287405.854       -3134.306          23.000  
R 8  23197226.377     -449246.578       -5079.653          19.000  
R12  21672878.315       93269.898        1457.193          24.000  
R21  21603397.195       65832.792         817.820          14.000  
R22  20469738.372       -9879.115       -1116.940          19.000  
E11  26266257.464     -163312.394       -2177.523          18.000                                                                  
E12  23927637.510      -39725.427        -657.308          23.000                                                                  
E24  24728692.027       26855.142         394.760          30.000                                                                  
E33  25797513.967       61661.330         807.601          12.000                                                                  
J 3  39004378.837     -125636.270       -1417.066          17.000                                                                  
C 7  37474625.539       14099.969         590.837          18.000                                                                                                                                  
C 8  36451234.001       -5055.353        -323.524          17.000                                                                                                                                  
C10  36354752.765        5323.965         209.079          23.000                                                                                                                                  
C13  36659317.431      -34975.846        -573.460          20.000                                                                                                                                  
C19  22792790.449     -160436.895       -2796.153          20.000                                                                                                                                  
C20  23154944.040        5918.675         115.413          19.000                                                                                                                                  
C26  25305434.541       25608.216         540.109          25.000                                                                                                                                  
C29  22438350.817         267.511          11.737          13.000                                                                                                                                  
C35  22781174.980     -127401.327       -2133.973          18.000                                                                                                                                  
> 2021  5 17  8 41 50.0000000  0 26                     
G 2  21974203.027     -140463.405           0.003          15.000                                                                  
G 6  20837550.154      -16695.111        -177.555          19.000                                                                  
G12  22537160.083     -128661.242       -2735.615          21.000                                                                  
G14  24662920.065      262300.050          -0.009          17.000                                                                  
G17  21943604.120       72579.750         801.035          19.000                                                                  
G19  20573287.422        1329.376          30.514          18.000                                                                  
G28  23037279.342      230505.340        2513.063          28.000                                                                  
R 7  20617159.800     -290539.615       -3133.078          24.000  
R 8  23196277.469     -454327.944       -5080.600          18.000  
R12  21673176.692       94858.514        1459.384          20.000  
R21  21603554.369       66651.156          -0.005          15.000  
R22  20469537.241      -11103.840       -1123.245          18.000  
E11  26265842.921     -165490.191       -2176.430          19.000                                                                  
E12  23927515.297      -40382.130        -656.315          24.000                                                                  
E24  24728767.359       27250.628         396.063          25.000                                                                  
E33  25797660.357       62469.886         808.422          11.000                                                                  
J 3  39004109.055     -127054.166       -1417.502          16.000                                                                  
C 7  37474739.725       14691.426         591.314          18.000                                                                                                                                  
C 8  36451173.274       -5377.755        -321.434          18.000                                                                                                                                  
C10  36354793.028        5532.433         208.713          24.000                                                                                                                                  
C13  36659207.769      -35546.746        -569.172          23.000                                                                                                                                  
C19  22792254.549     -163231.489       -2793.400          26.000                                                                                                                                  
C20  23154967.254        6034.304         116.723          22.000                                                                                                                                  
C26  25305538.575       26149.071         540.645          20.000                                                                                                                                  
C29  22438350.926         277.836           0.008          14.000                                                                                                                                  
C35  22780764.760     -129535.530       -2134.184          17.000                                                                                                                                  
> 2021  5 17  8 41 51.0000000  0 26                     
G 2  21973890.603     -142105.242           0.003          16.000                                                                  
G 6  20837515.979      -16869.992        -175.925          20.000                                                                  
G12  22536643.523     -131396.532       -2734.632          20.000                                                                  
G14  24663499.947      265373.515        3071.990          17.000                                                                  
G17  21943751.217       73378.368           0.012          20.000                                                                  
G19  20573297.674        1359.988          31.416          20.000                                                                  
G28  23037757.618      233020.529        2515.994          23.000                                                                  
R 7  20616574.672     -293672.151       -3134.086          17.000  
R 8  23195328.125     -459409.633       -5082.041          18.000  
R12  21673474.537       96449.129        1459.457          23.000  
R21  21603707.290       67469.292          -0.005          17.000  
R22  20469308.146      -12327.025       -1123.108          17.000  
E11  26265429.225     -167665.691       -2175.407          15.000                                                                  
E12  23927390.851      -41037.356        -658.184          18.000                                                                  
E24  24728842.456       27646.632         394.469          18.000                                                                  
E33  25797814.207       63278.264         808.267          10.000                                                                  
J 3  39003838.445     -128470.852       -1415.366          24.000                                                                  
C 7  37474852.748       15284.443         592.666          19.000                                                                                                                                  
C 8  36451111.601       -5699.126        -321.627          14.000                                                                                                                                  
C10  36354832.977        5742.049         210.807          18.000                                                                                                                                  
C13  36659096.873      -36116.805        -571.441          19.000                                                                                                                                  
C19  22791717.435     -166025.890       -2794.565          26.000                                                                                                                                  
C20  23154987.190        6151.787         118.037          17.000                                                                                                                                  
C26  25305642.269       26688.778         538.700          17.000                                                                                                                                  
C29  22438352.479         285.708           0.008          15.000                                                                                                                                  
C35  22780355.416     -131669.147       -2132.856          18.000                                                                                                                                  
> 2021  5 17  8 41 52.0000000  0 26                     
G 2  21973569.414     -143748.011       -1644.295          22.000                                                                  
G 6  20837483.506      -17045.712        -175.376          20.000                                                                  
G12  22536123.527     -134128.927       -2730.411          17.000                                                                  
G14  24664084.772      268444.609        3070.601          16.000                                                                  
G17  21943903.455       74177.867           0.012          16.000                                                                  
G19  20573309.960        1393.243          32.875          17.000                                                                  
G28  23038235.343      235535.829        2513.650          25.000                                                                  
R 7  20615989.506     -296805.080       -3132.106          15.000  
R 8  23194378.676     -464489.465       -5080.334          20.000  
R12  21673773.477       98038.979        1459.708          28.000  
R21  21603860.337       68286.253         818.185          17.000  
R22  20469079.090      -13553.818       -1125.793          18.000  
E11  26265015.031     -169842.635       -2178.404          19.000                                                                  
E12  23927265.816      -41694.987        -657.083          16.000                                                                  
E24  24728917.248       28040.999         397.490          21.000                                                                  
E33  25797968.026       64086.515         808.304          10.000                                                                  
J 3  39003564.558     -129887.409       -1416.729          18.000                                                                  
C 7  37474965.399       15877.273         592.622          18.000                                                                                                                                  
C 8  36451049.857       -6021.011        -321.782          14.000                                                                                                                                  
C10  36354873.266        5952.150         211.515          18.000                                                                                                                                  
C13  36658987.031      -36689.053        -573.482          18.000                                                                                                                                  
C19  22791181.014     -168819.658       -2795.059          18.000                                                                                                                                  
C20  23155010.111        6271.026         120.042          16.000                                                                                                                                  
C26  25305745.805       27227.656         539.936          20.000                                                                                                                                  
C29  22438351.349         295.034           0.008          17.000                                                                                                                                  
C35  22779946.147     -133800.534       -2131.437          16.000                                                                                                                                  
> 2021  5 17  8 41 53.0000000  0 26                     
G 2  21973260.161     -145391.095       -1641.474          18.000                                                                  
G 6  20837448.013      -17220.497        -175.116          25.000                                                                  
G12  22535604.211     -136858.156       -2730.142          18.000                                                                  
G14  24664669.214      271515.435        3071.514          14.000                                                                  
G17  21944055.939       74979.032           0.012          17.000                                                                  
G19  20573317.870        1425.640          31.547          20.000                                                                  
G28  23038713.152      238050.226        2513.144          18.000                                                                  
R 7  20615415.472     -299936.236       -3131.067          20.000  
R 8  23193430.065     -469569.476       -5081.015          20.000  
R12  21674072.251       99631.205        1461.681          33.000  
R21  21604009.912       69103.658         816.565          17.000  
R22  20468878.321      -14780.364       -1125.623          19.000  
E11  26264596.893     -172021.117       -2176.114          18.000                                                                  
E12  23927140.139      -42353.387        -657.647          18.000                                                                  
E24  24728992.689       28438.027         396.827          23.000                                                                  
E33  25798121.815       64894.669         808.585          10.000                                                                  
J 3  39003295.723     -131300.260       -1411.187          21.000                                                                  
C 7  37475079.015       16469.698         591.581          18.000                                                                                                                                  
C 8  36450987.756       -6343.788        -322.943          15.000                                                                                                                                  
C10  36354914.376        6165.182         212.562          21.000                                                                                                                                  
C13  36658876.973      -37262.389        -571.307          17.000                                                                                                                                  
C19  22790644.241     -171613.979       -2794.935          19.000                                                                                                                                  
C20  23155031.977        6390.576         118.340          19.000                                                                                                                                  
C26  25305848.024       27766.480         536.986          18.000                                                                                                                                  
C29  22438357.299         305.885           0.008          19.000                                                                                                                                  
C35  22779536.804     -135932.193       -2130.961          20.000                                                                                                                                  
> 2021  5 17  8 41 54.0000000  0 26                     
G 2  21972949.142     -147032.382       -1638.499          21.000                                                                  
G 6  20837411.172      -17395.466        -174.119          31.000                                                                  
G12  22535066.323     -139589.663       -2731.827          19.000                                                                  
G14  24665253.655      274586.489          -0.009          14.000                                                                  
G17  21944200.257       75782.300         803.587          22.000                                                                  
G19  20573315.497        1458.412          33.633          18.000                                                                  
G28  23039191.393      240563.069        2512.396          17.000                                                                  
R 7  20614818.936     -303067.018       -3132.889          19.000  
R 8  23192481.406     -474649.732       -5080.745          17.000  
R12  21674370.649      101224.797        1464.313          32.000  
R21  21604162.471       69920.073         816.405          22.000  
R22  20468657.802      -16005.477       -1122.298          20.000  
E11  26264181.874     -174195.389       -2173.198          23.000                                                                  
E12  23927014.288      -43012.417        -658.526          18.000                                                                  
E24  24729069.331       28836.349         398.689          29.000                                                                  
E33  25798275.691       65703.165         808.292          12.000                                                                  
J 3  39003030.810     -132712.785       -1412.982          22.000                                                                  
C 7  37475192.578       17060.852         592.263          17.000                                                                                                                                  
C 8  36450926.602       -6665.921        -321.983          20.000                                                                                                                                  
C10  36354955.463        6377.747         212.017          23.000                                                                                                                                  
C13  36658767.598      -37831.308        -569.377          17.000                                                                                                                                  
C19  22790107.389     -174409.330       -2796.377          17.000                                                                                                                                  
C20  23155053.738        6508.391         118.053          26.000                                                                                                                                  
C26  25305930.272       28306.132         544.661          22.000                                                                                                                                  
C29  22438359.502         317.206           0.008          20.000                                                                                                                                  
C35  22779125.776     -138065.198       -2135.488          20.000                                                                                                                                  
> 2021  5 17  8 41 55.0000000  0 26                     
G 2  21972641.224     -148672.572       -1638.342          19.000                                                                  
G 6  20837377.696      -17569.931        -169.346          22.000                                                                  
G12  22534544.493     -142322.171       -2734.026          18.000                                                                  
G14  24665837.743      277655.619          -0.009          15.000                                                                  
G17  21944344.228       76585.496         803.699          20.000                                                                  
G19  20573313.897        1492.859          35.697          23.000                                                                  
G28  23039677.957      243075.658        2512.775          20.000                                                                  
R 7  20614234.995     -306199.543       -3132.051          22.000  
R 8  23191536.917     -479728.266       -5077.918          19.000  
R12  21674669.100      102814.718        1457.377          24.000  
R21  21604313.166       70737.165         817.973          23.000  
R22  20468457.299      -17229.312       -1122.580          23.000  
E11  26263775.271     -176371.503       -2176.580          23.000                                                                  
E12  23926888.524      -43672.869        -660.873          17.000                                                                  
E24  24729144.292       29232.781         394.724          21.000                                                                  
E33  25798429.510       66511.467         808.264          15.000                                                                  
J 3  39002761.364     -134128.691       -1416.794          24.000                                                                  
C 7  37475306.372       17653.251         592.572          16.000                                                                                                                                  
C 8  36450863.402       -6987.857        -322.869          19.000                                                                                                                                  
C10  36354996.252        6589.844         211.850          17.000                                                                                                                                  
C13  36658655.986      -38403.443        -573.505          22.000                                                                                                                                  
C19  22789570.651     -177204.369       -2794.711          17.000                                                                                                                                  
C20  23155077.479        6625.489         116.900          31.000                                                                                                                                  
C26  25306037.569       28849.112         540.739          23.000                                                                                                                                  
C29  22438367.101         329.787          12.013          22.000                                                                                                                                  
C35  22778711.687     -140199.898       -2134.298          28.000                                                                                                                                  
> 2021  5 17  8 41 56.0000000  0 26                     
G 2  21972328.800     -150312.827       -1641.462          20.000                                                                  
G 6  20837345.047      -17741.856        -174.617          27.000                                                                  
G12  22534024.209     -145056.551       -2735.284          17.000                                                                  
G14  24666421.176      280721.660          -0.009          14.000                                                                  
G17  21944501.664       77388.980         802.565          24.000                                                                  
G19  20573329.917        1527.310          32.767          26.000                                                                  
G28  23040178.242      245588.710        2513.432          19.000                                                                  
R 7  20613654.963     -309332.226       -3133.168          22.000  
R 8  23190590.387     -484806.374       -5079.012          20.000  
R12  21674966.984      104402.946        1457.211          22.000  
R21  21604462.575       71554.289         815.937          20.000  
R22  20468218.415      -18452.993       -1124.344          25.000  
E11  26263360.590     -178549.399       -2179.308          18.000                                                                  
E12  23926762.953      -44330.448        -658.395          18.000                                                                  
E24  24729219.978       29629.248         394.586          18.000                                                                  
E33  25798583.330       67319.659         807.794          17.000                                                                  
J 3  39002486.889     -135545.117       -1417.010          23.000                                                                  
C 7  37475423.713       18246.312         592.581          15.000                                                                                                                                  
C 8  36450800.420       -7309.127        -320.415          19.000                                                                                                                                  
C10  36355037.199        6800.789         211.298          18.000                                                                                                                                  
C13  36658548.186      -38977.471        -575.128          17.000                                                                                                                                  
C19  22789036.592     -179998.430       -2794.816          17.000                                                                                                                                  
C20  23155098.497        6743.885         118.228          22.000                                                                                                                                  
C26  25306145.258       29390.161         540.556          22.000                                                                                                                                  
C29  22438381.014         342.585          13.206          26.000                                                                                                                                  
C35  22778301.828     -142334.361       -2134.115          22.000                                                                                                                                  
> 2021  5 17  8 41 57.0000000  0 26                     
G 2  21972016.816     -151953.318       -1640.189          22.000                                                                  
G 6  20837310.924      -17916.839        -173.246          29.000                                                                  
G12  22533504.103     -147789.980       -2733.078          15.000                                                                  
G14  24667003.271      283786.215          -0.009          14.000                                                                  
G17  21944654.493       78190.298         801.348          24.000                                                                  
G19  20573331.807        1560.071          32.640          25.000                                                                  
G28  23040656.644      248102.455        2513.496          16.000                                                                  
R 7  20613063.815     -312466.416       -3132.681          28.000  
R 8  23189642.487     -489886.858       -5080.266          19.000  
R12  21675264.218      105992.137        1459.907          23.000  
R21  21604615.086       72370.391         818.713          21.000  
R22  20467987.719      -19678.933       -1124.274          21.000  
E11  26262946.003     -180728.419       -2177.332          18.000                                                                  
E12  23926636.391      -44989.324        -660.535          20.000                                                                  
E24  24729295.712       30025.865         398.619          19.000                                                                  
E33  25798737.040       68127.279         807.531          18.000                                                                  
J 3  39002225.854     -136961.347       -1415.289          29.000                                                                  
C 7  37475537.429       18838.342         591.862          14.000                                                                                                                                  
C 8  36450740.168       -7628.609        -318.982          21.000                                                                                                                                  
C10  36355078.038        7013.166         212.935          17.000                                                                                                                                  
C13  36658437.874      -39552.247        -574.920          17.000                                                                                                                                  
C19  22788499.924     -182793.241       -2793.684          16.000                                                                                                                                  
C20  23155120.171        6861.137         118.385          30.000                                                                                                                                  
C26  25306249.035       29930.511         541.166          17.000                                                                                                                                  
C29  22438382.558         355.609          14.000          19.000                                                                                                                                  
C35  22777891.856     -144467.758       -2133.292          20.000                                                                                                                                  
> 2021  5 17  8 41 58.0000000  0 26                     
G 2  21971704.431     -153594.250       -1641.317          20.000                                                                  
G 6  20837279.027      -18089.934        -172.487          29.000                                                                  
G12  22532994.922     -150521.602       -2732.075          13.000                                                                  
G14  24667586.538      286851.370          -0.009          14.000                                                                  
G17  21944808.749       78994.233         807.333          22.000                                                                  
G19  20573339.346        1594.786          36.770          26.000                                                                  
G28  23041134.885      250615.662        2513.512          17.000                                                                  
R 7  20612480.485     -315596.005       -3125.992          25.000  
R 8  23188696.170     -494967.361       -5080.878          24.000  
R12  21675561.758      107585.317        1463.696          20.000  
R21  21604770.681       73189.403         819.250          30.000  
R22  20467758.676      -20901.828       -1119.923          17.000  
E11  26262531.836     -182904.305       -2177.375          16.000                                                                  
E12  23926511.255      -45646.111        -654.109          18.000                                                                  
E24  24729371.594       30423.974         397.803          19.000                                                                  
E33  25798898.411       68935.724         808.424          23.000                                                                  
J 3  39001954.214     -138374.893       -1414.347          28.000                                                                  
C 7  37475652.004       19431.811         594.107          17.000                                                                                                                                  
C 8  36450680.362       -7947.672        -318.639          25.000                                                                                                                                  
C10  36355118.738        7224.831         211.493          16.000                                                                                                                                  
C13  36658327.750      -40127.157        -573.196          15.000                                                                                                                                  
C19  22787963.264     -185587.975       -2795.189          17.000                                                                                                                                  
C20  23155142.956        6981.383         122.472          23.000                                                                                                                                  
C26  25306353.038       30471.805         539.897          17.000                                                                                                                                  
C29  22438385.734         372.027          15.693          22.000                                                                                                                                  
C35  22777482.941     -146597.782       -2130.615          21.000                                                                                                                                  
> 2021  5 17  8 41 59.0000000  0 26                     
G 2  21971391.374     -155234.958       -1639.450          20.000                                                                  
G 6  20837246.157      -18263.061        -172.275          22.000                                                                  
G12  22532475.257     -153252.651       -2730.546          18.000                                                                  
G14  24668170.176      289918.124          -0.009          13.000                                                                  
G17  21944962.415       79799.869         806.284          25.000                                                                  
G19  20573342.117        1630.048          34.049          25.000                                                                  
G28  23041576.739      253130.690        2514.561          27.000                                                                  
R 7  20611895.785     -318723.574       -3128.636          22.000  
R 8  23187744.208     -500046.192       -5075.572          30.000  
R12  21675860.824      109180.879        1463.646          23.000  
R21  21604924.989       74011.544         821.197          20.000  
R22  20467532.028      -22123.851       -1123.380          16.000  
E11  26262117.358     -185082.555       -2178.724          18.000                                                                  
E12  23926386.874      -46300.091        -659.249          18.000                                                                  
E24  24729447.171       30822.352         395.726          20.000                                                                  
E33  25799052.370       69744.692         809.094          19.000                                                                  
J 3  39001682.247     -139791.063       -1416.695          24.000                                                                  
C 7  37475766.104       20025.826         594.446          17.000                                                                                                                                  
C 8  36450619.395       -8265.543        -318.618          18.000                                                                                                                                  
C10  36355159.345        7437.143         212.877          18.000                                                                                                                                  
C13  36658216.146      -40701.223        -574.336          20.000                                                                                                                                  
C19  22787421.910     -188382.053       -2793.475          24.000                                                                                                                                  
C20  23155165.785        7103.082         121.409          22.000                                                                                                                                  
C26  25306465.457       31012.566         541.309          20.000                                                                                                                                  
C29  22438388.603         386.995          13.349          20.000                                                                                                                                  
C35  22777073.723     -148728.923       -2131.056          18.000                                                                                                                                  
