     3.04           OBSERVATION DATA    M: Mixed            RINEX VERSION / TYPE
Higeo_Hi1105        Huawei CBG          20210720 020325 UTC PGM / RUN BY / DATE 
************************************************************COMMENT             
* If you have any problem,                                 *COMMENT             
*     please contact with LBS Technology Group, thanks.    *COMMENT             
*                                                          *COMMENT             
* Version Higeo2RinexV1.1 2020.07.21                       *COMMENT             
* Fuction:  Convert Higeo Log to Rinex file                *COMMENT             
*                                                          *COMMENT             
* Note that the verision support B1C B2A signal            *COMMENT             
*     BDS: C1D L1D D1D S1D indicate BDS B1C                *COMMENT             
*     BDS: C5D L5D D5D S5D indicate BDS B2A                *COMMENT             
*     Reference: RINEX V3.04                               *COMMENT             
*                                                          *COMMENT             
* Copyright(C) Huawei Technologies Co., Ltd. 2019 - 2020   *COMMENT             
*     All rights reserved.                                 *COMMENT             
************************************************************COMMENT             
                                                            MARKER NAME         
                                                            MARKER NUMBER       
                                                            MARKER TYPE         
                                                            OBSERVER / AGENCY   
                                                            REC # / TYPE / VERS 
                                                            ANT # / TYPE        
        0.0000        0.0000        0.0000                  APPROX POSITION XYZ 
        0.0000        0.0000        0.0000                  ANTENNA: DELTA H/E/N
G    8 C1C L1C D1C S1C C5I L5I D5I S5I                      SYS / # / OBS TYPES 
R    4 C1C L1C D1C S1C                                      SYS / # / OBS TYPES 
E    8 C1C L1C D1C S1C C5I L5I D5I S5I                      SYS / # / OBS TYPES 
J    8 C1C L1C D1C S1C C5I L5I D5I S5I                      SYS / # / OBS TYPES 
C   12 C2I L2I D2I S2I C1D L1D D1D S1D C5D L5D D5D S5D      SYS / # / OBS TYPES 
  2021     5    17     8    41   39.0000000     GPS         TIME OF FIRST OBS   
  2021     5    17     8    55    1.0000000     GPS         TIME OF LAST OBS    
G                                                           SYS / PHASE SHIFT   
R                                                           SYS / PHASE SHIFT   
E                                                           SYS / PHASE SHIFT   
J                                                           SYS / PHASE SHIFT   
C                                                           SYS / PHASE SHIFT   
  0                                                         GLONASS SLOT / FRQ #
 C1C    0.000 C1P    0.000 C2C    0.000 C2P    0.000        GLONASS COD/PHS/BIS 
                                                            END OF HEADER       
> 2021  5 17  8 41 39.0000000  0 19                     
G 2  21843876.709     -316910.480       -2050.885          18.000                                                                  
G 6  20704158.311      -95553.127        -584.150          29.000                                                                  
G 9  23560643.311     -333129.516       -2680.293          15.000                                                                  
G12  22409132.167     -325171.692       -3149.018          18.000                                                                  
G14  24522723.956      345035.816          -0.009          12.000                                                                  
G17  21808160.972       52528.788         390.299          20.000                                                                  
G19  20439473.076      -66334.521        -380.276          19.000                                                                  
G28  22898271.637      319102.862        2101.414          21.000                                                                  
R 8  23090657.815     -838901.817       -5493.540          19.000  
E11  26136663.824     -333550.937       -2587.359          10.000                                                                  
E12  23795121.478     -141755.613       -1066.112          18.000                                                                  
E19  25728766.681     -252154.908       -2958.145          12.000                                                                  
E24  24594191.962       -9059.416         -16.356          19.000                                                                  
E25  26789770.957     -318010.960       -2646.083          10.000                                                                  
C 8  36318096.087       -2551.812        -723.800          23.000                                                                                                                                  
C13  36526660.915       -4263.789        -975.975          21.000                                                                                                                                  
C19  22664407.748      -21351.973       -3207.239          18.000                                                                                                                                  
C20  23020968.928       -7834.129        -290.432          14.000                                                                                                                                  
C35  22651519.969      -52075.418       -2539.190          17.000                                                                                                                                  
> 2021  5 17  8 41 40.0000000  0 18                     
G 2  21843486.770     -318959.830       -2049.044          15.000                                                                  
G 6  20704048.049      -96139.248        -588.288          27.000                                                                  
G 9  23560133.289     -335809.854       -2679.655          15.000                                                                  
G12  22408537.570     -328320.245       -3148.663          17.000                                                                  
G14  24523234.085      347700.551          -0.009          16.000                                                                  
G17  21808234.372       52918.928         391.263          19.000                                                                  
G19  20439408.328      -66715.208        -380.233          24.000                                                                  
G28  22898671.229      321204.569        2101.563          22.000                                                                  
R 8  23089632.069     -844394.764       -5492.482          17.000  
E11  26136171.470     -336138.285       -2587.406          10.000                                                                  
E12  23794918.218     -142820.359       -1062.926          17.000                                                                  
E19  25728203.833     -255112.682       -2957.323          12.000                                                                  
E24  24594189.937       -9074.511         -15.006          20.000                                                                  
E25  26789267.444     -320656.909       -2645.628           9.000                                                                  
C 8  36317956.337       -3274.771        -722.560          23.000                                                                                                                                  
C13  36526473.394       -5239.893        -975.900          20.000                                                                                                                                  
C19  22663792.427      -24558.594       -3205.456          19.000                                                                                                                                  
C35  22651032.461      -54613.998       -2538.533          16.000                                                                                                                                  
> 2021  5 17  8 41 41.0000000  0 18                     
G 2  21843096.714     -321009.813       -2051.286          12.000                                                                  
G 6  20703935.121      -96726.041        -583.723          27.000                                                                  
G 9  23559631.783     -338486.626          -0.004          15.000                                                                  
G12  22407938.481     -331468.892       -3148.552          17.000                                                                  
G14  24523740.883      350363.584          -0.009          14.000                                                                  
G17  21808288.044       53310.141         391.713          21.000                                                                  
G19  20439328.769      -67094.882        -378.604          23.000                                                                  
G28  22899071.825      323306.962        2103.147          20.000                                                                  
R 8  23088606.912     -849886.551       -5492.943          16.000  
E11  26135679.204     -338725.118       -2586.740          10.000                                                                  
E12  23794715.643     -143884.117       -1062.638          17.000                                                                  
E19  25727641.138     -258069.636       -2956.604          12.000                                                                  
E24  24594191.420       -9091.075         -16.380          21.000                                                                  
E25  26788764.049     -323302.260       -2645.012           9.000                                                                  
C 8  36317815.924       -3997.148        -721.865          22.000                                                                                                                                  
C13  36526285.446       -6216.110        -976.060          19.000                                                                                                                                  
C19  22663177.333      -27764.227       -3206.496          19.000                                                                                                                                  
C35  22650546.533      -57153.525       -2539.809          15.000                                                                                                                                  
> 2021  5 17  8 41 42.0000000  0 18                     
G 2  21842706.305     -323061.457           0.003          12.000                                                                  
G 6  20703823.676      -97309.964        -583.381          25.000                                                                  
G 9  23559122.747     -341161.528          -0.004          14.000                                                                  
G12  22407346.214     -334616.209       -3147.438          18.000                                                                  
G14  24524243.137      353026.446        2661.318          12.000                                                                  
G17  21808367.076       53701.373         391.709          21.000                                                                  
G19  20439262.254      -67472.923        -377.746          24.000                                                                  
G28  22899472.039      325409.665        2103.108          22.000                                                                  
R 8  23087580.818     -855381.612       -5495.206          13.000  
E11  26135187.169     -341310.730       -2585.179          11.000                                                                  
E12  23794513.203     -144948.206       -1064.534          17.000                                                                  
E19  25727078.612     -261025.794       -2955.760          12.000                                                                  
E24  24594187.280       -9105.221         -14.190          21.000                                                                  
E25  26788260.781     -325946.962       -2644.875          10.000                                                                  
C13  36526098.135       -7191.362        -973.142          19.000                                                                                                                                  
C19  22662562.317      -30969.147       -3204.687          19.000                                                                                                                                  
C29  22304351.407       -1051.812        -388.902          19.000                                                                                                                                  
C35  22650058.795      -59693.519       -2540.382          15.000                                                                                                                                  
> 2021  5 17  8 41 43.0000000  0 18                     
G 2  21842316.101     -325112.093           0.003          15.000                                                                  
G 6  20703714.588      -97893.976        -584.729          25.000                                                                  
G 9  23558609.462     -343834.200          -0.004          12.000                                                                  
G12  22406747.443     -337762.870       -3145.697          19.000                                                                  
G14  24524749.187      355685.722        2658.645          13.000                                                                  
G17  21808446.955       54094.182         393.853          21.000                                                                  
G19  20439191.581      -67851.295        -378.492          21.000                                                                  
G28  22899873.172      327513.526        2103.338          22.000                                                                  
R 8  23086555.260     -860873.777       -5491.961          16.000  
E11  26134685.353     -343894.460       -2583.734          12.000                                                                  
E12  23794314.624     -146011.899       -1062.423          18.000                                                                  
E19  25726516.204     -263981.229       -2954.955          12.000                                                                  
E24  24594184.327       -9119.957         -16.952          21.000                                                                  
E25  26787757.508     -328591.664       -2644.401          10.000                                                                  
C13  36525910.994       -8165.097        -974.382          19.000                                                                                                                                  
C19  22661947.377      -34173.447       -3202.187          20.000                                                                                                                                  
C29  22304278.444       -1443.218        -398.835          20.000                                                                                                                                  
C35  22649571.173      -62232.893       -2539.113          15.000                                                                                                                                  
> 2021  5 17  8 41 44.0000000  0 19                     
G 2  21841926.664     -327162.369           0.003          16.000                                                                  
G 6  20703604.936      -98477.865        -584.922          24.000                                                                  
G 9  23558100.897     -346506.795          -0.004          13.000                                                                  
G12  22406149.683     -340906.096       -3141.866          18.000                                                                  
G14  24525254.745      358342.315        2658.114          14.000                                                                  
G17  21808522.220       54488.474         395.093          20.000                                                                  
G19  20439119.774      -68229.550        -376.980          20.000                                                                  
G28  22900272.655      329617.302        2104.294          22.000                                                                  
R 8  23085526.770     -866365.333       -5490.151          18.000  
E11  26134193.798     -346477.575       -2582.706          13.000                                                                  
E12  23794112.960     -147074.692       -1062.148          19.000                                                                  
E19  25725954.408     -266935.907       -2954.088          11.000                                                                  
E24  24594181.369       -9133.961         -13.912          20.000                                                                  
E25  26787256.429     -331235.475       -2643.166           9.000                                                                  
C 8  36317401.163       -1041.507        -720.969          24.000                                                                                                                                  
C13  36525723.669       -9140.184        -975.608          20.000                                                                                                                                  
C19  22661333.914      -37375.287       -3201.187          22.000                                                                                                                                  
C29  22304207.360       -1838.973        -394.100          19.000                                                                                                                                  
C35  22649082.938      -64772.428           0.028          12.000                                                                                                                                  
> 2021  5 17  8 41 45.0000000  0 19                     
G 2  21841536.303     -329213.583           0.003          17.000                                                                  
G 6  20703492.423      -99061.357        -583.738          25.000                                                                  
G 9  23557592.328     -349179.190          -0.004          15.000                                                                  
G12  22405551.618     -344048.906       -3142.791          17.000                                                                  
G14  24525760.954      361002.330        2662.151          16.000                                                                  
G17  21808598.543       54880.353         391.910          19.000                                                                  
G19  20439048.006      -68606.544        -375.835          22.000                                                                  
G28  22900674.621      331721.866        2105.067          23.000                                                                  
R 8  23084514.457     -871855.580       -5490.730          16.000  
E11  26133702.426     -349059.686       -2581.936          13.000                                                                  
E12  23793911.362     -148135.783       -1059.151          20.000                                                                  
E19  25725392.296     -269889.827       -2953.722          12.000                                                                  
E24  24594179.244       -9145.857         -10.508          20.000                                                                  
E25  26946864.455     -333877.697       -2641.745           8.000                                                                  
C 8  36317258.511       -1762.241        -719.984          24.000                                                                                                                                  
C13  36525536.537      -10114.974        -973.254          20.000                                                                                                                                  
C19  22660720.164      -40575.922       -3199.697          22.000                                                                                                                                  
C29  22304131.940       -2231.991        -392.899          17.000                                                                                                                                  
C35  22648595.181      -67312.476           0.028          13.000                                                                                                                                  
> 2021  5 17  8 41 46.0000000  0 20                     
G 2  21841146.269     -331263.393           0.003          15.000                                                                  
G 6  20703380.647      -99643.677        -581.823          24.000                                                                  
G 9  23557079.684     -351851.687          -0.004          14.000                                                                  
G12  22404953.828     -347190.345       -3141.207          19.000                                                                  
G14  24526267.030      363661.689        2659.021          14.000                                                                  
G17  21808672.881       55270.878         390.046          17.000                                                                  
G19  20438976.090      -68982.007        -374.717          21.000                                                                  
G28  22901074.898      333827.419        2105.967          23.000                                                                  
R 8  23083489.309     -877345.482       -5492.216          14.000  
E11  26133211.163     -351641.343       -2581.745          14.000                                                                  
E12  23793713.795     -149197.175       -1063.448          19.000                                                                  
E19  25724830.290     -272843.177       -2952.747          11.000                                                                  
E24  24594177.477       -9157.752         -11.622          20.000                                                                  
E25  26946361.885     -336518.697       -2640.244           7.000                                                                  
C 8  36317118.343       -2482.205        -720.995          24.000                                                                                                                                  
C13  36525349.322      -11088.267        -973.461          20.000                                                                                                                                  
C19  22660106.060      -43775.367       -3200.895          19.000                                                                                                                                  
C29  22304056.464       -2625.256        -393.011          15.000                                                                                                                                  
C30  25943778.255        3827.411        1103.507          18.000                                                                                                                                  
C35  22648107.416      -69852.531           0.028          12.000                                                                                                                                  
> 2021  5 17  8 41 47.0000000  0 20                     
G 2  21840752.317     -333311.731       -2047.949          16.000                                                                  
G 6  20703269.844     -100224.925        -581.442          22.000                                                                  
G 9  23556571.320     -354523.387          -0.004          15.000                                                                  
G12  22404348.535     -350332.014       -3139.511          17.000                                                                  
G14  24526772.979      366320.401        2658.028          14.000                                                                  
G17  21808747.319       55662.047         393.159          17.000                                                                  
G19  20438906.106      -69356.019        -374.516          24.000                                                                  
G28  22901474.809      335933.183        2106.668          23.000                                                                  
R 8  23082464.597     -882833.045       -5487.593          13.000  
E11  26132719.974     -354222.553       -2580.843          13.000                                                                  
E12  23793509.964     -150259.986       -1062.531          18.000                                                                  
E19  25724268.463     -275795.561       -2952.121          10.000                                                                  
E24  24594175.666       -9170.032         -13.254          20.000                                                                  
E25  26785748.717     -339158.505       -2639.363           9.000                                                                  
C 8  36316981.576       -3203.747        -723.276          24.000                                                                                                                                  
C13  36525162.525      -12059.804        -971.923          20.000                                                                                                                                  
C19  22659491.837      -46975.560       -3200.626          18.000                                                                                                                                  
C29  22303979.822       -3016.550        -389.369          16.000                                                                                                                                  
C30  25943991.671        4930.424        1099.995          17.000                                                                                                                                  
C35  22647620.333      -72388.995           0.028          15.000                                                                                                                                  
> 2021  5 17  8 41 48.0000000  0 17                     
G 2  21840362.575     -335360.037       -2048.305          16.000                                                                  
G 6  20703160.100     -100805.011        -579.073          24.000                                                                  
G12  22403754.867     -353470.949       -3138.268          17.000                                                                  
G14  24527278.689      368977.904        2657.312          14.000                                                                  
G17  21808824.253       56056.597         395.351          17.000                                                                  
G19  20438834.081      -69729.738        -372.745          23.000                                                                  
G28  22901876.308      338039.951        2106.674          24.000                                                                  
R 8  23081440.025     -888320.089       -5485.397          13.000  
E11  26132228.977     -356802.718       -2579.771          14.000                                                                  
E12  23793307.977     -151323.609       -1063.713          18.000                                                                  
E19  25723706.739     -278747.521       -2951.765           9.000                                                                  
E24  24594173.817       -9179.589          -8.059          20.000                                                                  
E25  26785246.570     -341797.267       -2638.691           9.000                                                                  
C13  36524975.834      -13032.013        -973.083          20.000                                                                                                                                  
C19  22658877.463      -50175.022       -3199.056          17.000                                                                                                                                  
C29  22303905.113       -3405.746        -388.591          17.000                                                                                                                                  
C35  22647133.449      -74924.507           0.028          12.000                                                                                                                                  
> 2021  5 17  8 41 49.0000000  0 17                     
G 2  21839972.824     -337408.896       -2048.662          15.000                                                                  
G 6  20703049.651     -101384.011        -578.328          22.000                                                                  
G12  22403152.030     -356609.602       -3138.482          18.000                                                                  
G14  24527785.086      371638.889        2661.505          15.000                                                                  
G17  21808900.048       56452.607         396.433          17.000                                                                  
G19  20438763.335      -70102.522        -372.903          24.000                                                                  
G28  22902277.262      340146.654        2106.559          25.000                                                                  
R 8  23080416.033     -893803.883       -5484.160          13.000  
E11  26131737.978     -359382.266       -2579.338          14.000                                                                  
E12  23793106.039     -152388.560       -1064.147          18.000                                                                  
E19  25723145.047     -281699.216       -2951.868          10.000                                                                  
E24  24594171.744       -9188.254          -9.008          21.000                                                                  
E25  26784744.518     -344435.565       -2638.488           9.000                                                                  
C13  36524789.369      -14003.826        -970.274          19.000                                                                                                                                  
C19  22658263.049      -53374.614       -3199.230          16.000                                                                                                                                  
C29  22303832.991       -3792.163        -384.590          18.000                                                                                                                                  
C35  22646646.553      -77460.140           0.028          13.000                                                                                                                                  
> 2021  5 17  8 41 50.0000000  0 17                     
G 2  21839583.148     -339456.830       -2047.535          15.000                                                                  
G 6  20702940.666     -101962.117        -577.988          25.000                                                                  
G12  22402555.143     -359746.232       -3135.019          18.000                                                                  
G14  24528291.653      374300.852        2660.792          13.000                                                                  
G17  21808986.649       56849.332         396.956          17.000                                                                  
G19  20438691.837      -70475.121        -371.687          22.000                                                                  
G28  22902678.785      342254.058          -0.011          25.000                                                                  
R 8  23079392.408     -899285.881       -5484.705          16.000  
E11  26131247.225     -361961.156       -2578.631          13.000                                                                  
E12  23792904.310     -153452.358       -1064.296          19.000                                                                  
E19  25722583.399     -284650.623       -2950.720           9.000                                                                  
E24  24594168.350       -9196.561          -8.298          21.000                                                                  
E25  26944353.373     -347073.426       -2637.549           8.000                                                                  
C13  36524602.822      -14975.539        -974.060          19.000                                                                                                                                  
C19  22657653.579      -56573.594           0.022          18.000                                                                                                                                  
C29  22303758.880       -4178.406        -385.596          16.000                                                                                                                                  
C35  22646159.469      -79996.767           0.028          15.000                                                                                                                                  
> 2021  5 17  8 41 51.0000000  0 16                     
G 2  21839193.698     -341503.481       -2046.216          17.000                                                                  
G 6  20702830.168     -102539.990        -578.188          24.000                                                                  
G14  24528798.440      376963.878        2662.880          14.000                                                                  
G17  21809062.221       57246.342         397.254          16.000                                                                  
G19  20438619.930      -70846.580        -372.012          22.000                                                                  
G28  22903081.173      344362.505        2109.730          26.000                                                                  
R 8  23078373.411     -904772.171       -5487.524          16.000  
E11  26130756.560     -364539.610       -2578.492          14.000                                                                  
E12  23792702.511     -154516.073       -1061.888          18.000                                                                  
E19  25722021.863     -287601.611       -2950.758          11.000                                                                  
E24  24594164.930       -9204.895          -8.687          21.000                                                                  
E25  26943851.496     -349710.740       -2636.991           6.000                                                                  
C13  36524415.182      -15951.095        -975.543          16.000                                                                                                                                  
C19  22657040.852      -59771.305       -3196.765          19.000                                                                                                                                  
C29  22303684.730       -4564.763        -386.193          16.000                                                                                                                                  
C35  22645673.427      -82531.785       -2533.135          17.000                                                                                                                                  
> 2021  5 17  8 41 52.0000000  0 16                     
G 2  21838803.555     -343550.672       -2046.790          19.000                                                                  
G 6  20702719.911     -103118.276        -577.409          24.000                                                                  
G12  22401382.056       -3239.625       -3132.637          17.000                                                                  
G17  21809137.770       57643.157         398.233          18.000                                                                  
G19  20438548.782      -71218.527        -372.428          20.000                                                                  
G28  22903483.021      346471.815        2112.185          25.000                                                                  
R 8  23077348.865     -910258.997       -5485.121          15.000  
E11  26130241.443     -367117.309       -2576.962          15.000                                                                  
E12  23792500.560     -155577.396       -1061.048          18.000                                                                  
E19  25721458.627     -290552.288       -2950.296          10.000                                                                  
E24  24594162.137       -9213.122          -6.259          21.000                                                                  
E25  26943349.755     -352347.395       -2635.916           6.000                                                                  
C13  36524228.391      -16924.059        -972.732          15.000                                                                                                                                  
C19  22656427.935      -62967.232       -3194.507          18.000                                                                                                                                  
C29  22303609.541       -4951.438        -386.669          17.000                                                                                                                                  
C35  22645187.089      -85064.592       -2532.131          19.000                                                                                                                                  
> 2021  5 17  8 41 53.0000000  0 18                     
G 2  21838421.980     -345596.975       -2045.338          18.000                                                                  
G 6  20702609.596     -103696.548        -578.670          21.000                                                                  
G12  22400766.520       -6373.656       -3133.271          19.000                                                                  
G17  21809219.638       58041.762         398.571          20.000                                                                  
G19  20438476.674      -71590.944        -372.673          19.000                                                                  
G28  22903885.336      348583.211        2111.743          24.000                                                                  
R 8  23076324.005     -915747.342       -5491.056          14.000  
E11  26129751.096     -369694.212       -2576.593          15.000                                                                  
E12  23792299.049     -156636.799       -1063.431          17.000                                                                  
E19  25720897.245     -293502.383       -2949.552           9.000                                                                  
E24  24594160.558       -9220.108          -5.716          23.000                                                                  
E25  26942848.231     -354982.919       -2635.196           6.000                                                                  
C 8  36316147.556        -920.432        -720.676          23.000                                                                                                                                  
C13  36524039.740      -17898.471        -974.706          17.000                                                                                                                                  
C19  22655820.318      -66162.439       -3193.963          20.000                                                                                                                                  
C20  23020188.273       -1277.740        -285.110          13.000                                                                                                                                  
C29  22303535.185       -5338.932        -387.776          15.000                                                                                                                                  
C35  22644700.703      -87595.669       -2529.689          17.000                                                                                                                                  
> 2021  5 17  8 41 54.0000000  0 19                     
G 2  21838043.415     -347642.171       -2044.362          20.000                                                                  
G 6  20702498.927     -104274.386        -577.705          22.000                                                                  
G12  22400170.724       -9504.790       -3132.212          18.000                                                                  
G17  21809297.549       58440.436         399.421          19.000                                                                  
G19  20438407.432      -71961.494        -369.509          22.000                                                                  
G28  22904287.415      350694.989        2112.151          24.000                                                                  
R 8  23075298.831     -921237.487       -5488.421          14.000  
E11  26129260.784     -372270.833       -2576.742          13.000                                                                  
E12  23792096.566     -157699.498       -1062.766          17.000                                                                  
E19  25720336.035     -296451.643       -2948.856          10.000                                                                  
E24  24594159.026       -9224.970          -4.476          23.000                                                                  
E25  26942346.803     -357617.933       -2634.563           7.000                                                                  
C 8  36316011.048       -1639.320        -719.245          23.000                                                                                                                                  
C13  36523852.769      -18872.295        -972.969          17.000                                                                                                                                  
C19  22655207.034      -69356.395       -3194.159          18.000                                                                                                                                  
C20  23020133.479       -1563.210        -287.099          14.000                                                                                                                                  
C26  25171010.998         644.995         139.886          18.000                                                                                                                                  
C29  22303459.673       -5726.118        -386.857          17.000                                                                                                                                  
C35  22644215.145      -90124.438       -2529.836          15.000                                                                                                                                  
> 2021  5 17  8 41 55.0000000  0 19                     
G 2  21837654.598     -349685.482       -2044.007          19.000                                                                  
G 6  20702387.811     -104851.432        -576.464          24.000                                                                  
G12  22399575.224      -12639.508       -3136.111          19.000                                                                  
G17  21809369.974       58841.237         399.673          19.000                                                                  
G19  20438338.448      -72329.674        -367.330          22.000                                                                  
G28  22904690.162      352806.803        2110.486          25.000                                                                  
R 8  23074274.547     -926722.868       -5483.029          15.000  
E11  26128770.594     -374846.974       -2575.687          12.000                                                                  
E12  23791894.968     -158759.308       -1058.105          19.000                                                                  
E19  25719774.954     -299400.194       -2947.980          10.000                                                                  
E24  24594157.626       -9229.692          -4.396          24.000                                                                  
E25  26781734.792     -360251.655       -2633.009           9.000                                                                  
C 8  36315874.107       -2357.612        -718.131          23.000                                                                                                                                  
C13  36523664.472      -19845.080        -971.982          18.000                                                                                                                                  
C19  22654593.736      -72551.865       -3195.355          17.000                                                                                                                                  
C20  23020079.069       -1850.520        -288.604          13.000                                                                                                                                  
C26  25171035.651         784.593         142.559          17.000                                                                                                                                  
C29  22303385.418       -6113.091        -387.386          17.000                                                                                                                                  
C35  22643730.836      -92654.114       -2528.752          17.000                                                                                                                                  
> 2021  5 17  8 41 56.0000000  0 20                     
G 2  21837265.798     -351729.185       -2044.043          18.000                                                                  
G 6  20702277.169     -105428.644        -576.648          23.000                                                                  
G12  22398986.564      -15775.169       -3134.463          19.000                                                                  
G17  21809446.048       59241.223         401.032          18.000                                                                  
G19  20438269.420      -72697.233        -367.767          22.000                                                                  
G28  22905092.634      354917.743        2112.144          23.000                                                                  
R 8  23073254.939     -932206.277       -5484.465          14.000  
E11  26128281.526     -377422.351       -2575.004          12.000                                                                  
E12  23791695.813     -159817.566       -1057.671          20.000                                                                  
E19  25719214.086     -302347.573       -2946.954          11.000                                                                  
E24  24594156.365       -9234.518          -5.901          20.000                                                                  
E25  26941344.581     -362884.611       -2632.683           7.000                                                                  
C 8  36315736.988       -3076.076        -719.114          23.000                                                                                                                                  
C13  36523475.543      -20817.076        -971.263          19.000                                                                                                                                  
C19  22653980.998      -75745.559       -3192.248          17.000                                                                                                                                  
C20  23020023.569       -2139.740        -291.454          13.000                                                                                                                                  
C22  25933806.935      -10253.992       -4513.431          17.000                                                                                                                                  
C26  25171062.825         925.912         141.986          17.000                                                                                                                                  
C29  22303310.382       -6499.441        -386.518          18.000                                                                                                                                  
C35  22643247.211      -95183.207       -2530.608          19.000                                                                                                                                  
> 2021  5 17  8 41 57.0000000  0 21                     
G 2  21836874.639     -353773.098       -2042.989          18.000                                                                  
G 6  20702166.775     -106005.036        -575.574          22.000                                                                  
G12  22398387.143      -18909.397       -3134.597          18.000                                                                  
G17  21809518.995       59642.655         401.665          17.000                                                                  
G19  20438199.676      -73064.854        -366.791          24.000                                                                  
G28  22905496.205      357029.116        2110.390          23.000                                                                  
R 8  23072230.454     -937692.601       -5485.928          18.000  
E11  26127791.628     -379996.902       -2574.175          14.000                                                                  
E12  23791494.158     -160877.362       -1059.590          19.000                                                                  
E19  25718653.393     -305294.046       -2945.958          11.000                                                                  
E24  24594155.305       -9240.704          -6.224          22.000                                                                  
E25  26780732.831     -365516.978       -2632.291           9.000                                                                  
C 8  36315598.171       -3795.392        -719.883          24.000                                                                                                                                  
C13  36523289.204      -21787.634        -970.499          17.000                                                                                                                                  
C19  22653368.373      -78938.411       -3193.217          18.000                                                                                                                                  
C20  23019967.645       -2431.114        -287.474          12.000                                                                                                                                  
C22  25932946.421      -14766.356       -4508.033          14.000                                                                                                                                  
C26  25171090.519        1069.949         145.192          16.000                                                                                                                                  
C29  22303236.437       -6884.668        -384.759          17.000                                                                                                                                  
C30  25946135.660        3654.917        1108.489          17.000                                                                                                                                  
C35  22642761.214      -97713.995       -2531.082          18.000                                                                                                                                  
> 2021  5 17  8 41 58.0000000  0 18                     
G 2  21836485.102     -355816.047       -2043.656          19.000                                                                  
G 6  20702057.897     -106580.906        -575.000          20.000                                                                  
G12  22397787.774      -22043.643       -3135.071          19.000                                                                  
G17  21809595.601       60045.110         404.191          17.000                                                                  
G19  20438129.536      -73431.668        -366.464          22.000                                                                  
G28  22905899.170      359138.970        2110.457          25.000                                                                  
R 8  23071208.727     -943181.107       -5489.464          17.000  
E11  26127301.927     -382570.288       -2572.911          10.000                                                                  
E12  23791293.406     -161938.106       -1058.913          18.000                                                                  
E19  25718092.848     -308239.801       -2945.430          10.000                                                                  
E24  24594154.380       -9244.111          -1.424          21.000                                                                  
E25  26780231.935     -368149.224       -2632.104           9.000                                                                  
C13  36523104.747      -22758.874        -972.429          17.000                                                                                                                                  
C19  22652755.329      -82130.886       -3191.431          17.000                                                                                                                                  
C20  23019912.341       -2716.435        -282.829          14.000                                                                                                                                  
C26  25171121.611        1214.504         142.332          18.000                                                                                                                                  
C29  22303164.123       -7268.605        -381.996          19.000                                                                                                                                  
C35  22642275.769     -100244.602       -2528.173          18.000                                                                                                                                  
> 2021  5 17  8 41 59.0000000  0 19                     
G 2  21836100.041     -357859.925       -2045.118          18.000                                                                  
G 6  20701947.865     -107155.905        -575.246          22.000                                                                  
G12  22397196.162      -25176.629       -3131.345          19.000                                                                  
G17  21809671.680       60449.256         404.028          17.000                                                                  
G19  20438058.501      -73798.983        -367.572          20.000                                                                  
G28  22906298.533      361250.973        2113.023          24.000                                                                  
R 8  23070190.480     -948671.915       -5493.569          14.000  
E11  26126812.180     -385143.298       -2573.259          12.000                                                                  
E12  23791092.594     -162996.206       -1058.711          18.000                                                                  
E19  25717532.482     -311184.514       -2944.326          10.000                                                                  
E24  24594154.550       -9245.385          -2.359          21.000                                                                  
E25  26939841.938     -370781.043       -2631.250           8.000                                                                  
C 8  36315331.920       -1076.526        -718.166          23.000                                                                                                                                  
C13  36522918.290      -23729.971        -970.108          18.000                                                                                                                                  
C19  22652142.572      -85322.035       -3190.837          17.000                                                                                                                                  
C20  23019858.765       -2995.528        -277.265          15.000                                                                                                                                  
C26  25171155.268        1357.267         143.025          18.000                                                                                                                                  
C29  22303090.804       -7650.600        -381.541          17.000                                                                                                                                  
C35  22641791.180     -102771.815       -2525.633          17.000                                                                                                                                  
> 2021  5 17  8 42  0.0000000  0 19                     
G 2  21835711.254     -359903.081       -2041.685          17.000                                                                  
G 6  20701840.316     -107731.327        -575.139          23.000                                                                  
G12  22396602.992      -28308.078       -3130.209          20.000                                                                  
G17  21809748.770       60854.181         406.673          14.000                                                                  
G19  20437989.102      -74166.192        -364.507          18.000                                                                  
G28  22906702.924      363364.175        2112.859          24.000                                                                  
R 8  23069157.960     -954163.946       -5489.453          17.000  
E11  24336559.657     -387716.412       -2573.406           8.000                                                                  
E12  23790891.372     -164054.316       -1055.899          17.000                                                                  
E19  25716972.321     -314128.197       -2943.656          10.000                                                                  
E24  24594154.676       -9247.789          -1.592          22.000                                                                  
E25  26939341.383     -373411.980       -2629.813           8.000                                                                  
C 8  36315189.382       -1794.421        -715.910          22.000                                                                                                                                  
C13  36522731.228      -24700.038        -968.498          19.000                                                                                                                                  
C19  22651530.977      -88511.884       -3189.512          17.000                                                                                                                                  
C20  23019805.795       -3271.735        -278.016          14.000                                                                                                                                  
C26  25171182.695        1499.753         141.161          16.000                                                                                                                                  
C29  22303017.644       -8031.799        -381.664          18.000                                                                                                                                  
C35  22641306.338     -105296.678       -2525.823          13.000                                                                                                                                  
> 2021  5 17  8 42  1.0000000  0 19                     
G 2  21835322.904     -361944.013       -2039.886          15.000                                                                  
G 6  20701730.259     -108305.281        -572.539          23.000                                                                  
G12  22396007.370      -31438.224       -3131.035          18.000                                                                  
G17  21809826.084       61260.186         406.827          16.000                                                                  
G19  20437920.323      -74530.430        -364.901          18.000                                                                  
G28  22907105.859      365477.178        2113.407          25.000                                                                  
R 8  23068133.012     -959652.839       -5487.471          17.000  
E11  24336069.934     -390289.964       -2573.547           8.000                                                                  
E12  23790691.035     -165110.321       -1055.504          18.000                                                                  
E19  25716412.919     -317071.339       -2942.951          10.000                                                                  
E24  24594154.641       -9248.089           1.692          21.000                                                                  
E25  26938841.011     -376041.427       -2629.077           7.000                                                                  
C 8  36315052.503       -2511.219        -717.651          22.000                                                                                                                                  
C13  36522544.767      -25669.358        -970.145          19.000                                                                                                                                  
C19  22650919.521      -91700.555       -3187.213          20.000                                                                                                                                  
C20  23019754.265       -3551.154        -280.167          16.000                                                                                                                                  
C26  25171209.721        1640.216         140.470          16.000                                                                                                                                  
C29  22302947.669       -8412.021        -379.668          19.000                                                                                                                                  
C35  22640821.309     -107822.563       -2525.090          12.000                                                                                                                                  
> 2021  5 17  8 42  2.0000000  0 20                     
G 2  21834928.237     -363983.452       -2039.188          14.000                                                                  
G 6  20701622.854     -108878.049        -571.353          25.000                                                                  
G12  22395412.097      -34571.190       -3129.427          18.000                                                                  
G17  21809905.425       61666.690         405.788          16.000                                                                  
G19  20437850.937      -74895.202        -364.136          17.000                                                                  
G28  22907508.243      367591.378        2113.439          22.000                                                                  
R 8  23067112.428     -965141.408       -5490.781          16.000  
E11  24335580.150     -392863.832       -2573.942           7.000                                                                  
E12  23790490.170     -166165.969       -1054.808          18.000                                                                  
E19  25715852.985     -320013.780       -2941.987          11.000                                                                  
E24  24594155.308       -9246.284           1.255          23.000                                                                  
E25  26938340.696     -378670.622       -2629.131           6.000                                                                  
C 8  36314913.826       -3228.773        -716.409          22.000                                                                                                                                  
C13  36522359.629      -26638.149        -967.787          20.000                                                                                                                                  
C19  22650307.729      -94888.700       -3188.563          19.000                                                                                                                                  
C20  23019701.007       -3828.651        -274.347          15.000                                                                                                                                  
C26  25171239.186        1782.786         144.615          17.000                                                                                                                                  
C29  22302878.536       -8791.364        -378.212          19.000                                                                                                                                  
C30  25947175.723        2861.237        1109.566          17.000                                                                                                                                  
C35  22640337.990     -110347.832           0.028          15.000                                                                                                                                  
> 2021  5 17  8 42  3.0000000  0 19                     
G 2  21834540.375     -366021.761       -2036.756          13.000                                                                  
G 6  20701514.468     -109448.739        -570.823          25.000                                                                  
G12  22394818.818      -37700.686       -3129.548          17.000                                                                  
G17  21809982.763       62072.595         406.020          16.000                                                                  
G19  20437781.669      -75259.398        -365.829          17.000                                                                  
G28  22907912.460      369706.407        2115.799          22.000                                                                  
R 8  23066093.989     -970626.611       -5483.140          14.000  
E11  24335090.392     -395437.525       -2573.792           7.000                                                                  
E12  23790289.820     -167220.302       -1052.316          18.000                                                                  
E19  25715293.220     -322955.417       -2941.137          11.000                                                                  
E24  24594156.517       -9244.191           2.776          23.000                                                                  
E25  26937840.503     -381299.117       -2627.504           5.000                                                                  
C 8  36314777.365       -3944.174        -715.093          22.000                                                                                                                                  
C13  36522175.411      -27603.740        -965.875          19.000                                                                                                                                  
C19  22649695.927      -98077.542       -3188.807          18.000                                                                                                                                  
C20  23019649.803       -4103.528        -276.298          16.000                                                                                                                                  
C26  25171268.642        1928.512         146.362          17.000                                                                                                                                  
C29  22302806.165       -9168.293        -376.706          19.000                                                                                                                                  
C35  22639853.004     -112873.441           0.028          15.000                                                                                                                                  
> 2021  5 17  8 42  4.0000000  0 19                     
G 2  21834152.841     -368058.379           0.003          15.000                                                                  
G 6  20701405.432     -110020.479        -570.475          27.000                                                                  
G12  22394223.581      -40829.015       -3128.278          17.000                                                                  
G17  21810053.611       62478.505         406.223          16.000                                                                  
G19  20437695.199      -75624.120        -363.746          18.000                                                                  
G28  22908314.910      371822.264        2116.049          20.000                                                                  
R 8  23065070.578     -976107.204       -5479.640          16.000  
E11  26124386.962     -398011.486       -2574.077           9.000                                                                  
E12  23790088.318     -168273.688       -1053.042          18.000                                                                  
E19  25714733.618     -325896.179       -2940.351          11.000                                                                  
E24  24594157.852       -9241.608           4.931          23.000                                                                  
E25  26937340.628     -383925.961       -2626.329           6.000                                                                  
C 8  36314639.709       -4659.256        -715.414          22.000                                                                                                                                  
C13  36521990.533      -28568.847        -966.359          19.000                                                                                                                                  
C19  22649083.813     -101265.222       -3187.290          17.000                                                                                                                                  
C20  23019597.147       -4377.926        -272.145          16.000                                                                                                                                  
C26  25171296.767        2075.012         146.757          18.000                                                                                                                                  
C29  22302731.618       -9545.831        -378.112          20.000                                                                                                                                  
C35  22639369.353     -115397.242       -2523.036          16.000                                                                                                                                  
> 2021  5 17  8 42  5.0000000  0 19                     
G 2  21833767.479     -370094.645       -2035.531          17.000                                                                  
G 6  20701298.624     -110590.444        -571.210          28.000                                                                  
G12  22393628.425      -43956.733       -3126.254          15.000                                                                  
G17  21810130.972       62884.651         406.191          15.000                                                                  
G19  20437641.000      -75986.245        -362.506          20.000                                                                  
G28  22908718.324      373938.426        2117.004          20.000                                                                  
R 8  23064046.800     -981589.955       -5484.331          17.000  
E11  26123897.147     -400585.452       -2573.716          11.000                                                                  
E12  23789887.876     -169325.464       -1053.113          17.000                                                                  
E19  25714174.147     -328836.185       -2939.755          11.000                                                                  
E24  24594159.527       -9237.435           4.945          22.000                                                                  
E25  26936840.893     -386552.045       -2625.855           4.000                                                                  
C 8  36314502.136       -5373.422        -714.234          23.000                                                                                                                                  
C13  36521805.147      -29534.489        -967.006          17.000                                                                                                                                  
C19  22648472.056     -104450.988       -3184.363          17.000                                                                                                                                  
C20  23019545.106       -4649.003        -267.849          17.000                                                                                                                                  
C26  25171327.999        2222.266         147.560          18.000                                                                                                                                  
C29  22302660.376       -9924.296        -379.184          20.000                                                                                                                                  
C35  22638884.634     -117921.466       -2525.094          16.000                                                                                                                                  
> 2021  5 17  8 42  6.0000000  0 19                     
G 2  21833388.982     -372130.929       -2036.499          17.000                                                                  
G 6  20701191.294     -111158.645        -566.080          25.000                                                                  
G12  22393037.519      -47083.000       -3124.853          16.000                                                                  
G17  21810208.617       63292.637         409.179          13.000                                                                  
G19  20437572.993      -76347.973        -360.966          18.000                                                                  
G28  22909122.052      376056.231        2117.613          24.000                                                                  
R 8  23063014.392     -987072.583       -5480.346          14.000  
E11  26123407.415     -403158.978       -2573.271          10.000                                                                  
E12  23789687.085     -170378.822       -1054.443          18.000                                                                  
E19  25713614.805     -331775.525       -2939.105          10.000                                                                  
E24  24594160.207       -9232.741           4.841          23.000                                                                  
E25  26936341.215     -389177.866       -2625.571           5.000                                                                  
C 8  36314364.847       -6086.828        -712.265          20.000                                                                                                                                  
C13  36521619.222      -30502.904        -968.141          20.000                                                                                                                                  
C19  22647858.978     -107636.817       -3186.503          18.000                                                                                                                                  
C20  23019494.287       -4915.819        -268.199          17.000                                                                                                                                  
C26  25171354.658        2371.132         149.268          19.000                                                                                                                                  
C29  22302587.831      -10302.193        -376.251          17.000                                                                                                                                  
C35  22638399.905     -120445.813       -2523.524          16.000                                                                                                                                  
> 2021  5 17  8 42  7.0000000  0 20                     
G 2  21832994.864     -374168.102       -2037.056          22.000                                                                  
G 6  20701083.317     -111727.608        -569.257          20.000                                                                  
G12  22392442.866      -50207.776       -3124.825          15.000                                                                  
G17  21810286.261       63700.312           0.012          15.000                                                                  
G19  20437507.843      -76708.543        -360.339          19.000                                                                  
G28  22909525.881      378174.404        2117.061          19.000                                                                  
R 8  23061991.146     -992552.309       -5478.564          18.000  
E11  26122917.719     -405732.343       -2573.116          12.000                                                                  
E12  23789486.447     -171433.384       -1054.549          17.000                                                                  
E19  25713055.526     -334714.544       -2938.583          12.000                                                                  
E24  24594161.158       -9228.414           1.185          18.000                                                                  
E25  26935841.685     -391802.869       -2624.376           5.000                                                                  
C 8  36314228.368       -6797.270        -711.698          20.000                                                                                                                                  
C13  36521435.645      -31469.066        -964.312          17.000                                                                                                                                  
C19  22647246.510     -110822.869       -3184.280          17.000                                                                                                                                  
C20  23019445.562       -5185.527        -269.398          18.000                                                                                                                                  
C26  25171393.559        2520.398         149.648          20.000                                                                                                                                  
C29  22302515.566      -10678.510        -374.988          17.000                                                                                                                                  
C30  25948230.297        5241.621        1117.078          17.000                                                                                                                                  
C35  22637913.794     -122969.453       -2523.095          17.000                                                                                                                                  
> 2021  5 17  8 42  8.0000000  0 20                     
G 2  21832607.365     -376204.499       -2035.988          19.000                                                                  
G 6  20700975.943     -112296.981        -569.336          20.000                                                                  
G12  22391838.742      -53332.178          -0.011          17.000                                                                  
G17  21810363.762       64107.164           0.012          19.000                                                                  
G19  20437439.526      -77068.802        -359.870          20.000                                                                  
G28  22909930.654      380296.236        2122.900          19.000                                                                  
R 8  23060960.851     -998032.982       -5479.961          17.000  
E11  26122427.027     -408304.933       -2572.347          16.000                                                                  
E12  23789285.983     -172487.053       -1052.364          18.000                                                                  
E19  25712496.355     -337653.054       -2938.146          12.000                                                                  
E24  24594161.428       -9227.134           1.225          18.000                                                                  
E25  26935342.316     -394427.080       -2623.787           5.000                                                                  
C 8  36314092.069       -7507.052        -706.747          17.000                                                                                                                                  
C13  36521250.244      -32433.618        -965.155          18.000                                                                                                                                  
C19  22646635.367     -114005.328       -3181.526          17.000                                                                                                                                  
C20  23019394.036       -5454.105        -268.294          15.000                                                                                                                                  
C26  25171423.355        2670.297         151.463          23.000                                                                                                                                  
C29  22302443.483      -11053.492        -373.272          17.000                                                                                                                                  
C30  25948444.760        6358.321        1116.783          16.000                                                                                                                                  
C35  22637416.711     -125492.609       -2523.454          20.000                                                                                                                                  
> 2021  5 17  8 42  9.0000000  0 21                     
G 2  21832216.641     -378239.918       -2037.389          27.000                                                                  
G 6  20700866.493     -112864.752        -566.945          23.000                                                                  
G12  22391241.759      -56454.817       -3121.714          17.000                                                                  
G17  21810448.775       64516.960         412.402          17.000                                                                  
G19  20437367.828      -77426.914        -358.455          17.000                                                                  
G28  22910334.748      382419.703        2123.353          19.000                                                                  
R 8  23059937.509    -1003513.409       -5481.241          17.000  
E11  26121937.459     -410876.983       -2571.759          17.000                                                                  
E12  23789087.548     -173539.380       -1053.230          17.000                                                                  
E19  25711940.268     -340590.604       -2937.352          12.000                                                                  
E24  24594161.014       -9221.280           6.772          23.000                                                                  
E25  26934843.105     -397049.951       -2622.736           5.000                                                                  
C 8  36313956.551       -8213.030        -705.736          16.000                                                                                                                                  
C10  36219502.696        -789.325        -184.072          17.000                                                                                                                                  
C13  36521064.718      -33399.888        -967.180          15.000                                                                                                                                  
C19  22646024.552     -117186.147       -3181.767          14.000                                                                                                                                  
C20  23019345.708       -5720.831        -262.971          18.000                                                                                                                                  
C26  25171456.807        2822.389         152.013          26.000                                                                                                                                  
C29  22302373.224      -11426.805        -373.829          16.000                                                                                                                                  
C30  25948658.939        7473.668        1115.247          15.000                                                                                                                                  
C35  22636931.559     -128017.616       -2525.429          20.000                                                                                                                                  
> 2021  5 17  8 42 10.0000000  0 21                     
G 2  21831830.006     -380273.252       -2031.349          20.000                                                                  
G 6  20700758.568     -113432.102        -566.435          18.000                                                                  
G12  22390648.183      -59574.399       -3117.845          16.000                                                                  
G17  21810527.304       64929.267         412.806          17.000                                                                  
G19  20437300.772      -77784.958        -356.461          17.000                                                                  
G28  22910737.098      384544.458        2125.432          17.000                                                                  
R 8  23058913.931    -1008995.069       -5479.392          18.000  
E11  26121448.211     -413448.015       -2570.316          20.000                                                                  
E12  23788887.481     -174590.913       -1051.448          17.000                                                                  
E19  25711381.342     -343527.743       -2936.938          12.000                                                                  
E24  24594162.571       -9213.574          10.087          24.000                                                                  
E25  26934344.168     -399671.802       -2621.048           6.000                                                                  
C 8  36313822.664       -8920.205        -706.863          17.000                                                                                                                                  
C10  36219472.709        -969.179        -177.690          18.000                                                                                                                                  
C13  36520879.082      -34366.723        -963.793          25.000                                                                                                                                  
C19  22645413.284     -120367.639       -3181.657          18.000                                                                                                                                  
C20  23019305.498       -5984.077        -263.184          25.000                                                                                                                                  
C26  25171486.756        2974.827         153.649          18.000                                                                                                                                  
C29  22302301.704      -11799.471        -371.441          17.000                                                                                                                                  
C30  25948871.704        8588.951        1114.632          17.000                                                                                                                                  
C35  22636448.153     -130542.109       -2523.461          22.000                                                                                                                                  
> 2021  5 17  8 42 11.0000000  0 21                     
G 2  21831442.689     -382306.120       -2031.819          26.000                                                                  
G 6  20700648.720     -113998.478        -566.330          21.000                                                                  
G12  22390054.581      -62693.908       -3120.462          16.000                                                                  
G17  21810605.825       65341.656         413.214          18.000                                                                  
G19  20437233.266      -78139.802        -353.917          17.000                                                                  
G28  22911141.376      386668.974        2125.693          16.000                                                                  
R 8  23057875.892    -1014475.047       -5479.886          17.000  
E11  26120959.151     -416017.918       -2569.417          23.000                                                                  
E12  23788687.680     -175641.014       -1050.361          19.000                                                                  
E19  25710822.508     -346464.439       -2936.282          11.000                                                                  
E24  24594164.486       -9203.571          10.690          24.000                                                                  
E25  26933845.419     -402292.704       -2620.524           6.000                                                                  
C 8  36313686.609       -9628.990        -709.690          17.000                                                                                                                                  
C10  36219447.849       -1146.289        -177.651          17.000                                                                                                                                  
C13  36520692.578      -35329.882        -960.399          23.000                                                                                                                                  
C19  22644801.938     -123548.605       -3180.506          17.000                                                                                                                                  
C20  23019257.650       -6247.715        -264.897          20.000                                                                                                                                  
C26  25171516.243        3128.082         152.575          17.000                                                                                                                                  
C29  22302229.032      -12172.122        -373.920          19.000                                                                                                                                  
C30  25949086.088        9705.133        1119.150          14.000                                                                                                                                  
C35  22635962.718     -133066.176       -2525.160          22.000                                                                                                                                  
> 2021  5 17  8 42 12.0000000  0 19                     
G 2  21831055.587     -384338.016       -2032.415          20.000                                                                  
G 6  20700542.790     -114564.501        -567.023          23.000                                                                  
G12  22389464.217      -65814.279       -3120.665          13.000                                                                  
G17  21810687.427       65754.684         413.566          15.000                                                                  
G19  20437170.302      -78494.080        -354.613          17.000                                                                  
G28  22911544.437      388791.915        2120.345          17.000                                                                  
R 8  23056845.697    -1019953.956       -5478.687          17.000  
E11  26120470.196     -418587.413       -2569.568          20.000                                                                  
E12  23788481.414     -176692.104       -1049.644          20.000                                                                  
E19  25710263.821     -349400.397       -2935.761          12.000                                                                  
E24  24594166.837       -9192.689          10.516          21.000                                                                  
E25  26933346.836     -404912.730       -2619.346           8.000                                                                  
C 8  36313550.323      -10338.708        -710.013          14.000                                                                                                                                  
C13  36520507.971      -36291.351        -961.476          19.000                                                                                                                                  
C19  22644191.178     -126729.242       -3181.816          15.000                                                                                                                                  
C20  23019206.787       -6510.866        -261.478          19.000                                                                                                                                  
C26  25171543.788        3283.016         155.948          19.000                                                                                                                                  
C29  22302157.329      -12545.687        -373.183          16.000                                                                                                                                  
C35  22635477.800     -135591.537       -2523.631          18.000                                                                                                                                  
> 2021  5 17  8 42 13.0000000  0 18                     
G 2  21830672.201     -386371.075       -2033.650          25.000                                                                  
G 6  20700433.213     -115130.822        -563.826          24.000                                                                  
G12  22388870.476      -68934.677       -3120.003          14.000                                                                  
G17  21810768.553       66167.567         412.791          19.000                                                                  
G19  20437102.967      -78848.297        -354.849          17.000                                                                  
G28  22911948.230      390913.715        2123.686          15.000                                                                  
R 8  23055831.822    -1025430.439       -5477.115          19.000  
E11  26119981.285     -421156.713       -2569.086          20.000                                                                  
E12  23788284.585     -177743.425       -1051.651          22.000                                                                  
E19  25709705.239     -352335.722       -2935.021          10.000                                                                  
E24  24594168.748       -9182.622           8.212          18.000                                                                  
E25  26932848.497     -407531.465       -2618.229           7.000                                                                  
C 8  36313412.501      -11049.027        -711.318          19.000                                                                                                                                  
C13  36520323.082      -37253.413        -960.162          15.000                                                                                                                                  
C19  22643579.806     -129911.803           0.022          12.000                                                                                                                                  
C20  23019155.884       -6772.392        -262.229          19.000                                                                                                                                  
C29  22302085.779      -12918.564        -373.890          18.000                                                                                                                                  
C35  22634994.360     -138115.343       -2522.894          24.000                                                                                                                                  
> 2021  5 17  8 42 14.0000000  0 18                     
G 2  21830284.174     -388404.188       -2033.223          25.000                                                                  
G 6  20700325.956     -115694.456        -562.163          25.000                                                                  
G12  22388277.039      -72053.441       -3118.428          16.000                                                                  
G17  21810849.038       66581.103         413.604          21.000                                                                  
G19  20437019.503      -79203.475        -354.701          21.000                                                                  
G28  22912352.425      393037.980        2124.714          15.000                                                                  
R 8  23054802.708    -1030905.955       -5476.956          17.000  
E11  26119492.299     -423726.374       -2571.269          20.000                                                                  
E12  23788083.222     -178794.722       -1051.958          19.000                                                                  
E19  25709146.793     -355270.335       -2934.317           9.000                                                                  
E24  24594169.485       -9174.658           8.671          18.000                                                                  
E25  26932350.333     -410149.261       -2617.055           7.000                                                                  
C 8  36313271.381      -11760.215        -711.679          22.000                                                                                                                                  
C13  36520138.750      -38213.604        -960.659          12.000                                                                                                                                  
C19  22642969.157     -133091.662           0.022          11.000                                                                                                                                  
C20  23019105.668       -7034.183        -261.521          15.000                                                                                                                                  
C29  22302015.516      -13292.305        -373.122          17.000                                                                                                                                  
C35  22634510.189     -140637.346       -2521.514          24.000                                                                                                                                  
> 2021  5 17  8 42 15.0000000  0 18                     
G 2  21829897.595     -390436.993       -2031.222          25.000                                                                  
G 6  20700219.433     -116257.810        -563.943          21.000                                                                  
G12  22387684.947      -75171.390       -3116.875          17.000                                                                  
G17  21810933.562       66995.024         414.393          19.000                                                                  
G19  20436952.015      -79558.282        -354.191          19.000                                                                  
G28  22912755.709      395162.042          -0.011          15.000                                                                  
R 8  23053777.133    -1036382.119       -5475.331          18.000  
E11  26119002.886     -426298.288       -2572.071          20.000                                                                  
E12  23787883.112     -179846.489       -1049.837          18.000                                                                  
E19  25624959.843     -358204.650       -2933.990           8.000                                                                  
E24  24594170.763       -9165.575          10.824          17.000                                                                  
E25  26931852.373     -412765.993       -2616.396           7.000                                                                  
C 8  36313137.581      -12471.682        -710.169          20.000                                                                                                                                  
C13  36519953.219      -39174.880           0.024          14.000                                                                                                                                  
C19  22642358.264     -136272.923           0.022          13.000                                                                                                                                  
C20  23019055.699       -7294.582        -260.202          21.000                                                                                                                                  
C29  22301942.495      -13664.865        -373.117          19.000                                                                                                                                  
C35  22634025.745     -143159.707       -2520.576          20.000                                                                                                                                  
> 2021  5 17  8 42 16.0000000  0 18                     
G 2  21829510.038     -392467.674       -2030.499          25.000                                                                  
G 6  20700112.586     -116820.553        -563.185          23.000                                                                  
G12  22387092.278      -78286.113       -3113.061          17.000                                                                  
G17  21811010.544       67409.261         415.706          17.000                                                                  
G19  20436888.645      -79912.059        -351.634          20.000                                                                  
G28  22913159.805      397285.677          -0.011          14.000                                                                  
R 8  23052754.092    -1041860.771       -5478.739          17.000  
E11  26118490.020     -428870.324       -2572.126          20.000                                                                  
E12  23787684.027     -180894.767       -1048.267          20.000                                                                  
E19  25624401.619     -361138.125       -2933.107           8.000                                                                  
E24  24594172.316       -9153.095          14.641          19.000                                                                  
E25  26931354.549     -415382.076       -2615.433           7.000                                                                  
C 8  36313001.483      -13180.623        -708.689          18.000                                                                                                                                  
C13  36519768.469      -40137.105           0.024          16.000                                                                                                                                  
C19  22641750.982     -139454.193           0.022          12.000                                                                                                                                  
C20  23019009.129       -7554.150        -258.397          22.000                                                                                                                                  
C29  22301870.927      -14037.853        -370.781          19.000                                                                                                                                  
C35  22633541.431     -145681.195       -2521.833          20.000                                                                                                                                  
> 2021  5 17  8 42 17.0000000  0 18                     
G 2  21829123.870     -394498.195       -2029.204          26.000                                                                  
G 6  20700005.016     -117382.855        -562.236          23.000                                                                  
G12  22386499.746      -81400.186       -3113.273          17.000                                                                  
G17  21811089.964       67826.275         416.867          17.000                                                                  
G19  20436821.943      -80262.716        -350.253          19.000                                                                  
G28  22913558.578      399406.733          -0.011          14.000                                                                  
R 8  23051736.622    -1047338.236       -5478.546          19.000  
E11  26118000.685     -431441.825       -2571.320          18.000                                                                  
E12  23787484.217     -181943.108       -1049.011          21.000                                                                  
E19  25707471.366     -364071.066       -2932.400           9.000                                                                  
E24  24594175.012       -9137.942          17.839          18.000                                                                  
C 8  36312864.835      -13890.665        -710.622          19.000                                                                                                                                  
C13  36519583.453      -41100.834           0.024          18.000                                                                                                                                  
C19  22641140.211     -142634.681           0.022          14.000                                                                                                                                  
C20  23018958.750       -7812.711        -258.580          20.000                                                                                                                                  
C26  25171675.654         703.673         158.874          17.000                                                                                                                                  
C29  22301798.953      -14409.220        -371.498          22.000                                                                                                                                  
C35  22633056.929     -148202.591       -2521.121          21.000                                                                                                                                  
> 2021  5 17  8 42 18.0000000  0 19                     
G 2  21828737.125     -396526.856       -2029.656          25.000                                                                  
G 6  20699897.533     -117945.488        -562.537          21.000                                                                  
G12  22385910.453      -84512.823       -3111.496          17.000                                                                  
G17  21811169.143       68242.038         414.723          19.000                                                                  
G19  20436756.824      -80613.165        -350.278          23.000                                                                  
G28  22913962.009      401526.670          -0.011          14.000                                                                  
R 8  23050704.629    -1052817.843       -5477.945          23.000  
E11  26117511.573     -434012.159       -2569.771          19.000                                                                  
E12  23787284.687     -182991.416       -1047.440          20.000                                                                  
E19  25623284.844     -367003.060       -2931.649           8.000                                                                  
E24  24594178.803       -9121.679          13.748          16.000                                                                  
E31  25986940.287        2547.788        1808.228          16.000                                                                  
C 8  36312728.147      -14601.178        -710.301          17.000                                                                                                                                  
C13  36519399.570      -42065.735        -963.100          18.000                                                                                                                                  
C19  22640529.205     -145816.388           0.022          15.000                                                                                                                                  
C20  23018908.481       -8071.307        -259.500          20.000                                                                                                                                  
C26  25171712.260         860.078         153.553          16.000                                                                                                                                  
C29  22301726.090      -14780.238        -370.510          22.000                                                                                                                                  
C35  22632572.891     -150723.456       -2521.290          20.000                                                                                                                                  
> 2021  5 17  8 42 19.0000000  0 19                     
G 2  21828350.463     -398557.387       -2031.954          21.000                                                                  
G 6  20699790.407     -118508.579        -564.559          30.000                                                                  
G12  22385318.409      -87624.230       -3113.553          16.000                                                                  
G17  21811239.934       68657.600         415.543          18.000                                                                  
G19  20436692.961      -80963.122        -351.561          24.000                                                                  
G28  22914365.314      403645.827          -0.011          11.000                                                                  
R 8  23049680.502    -1058296.079       -5478.335          19.000  
E11  26117022.477     -436581.029       -2568.371          20.000                                                                  
E12  23787085.017     -184040.811       -1049.730          27.000                                                                  
E19  25622727.035     -369934.312       -2930.946           8.000                                                                  
E24  24594182.053       -9104.974          20.365          18.000                                                                  
E31  25987289.348        4356.443        1808.874          17.000                                                                  
C 8  36312591.913      -15310.687        -709.008          20.000                                                                                                                                  
C13  36519214.087      -43027.898        -960.530          19.000                                                                                                                                  
C19  22639918.373     -148997.292           0.022          17.000                                                                                                                                  
C20  23018858.674       -8329.959        -257.274          22.000                                                                                                                                  
C26  25171742.266        1016.176         158.997          19.000                                                                                                                                  
C29  22301655.146      -15151.378        -370.921          19.000                                                                                                                                  
C35  22632088.306     -153245.167       -2520.414          24.000                                                                                                                                  
> 2021  5 17  8 42 20.0000000  0 19                     
G 2  21827962.610     -400588.810       -2030.927          20.000                                                                  
G 6  20699681.510     -119073.894        -565.892          21.000                                                                  
G12  22384731.857      -90736.843       -3111.785          15.000                                                                  
G17  21811303.505       69074.473         415.689          27.000                                                                  
G19  20436626.105      -81314.247        -349.908          25.000                                                                  
G28  22914768.584      405764.717          -0.011          15.000                                                                  
R 8  23048657.112    -1063775.922       -5479.515          21.000  
E11  26116528.099     -439149.566       -2567.555          20.000                                                                  
E12  23786885.614     -185090.052       -1050.766          19.000                                                                  
E19  25705797.901     -372865.269       -2930.702          12.000                                                                  
E24  24594187.789       -9087.571          15.871          20.000                                                                  
E31  25987639.212        6166.492        1808.905          19.000                                                                  
C 8  36312454.231      -16019.848        -708.878          17.000                                                                                                                                  
C13  36519027.225      -43987.015        -956.578          19.000                                                                                                                                  
C19  22639305.797     -152176.176       -3176.571          19.000                                                                                                                                  
C20  23018803.762       -8586.156        -255.365          23.000                                                                                                                                  
C26  25171796.270        1178.732         163.330          23.000                                                                                                                                  
C29  22301581.894      -15521.760        -368.584          23.000                                                                                                                                  
C35  22631604.145     -155765.244       -2519.472          18.000                                                                                                                                  
> 2021  5 17  8 42 21.0000000  0 18                     
G 2  21827576.790     -402616.879       -2027.546          17.000                                                                  
G 6  20699577.098     -119637.562        -559.269          31.000                                                                  
G12  22384139.600      -93849.394       -3111.292          17.000                                                                  
G17  21811382.598       69492.166         418.865          22.000                                                                  
G19  20436558.390      -81665.307        -349.586          24.000                                                                  
G28  22915171.959      407884.147          -0.011          14.000                                                                  
R 8  23047632.510    -1069256.823       -5479.542          19.000  
E11  26116043.533     -441715.082       -2564.646          23.000                                                                  
E12  23786686.406     -186137.482       -1046.707          26.000                                                                  
E19  25705240.258     -375795.659       -2929.906          13.000                                                                  
E24  24594181.751       -9071.867          15.574          19.000                                                                  
C 8  36312319.611      -16728.933        -709.178          24.000                                                                                                                                  
C13  36518843.016      -44945.247        -958.530          23.000                                                                                                                                  
C19  22638697.548     -155351.465       -3174.444          22.000                                                                                                                                  
C20  23018753.571       -8842.263        -254.844          29.000                                                                                                                                  
C26  25171825.019        1343.237         164.095          17.000                                                                                                                                  
C29  22301511.832      -15891.417        -369.591          25.000                                                                                                                                  
C35  22631120.276     -158284.080       -2519.459          25.000                                                                                                                                  
> 2021  5 17  8 42 22.0000000  0 18                     
G 2  21827190.861     -404645.336       -2028.697          17.000                                                                  
G 6  20699471.089     -120194.658        -559.598          35.000                                                                  
G12  22383547.761      -96959.803       -3110.280          15.000                                                                  
G17  21811462.442       69911.471         420.293          19.000                                                                  
G19  20436493.420      -82012.632        -347.050          20.000                                                                  
G28  22915575.600      410005.306          -0.011          17.000                                                                  
R 8  23046610.900    -1074734.548       -5476.768          19.000  
E11  26115568.926     -444280.821       -2565.366          23.000                                                                  
E12  23786487.234     -187184.109       -1046.821          23.000                                                                  
E19  25704682.832     -378724.919       -2928.833          12.000                                                                  
E24  24594184.748       -9056.960          14.087          17.000                                                                  
C 8  36312183.613      -17438.849        -710.178          25.000                                                                                                                                  
C13  36518658.807      -45903.470        -958.130          18.000                                                                                                                                  
C19  22638089.979     -158522.584       -3169.854          20.000                                                                                                                                  
C20  23018704.117       -9097.456        -254.167          21.000                                                                                                                                  
C26  25171856.308        1506.019         162.852          17.000                                                                                                                                  
C29  22301441.825      -16260.021        -369.660          23.000                                                                                                                                  
C35  22630636.821     -160802.315       -2516.012          25.000                                                                                                                                  
> 2021  5 17  8 42 23.0000000  0 19                     
G 2  21826804.548     -406675.636       -2030.849          15.000                                                                  
G 6  20699364.203     -120753.518        -558.599          36.000                                                                  
G12  22382956.375     -100069.768       -3108.855          18.000                                                                  
G17  21811543.899       70330.873         417.787          17.000                                                                  
G19  20436427.236      -82360.270        -348.067          23.000                                                                  
G28  22915980.472      412128.993        2124.272          17.000                                                                  
R 8  23045586.746    -1080215.091       -5482.278          17.000  
E11  26115079.679     -446845.884       -2563.980          17.000                                                                  
E12  23786288.424     -188230.062       -1045.902          29.000                                                                  
E19  25704125.563     -381653.333       -2927.730          12.000                                                                  
E24  24594191.209       -9040.655          16.238          21.000                                                                  
C 7  37341394.848         999.947         211.022          15.000                                                                                                                                  
C 8  36312046.877      -18149.007        -709.148          23.000                                                                                                                                  
C13  36518475.556      -46862.056           0.024          25.000                                                                                                                                  
C19  22637484.910     -161692.457       -3170.726          22.000                                                                                                                                  
C20  23018655.671       -9351.872        -255.839          29.000                                                                                                                                  
C26  25171886.113        1669.307         162.423          15.000                                                                                                                                  
C29  22301370.707      -16628.292        -366.425          20.000                                                                                                                                  
C35  22630152.944     -163320.224       -2518.555          29.000                                                                                                                                  
> 2021  5 17  8 42 24.0000000  0 19                     
G 2  21826415.875     -408707.686       -2033.578          14.000                                                                  
G 6  20699258.657     -121313.588        -558.175          36.000                                                                  
G12  22382362.947     -103175.753       -3105.362          20.000                                                                  
G17  21811623.389       70748.397         419.147          17.000                                                                  
G19  20436363.761      -82707.331        -346.234          29.000                                                                  
G28  22916384.928      414254.316        2125.580          14.000                                                                  
R 8  23044561.311    -1085695.827       -5480.333          17.000  
E11  26114591.805     -449409.744       -2563.206          19.000                                                                  
E12  23786088.293     -189276.736       -1045.653          28.000                                                                  
E19  25703568.526     -384580.591       -2927.330          11.000                                                                  
E24  24594196.039       -9023.351          15.370          20.000                                                                  
C 7  37341435.949        1213.871         217.234          14.000                                                                                                                                  
C 8  36311910.626      -18858.571        -710.865          26.000                                                                                                                                  
C13  36518291.857      -47822.764        -960.985          26.000                                                                                                                                  
C19  22636878.936     -164862.711       -3170.067          20.000                                                                                                                                  
C20  23018606.008       -9605.627        -252.357          27.000                                                                                                                                  
C26  25171917.270        1831.326         163.858          17.000                                                                                                                                  
C29  22301300.238      -16996.422        -368.285          22.000                                                                                                                                  
C35  22629670.274     -165838.950       -2517.351          28.000                                                                                                                                  
> 2021  5 17  8 42 25.0000000  0 19                     
G 2  21826028.868     -410741.444       -2034.785          15.000                                                                  
G 6  20699151.200     -121873.525        -557.517          36.000                                                                  
G12  22381770.934     -106281.103       -3105.726          20.000                                                                  
G17  21811701.381       71168.247         419.415          20.000                                                                  
G19  20436296.696      -83053.527        -346.880          28.000                                                                  
G28  22916789.356      416379.771          -0.011          15.000                                                                  
R 8  23043536.891    -1091177.975       -5481.730          15.000  
E11  26114103.082     -451977.115       -2569.803          20.000                                                                  
E12  23785888.375     -190323.291       -1045.929          27.000                                                                  
E19  25703012.487     -387507.446       -2927.241          12.000                                                                  
E24  24594200.240       -9005.996          16.934          20.000                                                                  
C 7  37341479.205        1431.201         216.522          13.000                                                                                                                                  
C 8  36311773.908      -19569.278        -708.556          27.000                                                                                                                                  
C13  36518107.408      -48783.841        -959.776          26.000                                                                                                                                  
C19  22636273.143     -168033.554       -3170.126          21.000                                                                                                                                  
C20  23018557.204       -9857.862        -251.876          26.000                                                                                                                                  
C26  25171949.003        1996.453         165.303          16.000                                                                                                                                  
C29  22301228.871      -17364.541        -366.407          24.000                                                                                                                                  
C35  22629186.851     -168357.192       -2517.894          26.000                                                                                                                                  
> 2021  5 17  8 42 26.0000000  0 20                     
G 2  21825646.229     -412776.312           0.003          17.000                                                                  
G 6  20699046.094     -122433.078        -559.982          36.000                                                                  
G12  22381188.221     -109387.352       -3106.762          21.000                                                                  
G17  21811787.010       71587.723         420.208          20.000                                                                  
G19  20436230.866      -83399.952        -346.018          27.000                                                                  
G28  22917193.783      418504.901          -0.011          17.000                                                                  
R 8  23042513.519    -1096658.337       -5480.250          14.000  
E11  26113614.907     -454544.688       -2565.964          22.000                                                                  
E12  23785689.381     -191369.101       -1045.563          25.000                                                                  
E19  25702455.498     -390434.429       -2926.641          12.000                                                                  
E24  24594202.089       -8986.687          20.907          20.000                                                                  
E31  25989721.909        4870.544        1814.538          17.000                                                                  
C 7  37341521.218        1649.988         217.091          14.000                                                                                                                                  
C 8  36311637.225      -20278.370        -708.130          26.000                                                                                                                                  
C13  36517923.334      -49742.754        -958.275          25.000                                                                                                                                  
C19  22635664.646     -171203.539       -3168.345          19.000                                                                                                                                  
C20  23018508.623      -10110.419        -253.302          28.000                                                                                                                                  
C26  25171979.764        2162.988         167.514          17.000                                                                                                                                  
C29  22301157.844      -17732.651        -369.554          24.000                                                                                                                                  
C35  22628703.827     -170874.154       -2516.258          27.000                                                                                                                                  
> 2021  5 17  8 42 27.0000000  0 19                     
G 2  21825257.922     -414809.084       -2030.984          17.000                                                                  
G 6  20698938.607     -122990.480        -555.910          35.000                                                                  
G12  22380593.803     -112493.735       -3105.556          18.000                                                                  
G17  21811862.757       72009.377         422.701          21.000                                                                  
G19  20436166.903      -83743.969        -344.515          26.000                                                                  
G28  22917598.610      420632.113          -0.011          19.000                                                                  
R 8  23041490.927    -1102134.742       -5475.968          17.000  
E11  26113127.388     -457109.430       -2561.063          17.000                                                                  
E12  23785490.710     -192414.274       -1044.948          29.000                                                                  
E19  25701898.644     -393360.682       -2926.040          12.000                                                                  
E24  24594205.993       -8966.477          20.728          21.000                                                                  
C 7  37341563.266        1868.716         217.832          14.000                                                                                                                                  
C 8  36311500.703      -20986.670        -708.880          24.000                                                                                                                                  
C13  36517738.583      -50702.772        -959.836          25.000                                                                                                                                  
C19  22635056.458     -174370.739       -3166.530          17.000                                                                                                                                  
C20  23018460.090      -10362.505        -250.130          30.000                                                                                                                                  
C26  25172011.950        2330.240         166.534          14.000                                                                                                                                  
C29  22301086.892      -18100.057        -367.511          23.000                                                                                                                                  
C35  22628220.560     -173391.713       -2516.328          20.000                                                                                                                                  
> 2021  5 17  8 42 28.0000000  0 19                     
G 2  21824871.696     -416838.734       -2029.671          16.000                                                                  
G 6  20698830.299     -123548.432        -559.226          25.000                                                                  
G12  22380002.731     -115599.813       -3108.151          15.000                                                                  
G17  21811943.560       72433.719         425.973          18.000                                                                  
G19  20436100.898      -84087.781        -342.258          20.000                                                                  
G28  22918014.663      422761.525        2130.263          18.000                                                                  
R 8  23040468.183    -1107611.940       -5477.830          17.000  
E11  26112639.721     -459671.265       -2561.805          14.000                                                                  
E12  23785292.022     -193458.645       -1042.148          19.000                                                                  
E19  25701341.938     -396286.202       -2925.074          12.000                                                                  
E24  24594209.863       -8942.752          23.882          17.000                                                                  
C 7  37341600.440        2085.555          -0.064          14.000                                                                                                                                  
C 8  36311365.189      -21693.318        -705.970          20.000                                                                                                                                  
C13  36517554.392      -51662.875        -957.631          18.000                                                                                                                                  
C19  22634448.425     -177537.222       -3166.759          16.000                                                                                                                                  
C20  23018411.988      -10612.477        -249.257          22.000                                                                                                                                  
C26  25172045.634        2496.946         169.095          16.000                                                                                                                                  
C29  22301016.257      -18466.311        -365.651          23.000                                                                                                                                  
C35  22627737.416     -175907.701       -2515.769          17.000                                                                                                                                  
> 2021  5 17  8 42 29.0000000  0 21                     
G 2  21824485.597     -418868.065       -2027.799          16.000                                                                  
G 6  20698724.124     -124106.031        -559.362          19.000                                                                  
G 9  23535397.945       -3569.253       -2639.139          19.000                                                                  
G12  22379411.525     -118706.672       -3105.976          11.000                                                                  
G17  21812031.922       72857.810         423.640          21.000                                                                  
G19  20436035.282      -84430.270        -343.456          24.000                                                                  
G28  22918420.114      424891.978        2131.452          15.000                                                                  
R 8  23039447.843    -1113088.465       -5476.826          11.000  
E11  26112152.559     -462233.043       -2562.527          22.000                                                                  
E12  23785092.893     -194502.939       -1042.715          21.000                                                                  
E19  25700785.359     -399211.118       -2924.918          12.000                                                                  
E24  24594214.413       -8918.515          24.366          13.000                                                                  
E31  25990766.679       10322.064        1817.105          17.000                                                                  
C 7  37341642.043        2302.173          -0.064          16.000                                                                                                                                  
C 8  36311229.810      -22398.149        -705.947          19.000                                                                                                                                  
C13  36517370.492      -52620.814        -956.237          15.000                                                                                                                                  
C19  22633844.756     -180703.743       -3167.541          16.000                                                                                                                                  
C20  23018365.029      -10863.005        -250.262          24.000                                                                                                                                  
C26  25172078.178        2666.355         168.400          17.000                                                                                                                                  
C29  22300946.190      -18831.715        -364.097          19.000                                                                                                                                  
C35  22627254.061     -178424.844       -2517.239          24.000                                                                                                                                  
> 2021  5 17  8 42 30.0000000  0 21                     
G 2  21824100.929     -420894.650       -2025.353          17.000                                                                  
G 6  20698619.114     -124664.150        -555.910          26.000                                                                  
G 9  23534875.852       -2194.710       -2636.972          22.000                                                                  
G12  22378820.344     -121813.711          -0.011          13.000                                                                  
G17  21812113.829       73282.115         422.161          19.000                                                                  
G19  20435970.660      -84771.893        -342.685          18.000                                                                  
G28  22918828.641      427024.612        2132.241          15.000                                                                  
R 8  23038424.828    -1118566.978       -5478.748          14.000  
E11  26111666.583     -464795.127       -2561.800          23.000                                                                  
E12  23784893.477     -195548.505       -1043.232          24.000                                                                  
E19  25700228.793     -402135.843       -2924.281          10.000                                                                  
E24  24594218.723       -8896.241          21.961          11.000                                                                  
E31  25991111.138       12138.777        1816.152          13.000                                                                  
C 7  37341683.415        2520.139          -0.064          15.000                                                                                                                                  
C 8  36311094.628      -23102.309        -703.489          17.000                                                                                                                                  
C13  36517187.046      -53576.207        -953.495          16.000                                                                                                                                  
C19  22633236.581     -183870.769       -3164.974          15.000                                                                                                                                  
C20  23018317.691      -11112.619        -249.666          21.000                                                                                                                                  
C26  25172110.261        2833.214         166.662          17.000                                                                                                                                  
C29  22300876.358      -19196.612        -363.943          21.000                                                                                                                                  
C35  22626774.131     -180942.194       -2514.447          19.000                                                                                                                                  
> 2021  5 17  8 42 31.0000000  0 21                     
G 2  21823724.558     -422919.277       -2024.330          24.000                                                                  
G 6  20698514.558     -125219.481        -553.658          32.000                                                                  
G 9  23534407.806       -4831.475       -2635.943          20.000                                                                  
G12  22378229.159     -124920.473          -0.011          16.000                                                                  
G17  21812194.736       73706.931         424.720          18.000                                                                  
G19  20435905.323      -85115.596        -345.401          15.000                                                                  
G28  22919234.629      429157.719        2133.407          12.000                                                                  
R 8  23037401.944    -1124044.627       -5475.563          14.000  
E11  26111178.955     -467357.190       -2561.621          24.000                                                                  
E12  23784695.395     -196591.087       -1042.411          27.000                                                                  
E19  25699672.405     -405059.739       -2922.999          10.000                                                                  
E24  24594222.959       -8873.325          26.527          12.000                                                                  
E31  25991456.857       13955.440        1816.775          12.000                                                                  
C 7  37341725.537        2739.411          -0.064          16.000                                                                                                                                  
C 8  36310958.996      -23808.816        -707.006          21.000                                                                                                                                  
C10  36218776.189        -820.063        -170.012          16.000                                                                                                                                  
C13  36517005.236      -54528.887           0.024          17.000                                                                                                                                  
C19  22632629.196     -187034.661       -3164.946          17.000                                                                                                                                  
C20  23018270.113      -11361.994        -249.496          20.000                                                                                                                                  
C29  22300806.907      -19558.382        -360.463          18.000                                                                                                                                  
C35  22626289.465     -183454.888       -2511.531          21.000                                                                                                                                  
> 2021  5 17  8 42 32.0000000  0 20                     
G 2  21823335.859     -424942.065       -2020.997          20.000                                                                  
G 6  20698407.821     -125775.421        -558.100          26.000                                                                  
G 9  23533906.278       -7466.993       -2634.969          17.000                                                                  
G12  22377633.694     -128023.963          -0.011          13.000                                                                  
G17  21812276.691       74131.592         425.385          17.000                                                                  
G19  20435839.047      -85459.988        -342.703          17.000                                                                  
G28  22919640.687      431291.338        2133.124          16.000                                                                  
R 8  23036379.558    -1129519.796       -5475.493          16.000  
E11  26110691.954     -469918.285       -2559.121          20.000                                                                  
E12  23784496.920     -197633.502       -1042.965          24.000                                                                  
E19  25699116.257     -407982.323       -2921.998          10.000                                                                  
E24  24594227.963       -8847.176          25.609          16.000                                                                  
E31  25991793.834       15769.173        1813.552          12.000                                                                  
C 7  37341767.310        2956.871          -0.064          15.000                                                                                                                                  
C 8  36310825.746      -24515.047        -704.385          20.000                                                                                                                                  
C13  36516818.615      -55484.266        -955.880          20.000                                                                                                                                  
C19  22632021.652     -190198.517       -3164.036          16.000                                                                                                                                  
C20  23018222.157      -11610.642        -248.539          21.000                                                                                                                                  
C29  22300737.616      -19920.039        -363.834          22.000                                                                                                                                  
C35  22625802.952     -185966.754       -2511.379          18.000                                                                                                                                  
> 2021  5 17  8 42 33.0000000  0 20                     
G 2  21822950.506     -426966.733       -2025.820          22.000                                                                  
G 6  20698302.043     -126331.230        -552.683          29.000                                                                  
G 9  23533405.125      -10100.567       -2632.410          15.000                                                                  
G12  22377043.430     -131125.860          -0.011          17.000                                                                  
G17  21812358.934       74555.696         423.649          19.000                                                                  
G19  20435781.240      -85802.312        -341.498          20.000                                                                  
G28  22920048.141      433423.552          -0.011          17.000                                                                  
R 8  23035357.525    -1134993.399       -5472.525          17.000  
E11  26110204.896     -472481.344       -2568.303          20.000                                                                  
E12  23784298.612     -198677.817       -1044.391          27.000                                                                  
E19  25698563.797     -410904.671       -2921.347           9.000                                                                  
E24  24594232.692       -8822.392          24.289          23.000                                                                  
E31  25992139.174       17583.890        1815.090          13.000                                                                  
C 7  37341808.764        3173.872          -0.064          15.000                                                                                                                                  
C 8  36310684.818      -25220.690        -705.396          24.000                                                                                                                                  
C13  36516637.018      -56439.980        -956.899          22.000                                                                                                                                  
C19  22631414.340     -193361.133       -3162.576          16.000                                                                                                                                  
C20  23018174.705      -11858.335        -247.635          21.000                                                                                                                                  
C29  22300667.916      -20283.511        -362.449          20.000                                                                                                                                  
C35  22625322.918     -188480.987       -2515.532          24.000                                                                                                                                  
> 2021  5 17  8 42 34.0000000  0 20                     
G 2  21822567.744     -428991.315       -2022.852          25.000                                                                  
G 6  20698196.907     -126886.188        -557.355          24.000                                                                  
G 9  23532899.675      -12735.972       -2636.491          17.000                                                                  
G12  22376453.475     -134226.423          -0.011          19.000                                                                  
G17  21812441.059       74979.573         422.087          20.000                                                                  
G19  20435710.244      -86142.322        -340.410          19.000                                                                  
G28  22920453.594      435554.212          -0.011          17.000                                                                  
R 8  23034334.309    -1140465.479       -5473.658          17.000  
E11  26109716.796     -475048.429       -2566.568          19.000                                                                  
E12  23784099.784     -199723.450       -1046.632          20.000                                                                  
E19  25698007.884     -413825.995       -2920.999          10.000                                                                  
E24  24594237.338       -8797.992          24.421          20.000                                                                  
E31  25992484.719       19399.504        1815.711          11.000                                                                  
C 7  37341850.284        3389.963          -0.064          16.000                                                                                                                                  
C 8  36310548.523      -25925.391        -703.799          22.000                                                                                                                                  
C13  36516454.249      -57396.677        -957.660          18.000                                                                                                                                  
C19  22630805.891     -196524.262       -3164.140          17.000                                                                                                                                  
C20  23018127.563      -12105.468        -246.631          21.000                                                                                                                                  
C29  22300598.271      -20646.300        -361.513          20.000                                                                                                                                  
C35  22624839.009     -190997.643       -2517.068          23.000                                                                                                                                  
> 2021  5 17  8 42 35.0000000  0 20                     
G 2  21822184.049     -431014.335       -2022.598          21.000                                                                  
G 6  20698091.766     -127444.851        -558.262          25.000                                                                  
G 9  23532389.143      -15371.211       -2634.503          17.000                                                                  
G12  22375864.767     -137327.214       -3100.180          18.000                                                                  
G17  21812521.697       75403.288         424.636          19.000                                                                  
G19  20435646.399      -86482.649        -339.079          20.000                                                                  
G28  22920861.681      437685.979        2132.680          18.000                                                                  
R 8  23033317.263    -1145936.948       -5471.881          19.000  
E11  26109228.461     -477612.854       -2564.128          19.000                                                                  
E12  23783901.449     -200767.400       -1044.906          20.000                                                                  
E19  25697452.042     -416746.910       -2920.581           9.000                                                                  
E24  24594241.486       -8773.332          25.556          20.000                                                                  
E31  25992830.329       21215.624        1816.878          13.000                                                                  
C 7  37341891.250        3605.823         214.054          16.000                                                                                                                                  
C 8  36310413.528      -26628.516        -702.155          17.000                                                                                                                                  
C13  36516270.283      -58353.606        -956.380          21.000                                                                                                                                  
C19  22630198.204     -199688.170       -3165.202          17.000                                                                                                                                  
C20  23018079.998      -12353.344        -247.603          17.000                                                                                                                                  
C29  22300528.836      -21008.179        -363.765          17.000                                                                                                                                  
C35  22624356.135     -193512.519       -2512.555          20.000                                                                                                                                  
> 2021  5 17  8 42 36.0000000  0 21                     
G 2  21821797.971     -433037.506       -2022.595          18.000                                                                  
G 6  20697987.101     -128001.037        -556.470          24.000                                                                  
G 9  23531880.448      -18004.515       -2632.377          18.000                                                                  
G12  22375271.759     -140426.962       -3100.102          15.000                                                                  
G17  21812601.962       75828.393         424.406          18.000                                                                  
G19  20435582.052      -86821.131        -340.874          17.000                                                                  
G28  22921267.642      439819.313        2133.745          17.000                                                                  
R 8  23032290.841    -1151408.950       -5472.300          20.000  
E11  26108740.932     -480176.205       -2562.655          18.000                                                                  
E12  23783703.027     -201812.562       -1048.182          17.000                                                                  
E19  25696896.288     -419667.422       -2920.657          12.000                                                                  
E24  24594246.765       -8746.533          28.319          20.000                                                                  
E31  25993188.582       23033.087        1816.679          15.000                                                                  
C 7  37341932.303        3819.366         213.306          15.000                                                                                                                                  
C 8  36310278.869      -27329.816        -702.114          17.000                                                                                                                                  
C10  36218620.344        -703.478        -172.186          17.000                                                                                                                                  
C13  36516087.933      -59308.853        -955.128          19.000                                                                                                                                  
C19  22629590.671     -202851.930       -3163.388          17.000                                                                                                                                  
C20  23018032.451      -12601.207        -247.369          17.000                                                                                                                                  
C29  22300459.053      -21371.661        -364.686          18.000                                                                                                                                  
C35  22623873.383     -196026.436       -2515.758          19.000                                                                                                                                  
> 2021  5 17  8 42 37.0000000  0 21                     
G 2  21821414.856     -435061.571       -2024.535          22.000                                                                  
G 6  20697881.049     -128558.273        -557.409          24.000                                                                  
G 9  23531372.816      -20637.317       -2635.571          18.000                                                                  
G12  22374681.530     -143528.594       -3102.234          16.000                                                                  
G17  21812682.931       76253.757         427.939          17.000                                                                  
G19  20435517.539      -87160.528        -337.865          17.000                                                                  
G28  22921673.565      441952.315        2132.452          17.000                                                                  
R 8  23031281.669    -1156879.707       -5467.273          20.000  
E11  26108253.295     -482737.219       -2560.776          19.000                                                                  
E12  23783504.029     -202858.380       -1046.168          18.000                                                                  
E19  25696340.502     -422588.146       -2920.403          12.000                                                                  
E24  24594261.505       -8718.471          26.793          20.000                                                                  
E31  25993534.502       24850.607        1817.568          16.000                                                                  
C 7  37341973.291        4032.553         212.815          16.000                                                                                                                                  
C 8  36310143.604      -28034.765        -706.601          18.000                                                                                                                                  
C10  36218584.123        -872.037        -165.853          17.000                                                                                                                                  
C13  36515904.155      -60266.250        -957.397          17.000                                                                                                                                  
C19  22628983.288     -206014.911       -3162.885          17.000                                                                                                                                  
C20  23017995.727      -12846.560        -242.602          20.000                                                                                                                                  
C29  22300395.866      -21735.739        -363.810          18.000                                                                                                                                  
C35  22623390.482     -198542.780       -2518.575          17.000                                                                                                                                  
> 2021  5 17  8 42 38.0000000  0 20                     
G 2  21821029.429     -437084.557       -2022.836          23.000                                                                  
G 6  20697776.366     -129115.238        -559.090          25.000                                                                  
G 9  23530871.493      -23271.727       -2634.290          17.000                                                                  
G12  22374091.401     -146629.746       -3099.437          17.000                                                                  
G17  21812764.497       76682.231         428.513          20.000                                                                  
G19  20435447.058      -87498.946        -337.893          19.000                                                                  
G28  22922080.587      444085.445        2132.800          17.000                                                                  
R 8  23030267.069    -1162347.457       -5467.017          20.000  
E11  26107766.313     -485297.465       -2561.684          20.000                                                                  
E12  23783305.149     -203901.413       -1043.705          18.000                                                                  
E19  25695784.800     -425508.314       -2919.877          12.000                                                                  
E24  24594267.469       -8689.696          29.240          20.000                                                                  
C 7  37342013.236        4245.531         212.516          17.000                                                                                                                                  
C 8  36310006.868      -28739.613        -705.871          19.000                                                                                                                                  
C10  36218552.953       -1039.413        -166.872          20.000                                                                                                                                  
C13  36515720.513      -61222.654        -955.978          17.000                                                                                                                                  
C19  22628373.848     -209176.290       -3160.442          17.000                                                                                                                                  
C20  23017949.549      -13088.035        -243.069          17.000                                                                                                                                  
C29  22300328.015      -22098.596        -361.026          18.000                                                                                                                                  
C35  22622907.552     -201058.432       -2516.601          18.000                                                                                                                                  
> 2021  5 17  8 42 39.0000000  0 21                     
G 2  21820643.936     -439106.991       -2020.686          22.000                                                                  
G 6  20697670.371     -129673.587        -558.975          23.000                                                                  
G 9  23530369.171      -25904.202          -0.004          17.000                                                                  
G12  22373506.943     -149729.275       -3100.324          16.000                                                                  
G17  21812856.534       77111.189         429.608          18.000                                                                  
G19  20435387.091      -87836.277        -337.059          20.000                                                                  
G28  22922486.619      446218.701        2135.085          18.000                                                                  
R 8  23029238.327    -1167814.675       -5467.404          20.000  
E11  26107278.697     -487859.584       -2561.124          20.000                                                                  
E12  23783106.744     -204944.095       -1042.430          16.000                                                                  
E19  25695229.237     -428427.886       -2919.431          12.000                                                                  
E24  24594266.994       -8660.082          32.033          20.000                                                                  
C 7  37342053.931        4457.273         212.694          17.000                                                                                                                                  
C 8  36309872.266      -29445.644        -707.035          19.000                                                                                                                                  
C10  36218523.197       -1205.285        -168.341          20.000                                                                                                                                  
C13  36515538.920      -62178.419        -956.781          17.000                                                                                                                                  
C19  22627764.887     -212336.955       -3161.173          20.000                                                                                                                                  
C20  23017902.077      -13329.846        -241.114          18.000                                                                                                                                  
C26  25172394.031         370.016         176.762          22.000                                                                                                                                  
C29  22300258.759      -22459.531        -361.065          17.000                                                                                                                                  
C35  22622424.254     -203575.641       -2517.436          17.000                                                                                                                                  
> 2021  5 17  8 42 40.0000000  0 21                     
G 2  21820259.573     -441127.395       -2021.328          21.000                                                                  
G 6  20697566.674     -130231.562        -556.078          25.000                                                                  
G 9  23529867.268      -28534.140       -2629.862          19.000                                                                  
G12  22372917.301     -152828.256       -3097.697          17.000                                                                  
G17  21812941.495       77541.831         431.783          21.000                                                                  
G19  20435321.597      -88170.209        -332.470          18.000                                                                  
G28  22922893.060      448354.493        2135.222          17.000                                                                  
R 8  23028215.727    -1173282.166       -5467.946          19.000  
E11  26106791.915     -490420.655       -2561.696          24.000                                                                  
E12  23782909.095     -205983.101       -1041.239          17.000                                                                  
E19  25694673.704     -431347.237       -2918.881          12.000                                                                  
E24  24594273.537       -8629.233          33.384          19.000                                                                  
C 7  37342095.411        4670.082         213.170          17.000                                                                                                                                  
C 8  36309736.381      -30153.412        -707.972          17.000                                                                                                                                  
C10  36218491.723       -1374.490        -169.897          18.000                                                                                                                                  
C13  36515355.815      -63136.154        -957.975          17.000                                                                                                                                  
C19  22627154.073     -215497.837       -3160.526          18.000                                                                                                                                  
C20  23017856.396      -13571.809        -241.371          19.000                                                                                                                                  
C26  25172432.343         546.406         178.499          20.000                                                                                                                                  
C29  22300188.613      -22819.270        -359.290          16.000                                                                                                                                  
C35  22621940.860     -206093.055       -2518.164          17.000                                                                                                                                  
> 2021  5 17  8 42 41.0000000  0 20                     
G 2  21819875.542     -443148.902       -2020.482          22.000                                                                  
G 6  20697460.582     -130787.737        -552.692          23.000                                                                  
G 9  23529366.068      -31162.398       -2628.271          20.000                                                                  
G12  22372337.721     -155924.917       -3096.333          14.000                                                                  
G17  21813022.577       77973.737         431.590          20.000                                                                  
G19  20435269.321      -88502.871        -332.761          17.000                                                                  
G28  22923298.516      450489.707        2136.892          16.000                                                                  
R 8  23027194.788    -1178750.396       -5465.294          20.000  
E11  26106304.547     -492982.552       -2562.010          19.000                                                                  
E12  23782712.047     -207026.346       -1042.632          16.000                                                                  
E19  25694118.268     -434266.031       -2918.187          12.000                                                                  
E24  24594279.583       -8597.015          30.485          18.000                                                                  
C 7  37342131.356        4883.813         215.460          18.000                                                                                                                                  
C 8  36309600.606      -30860.581        -707.622          17.000                                                                                                                                  
C10  36218459.703       -1541.417        -166.416          19.000                                                                                                                                  
C13  36515173.346      -64093.637        -958.192          17.000                                                                                                                                  
C19  22626549.369     -218660.040       -3161.766          17.000                                                                                                                                  
C20  23017810.965      -13812.344        -241.147          19.000                                                                                                                                  
C29  22300119.528      -23179.186        -360.948          17.000                                                                                                                                  
C35  22621456.306     -208609.991       -2514.711          19.000                                                                                                                                  
> 2021  5 17  8 42 42.0000000  0 20                     
G 2  21819490.218     -445170.705       -2021.185          25.000                                                                  
G 6  20697354.609     -131339.569        -552.945          24.000                                                                  
G 9  23528870.508      -33791.566       -2630.482          18.000                                                                  
G12  22371748.478     -159021.638       -3097.558          17.000                                                                  
G17  21813104.550       78404.522         431.240          19.000                                                                  
G19  20435211.610      -88834.389        -332.562          18.000                                                                  
G28  22923705.145      452626.480        2136.239          16.000                                                                  
R 8  23026171.586    -1184216.335       -5467.872          19.000  
E11  26105816.705     -495545.468       -2563.508          19.000                                                                  
E12  23782514.314     -208065.800       -1038.462          16.000                                                                  
E19  25693560.795     -437183.178       -2917.388          12.000                                                                  
E24  24594284.522       -8568.423          32.036          17.000                                                                  
C 7  37342173.343        5100.059         217.374          16.000                                                                                                                                  
C 8  36309463.224      -31567.490        -706.856          17.000                                                                                                                                  
C10  36218428.289       -1707.068        -166.050          18.000                                                                                                                                  
C13  36514989.363      -65051.918        -956.644          16.000                                                                                                                                  
C19  22625942.398     -221820.860       -3160.121          16.000                                                                                                                                  
C20  23017764.037      -14053.104        -239.050          19.000                                                                                                                                  
C29  22300050.682      -23539.139        -359.737          17.000                                                                                                                                  
C35  22620970.522     -211124.224       -2514.294          19.000                                                                                                                                  
> 2021  5 17  8 42 43.0000000  0 20                     
G 2  21819108.014     -447188.236       -2017.337          25.000                                                                  
G 6  20697249.420     -131893.093        -554.339          23.000                                                                  
G 9  23528369.744      -36419.383       -2627.408          18.000                                                                  
G12  22371159.081     -162119.402       -3097.512          17.000                                                                  
G17  21813181.647       78836.318         431.676          21.000                                                                  
G19  20435146.037      -89167.938        -334.260          18.000                                                                  
G28  22924118.842      454763.268        2138.391          18.000                                                                  
R 8  23025150.116    -1189686.573       -5473.434          18.000  
E11  26105329.477     -498108.947       -2561.951          17.000                                                                  
E12  23782318.431     -209104.651       -1038.541          20.000                                                                  
E19  25693005.624     -440100.730       -2917.507          12.000                                                                  
E24  24594290.690       -8538.450          30.545          19.000                                                                  
C 7  37342215.212        5318.012         217.186          16.000                                                                                                                                  
C 8  36309327.645      -32274.961        -708.330          20.000                                                                                                                                  
C10  36218396.501       -1872.638        -165.523          19.000                                                                                                                                  
C13  36514805.900      -66007.317        -954.162          19.000                                                                                                                                  
C19  22625335.510     -224981.218       -3160.266          18.000                                                                                                                                  
C20  23017715.599      -14293.009        -240.392          23.000                                                                                                                                  
C29  22299980.192      -23898.848        -360.862          20.000                                                                                                                                  
C35  22620491.282     -213638.352       -2513.592          23.000                                                                                                                                  
> 2021  5 17  8 42 44.0000000  0 20                     
G 2  21818722.290     -449206.242       -2017.715          24.000                                                                  
G 6  20697144.100     -132446.520        -552.501          20.000                                                                  
G 9  23527869.721      -39047.371       -2628.614          18.000                                                                  
G12  22370561.801     -165216.089          -0.011          16.000                                                                  
G17  21813272.764       79269.252         433.634          21.000                                                                  
G19  20435083.417      -89500.564        -331.731          19.000                                                                  
G28  22924525.776      456901.444        2138.870          17.000                                                                  
R 8  23024129.483    -1195159.707       -5472.627          16.000  
E11  26104842.376     -500668.761       -2558.905          28.000                                                                  
E12  23782121.025     -210142.906       -1036.811          18.000                                                                  
E19  25692450.502     -443017.881       -2917.107          12.000                                                                  
E24  24594298.142       -8506.999          34.068          20.000                                                                  
C 7  37342256.762        5534.232         216.031          16.000                                                                                                                                  
C 8  36309191.629      -32983.493        -708.577          18.000                                                                                                                                  
C10  36218365.188       -2035.798        -161.647          18.000                                                                                                                                  
C13  36514622.982      -66961.601        -953.396          17.000                                                                                                                                  
C19  22624735.074     -228140.194       -3156.924          20.000                                                                                                                                  
C20  23017668.021      -14532.960        -240.117          21.000                                                                                                                                  
C29  22299911.137      -24258.624        -359.542          17.000                                                                                                                                  
C35  22620008.839     -216152.246       -2513.250          25.000                                                                                                                                  
> 2021  5 17  8 42 45.0000000  0 22                     
G 2  21818339.336     -451223.970       -2017.390          21.000                                                                  
G 6  20697040.072     -132998.003        -551.444          24.000                                                                  
G 9  23527372.931      -41676.521       -2629.885          17.000                                                                  
G12  22369973.033     -168310.330          -0.011          15.000                                                                  
G17  21813355.216       79702.304         432.623          18.000                                                                  
G19  20435020.423      -89831.646        -328.618          17.000                                                                  
G28  22924932.720      459039.765        2137.533          17.000                                                                  
R 8  23023108.205    -1200630.397       -5470.269          19.000  
E11  26104355.799     -503226.630       -2557.791          28.000                                                                  
E12  23781924.409     -211182.009       -1040.879          18.000                                                                  
E19  25691895.423     -445934.877       -2916.721          12.000                                                                  
E24  24594304.655       -8474.120          32.593          17.000                                                                  
E31  25996170.401        1447.961        1822.033          18.000                                                                  
C 7  37342299.298        5751.059         218.144          17.000                                                                                                                                  
C 8  36309055.945      -33692.516        -707.645          17.000                                                                                                                                  
C10  36218334.713       -2195.266        -159.321          18.000                                                                                                                                  
C13  36514440.099      -67914.145        -951.540          22.000                                                                                                                                  
C19  22624127.709     -231296.746       -3156.316          19.000                                                                                                                                  
C20  23017622.742      -14771.491        -237.637          18.000                                                                                                                                  
C26  25172606.775         462.174         181.412          22.000                                                                                                                                  
C29  22299842.321      -24617.241        -357.999          19.000                                                                                                                                  
C35  22619524.774     -218663.267       -2510.291          25.000                                                                                                                                  
> 2021  5 17  8 42 46.0000000  0 21                     
G 2  21817954.328     -453241.826       -2019.297          20.000                                                                  
G 6  20696935.424     -133549.170        -551.006          22.000                                                                  
G 9  23526870.343      -44303.569          -0.004          17.000                                                                  
G12  22369386.050     -171403.677       -3092.498          13.000                                                                  
G17  21813438.453       80135.640         433.783          17.000                                                                  
G19  20434957.572      -90162.115        -331.303          18.000                                                                  
G28  22925348.366      461178.951        2140.505          18.000                                                                  
R 8  23022088.815    -1206100.790       -5471.525          18.000  
E11  26103869.775     -505784.350       -2558.290          25.000                                                                  
E12  23781725.241     -212222.148       -1041.488          18.000                                                                  
E19  25691340.483     -448851.146       -2915.592          12.000                                                                  
E24  24594310.941       -8439.460          36.880          20.000                                                                  
C 7  37342341.158        5968.777         215.709          17.000                                                                                                                                  
C 8  36308920.300      -34398.894        -705.864          17.000                                                                                                                                  
C10  36218303.251       -2355.429        -159.576          20.000                                                                                                                                  
C13  36514255.867      -68865.573        -952.026          21.000                                                                                                                                  
C19  22623521.366     -234454.406       -3159.017          17.000                                                                                                                                  
C20  23017577.224      -15009.539        -236.372          19.000                                                                                                                                  
C26  25172653.084         642.767         179.340          25.000                                                                                                                                  
C29  22299775.688      -24974.948        -357.220          16.000                                                                                                                                  
C35  22619042.306     -221175.516       -2513.122          24.000                                                                                                                                  
> 2021  5 17  8 42 47.0000000  0 21                     
G 2  21817567.601     -455261.298       -2019.579          21.000                                                                  
G 6  20696830.249     -134099.285        -548.086          22.000                                                                  
G 9  23526377.343      -46928.152          -0.004          17.000                                                                  
G12  22368797.727     -174495.445       -3090.476          15.000                                                                  
G17  21813520.958       80569.050         433.573          17.000                                                                  
G19  20434894.185      -90493.605        -332.711          17.000                                                                  
G28  22925746.410      463319.284        2141.002          19.000                                                                  
R 8  23021072.061    -1211570.374       -5468.018          19.000  
E11  26103383.250     -508343.933       -2559.853          21.000                                                                  
E12  23781525.916     -213261.539       -1036.667          17.000                                                                  
E19  25690785.732     -451766.396       -2914.444          12.000                                                                  
E24  24594318.230       -8401.493          37.157          19.000                                                                  
C 7  37342383.420        6184.353         216.363          18.000                                                                                                                                  
C 8  36308784.681      -35104.730        -706.713          17.000                                                                                                                                  
C10  36218272.492       -2516.052        -160.664          22.000                                                                                                                                  
C13  36514077.430      -69817.900        -953.002          20.000                                                                                                                                  
C19  22622914.870     -237612.822       -3157.904          17.000                                                                                                                                  
C20  23017532.272      -15245.271        -236.106          18.000                                                                                                                                  
C26  25172685.515         821.363         177.756          22.000                                                                                                                                  
C29  22299707.357      -25331.705        -356.188          19.000                                                                                                                                  
C35  22618559.261     -223689.429       -2513.054          23.000                                                                                                                                  
> 2021  5 17  8 42 48.0000000  0 22                     
G 2  21817184.651     -457279.057       -2017.206          20.000                                                                  
G 6  20696726.024     -134648.721        -551.335          22.000                                                                  
G 9  23525877.818      -49553.491          -0.004          17.000                                                                  
G12  22368209.481     -177586.773       -3091.168          16.000                                                                  
G17  21813599.515       81004.102         435.304          17.000                                                                  
G19  20434836.535      -90825.627        -331.280          17.000                                                                  
G28  22926149.894      465461.096        2144.624          21.000                                                                  
R 8  23020050.970    -1217037.396       -5465.494          21.000  
E11  26102896.831     -510904.134       -2557.851          20.000                                                                  
E12  23781328.768     -214297.911       -1035.940          16.000                                                                  
E19  25690231.234     -454680.254       -2913.234          12.000                                                                  
E24  24594325.005       -8363.765          37.487          18.000                                                                  
E31  25997220.974        6927.036        1828.163          24.000                                                                  
C 7  37342427.405        6403.389         220.243          18.000                                                                                                                                  
C 8  36308649.303      -35809.849        -703.577          16.000                                                                                                                                  
C10  36218242.033       -2676.852        -162.543          20.000                                                                                                                                  
C13  36513893.792      -70772.265        -954.174          21.000                                                                                                                                  
C19  22622307.934     -240768.618       -3153.257          16.000                                                                                                                                  
C20  23017486.972      -15481.460        -236.409          17.000                                                                                                                                  
C26  25172720.197        1000.193         178.790          24.000                                                                                                                                  
C29  22299639.031      -25687.603        -355.673          17.000                                                                                                                                  
C35  22618077.228     -226201.884       -2513.445          23.000                                                                                                                                  
> 2021  5 17  8 42 49.0000000  0 22                     
G 2  21816799.163     -459299.099       -2022.622          22.000                                                                  
G 6  20696620.744     -135200.003        -550.295          22.000                                                                  
G 9  23525377.952      -52180.610          -0.004          17.000                                                                  
G12  22367624.094     -180677.314       -3091.531          15.000                                                                  
G17  21813689.257       81439.292         435.666          19.000                                                                  
G19  20434781.497      -91156.715        -331.905          19.000                                                                  
G28  22926561.213      467603.568        2140.986          20.000                                                                  
R 8  23019029.984    -1222505.012       -5468.551          18.000  
E11  26102410.515     -513461.927       -2555.974          22.000                                                                  
E12  23781136.202     -215333.961       -1037.036          12.000                                                                  
E19  25689676.896     -457593.340       -2912.927          12.000                                                                  
E24  24594335.253       -8327.562          36.055          21.000                                                                  
E31  25997564.176        8753.646        1827.685          20.000                                                                  
C 7  37342469.871        6624.351         221.169          17.000                                                                                                                                  
C 8  36308514.351      -36512.790        -702.339          16.000                                                                                                                                  
C10  36218211.161       -2836.928        -159.241          18.000                                                                                                                                  
C13  36513709.448      -71726.275        -953.007          20.000                                                                                                                                  
C19  22621707.122     -243923.159       -3155.437          19.000                                                                                                                                  
C20  23017443.285      -15715.914        -233.031          18.000                                                                                                                                  
C26  25172754.487        1181.437         181.977          20.000                                                                                                                                  
C29  22299570.983      -26042.102        -353.841          18.000                                                                                                                                  
C35  22617595.044     -228714.980       -2511.154          21.000                                                                                                                                  
> 2021  5 17  8 42 50.0000000  0 22                     
G 2  21816414.730     -461318.796       -2015.658          22.000                                                                  
G 6  20696516.929     -135751.741        -551.487          24.000                                                                  
G 9  23524880.416      -54807.639          -0.004          16.000                                                                  
G12  22367035.920     -183768.462       -3091.641          15.000                                                                  
G17  21813772.006       81874.128         434.609          20.000                                                                  
G19  20434709.158      -91488.349        -330.316          18.000                                                                  
G28  22926975.211      469745.225        2143.543          22.000                                                                  
R 8  23018008.806    -1227973.799       -5467.447          18.000  
E11  26101923.737     -516018.806       -2554.640          19.000                                                                  
E12  23780938.884     -216370.889       -1037.433          14.000                                                                  
E19  25689122.529     -460506.530       -2912.318          12.000                                                                  
E24  24594342.412       -8290.469          37.569          20.000                                                                  
E31  25997911.401       10581.727        1830.228          24.000                                                                  
C 7  37342512.072        6844.937         220.707          17.000                                                                                                                                  
C 8  36308380.713      -37216.216        -704.757          17.000                                                                                                                                  
C10  36218180.506       -2998.097        -161.148          19.000                                                                                                                                  
C13  36513527.254      -72680.865        -953.659          20.000                                                                                                                                  
C19  22621106.900     -247077.232       -3153.800          17.000                                                                                                                                  
C20  23017398.757      -15948.028        -232.330          18.000                                                                                                                                  
C26  25172788.354        1362.140         180.294          23.000                                                                                                                                  
C29  22299498.482      -26397.533        -356.394          19.000                                                                                                                                  
C35  22617112.741     -231225.768       -2511.046          22.000                                                                                                                                  
> 2021  5 17  8 42 51.0000000  0 22                     
G 2  21816030.895     -463335.280       -2016.535          21.000                                                                  
G 6  20696410.528     -136302.446        -550.522          23.000                                                                  
G 9  23524380.816      -57433.339          -0.004          16.000                                                                  
G12  22366447.675     -186859.933          -0.011          16.000                                                                  
G17  21813854.709       82308.490         435.564          19.000                                                                  
G19  20434641.465      -91817.151        -328.848          19.000                                                                  
G28  22927385.498      471889.531        2143.069          20.000                                                                  
R 8  23016988.126    -1233441.832       -5466.521          18.000  
E11  26101437.801     -518572.243       -2555.714          15.000                                                                  
E12  23780741.426     -217408.613       -1037.936          12.000                                                                  
E19  25688568.445     -463418.223       -2911.091          11.000                                                                  
E24  24594348.885       -8254.307          36.130          22.000                                                                  
E31  25998258.891       12410.866        1827.512          19.000                                                                  
C 7  37342554.333        7064.883         218.347          16.000                                                                                                                                  
C 8  36308243.999      -37920.511        -704.668          16.000                                                                                                                                  
C10  36218149.679       -3157.836        -160.254          20.000                                                                                                                                  
C13  36513344.681      -73633.243        -949.821          19.000                                                                                                                                  
C19  22620501.787     -250228.499       -3150.602          17.000                                                                                                                                  
C20  23017356.545      -16181.413        -233.993          19.000                                                                                                                                  
C26  25172822.953        1541.976         180.314          20.000                                                                                                                                  
C29  22299430.573      -26754.577        -355.189          20.000                                                                                                                                  
C35  22616630.325     -233737.708       -2510.489          24.000                                                                                                                                  
> 2021  5 17  8 42 52.0000000  0 21                     
G 2  21815648.072     -465351.692       -2016.782          25.000                                                                  
G 6  20696305.501     -136852.606        -550.180          20.000                                                                  
G12  22365859.775     -189949.251          -0.011          15.000                                                                  
G17  21813937.292       82746.555         437.172          18.000                                                                  
G19  20434572.686      -92145.649        -327.670          18.000                                                                  
G28  22927792.428      474032.028        2142.947          19.000                                                                  
R 8  23015967.554    -1238908.571       -5466.294          18.000  
E11  26100951.394     -521128.698       -2555.972          17.000                                                                  
E12  23780543.854     -218446.815       -1038.464          15.000                                                                  
E19  25688014.500     -466329.243       -2910.737          11.000                                                                  
E24  24594355.290       -8216.900          38.729          21.000                                                                  
E31  25998606.975       14239.312        1826.622          23.000                                                                  
C 7  37342596.424        7283.725         218.429          16.000                                                                                                                                  
C 8  36308108.730      -38625.049        -704.562          15.000                                                                                                                                  
C10  36218119.386       -3318.131        -160.570          21.000                                                                                                                                  
C13  36513161.623      -74584.634        -952.441          20.000                                                                                                                                  
C19  22619896.583     -253380.205       -3152.316          18.000                                                                                                                                  
C20  23017314.032      -16414.380        -235.306          17.000                                                                                                                                  
C26  25172856.933        1722.250         180.471          22.000                                                                                                                                  
C29  22299361.911      -27111.292        -358.698          18.000                                                                                                                                  
C35  22616148.563     -236248.931       -2511.073          22.000                                                                                                                                  
> 2021  5 17  8 42 53.0000000  0 21                     
G 2  21815263.208     -467369.678       -2020.338          20.000                                                                  
G 6  20696199.418     -137403.079        -551.539          21.000                                                                  
G12  22365271.931     -193038.553          -0.011          15.000                                                                  
G17  21814014.553       83185.613         438.993          19.000                                                                  
G19  20434513.870      -92474.657        -330.095          18.000                                                                  
G28  22928200.240      476174.934        2142.729          17.000                                                                  
R 8  23014946.764    -1244374.411       -5467.073          18.000  
E11  26100466.169     -523686.606       -2556.566          17.000                                                                  
E12  23780344.289     -219485.661       -1038.832          13.000                                                                  
E19  25687460.765     -469239.177       -2909.794           9.000                                                                  
E24  24594362.815       -8177.247          42.309          22.000                                                                  
E31  25998955.866       16069.806        1830.438          20.000                                                                  
C 7  37342638.390        7502.878         218.265          16.000                                                                                                                                  
C 8  36307973.447      -39329.695        -704.031          14.000                                                                                                                                  
C10  36218088.810       -3477.674        -159.911          20.000                                                                                                                                  
C13  36512978.452      -75537.646        -952.340          18.000                                                                                                                                  
C19  22619289.211     -256533.020       -3152.598          18.000                                                                                                                                  
C20  23017267.174      -16648.902        -232.875          17.000                                                                                                                                  
C26  25172891.803        1902.647         182.182          23.000                                                                                                                                  
C29  22299292.869      -27471.056        -358.587          16.000                                                                                                                                  
C35  22615666.634     -238758.776       -2508.010          20.000                                                                                                                                  
> 2021  5 17  8 42 54.0000000  0 21                     
G 2  21814879.299     -469386.622       -2013.087          31.000                                                                  
G 6  20696094.901     -137952.535        -546.528          21.000                                                                  
G12  22364691.670     -196126.776       -3088.994          16.000                                                                  
G17  21814099.558       83624.037         437.061          19.000                                                                  
G19  20434447.303      -92804.806        -329.242          18.000                                                                  
G28  22928608.099      478318.115        2144.023          20.000                                                                  
R 8  23013926.830    -1249842.952       -5469.480          18.000  
E11  26099977.693     -526245.411       -2558.238          23.000                                                                  
E12  23780146.561     -220524.750       -1038.961          16.000                                                                  
E19  25686907.022     -472149.109       -2909.713           9.000                                                                  
E24  24594370.798       -8138.122          34.688          19.000                                                                  
E31  25999303.618       17899.159        1826.136          18.000                                                                  
C 7  37342680.241        7720.722         217.406          17.000                                                                                                                                  
C 8  36307839.992      -40032.529           0.000          13.000                                                                                                                                  
C10  36218057.972       -3637.978        -160.876          20.000                                                                                                                                  
C13  36512795.171      -76490.186        -953.484          24.000                                                                                                                                  
C19  22618684.282     -259685.944       -3152.764          18.000                                                                                                                                  
C20  23017222.850      -16879.880        -229.389          20.000                                                                                                                                  
C26  25172927.497        2085.554         184.650          22.000                                                                                                                                  
C29  22299225.031      -27826.923        -356.053          17.000                                                                                                                                  
C35  22615184.747     -241268.962       -2512.036          20.000                                                                                                                                  
> 2021  5 17  8 42 55.0000000  0 21                     
G 2  21814494.142     -471403.746       -2017.486          28.000                                                                  
G 6  20695988.652     -138499.574        -548.185          22.000                                                                  
G12  22364104.137     -199214.577       -3086.643          13.000                                                                  
G17  21814190.216       84061.637         437.291          21.000                                                                  
G19  20434384.736      -93133.574        -328.692          17.000                                                                  
G28  22929012.425      480461.686        2142.478          21.000                                                                  
R 8  23012907.117    -1255312.609       -5468.157          18.000  
E11  26099487.626     -528803.505       -2560.365          18.000                                                                  
E12  23779948.793     -221564.094       -1039.904          15.000                                                                  
E19  25686353.334     -475058.745       -2909.333          10.000                                                                  
E24  24594378.481       -8100.535          40.218          18.000                                                                  
E31  25999651.484       19726.782        1829.182          20.000                                                                  
C 7  37342723.340        7938.313         217.505          16.000                                                                                                                                  
C 8  36307704.940      -40735.976           0.000          17.000                                                                                                                                  
C10  36218027.601       -3796.332        -157.282          19.000                                                                                                                                  
C13  36512611.639      -77443.281        -952.878          19.000                                                                                                                                  
C19  22618078.934     -262838.407       -3151.405          16.000                                                                                                                                  
C20  23017178.806      -17109.554        -229.912          18.000                                                                                                                                  
C26  25172962.424        2267.606         180.719          20.000                                                                                                                                  
C29  22299152.203      -28182.814        -357.575          17.000                                                                                                                                  
C35  22614702.566     -243778.811       -2509.146          27.000                                                                                                                                  
> 2021  5 17  8 42 56.0000000  0 22                     
G 2  21814108.322     -473423.318       -2020.505          28.000                                                                  
G 6  20695885.344     -139047.189        -548.159          22.000                                                                  
G 9  23522177.959       -3602.415       -2616.386          21.000                                                                  
G12  22363515.295     -202301.760          -0.011          16.000                                                                  
G17  21814273.192       84497.448         437.000          19.000                                                                  
G19  20434322.225      -93462.106        -328.230          17.000                                                                  
G28  22929420.150      482604.052        2143.672          18.000                                                                  
R 8  23011888.230    -1260780.990       -5467.822          18.000  
E11  26099003.020     -531363.508       -2561.020          19.000                                                                  
E12  23779750.834     -222604.485       -1040.663          17.000                                                                  
E19  25685799.691     -477968.140       -2909.480           9.000                                                                  
E24  24594385.474       -8058.921          40.383          19.000                                                                  
E31  25999999.206       21556.039        1832.231          23.000                                                                  
C 7  37342765.340        8156.770         218.533          16.000                                                                                                                                  
C 8  36307570.604      -41440.563        -704.400          17.000                                                                                                                                  
C10  36217997.544       -3956.387        -161.133          20.000                                                                                                                                  
C13  36512428.440      -78396.938        -954.750          24.000                                                                                                                                  
C19  22617473.878     -265989.220       -3150.628          16.000                                                                                                                                  
C20  23017135.224      -17339.056        -228.684          18.000                                                                                                                                  
C26  25172997.298        2448.088         180.600          20.000                                                                                                                                  
C29  22299084.343      -28538.811        -355.850          18.000                                                                                                                                  
C35  22614220.054     -246291.289       -2513.490          25.000                                                                                                                                  
> 2021  5 17  8 42 57.0000000  0 22                     
G 2  21813724.138     -475441.485       -2017.155          23.000                                                                  
G 6  20695781.530     -139594.246        -546.796          20.000                                                                  
G 9  23625404.337       -6217.130       -2612.642          21.000                                                                  
G12  22362927.464     -205390.877          -0.011          16.000                                                                  
G17  21814358.903       84934.057         438.197          18.000                                                                  
G19  20434259.466      -93790.584        -329.057          18.000                                                                  
G28  22929832.285      484748.979        2145.850          19.000                                                                  
R 8  23010868.849    -1266247.244       -5465.957          18.000  
E11  26098514.728     -533926.087       -2561.691          18.000                                                                  
E12  23779545.082     -223645.405       -1039.559          19.000                                                                  
E19  25685246.066     -480877.420       -2909.258           9.000                                                                  
E24  24594391.795       -8018.342          41.293          23.000                                                                  
E31  26000347.543       23385.903        1829.843          19.000                                                                  
C 7  37342807.370        8375.529         219.950          17.000                                                                                                                                  
C 8  36307435.134      -42146.107        -706.011          17.000                                                                                                                                  
C10  36217966.852       -4116.947        -159.448          17.000                                                                                                                                  
C13  36512244.048      -79350.973        -953.088          23.000                                                                                                                                  
C19  22616869.083     -269140.636       -3152.735          17.000                                                                                                                                  
C20  23017091.211      -17568.594        -229.059          19.000                                                                                                                                  
C26  25173031.470        2628.371         179.410          19.000                                                                                                                                  
C29  22299017.573      -28894.031        -354.566          19.000                                                                                                                                  
C35  22613737.624     -248803.519       -2510.379          22.000                                                                                                                                  
> 2021  5 17  8 42 58.0000000  0 22                     
G 2  21813340.360     -477459.105       -2017.462          24.000                                                                  
G 6  20695677.654     -140140.494        -546.077          23.000                                                                  
G 9  23624902.460       -8830.753       -2614.362          22.000                                                                  
G12  22362339.948     -208478.317          -0.011          15.000                                                                  
G17  21814442.313       85372.188         438.313          18.000                                                                  
G19  20434208.146      -94118.486        -328.541          18.000                                                                  
G28  22930244.843      486894.845        2147.264          20.000                                                                  
R 8  23009849.429    -1271713.029       -5465.823          19.000  
E11  26098025.085     -536487.556       -2561.563          15.000                                                                  
E12  23779347.603     -224683.549       -1036.868          16.000                                                                  
E19  25601062.690     -483786.467       -2909.114           8.000                                                                  
E24  24594400.132       -7977.871          40.945          24.000                                                                  
E31  26000695.858       25216.155        1830.574          19.000                                                                  
C 7  37342851.416        8594.898         219.171          17.000                                                                                                                                  
C 8  36307299.506      -42852.492        -704.634          16.000                                                                                                                                  
C10  36217935.866       -4278.623        -162.849          16.000                                                                                                                                  
C13  36512060.781      -80304.900        -954.431          20.000                                                                                                                                  
C19  22616264.856     -272293.061       -3151.391          18.000                                                                                                                                  
C20  23017045.548      -17798.015        -230.443          20.000                                                                                                                                  
C26  25173066.493        2809.137         181.575          22.000                                                                                                                                  
C29  22298949.849      -29250.048        -355.606          20.000                                                                                                                                  
C35  22613255.518     -251315.095       -2512.880          20.000                                                                                                                                  
> 2021  5 17  8 42 59.0000000  0 22                     
G 2  21812957.074     -479477.013       -2018.404          26.000                                                                  
G 6  20695574.441     -140687.669        -546.971          22.000                                                                  
G 9  23624408.161      -11445.906       -2616.438          20.000                                                                  
G12  22361744.563     -211566.471       -3085.975          15.000                                                                  
G17  21814527.287       85812.212         437.229          19.000                                                                  
G19  20434149.444      -94446.939        -328.451          19.000                                                                  
G28  22930656.757      489042.715        2147.653          20.000                                                                  
R 8  23008828.474    -1277181.301       -5467.918          20.000  
E11  26097537.989     -539047.452       -2557.490          14.000                                                                  
E12  23779147.680     -225720.498       -1036.925          17.000                                                                  
E19  25684137.854     -486695.407       -2908.741          11.000                                                                  
E24  24594409.354       -7934.842          41.823          25.000                                                                  
E31  26001044.579       27047.378        1829.370          18.000                                                                  
C 7  37342893.625        8814.656         219.913          16.000                                                                                                                                  
C 8  36307163.395      -43558.184        -707.406          17.000                                                                                                                                  
C10  36217904.570       -4441.725        -163.093          17.000                                                                                                                                  
C13  36511877.902      -81258.753        -954.047          22.000                                                                                                                                  
C19  22615659.656     -275444.816       -3151.582          19.000                                                                                                                                  
C20  23017000.810      -18028.639        -229.566          20.000                                                                                                                                  
C26  25173100.677        2989.298         182.093          22.000                                                                                                                                  
C29  22298883.966      -29604.203        -352.296          18.000                                                                                                                                  
C35  22612773.477     -253826.063       -2509.062          20.000                                                                                                                                  
> 2021  5 17  8 43  0.0000000  0 22                     
G 2  21812574.762     -481493.538       -2015.254          22.000                                                                  
G 6  20695469.423     -141235.961        -549.102          21.000                                                                  
G 9  23623909.792      -14061.049       -2616.208          28.000                                                                  
G12  22361157.427     -214651.905       -3086.749          15.000                                                                  
G17  21814610.494       86249.331         437.456          19.000                                                                  
G19  20434070.430      -94775.110        -328.267          18.000                                                                  
G28  22931066.693      491189.921        2146.969          17.000                                                                  
R 8  23007809.442    -1282649.514       -5467.409          21.000  
E11  26097063.168     -541607.049       -2559.115          17.000                                                                  
E12  23778950.069     -226759.317       -1039.817          17.000                                                                  
E19  25683584.359     -489603.995       -2908.392          11.000                                                                  
E24  24594417.547       -7892.694          42.179          23.000                                                                  
E31  26001393.112       28878.309        1830.562          18.000                                                                  
C 7  37342935.786        9034.051         218.924          16.000                                                                                                                                  
C 8  36307028.134      -44265.071        -705.854          17.000                                                                                                                                  
C10  36217875.983       -4605.247           0.007          16.000                                                                                                                                  
C13  36511694.975      -82211.532        -952.265          24.000                                                                                                                                  
C19  22615060.525     -278595.458       -3150.001          20.000                                                                                                                                  
C20  23016956.591      -18259.203        -231.856          19.000                                                                                                                                  
C26  25173136.363        3174.727         189.950          19.000                                                                                                                                  
C29  22298816.494      -29955.739        -352.270          17.000                                                                                                                                  
C35  22612291.300     -256336.432       -2512.443          22.000                                                                                                                                  
> 2021  5 17  8 43  1.0000000  0 22                     
G 2  21812192.353     -483508.825       -2013.640          29.000                                                                  
G 6  20695365.316     -141784.643        -547.809          24.000                                                                  
G 9  23623412.129      -16675.442       -2613.172          29.000                                                                  
G12  22360570.238     -217737.818       -3085.699          13.000                                                                  
G17  21814692.187       86686.287         436.376          19.000                                                                  
G19  20434004.609      -95104.376        -329.284          18.000                                                                  
G28  22931474.958      493335.361        2146.014          17.000                                                                  
R 8  23006788.975    -1288117.795       -5468.929          18.000  
E11  26096576.120     -544166.494       -2559.838          15.000                                                                  
E12  23778752.232     -227799.797       -1038.988          18.000                                                                  
E19  25683030.974     -492512.080       -2908.025           9.000                                                                  
E24  24594425.229       -7849.077          43.088          20.000                                                                  
E31  26001741.449       30707.491        1825.029          16.000                                                                  
C 7  37342978.405        9252.914         218.722          16.000                                                                                                                                  
C 8  36306892.720      -44970.401        -706.062          16.000                                                                                                                                  
C10  36217844.761       -4768.221           0.007          17.000                                                                                                                                  
C13  36511512.113      -83164.548        -954.222          20.000                                                                                                                                  
C19  22614455.838     -281744.489       -3147.503          19.000                                                                                                                                  
C20  23016911.783      -18489.659        -229.285          19.000                                                                                                                                  
C26  25173172.572        3362.651         185.047          20.000                                                                                                                                  
C29  22298749.023      -30307.273        -351.659          18.000                                                                                                                                  
C35  22611808.622     -258848.334       -2512.394          24.000                                                                                                                                  
> 2021  5 17  8 43  2.0000000  0 22                     
G 2  21811810.630     -485524.837       -2015.985          23.000                                                                  
G 6  20695260.809     -142332.010        -547.554          23.000                                                                  
G 9  23622913.633      -19287.834       -2612.604          22.000                                                                  
G12  22359983.114     -220823.135          -0.011          15.000                                                                  
G17  21814774.297       87121.725         435.784          18.000                                                                  
G19  20433946.644      -95433.666        -329.380          17.000                                                                  
G28  22931883.045      495479.809        2143.142          17.000                                                                  
R 8  23005768.277    -1293585.596       -5465.795          17.000  
E11  26096088.988     -546726.424       -2559.930          15.000                                                                  
E12  23778554.285     -228840.375       -1041.989          18.000                                                                  
E19  25682477.661     -495419.784       -2907.067          10.000                                                                  
E24  24594433.837       -7805.525          43.035          24.000                                                                  
E31  26002088.603       32531.534        1824.724          15.000                                                                  
C 7  37343020.763        9473.356         220.905          16.000                                                                                                                                  
C 8  36306757.568      -45674.281        -703.945          16.000                                                                                                                                  
C10  36217814.316       -4931.058        -162.469          17.000                                                                                                                                  
C13  36511328.241      -84120.959        -959.008          17.000                                                                                                                                  
C19  22613853.941     -284892.424       -3148.443          18.000                                                                                                                                  
C20  23016868.633      -18717.866        -228.046          19.000                                                                                                                                  
C26  25173208.009        3548.065         184.121          18.000                                                                                                                                  
C29  22298682.211      -30659.341        -351.740          18.000                                                                                                                                  
C35  22611326.412     -261360.280       -2511.600          22.000                                                                                                                                  
> 2021  5 17  8 43  3.0000000  0 22                     
G 2  21811427.606     -487541.771       -2017.020          24.000                                                                  
G 6  20695155.820     -142880.458        -549.564          22.000                                                                  
G 9  23622417.375      -21902.249       -2613.060          23.000                                                                  
G12  22359396.100     -223907.893          -0.011          16.000                                                                  
G17  21814856.767       87557.426         435.869          18.000                                                                  
G19  20433887.205      -95760.804        -325.034          18.000                                                                  
G28  22932296.480      497621.893        2141.854          19.000                                                                  
R 8  23004747.766    -1299050.786       -5464.455          17.000  
E11  26095601.804     -549286.559       -2560.052          15.000                                                                  
E12  23778356.116     -229882.952       -1042.995          18.000                                                                  
E19  25681924.533     -498326.449       -2906.573           9.000                                                                  
E24  24594442.208       -7763.969          41.609          23.000                                                                  
E31  26002428.939       34355.062        1824.395          15.000                                                                  
C 7  37343065.349        9694.928         221.934          15.000                                                                                                                                  
C 8  36306622.381      -46377.506        -701.902          17.000                                                                                                                                  
C10  36217785.503       -5093.858        -161.738          17.000                                                                                                                                  
C13  36511143.974      -85080.673        -958.627          17.000                                                                                                                                  
C19  22613249.020     -288041.544       -3148.596          18.000                                                                                                                                  
C20  23016824.619      -18945.434        -227.468          17.000                                                                                                                                  
C26  25173243.315        3732.475         185.091          20.000                                                                                                                                  
C29  22298612.815      -31011.210        -350.642          19.000                                                                                                                                  
C35  22610844.148     -263871.360       -2511.204          22.000                                                                                                                                  
> 2021  5 17  8 43  4.0000000  0 22                     
G 2  21811044.456     -489558.272       -2016.794          23.000                                                                  
G 6  20695051.583     -143428.535        -547.054          23.000                                                                  
G 9  23621920.899      -24516.767       -2614.963          25.000                                                                  
G12  22358811.380     -226990.399       -3082.695          16.000                                                                  
G17  21814939.908       87994.437         437.371          18.000                                                                  
G19  20433829.489      -96084.320        -321.232          18.000                                                                  
G28  22932704.365      499765.262        2143.740          16.000                                                                  
R 8  23003729.389    -1304515.510       -5463.608          17.000  
E11  26095114.690     -551846.282       -2559.830          16.000                                                                  
E12  23778154.274     -230923.506       -1041.606          17.000                                                                  
E19  25681371.391     -501233.316       -2907.006          11.000                                                                  
E24  24594450.793       -7721.445          43.109          22.000                                                                  
E31  26002776.164       36179.525        1825.164          15.000                                                                  
C 7  37343108.038        9917.203         221.826          14.000                                                                                                                                  
C 8  36306487.570      -47079.727        -702.458          17.000                                                                                                                                  
C10  36217754.586       -5255.026        -162.323          15.000                                                                                                                                  
C13  36510960.158      -86038.097        -955.850          19.000                                                                                                                                  
C19  22612646.050     -291188.554       -3145.752          17.000                                                                                                                                  
C20  23016781.335      -19171.241        -226.608          18.000                                                                                                                                  
C26  25173279.079        3918.051         185.099          18.000                                                                                                                                  
C29  22298544.663      -31363.454        -352.704          20.000                                                                                                                                  
C35  22610362.356     -266379.513       -2506.941          20.000                                                                                                                                  
> 2021  5 17  8 43  5.0000000  0 21                     
G 2  21810662.070     -491576.300       -2019.238          20.000                                                                  
G 6  20694947.123     -143975.871        -546.462          25.000                                                                  
G 9  23621424.750      -27128.331       -2610.522          23.000                                                                  
G12  22358225.064     -230071.385       -3080.562          14.000                                                                  
G17  21815022.435       88432.759         439.886          21.000                                                                  
G19  20433765.700      -96407.179        -323.464          18.000                                                                  
G28  22933112.552      501910.212        2144.953          17.000                                                                  
R 8  23002710.131    -1309978.432       -5464.554          17.000  
E11  26094626.887     -554406.010       -2559.927          17.000                                                                  
E12  23777959.748     -231964.921       -1041.357          17.000                                                                  
E19  25680818.144     -504140.664       -2907.552           9.000                                                                  
E24  24594459.518       -7677.604          44.200          29.000                                                                  
C 7  37343150.562       10138.569         220.419          16.000                                                                                                                                  
C 8  36306352.605      -47782.605        -703.264          17.000                                                                                                                                  
C10  36217723.968       -5414.743        -158.142          16.000                                                                                                                                  
C13  36510774.282      -86993.616        -954.976          18.000                                                                                                                                  
C19  22612041.919     -294334.657       -3144.780          15.000                                                                                                                                  
C20  23016738.765      -19397.989        -224.019          17.000                                                                                                                                  
C26  25173315.000        4104.061         185.842          18.000                                                                                                                                  
C29  22298475.246      -31715.927        -351.929          18.000                                                                                                                                  
C35  22609880.952     -268886.768       -2505.881          19.000                                                                                                                                  
> 2021  5 17  8 43  6.0000000  0 21                     
G 2  21810276.930     -493593.475       -2015.933          23.000                                                                  
G 6  20694842.715     -144524.581        -550.661          20.000                                                                  
G 9  23620926.716      -29740.241       -2612.963          22.000                                                                  
G12  22357639.039     -233151.338       -3080.015          15.000                                                                  
G17  21815105.795       88872.826         439.504          19.000                                                                  
G19  20433707.282      -96731.990        -324.246          19.000                                                                  
G28  22933535.148      504055.025        2144.734          19.000                                                                  
R 8  23001690.471    -1315442.792       -5464.685          17.000  
E11  26094139.786     -556965.729       -2559.490          18.000                                                                  
E12  23777761.526     -233006.709       -1042.500          15.000                                                                  
E19  25680263.280     -507047.864       -2907.788          10.000                                                                  
E24  24594466.650       -7633.003          43.895          25.000                                                                  
C 7  37343193.417       10358.139          -0.064          14.000                                                                                                                                  
C 8  36306217.898      -48487.255        -705.845          18.000                                                                                                                                  
C10  36217695.171       -5574.009        -159.519          17.000                                                                                                                                  
C13  36510590.810      -87949.027        -955.799          15.000                                                                                                                                  
C19  22611438.096     -297479.242       -3144.927          18.000                                                                                                                                  
C20  23016693.922      -19623.061        -226.799          19.000                                                                                                                                  
C26  25173351.074        4290.733         186.543          17.000                                                                                                                                  
C29  22298406.509      -32068.216        -353.469          18.000                                                                                                                                  
C35  22609399.621     -271393.484       -2507.616          21.000                                                                                                                                  
> 2021  5 17  8 43  7.0000000  0 21                     
G 2  21809892.864     -495609.832       -2016.073          23.000                                                                  
G 6  20694737.304     -145074.533        -548.121          23.000                                                                  
G 9  23620429.176      -32352.875       -2615.449          20.000                                                                  
G12  22357057.387     -236232.892       -3081.297          17.000                                                                  
G17  21815189.490       89311.346         439.313          19.000                                                                  
G19  20433645.980      -97054.304        -321.699          19.000                                                                  
G28  22933937.520      506199.758        2146.604          18.000                                                                  
R 8  23000669.328    -1320908.328       -5465.563          17.000  
E11  26093652.802     -559524.823       -2558.265          17.000                                                                  
E12  23777564.134     -234045.320       -1036.089          15.000                                                                  
E19  25679709.947     -509955.655       -2907.589          11.000                                                                  
E24  24594475.314       -7589.108          45.401          25.000                                                                  
C 7  37343235.534       10577.203          -0.064          14.000                                                                                                                                  
C 8  36306082.864      -49192.250        -706.559          18.000                                                                                                                                  
C10  36217664.486       -5734.017        -160.435          17.000                                                                                                                                  
C13  36510407.621      -88903.155        -952.644          17.000                                                                                                                                  
C19  22610837.162     -300623.976       -3145.692          18.000                                                                                                                                  
C20  23016649.106      -19849.459        -224.455          19.000                                                                                                                                  
C26  25173387.031        4477.809         187.704          17.000                                                                                                                                  
C29  22298335.382      -32420.627        -352.649          20.000                                                                                                                                  
C35  22608917.838     -273901.326       -2508.420          22.000                                                                                                                                  
> 2021  5 17  8 43  8.0000000  0 21                     
G 2  21809510.303     -497624.441       -2014.757          25.000                                                                  
G 6  20694633.211     -145622.425        -547.818          22.000                                                                  
G 9  23619931.561      -34969.046       -2614.220          17.000                                                                  
G12  22356471.354     -239312.962       -3079.059          17.000                                                                  
G17  21815273.901       89751.530         442.007          20.000                                                                  
G19  20433583.592      -97377.830        -326.613          17.000                                                                  
G28  22934343.449      508344.950        2144.181          18.000                                                                  
R 8  22999648.782    -1326373.547       -5464.433          15.000  
E11  26093165.943     -562082.807       -2558.022          21.000                                                                  
E12  23777366.933     -235081.906       -1039.923          16.000                                                                  
E19  25679156.713     -512862.965       -2907.421          10.000                                                                  
E24  24594483.992       -7543.358          46.175          26.000                                                                  
C 7  37343279.310       10795.785          -0.064          15.000                                                                                                                                  
C 8  36305947.952      -49898.491        -705.083          17.000                                                                                                                                  
C10  36217633.626       -5894.713        -160.039          17.000                                                                                                                                  
C13  36510225.951      -89855.264        -952.048          16.000                                                                                                                                  
C19  22610233.202     -303769.158       -3144.675          18.000                                                                                                                                  
C20  23016606.017      -20073.671        -225.193          20.000                                                                                                                                  
C26  25173423.907        4665.784         187.666          19.000                                                                                                                                  
C29  22298267.750      -32772.963        -351.645          21.000                                                                                                                                  
C35  22608435.822     -276410.773       -2507.258          19.000                                                                                                                                  
> 2021  5 17  8 43  9.0000000  0 22                     
G 2  21809125.416     -499642.082       -2018.241          25.000                                                                  
G 6  20694529.034     -146169.329        -546.101          23.000                                                                  
G 9  23619435.857      -37582.252       -2612.825          17.000                                                                  
G12  22355885.727     -242390.743       -3077.370          18.000                                                                  
G17  21815358.908       90191.974         440.239          19.000                                                                  
G19  20433522.983      -97703.780        -324.974          17.000                                                                  
G28  22934753.123      510489.984        2146.980          18.000                                                                  
R 8  22998628.058    -1331838.225       -5463.419          14.000  
E11  26092667.818     -564641.659       -2558.650          25.000                                                                  
E12  23777168.533     -236121.559       -1038.926          18.000                                                                  
E19  25678603.449     -515770.382       -2907.463          10.000                                                                  
E24  24594493.271       -7498.266          44.875          22.000                                                                  
E31  26004546.911        7905.612        1828.371          15.000                                                                  
C 7  37343321.536       11015.247          -0.064          12.000                                                                                                                                  
C 8  36305812.517      -50604.023        -706.499          18.000                                                                                                                                  
C10  36217603.527       -6053.071        -157.656          17.000                                                                                                                                  
C13  36510042.618      -90807.959        -954.234          18.000                                                                                                                                  
C19  22609630.079     -306916.920       -3149.424          17.000                                                                                                                                  
C20  23016563.015      -20298.591        -223.452          19.000                                                                                                                                  
C26  25173459.637        4854.016         188.968          21.000                                                                                                                                  
C29  22298199.854      -33126.887        -353.886          19.000                                                                                                                                  
C35  22607954.453     -278918.134       -2509.071          17.000                                                                                                                                  
> 2021  5 17  8 43 10.0000000  0 22                     
G 2  21808740.735     -501659.082       -2018.737          23.000                                                                  
G 6  20694425.180     -146714.908        -546.850          20.000                                                                  
G 9  23618940.105      -40192.956       -2608.554          19.000                                                                  
G12  22355299.519     -245469.255       -3079.521          17.000                                                                  
G17  21815442.647       90631.838         442.967          19.000                                                                  
G19  20433461.040      -98027.285        -322.514          19.000                                                                  
G28  22935160.594      512638.532        2149.885          16.000                                                                  
R 8  22997607.783    -1337302.075       -5464.207          15.000  
E11  26092182.226     -567200.950       -2560.721          18.000                                                                  
E12  23776971.280     -237158.490       -1037.721          15.000                                                                  
E19  25678050.151     -518677.912       -2907.201          10.000                                                                  
E24  24594501.389       -7450.853          47.502          24.000                                                                  
E31  26004894.790        9733.577        1827.623          15.000                                                                  
C 7  37343363.531       11233.861          -0.064          14.000                                                                                                                                  
C 8  36305676.763      -51311.127        -707.319          17.000                                                                                                                                  
C10  36217573.570       -6211.491        -158.289          17.000                                                                                                                                  
C13  36509858.658      -91761.144        -952.402          18.000                                                                                                                                  
C19  22609027.481     -310064.994       -3145.735          18.000                                                                                                                                  
C20  23016520.162      -20522.166        -223.391          19.000                                                                                                                                  
C26  25173495.362        5042.773         188.557          24.000                                                                                                                                  
C29  22298132.457      -33479.586        -353.437          18.000                                                                                                                                  
C35  22607472.643     -281426.591       -2508.799          20.000                                                                                                                                  
> 2021  5 17  8 43 11.0000000  0 22                     
G 2  21808359.326     -503675.654       -2014.047          24.000                                                                  
G 6  20694321.096     -147260.688        -545.568          19.000                                                                  
G 9  23618444.484      -42799.390       -2605.180          17.000                                                                  
G12  22354710.389     -248548.227       -3077.847          19.000                                                                  
G17  21815527.765       91074.131         441.855          18.000                                                                  
G19  20433399.922      -98348.664        -320.275          20.000                                                                  
G28  22935569.545      514787.269        2146.555          16.000                                                                  
R 8  22996590.200    -1342767.802       -5465.358          17.000  
E11  26091695.950     -569758.546       -2559.530          18.000                                                                  
E12  23776778.791     -238197.275       -1039.776          12.000                                                                  
E19  25677497.003     -521584.825       -2906.769          11.000                                                                  
E24  24594511.039       -7403.955          47.078          27.000                                                                  
E31  26005242.634       11561.436        1827.801          15.000                                                                  
C 7  37343405.763       11454.594          -0.064          12.000                                                                                                                                  
C 8  36305540.760      -52019.342        -707.451          15.000                                                                                                                                  
C10  36217543.609       -6367.209        -154.658          18.000                                                                                                                                  
C13  36509676.546      -92713.498        -951.521          18.000                                                                                                                                  
C19  22608425.907     -313209.379       -3143.740          18.000                                                                                                                                  
C20  23016479.050      -20744.510        -222.131          19.000                                                                                                                                  
C26  25173531.196        5230.767         188.967          19.000                                                                                                                                  
C29  22298064.471      -33831.879        -351.654          18.000                                                                                                                                  
C35  22606990.807     -283934.644       -2507.704          20.000                                                                                                                                  
> 2021  5 17  8 43 12.0000000  0 22                     
G 2  21807974.823     -505690.061       -2014.226          29.000                                                                  
G 6  20694218.376     -147804.712        -544.373          17.000                                                                  
G 9  23617949.430      -45400.978       -2602.702          16.000                                                                  
G12  22354119.771     -251626.484       -3078.674          20.000                                                                  
G17  21815611.775       91515.927         442.896          21.000                                                                  
G19  20433340.338      -98669.100        -320.897          18.000                                                                  
G28  22935978.076      516934.221        2148.013          15.000                                                                  
R 8  22995571.203    -1348231.643       -5464.501          17.000  
E11  26091209.272     -572318.441       -2558.554          19.000                                                                  
E12  23776580.875     -239237.325       -1039.419          14.000                                                                  
E19  25676943.953     -524491.067       -2905.952          11.000                                                                  
E24  24594520.636       -7357.264          46.909          29.000                                                                  
E31  26005590.495       13389.379        1828.402          15.000                                                                  
C 7  37343447.998       11674.239          -0.064          15.000                                                                                                                                  
C 8  36305404.435      -52725.685        -704.124          17.000                                                                                                                                  
C10  36217513.003       -6521.534        -155.390          18.000                                                                                                                                  
C13  36509493.960      -93664.634        -951.820          17.000                                                                                                                                  
C19  22607822.077     -316353.949       -3144.823          20.000                                                                                                                                  
C20  23016436.580      -20965.804        -221.043          18.000                                                                                                                                  
C26  25173567.335        5418.614         188.637          18.000                                                                                                                                  
C29  22297996.699      -34183.309        -350.069          17.000                                                                                                                                  
C35  22606509.430     -286441.466       -2506.693          20.000                                                                                                                                  
