     3.04           OBSERVATION DATA    M: Mixed            RINEX VERSION / TYPE
Higeo_Hi1105        Huawei CBG          20210720 020247 UTC PGM / RUN BY / DATE 
************************************************************COMMENT             
* If you have any problem,                                 *COMMENT             
*     please contact with LBS Technology Group, thanks.    *COMMENT             
*                                                          *COMMENT             
* Version Higeo2RinexV1.1 2020.07.21                       *COMMENT             
* Fuction:  Convert Higeo Log to Rinex file                *COMMENT             
*                                                          *COMMENT             
* Note that the verision support B1C B2A signal            *COMMENT             
*     BDS: C1D L1D D1D S1D indicate BDS B1C                *COMMENT             
*     BDS: C5D L5D D5D S5D indicate BDS B2A                *COMMENT             
*     Reference: RINEX V3.04                               *COMMENT             
*                                                          *COMMENT             
* Copyright(C) Huawei Technologies Co., Ltd. 2019 - 2020   *COMMENT             
*     All rights reserved.                                 *COMMENT             
************************************************************COMMENT             
                                                            MARKER NAME         
                                                            MARKER NUMBER       
                                                            MARKER TYPE         
                                                            OBSERVER / AGENCY   
                                                            REC # / TYPE / VERS 
                                                            ANT # / TYPE        
        0.0000        0.0000        0.0000                  APPROX POSITION XYZ 
        0.0000        0.0000        0.0000                  ANTENNA: DELTA H/E/N
G    8 C1C L1C D1C S1C C5I L5I D5I S5I                      SYS / # / OBS TYPES 
R    4 C1C L1C D1C S1C                                      SYS / # / OBS TYPES 
E    8 C1C L1C D1C S1C C5I L5I D5I S5I                      SYS / # / OBS TYPES 
J    8 C1C L1C D1C S1C C5I L5I D5I S5I                      SYS / # / OBS TYPES 
C   12 C2I L2I D2I S2I C1D L1D D1D S1D C5D L5D D5D S5D      SYS / # / OBS TYPES 
  2021     5    17     8    39   26.0000000     GPS         TIME OF FIRST OBS   
  2021     5    17     8    55    8.0000000     GPS         TIME OF LAST OBS    
G                                                           SYS / PHASE SHIFT   
R                                                           SYS / PHASE SHIFT   
E                                                           SYS / PHASE SHIFT   
J                                                           SYS / PHASE SHIFT   
C                                                           SYS / PHASE SHIFT   
  0                                                         GLONASS SLOT / FRQ #
 C1C    0.000 C1P    0.000 C2C    0.000 C2P    0.000        GLONASS COD/PHS/BIS 
                                                            END OF HEADER       
> 2021  5 17  8 39 26.0000000  0 17                     
G 2  21913973.106      -24105.330       -1896.625          20.000                                                                  
G 6                                                                  20737300.382       -3880.303        -329.497          23.000  
G 9                                                                  23646955.218      -16081.524       -1906.505          25.000  
G12  22507655.898      -39225.526       -3049.247          17.000                                                                  
G14  24473302.314       36108.756        2836.163          22.000                                                                  
G17  21816766.265        7005.253         519.443          20.000                                                                  
G19  20467717.046       -3374.277        -262.002          27.000                                                                  
G28  22863397.114       27272.641        2245.136          27.000                                                                  
R 7  20597306.808      -45047.087       -3473.777          23.000  
R 8  23227444.867      -56023.395       -5332.167          22.000  
R21  21476309.221        2409.952         559.698          17.000  
R22  20397370.811      -19041.312       -1359.602          28.000  
E20                                                                  23047284.230        -206.271        -144.893          22.000  
C 8  36354492.751       -3763.890        -546.724          24.000                                                                                                                                  
C10  36243778.293        -194.403         -40.796          20.000                                                                                                                                  
C26  25185887.423        1144.046         243.796          15.000                                                                                                                                  
C35  22734446.609      -34447.235       -2377.089          27.000                                                                                                                                  
> 2021  5 17  8 39 27.0000000  0 17                     
G 2  21913615.918      -26002.685       -1897.694          19.000                                                                  
G 6                                                                  20737216.373       -4209.672        -329.095          25.000  
G 9                                                                  23646469.675      -17988.004       -1906.288          27.000  
G12  22507078.944      -42273.528       -3047.938          18.000                                                                  
G14  24473843.535       38944.936        2836.577          21.000                                                                  
G17  21816865.618        7527.006         522.460          18.000                                                                  
G19  20467667.658       -3634.425        -258.366          28.000                                                                  
G28  22863823.881       29517.005        2249.043          28.000                                                                  
R 7  20596657.250      -48519.927       -3471.396          20.000  
R 8  23226448.503      -61363.052       -5334.986          20.000  
R21  21476418.198        2969.129         558.674          18.000  
R22  20397094.893      -20521.007       -1356.584          29.000  
E20                                                                  23047247.043        -350.542        -143.454          22.000  
C 8  36354387.805       -4311.206        -547.696          24.000                                                                                                                                  
C10  36243771.192        -235.688         -42.569          21.000                                                                                                                                  
C26  25185933.675        1384.665         239.695          14.000                                                                                                                                  
C35  22733990.111      -36824.701       -2378.311          29.000                                                                                                                                  
> 2021  5 17  8 39 28.0000000  0 18                     
G 2  21913254.781      -27899.809       -1897.538          18.000                                                                  
G 6                                                                  20737132.666       -4538.724        -328.172          25.000  
G 9                                                                  23645984.053      -19894.043       -1904.989          25.000  
G12  22506509.550      -45321.865       -3048.329          17.000                                                                  
G14  24474389.000       41781.747        2838.014          23.000                                                                  
G17  21816964.966        8049.537         522.100          19.000                                                                  
G19  20467618.728       -3892.713        -257.146          26.000                                                                  
G28  22864252.219       31763.570        2245.240          28.000                                                                  
R 7  20596005.956      -51992.011       -3472.455          22.000  
R 8  23225453.780      -66687.726       -5329.047          19.000  
R21  21476521.032        3528.895         558.929          20.000  
R22  20396816.859      -22000.707       -1357.891          28.000  
E20                                                                  23047210.882        -494.054        -142.346          21.000  
C 8  36354282.680       -4859.675        -549.152          24.000                                                                                                                                  
C10  36243762.873        -278.142         -42.040          19.000                                                                                                                                  
C13  36569263.402       -2087.372        -803.694          20.000                                                                                                                                  
C26  25185979.992        1624.632         238.146          11.000                                                                                                                                  
C35  22733533.421      -39202.655       -2378.688          28.000                                                                                                                                  
> 2021  5 17  8 39 29.0000000  0 18                     
G 2  21912899.360      -29797.765       -1898.167          22.000                                                                  
G 6                                                                  20737048.985       -4867.217        -326.740          25.000  
G 9                                                                  23645498.622      -21799.347       -1905.120          27.000  
G12  22505936.111      -48368.869       -3045.562          18.000                                                                  
G14  24474925.843       44619.441        2837.449          22.000                                                                  
G17  21817066.064        8569.989         520.845          22.000                                                                  
G19  20467570.335       -4149.468        -257.286          25.000                                                                  
G28  22864679.937       34009.484        2246.461          25.000                                                                  
R 7  20595356.259      -55463.114       -3469.101          20.000  
R 8  23224460.029      -72009.629       -5324.565          20.000  
R21  21476626.863        4088.655         559.780          17.000  
R22  20396541.861      -23480.526       -1355.317          29.000  
E20                                                                  23047174.729        -637.083        -143.945          22.000  
C 8  36354177.569       -5409.008        -549.339          24.000                                                                                                                                  
C10  36243753.826        -320.319         -40.419          19.000                                                                                                                                  
C13  36569106.768       -2890.568        -803.659          22.000                                                                                                                                  
C26  25186025.860        1863.340         241.229          15.000                                                                                                                                  
C35  22733076.800      -41581.642       -2378.555          29.000                                                                                                                                  
> 2021  5 17  8 39 30.0000000  0 18                     
G 2  21912545.805      -31694.922       -1896.870          25.000                                                                  
G 6                                                                  20736965.517       -5194.935        -328.649          26.000  
G 9                                                                  23645013.455      -23703.797       -1903.766          27.000  
G12  22505356.330      -51415.471       -3046.436          16.000                                                                  
G14  24475462.736       47456.481        2837.467          21.000                                                                  
G17  21817167.533        9091.696         522.064          20.000                                                                  
G19  20467518.430       -4407.096        -258.356          26.000                                                                  
G28  22865108.690       36255.880        2246.611          25.000                                                                  
R 7  20594709.654      -58931.475       -3468.826          20.000  
R 8  23223467.282      -77329.853       -5312.486          17.000  
R21  21476731.312        4647.630         559.902          16.000  
R22  20396264.477      -24959.171       -1357.379          30.000  
E20                                                                  23047138.751        -778.868        -141.267          23.000  
C 8  36354072.240       -5959.197        -549.844          25.000                                                                                                                                  
C10  36243746.254        -360.745         -40.353          19.000                                                                                                                                  
C13  36568955.460       -3694.637        -804.781          22.000                                                                                                                                  
C26  25186073.155        2109.512         251.314          17.000                                                                                                                                  
C35  22732620.739      -43958.401       -2374.533          27.000                                                                                                                                  
> 2021  5 17  8 39 31.0000000  0 18                     
G 2  21912186.741      -33591.460       -1896.741          23.000                                                                  
G 6                                                                  20736882.320       -5522.068        -327.483          25.000  
G 9                                                                  23644528.513      -25607.590       -1903.110          26.000  
G12  22504776.584      -54461.978       -3046.419          15.000                                                                  
G14  24476003.342       50294.534        2838.381          22.000                                                                  
G17  21817267.426        9616.247         526.456          17.000                                                                  
G19  20467469.173       -4663.460        -254.608          26.000                                                                  
G28  22865537.102       38503.553        2249.815          24.000                                                                  
R 7  20594063.259      -62399.802       -3466.667          20.000  
R 8  23222477.530      -82630.291       -5293.217          16.000  
R21  21476823.122        5208.113         561.270          18.000  
R22  20395984.601      -26436.746       -1356.127          30.000  
E20                                                                  23047103.502        -920.014        -140.297          23.000  
C 8  36353967.543       -6507.701        -548.420          25.000                                                                                                                                  
C10  36243739.393        -398.276         -36.994          18.000                                                                                                                                  
C13  36568801.126       -4498.807        -803.570          20.000                                                                                                                                  
C26  25186119.799        2362.043         255.111          15.000                                                                                                                                  
C35  22732163.712      -46334.074       -2376.259          26.000                                                                                                                                  
> 2021  5 17  8 39 32.0000000  0 18                     
G 2  21911826.250      -35487.297       -1895.306          20.000                                                                  
G 6                                                                  20736799.162       -5849.085        -326.713          23.000  
G 9                                                                  23644043.650      -27511.017       -1902.216          27.000  
G12  22504209.280      -57506.998       -3044.300          16.000                                                                  
G14  24476543.383       53132.653        2839.169          18.000                                                                  
G17  21817363.623       10141.171         524.325          24.000                                                                  
G19  20467419.035       -4920.072        -256.181          28.000                                                                  
G28  22865965.854       40752.746        2250.059          19.000                                                                  
R 7  20593414.604      -65865.133       -3465.516          23.000  
R 8  23221485.878      -87940.091       -5320.333          18.000  
R21  21476927.862        5769.223         560.886          16.000  
R22  20395708.740      -27914.210       -1356.329          31.000  
E20                                                                  23047067.938       -1060.526        -139.727          22.000  
C 8  36353862.270       -7054.336        -546.561          26.000                                                                                                                                  
C10  36243731.578        -435.876         -37.535          19.000                                                                                                                                  
C13  36568646.350       -5302.695        -803.197          19.000                                                                                                                                  
C26  25186168.882        2617.511         256.416          17.000                                                                                                                                  
C35  22731707.921      -48709.988       -2377.331          29.000                                                                                                                                  
> 2021  5 17  8 39 33.0000000  0 18                     
G 2  21911465.759      -37381.881       -1893.797          20.000                                                                  
G 6                                                                  20736716.175       -6175.318        -325.273          25.000  
G 9                                                                  23643558.957      -29413.800       -1901.853          25.000  
G12  22503630.440      -60549.098       -3041.032          16.000                                                                  
G14  24477083.232       55971.581        2839.186          19.000                                                                  
G17  21817463.918       10665.253         524.031          20.000                                                                  
G19  20467372.671       -5174.170        -253.096          28.000                                                                  
G28  22866393.663       43000.288        2249.533          25.000                                                                  
R 7  20592766.184      -69330.158       -3464.977          22.000  
R 8  23220490.666      -93268.193       -5341.573          20.000  
R21  21477032.956        6331.169         562.513          16.000  
R22  20395430.282      -29391.555       -1354.409          31.000  
E20                                                                  23047032.755       -1200.378        -137.877          22.000  
C 8  36353757.241       -7601.071        -546.023          25.000                                                                                                                                  
C10  36243724.315        -473.626         -36.970          19.000                                                                                                                                  
C13  36568492.099       -6103.191        -800.202          17.000                                                                                                                                  
C26  25186216.443        2873.663         255.826          18.000                                                                                                                                  
C35  22731252.404      -51086.532       -2373.764          30.000                                                                                                                                  
> 2021  5 17  8 39 34.0000000  0 18                     
G 2  21911104.112      -39275.132       -1893.014          24.000                                                                  
G 6                                                                  20736633.231       -6501.474        -327.866          24.000  
G 9                                                                  23643074.286      -31315.940       -1901.742          28.000  
G12  22503048.796      -63590.789       -3039.735          17.000                                                                  
G14  24477622.708       58810.810        2839.002          21.000                                                                  
G17  21817564.274       11189.779         527.348          24.000                                                                  
G19  20467324.068       -5428.029        -254.033          27.000                                                                  
G28  22866820.016       45250.581        2250.099          24.000                                                                  
R 7  20592121.294      -72795.054       -3464.928          26.000  
R 8  23219494.498      -98597.930       -5320.256          20.000  
R21  21477143.586        6895.147         565.006          18.000  
R22  20395156.571      -30868.437       -1354.594          28.000  
E20                                                                  23046997.222       -1339.937        -141.644          24.000  
C 8  36353652.016       -8147.482        -546.103          24.000                                                                                                                                  
C10  36243717.301        -510.852         -37.634          17.000                                                                                                                                  
C13  36568338.497       -6903.296        -801.138          19.000                                                                                                                                  
C26  25186265.308        3129.309         256.979          20.000                                                                                                                                  
C35  22730797.014      -53458.916       -2372.944          29.000                                                                                                                                  
> 2021  5 17  8 39 35.0000000  0 18                     
G 2  21910742.500      -41168.158       -1892.103          20.000                                                                  
G 6                                                                  20736550.597       -6826.624        -324.658          26.000  
G 9                                                                  23642589.916      -33217.457       -1901.705          22.000  
G12  22502470.141      -66631.820       -3039.487          16.000                                                                  
G14  24478163.109       61650.522        2839.629          18.000                                                                  
G17  21817664.007       11715.251         526.911          18.000                                                                  
G19  20467275.972       -5680.737        -253.279          24.000                                                                  
G28  22867247.031       47500.504        2249.803          26.000                                                                  
R 7  20591476.194      -76257.205       -3461.119          22.000  
R 8  23218501.044     -103919.478       -5334.385          16.000  
R21  21477239.432        7458.898         562.912          17.000  
R22  20394877.416      -32344.607       -1354.877          31.000  
E20                                                                  23046962.383       -1477.807        -136.532          23.000  
C 8  36353547.080       -8693.869        -545.878          23.000                                                                                                                                  
C10  36243710.484        -546.355         -33.646          17.000                                                                                                                                  
C13  36568184.302       -7706.625        -802.609          19.000                                                                                                                                  
C26  25186316.572        3386.897         256.883          18.000                                                                                                                                  
C35  22730341.110      -55832.351       -2374.016          27.000                                                                                                                                  
> 2021  5 17  8 39 36.0000000  0 18                     
G 2  21910382.711      -43059.031       -1890.376          19.000                                                                  
G 6                                                                  20736467.958       -7151.766        -324.794          28.000  
G 9                                                                  23642104.796      -35118.770       -1900.999          27.000  
G12  22501891.668      -69671.861       -3040.593          14.000                                                                  
G14  24478703.570       64490.832        2841.948          16.000                                                                  
G17  21817765.681       12242.386         527.017          23.000                                                                  
G19  20467227.312       -5933.014        -250.968          29.000                                                                  
G28  22867675.002       49749.408        2249.196          24.000                                                                  
R 7  20590830.425      -79718.554       -3459.602          20.000  
R 8  23217505.876     -109242.944       -5321.155          19.000  
R21  21477344.945        8023.492         565.953          15.000  
R22  20394599.626      -33821.455       -1352.676          31.000  
E20                                                                  23046927.299       -1615.671        -137.235          25.000  
C 8  36353442.029       -9239.703        -546.207          23.000                                                                                                                                  
C10  36243704.517        -577.595         -29.915          18.000                                                                                                                                  
C13  36568028.602       -8509.242        -802.343          19.000                                                                                                                                  
C26  25186369.084        3643.865         257.232          19.000                                                                                                                                  
C35  22729885.030      -58207.797       -2375.740          23.000                                                                                                                                  
> 2021  5 17  8 39 37.0000000  0 18                     
G 2  21910023.411      -44949.716       -1890.495          17.000                                                                  
G 6                                                                  20736385.425       -7476.509        -324.812          25.000  
G 9                                                                  23641620.631      -37019.146       -1899.490          25.000  
G12  22501312.864      -72713.728          -0.011          12.000                                                                  
G14  24479244.274       67332.166          -0.009          14.000                                                                  
G17  21817867.411       12769.281         526.483          22.000                                                                  
G19  20467178.823       -6183.503        -252.099          29.000                                                                  
G28  22868103.113       51998.863        2248.716          19.000                                                                  
R 7  20590188.649      -83178.889       -3459.173          25.000  
R 8  23216511.972     -114563.795       -5318.684          24.000  
R21  21477444.228        8588.743         565.046          17.000  
R22  20394326.569      -35295.672       -1353.280          33.000  
E20                                                                  23046892.359       -1752.886        -136.383          23.000  
C 8  36353337.376       -9785.331        -545.246          25.000                                                                                                                                  
C10  36243700.504        -609.749         -33.777          18.000                                                                                                                                  
C13  36567873.164       -9312.108        -803.216          17.000                                                                                                                                  
C26  25186418.800        3902.654         261.591          16.000                                                                                                                                  
C35  22729429.163      -60583.138       -2375.001          24.000                                                                                                                                  
> 2021  5 17  8 39 38.0000000  0 18                     
G 2  21909663.695      -46840.293       -1892.142          19.000                                                                  
G 6                                                                  20736302.829       -7801.061        -324.181          28.000  
G 9                                                                  23641136.483      -38919.516       -1899.753          25.000  
G12  22500733.589      -75758.045          -0.011          13.000                                                                  
G14  24479785.273       70174.750          -0.009          15.000                                                                  
G17  21817966.873       13295.898         528.278          23.000                                                                  
G19  20467132.459       -6435.760        -254.211          28.000                                                                  
G28  22868531.773       54249.121        2251.515          24.000                                                                  
R 7  20589541.936      -86637.904       -3458.729          22.000  
R 8  23215518.148     -119882.688       -5329.864          20.000  
R21  21477545.971        9153.901         564.801          17.000  
R22  20394050.607      -36770.410       -1352.279          33.000  
E20                                                                  23046857.485       -1889.550        -133.156          23.000  
C 8  36353232.888      -10330.909        -543.791          24.000                                                                                                                                  
C10  36243687.125        -645.683         -36.825          17.000                                                                                                                                  
C13  36567719.021      -10115.028        -801.521          18.000                                                                                                                                  
C26  25186469.183        4164.907         263.128          16.000                                                                                                                                  
C35  22728973.228      -62957.145       -2372.225          25.000                                                                                                                                  
> 2021  5 17  8 39 39.0000000  0 18                     
G 2  21909297.066      -48732.676       -1892.177          19.000                                                                  
G 6                                                                  20736218.777       -8129.860        -332.463          22.000  
G 9                                                                  23640651.947      -40820.592       -1900.206          22.000  
G12  22500153.873      -78804.549          -0.011          15.000                                                                  
G14  24480325.590       73014.056          -0.009          13.000                                                                  
G17  21818067.552       13823.114         528.168          23.000                                                                  
G19  20467085.863       -6689.084        -253.408          32.000                                                                  
G28  22868962.154       56499.937        2250.064          21.000                                                                  
R 7  20588895.532      -90096.563       -3458.625          30.000  
R 8  23214524.484     -125205.258       -5320.360          20.000  
R21  21477677.066        9717.721         563.091          27.000  
R22  20393772.866      -38247.869       -1352.661          27.000  
E20                                                                  23046823.056       -2025.934        -136.887          24.000  
C 8  36353127.808      -10877.216        -546.696          23.000                                                                                                                                  
C10  36243679.526        -682.023         -37.130          24.000                                                                                                                                  
C13  36567565.315      -10917.467        -801.201          27.000                                                                                                                                  
C26  25186518.266        4426.273         260.529          17.000                                                                                                                                  
C35  22728517.685      -65329.776       -2371.378          22.000                                                                                                                                  
> 2021  5 17  8 39 40.0000000  0 17                     
G 2  21908943.821      -50625.662       -1892.044          18.000                                                                  
G 6                                                                  20736134.943       -8455.455        -320.345          24.000  
G 9                                                                  23640166.853      -42720.726       -1900.421          22.000  
G12  22499573.983      -81851.975          -0.011          14.000                                                                  
G14  24480865.616       75851.714          -0.009          13.000                                                                  
G17  21818165.786       14351.723         529.270          24.000                                                                  
G19  20467039.341       -6940.071        -253.207          33.000                                                                  
G28  22869390.286       58750.381        2250.260          22.000                                                                  
R 7  20588244.604      -93554.128       -3455.565          31.000  
R21  21477783.029       10281.791         565.518          30.000  
R22  20393495.311      -39724.199       -1355.457          23.000  
E20                                                                  23046788.575       -2162.030        -135.605          26.000  
C 8  36353022.635      -11423.102        -545.568          23.000                                                                                                                                  
C10  36243663.964        -717.615         -34.667          27.000                                                                                                                                  
C13  36567410.906      -11719.171        -803.394          30.000                                                                                                                                  
C26  25186568.317        4686.878         260.293          16.000                                                                                                                                  
C35  22728062.848      -67701.457       -2372.381          22.000                                                                                                                                  
> 2021  5 17  8 39 41.0000000  0 17                     
G 2  21908584.176      -52515.798       -1891.606          17.000                                                                  
G 6                                                                  20736052.226       -8779.659        -324.342          25.000  
G 9                                                                  23639681.598      -44621.290       -1898.535          21.000  
G12  22498994.236      -84898.398          -0.011          15.000                                                                  
G14  24481405.718       78690.066          -0.009          12.000                                                                  
G17  21818266.832       14882.230         533.426          31.000                                                                  
G19  20466992.427       -7191.427        -250.889          31.000                                                                  
G28  22869818.663       61001.172        2250.718          17.000                                                                  
R 7  20587597.641      -97008.902       -3455.696          30.000  
R21  21477886.334       10848.076         566.131          28.000  
R22  20393219.144      -41200.686       -1354.162          22.000  
E20                                                                  23046754.019       -2297.831        -135.037          28.000  
E35                                                                  22727604.683       -2412.237       -1787.728          21.000  
C 8  36352917.951      -11968.564        -544.968          21.000                                                                                                                                  
C10  36243654.424        -751.628         -34.867          26.000                                                                                                                                  
C13  36567256.336      -12522.848        -804.758          30.000                                                                                                                                  
C26  25186618.351        4947.203         261.220          17.000                                                                                                                                  
> 2021  5 17  8 39 42.0000000  0 17                     
G 2  21908216.142      -54408.426       -1893.468          19.000                                                                  
G 6                                                                  20735969.828       -9103.632        -323.385          28.000  
G 9                                                                  23639197.294      -46520.472       -1898.324          22.000  
G12  22498414.873      -87943.110          -0.011          16.000                                                                  
G14  24481945.940       81529.096          -0.009          13.000                                                                  
G17  21818367.781       15413.668         531.934          18.000                                                                  
G19  20466943.523       -7441.920        -250.626          30.000                                                                  
G28  22870248.636       63253.148        2252.746          18.000                                                                  
R 7  20586949.304     -100465.762       -3455.957          32.000  
R21  21477992.082       11412.474         562.985          31.000  
R22  20392940.316      -42676.616       -1354.144          23.000  
E20                                                                  23046719.791       -2433.257        -135.026          29.000  
E35                                                                  22727148.704       -4201.966       -1790.157          17.000  
C 8  36352813.211      -12512.963        -544.862          20.000                                                                                                                                  
C10  36243647.000        -786.949         -36.522          23.000                                                                                                                                  
C13  36567103.401      -13324.880        -802.189          30.000                                                                                                                                  
C26  25186663.504        5208.840         261.971          20.000                                                                                                                                  
> 2021  5 17  8 39 43.0000000  0 16                     
G 2  21907858.867      -56300.770       -1893.536          17.000                                                                  
G 6                                                                  20735887.342       -9427.443        -323.417          29.000  
G 9                                                                  23638713.037      -48419.773       -1898.580          21.000  
G12  22497836.069      -90984.827          -0.011          15.000                                                                  
G17  21818470.641       15946.209         530.426          28.000                                                                  
G19  20466896.352       -7691.286        -249.334          31.000                                                                  
G28  22870677.903       65506.266        2254.084          18.000                                                                  
R 7  20586302.997     -103919.817       -3451.450          30.000  
R21  21478096.801       11977.362         570.142          33.000  
R22  20392663.738      -44151.503       -1351.808          20.000  
E20                                                                  23046685.636       -2568.289        -135.690          26.000  
E35                                                                  22726692.516       -5991.557       -1788.683          15.000  
C 8  36352708.239      -13057.974        -545.244          24.000                                                                                                                                  
C10  36243640.069        -821.114         -33.442          23.000                                                                                                                                  
C13  36566949.437      -14128.039        -804.608          30.000                                                                                                                                  
C26  25186719.126        5470.592         261.442          20.000                                                                                                                                  
> 2021  5 17  8 39 44.0000000  0 16                     
G 2  21907498.310      -58195.826       -1895.753          14.000                                                                  
G 6                                                                  20735804.943       -9750.914        -323.317          26.000  
G 9                                                                  23638228.850      -50320.233       -1901.145          16.000  
G12  22497257.335      -94026.434          -0.011          15.000                                                                  
G17  21818571.237       16476.143         530.558          22.000                                                                  
G19  20466848.556       -7939.939        -249.748          32.000                                                                  
G28  22871108.692       67760.129        2252.830          23.000                                                                  
R 7  20585657.165     -107372.789       -3454.231          29.000  
R21  21478201.755       12544.766         564.539          32.000  
R22  20392387.214      -45625.399       -1351.128          20.000  
E20                                                                  23046651.425       -2702.409        -133.948          30.000  
E35                                                                  22726240.192       -7779.682       -1787.895          14.000  
C 8  36352602.818      -13602.037        -543.054          23.000                                                                                                                                  
C10  36243633.622        -853.631         -31.578          24.000                                                                                                                                  
C13  36566796.198      -14929.870        -801.769          30.000                                                                                                                                  
C26  25186771.141        5732.476         262.140          23.000                                                                                                                                  
> 2021  5 17  8 39 45.0000000  0 17                     
G 2  21907137.636      -60091.299           0.002          12.000                                                                  
G 6                                                                  20735722.519      -10074.507        -323.435          28.000  
G 9                                                                  23637744.096      -52223.112       -1904.731          13.000  
G12  22496689.647      -97066.378       -3039.972          15.000                                                                  
G14  24483568.773       90042.379        2839.720          19.000                                                                  
G17  21818674.482       17006.807         531.298          24.000                                                                  
G19  20466801.363       -8189.131        -247.823          31.000                                                                  
G28  22871535.886       70013.150        2253.440          23.000                                                                  
R 7  20585010.726     -110828.728       -3456.989          29.000  
R21  21478305.554       13111.856         568.995          32.000  
R22  20392111.832      -47099.050       -1351.636          21.000  
E20                                                                  23046617.306       -2836.465        -133.327          28.000  
E35                                                                  22725784.880       -9567.091       -1789.514          13.000  
C 8  36352498.095      -14146.650        -545.265          27.000                                                                                                                                  
C10  36243627.467        -886.290         -34.531          26.000                                                                                                                                  
C13  36566641.676      -15733.529        -805.031          30.000                                                                                                                                  
C26  25186825.245        5995.629         263.042          23.000                                                                                                                                  
> 2021  5 17  8 39 46.0000000  0 17                     
G 2  21906776.931      -61987.230           0.002          13.000                                                                  
G 6                                                                  20735640.106      -10397.604        -322.532          31.000  
G 9                                                                  23637259.539      -54125.382       -1899.675          17.000  
G12  22496111.471     -100105.050       -3038.004          16.000                                                                  
G14  24484104.860       92881.461        2840.144          17.000                                                                  
G17  21818775.095       17538.101         532.414          33.000                                                                  
G19  20466756.804       -8436.396        -247.414          31.000                                                                  
G28  22871965.816       72266.728        2252.823          20.000                                                                  
R 7  20584365.526     -114282.840       -3454.343          26.000  
R21  21478412.620       13679.607         568.241          30.000  
R22  20391834.649      -48574.487       -1356.326          20.000  
E20                                                                  23046583.286       -2969.984        -132.954          30.000  
E35                                                                  22725328.732      -11357.771       -1790.134          15.000  
C 8  36352392.495      -14692.736        -546.488          25.000                                                                                                                                  
C10  36243619.807        -922.468         -36.264          24.000                                                                                                                                  
C13  36566487.786      -16536.837        -801.449          31.000                                                                                                                                  
C26  25186877.247        6259.601         264.520          24.000                                                                                                                                  
> 2021  5 17  8 39 47.0000000  0 17                     
G 2  21906416.493      -63881.554           0.002          15.000                                                                  
G 6                                                                  20735558.035      -10720.466        -321.423          23.000  
G 9                                                                  23636776.460      -56023.981       -1896.665          20.000  
G12  22495534.394     -103143.785       -3038.131          14.000                                                                  
G14  24484645.199       95721.057        2838.944          14.000                                                                  
G17  21818876.737       18072.158         534.594          24.000                                                                  
G19  20466712.163       -8684.721        -246.862          32.000                                                                  
G28  22872394.494       74519.228        2252.206          18.000                                                                  
R 7  20583718.694     -117736.795       -3453.515          26.000  
R21  21478517.313       14246.513         566.761          26.000  
R22  20391556.976      -50049.811       -1351.949          26.000  
E20                                                                  23046549.564       -3102.922        -132.486          29.000  
E35                                                                  22724873.284      -13145.762       -1789.350          16.000  
C 8  36352287.754      -15237.366        -544.340          25.000                                                                                                                                  
C10  36243612.969        -956.602         -32.096          25.000                                                                                                                                  
C13  36566334.254      -17338.654        -803.963          32.000                                                                                                                                  
C26  25186928.647        6524.581         266.093          21.000                                                                                                                                  
> 2021  5 17  8 39 48.0000000  0 17                     
G 2  21906056.216      -65775.020           0.002          16.000                                                                  
G 6                                                                  20735475.829      -11043.214        -322.502          25.000  
G 9                                                                  23636289.979      -57921.272       -1896.672          22.000  
G12  22494956.707     -106179.694       -3033.616          15.000                                                                  
G14  24485185.744       98561.485          -0.009          15.000                                                                  
G17  21818977.730       18606.302         533.967          32.000                                                                  
G19  20466665.174       -8932.545        -246.368          30.000                                                                  
G28  22872822.872       76772.075        2252.811          17.000                                                                  
R 7  20583072.779     -121190.392       -3454.158          24.000  
R21  21478623.248       14813.629         566.537          25.000  
R22  20391281.311      -51521.391       -1348.726          27.000  
E20                                                                  23046515.912       -3235.500        -132.082          29.000  
E35                                                                  22724413.960      -14933.521       -1786.452          16.000  
C 8  36352182.795      -15782.230        -543.813          27.000                                                                                                                                  
C10  36243606.488        -990.917         -33.796          25.000                                                                                                                                  
C13  36566180.631      -18139.625        -800.579          31.000                                                                                                                                  
C26  25186981.002        6792.584         268.217          21.000                                                                                                                                  
> 2021  5 17  8 39 49.0000000  0 17                     
G 2  21905695.768      -67669.268           0.002          14.000                                                                  
G 6                                                                  20735393.657      -11365.533        -322.591          25.000  
G 9                                                                  23635807.375      -59818.052       -1895.582          22.000  
G12  22494379.169     -109214.539       -3034.822          16.000                                                                  
G14  24485726.518      101403.203          -0.009          17.000                                                                  
G17  21819078.108       19139.767         534.912          31.000                                                                  
G19  20466617.488       -9179.506        -246.445          30.000                                                                  
G28  22873252.327       79025.561        2254.639          19.000                                                                  
R 7  20582427.247     -124643.057       -3450.467          25.000  
R21  21478728.984       15380.952         567.955          26.000  
R22  20391007.046      -52992.820       -1351.982          24.000  
E20                                                                  23046482.329       -3367.481        -131.480          30.000  
E35                                                                  22723958.355      -16722.056       -1789.602          16.000  
C 8  36352078.282      -16327.661        -543.079          27.000                                                                                                                                  
C10  36243600.190       -1024.362         -32.077          23.000                                                                                                                                  
C13  36566026.736      -18941.254        -801.065          32.000                                                                                                                                  
C26  25187032.667        7059.512         266.506          21.000                                                                                                                                  
> 2021  5 17  8 39 50.0000000  0 18                     
G 2  21905334.030      -69563.015       -1891.761          20.000                                                                  
G 6                                                                  20735311.546      -11687.893        -321.701          31.000  
G 9                                                                  23635327.612      -61716.226       -1899.498          17.000  
G12  22493799.993     -112246.758       -3030.057          18.000                                                                  
G14  24486267.394      104245.362          -0.009          17.000                                                                  
G17  21819179.712       19675.098         536.618          19.000                                                                  
G19  20466570.199       -9426.509        -246.935          25.000                                                                  
G28  22873679.835       81281.662        2257.222          21.000                                                                  
R 7  20581784.016     -128091.302       -3449.188          23.000  
R 8  23203545.935      -28011.672       -5316.810          21.000  
R21  21478836.298       15949.714         567.408          29.000  
R22  20390730.896      -54466.356       -1351.600          23.000  
E20                                                                  23046448.580       -3499.036        -130.983          28.000  
E35                                                                  22723500.949      -18510.430       -1788.013          24.000  
C 8  36351973.484      -16873.475        -547.076          19.000                                                                                                                                  
C10  36243593.961       -1058.271         -33.736          23.000                                                                                                                                  
C13  36565872.485      -19742.952        -800.989          22.000                                                                                                                                  
C26  25187083.836        7325.302         265.001          17.000                                                                                                                                  
> 2021  5 17  8 39 51.0000000  0 18                     
G 2  21904974.682      -71452.708       -1888.587          23.000                                                                  
G 6                                                                  20735229.505      -12010.458        -320.300          25.000  
G 9                                                                  23634843.273      -63617.510       -1901.248          16.000  
G12  22493207.268     -115275.195       -3027.204          20.000                                                                  
G14  24486812.196      107086.659        2841.530          16.000                                                                  
G17  21819280.812       20210.125         535.945          23.000                                                                  
G19  20466521.862       -9671.352        -243.808          23.000                                                                  
G28  22874111.828       83538.487        2256.003          24.000                                                                  
R 7  20581139.514     -131541.029       -3445.288          20.000  
R 8  23202592.590      -33329.778       -5320.820          24.000  
R21  21478942.043       16517.834         569.186          18.000  
R22  20390455.837      -55937.800       -1349.044          29.000  
E20                                                                  23046415.251       -3630.442        -131.462          20.000  
E26                                                                  25187124.717         653.532         194.669          15.000  
E35                                                                  22723047.580      -20296.180       -1785.360          19.000  
C 8  36351868.635      -17418.820        -544.306          25.000                                                                                                                                  
C10  36243587.370       -1092.503           0.006          20.000                                                                                                                                  
C13  36565718.411      -20543.409        -798.744          19.000                                                                                                                                  
> 2021  5 17  8 39 52.0000000  0 20                     
G 2  21904628.748      -73340.842       -1887.816          19.000                                                                  
G 6                                                                  20735147.826      -12331.547        -320.667          23.000  
G 9                                                                  23634359.430      -65516.969       -1897.285          18.000  
G12  22492631.213     -118302.448       -3028.302          17.000                                                                  
G14  24487352.780      109927.461        2840.328          17.000                                                                  
G17  21819383.001       20746.545         536.370          19.000                                                                  
G19  20466474.490       -9915.606        -244.437          19.000                                                                  
G28  22874541.034       85794.948        2257.457          27.000                                                                  
R 7  20580495.230     -134987.707       -3444.321          17.000  
R 8  23201599.791      -38647.055       -5315.182          23.000  
R21  21479049.004       17088.545         572.396          17.000  
R22  20390180.132      -57408.784       -1348.812          29.000  
E20                                                                  23046382.139       -3760.393        -128.894          22.000  
E26                                                                  25187174.629         848.740         192.635          14.000  
E35                                                                  22722592.066      -22083.353       -1788.808          17.000  
C 8  36351764.658      -17962.320        -543.323          24.000                                                                                                                                  
C10  36243580.853       -1126.482           0.006          17.000                                                                                                                                  
C13  36565565.164      -21341.418        -797.581          16.000                                                                                                                                  
C19  22498311.587      -68672.364       -3068.219          23.000                                                                                                                                  
C29  22213733.152       -5876.764        -233.958          30.000                                                                                                                                  
> 2021  5 17  8 39 53.0000000  0 20                     
G 2  21904269.383      -75229.581       -1888.716          18.000                                                                  
G 6                                                                  20735066.728      -12652.086        -319.785          24.000  
G 9                                                                  23633880.134      -67412.515       -1895.656          21.000  
G12  22492054.909     -121331.044       -3029.001          17.000                                                                  
G14  24487897.271      112768.875        2841.847          17.000                                                                  
G17  21819488.308       21282.757         535.934          22.000                                                                  
G19  20466432.235      -10159.166        -242.991          24.000                                                                  
G28  22874969.986       88052.226        2257.738          27.000                                                                  
R 7  20579852.425     -138433.614       -3446.108          19.000  
R 8  23200609.692      -43962.984       -5317.250          20.000  
R21  21479155.669       17662.430         573.663          16.000  
R22  20389904.227      -58878.786       -1349.939          29.000  
E20                                                                  23046348.809       -3889.812        -128.981          25.000  
E26                                                                  25187223.847        1041.178         193.618          13.000  
E35                                                                  22722136.354      -23872.314       -1789.301          15.000  
C 8  36351660.105      -18506.076        -542.893          24.000                                                                                                                                  
C10  36243574.559       -1159.485           0.006          18.000                                                                                                                                  
C13  36565412.342      -22137.420        -796.300          17.000                                                                                                                                  
C19  22497723.488      -71741.819       -3070.118          24.000                                                                                                                                  
C29  22213688.532       -6110.772        -233.393          29.000                                                                                                                                  
> 2021  5 17  8 39 54.0000000  0 20                     
G 2  21903910.018      -77118.259       -1889.729          16.000                                                                  
G 6                                                                  20734984.966      -12972.516        -320.359          24.000  
G 9                                                                  23633398.294      -69306.664       -1894.327          20.000  
G12  22491488.716     -124358.182       -3027.805          17.000                                                                  
G14  24488438.513      115612.773        2846.395          14.000                                                                  
G17  21819591.369       21818.414         535.385          22.000                                                                  
G19  20466384.610      -10402.120        -244.214          25.000                                                                  
G28  22875399.301       90311.178        2258.296          28.000                                                                  
R 7  20579207.980     -141880.895       -3449.086          18.000  
R 8  23199614.645      -49280.938       -5316.397          20.000  
R21  21479263.022       18236.199         573.826          16.000  
R22  20423541.717      -60351.119       -1350.379          30.000  
E20                                                                  23046315.998       -4018.729        -128.452          24.000  
E26                                                                  25187281.010        1237.814         197.779          12.000  
E35                                                                  22721683.332      -25660.851       -1789.464          14.000  
C 8  36351555.643      -19049.384        -543.488          23.000                                                                                                                                  
C10  36243569.268       -1190.201         -30.685          18.000                                                                                                                                  
C13  36565258.575      -22934.879        -798.909          20.000                                                                                                                                  
C19  22497134.199      -74811.498       -3069.678          24.000                                                                                                                                  
C29  22213644.414       -6344.164        -232.906          28.000                                                                                                                                  
> 2021  5 17  8 39 55.0000000  0 20                     
G 2  21903550.822      -79008.088       -1890.977          13.000                                                                  
G 6                                                                  20734903.496      -13292.564        -318.534          25.000  
G 9                                                                  23632915.557      -71201.378       -1894.541          18.000  
G12  22490908.821     -127385.067       -3026.148          17.000                                                                  
G14  24488980.031      118457.976        2843.990          14.000                                                                  
G17  21819695.451       22355.155         539.957          20.000                                                                  
G19  20466338.629      -10643.759        -240.632          24.000                                                                  
G28  22875828.328       92569.949        2258.436          24.000                                                                  
R 7  20578563.399     -145329.735       -3447.098          19.000  
R 8  23198622.522      -54598.150       -5315.318          17.000  
R21  21479370.010       18808.339         571.926          14.000  
R22  20423267.198      -61821.403       -1348.843          30.000  
E20                                                                  23046283.353       -4147.368        -130.233          23.000  
E26                                                                  25187332.056        1437.319         200.645          14.000  
E35                                                                  22721227.161      -27451.631       -1791.257          15.000  
C 8  36351450.536      -19593.761        -544.037          23.000                                                                                                                                  
C10  36243565.423       -1220.052         -29.570          17.000                                                                                                                                  
C13  36565105.200      -23733.846        -799.546          21.000                                                                                                                                  
C19  22496545.075      -77880.389       -3067.801          23.000                                                                                                                                  
C29  22213599.793       -6576.744        -233.419          28.000                                                                                                                                  
> 2021  5 17  8 39 56.0000000  0 20                     
G 2  21903191.047      -80898.893       -1891.000          14.000                                                                  
G 6                                                                  20734821.857      -13612.776        -320.102          24.000  
G 9                                                                  23632433.063      -73095.483       -1893.628          13.000  
G12  22490332.792     -130411.978       -3027.904          15.000                                                                  
G14  24489520.975      121300.582          -0.009          13.000                                                                  
G17  21819799.877       22893.059         535.967          27.000                                                                  
G19  20466293.185      -10883.670        -241.744          19.000                                                                  
G28  22876254.309       94827.961        2256.856          25.000                                                                  
R 7  20577919.107     -148777.967       -3449.774          17.000  
R 8  23197629.962      -59913.692       -5316.034          16.000  
R21  21479481.251       19379.432          -0.005          15.000  
R22  20389078.687      -63292.563       -1347.630          31.000  
E20                                                                  23046251.210       -4274.264        -125.943          18.000  
E26                                                                  25187388.001        1638.743         202.118          14.000  
E35                                                                  22720773.743      -29240.455       -1787.803          13.000  
C 8  36351346.140      -20137.219        -543.188          25.000                                                                                                                                  
C10  36243559.963       -1248.818         -28.256          15.000                                                                                                                                  
C13  36564953.740      -24534.091        -800.409          20.000                                                                                                                                  
C19  22495955.384      -80949.233       -3069.305          25.000                                                                                                                                  
C29  22213554.811       -6811.969        -234.802          27.000                                                                                                                                  
> 2021  5 17  8 39 57.0000000  0 20                     
G 2  21902831.411      -82789.101           0.003          14.000                                                                  
G 6                                                                  20734740.353      -13932.767        -319.105          27.000  
G 9  23631949.892      -96080.182       -2544.101          14.000                                                                  
G12  22489756.619     -133439.767       -3027.603          16.000                                                                  
G14  24490061.635      124141.671          -0.009          16.000                                                                  
G17  21819903.802       23428.847         536.055          26.000                                                                  
G19  20466245.389      -11125.483        -240.866          17.000                                                                  
G28  22876684.193       97088.186        2260.813          22.000                                                                  
R 7  20577274.867     -152226.472       -3447.982          17.000  
R 8  23196629.934      -65229.140       -5314.578          17.000  
R21  21479587.475       19947.553          -0.005          14.000  
R22  20388804.701      -64763.149       -1348.035          32.000  
E20                                                                  23046219.119       -4400.857        -127.507          17.000  
E26                                                                  25187439.536        1840.282         202.485          14.000  
E35                                                                  22720318.348      -31028.253       -1786.733          14.000  
C 8  36351241.243      -20680.868        -544.455          23.000                                                                                                                                  
C10  36243554.624       -1276.912         -28.780          16.000                                                                                                                                  
C13  36564800.658      -25335.789        -800.915          23.000                                                                                                                                  
C19  22495365.776      -84017.833       -3067.486          25.000                                                                                                                                  
C29  22213510.221       -7044.699        -231.122          29.000                                                                                                                                  
> 2021  5 17  8 39 58.0000000  0 21                     
G 2  21902471.954      -84678.029           0.003          15.000                                                                  
G 6                                                                  20734658.948      -14252.113        -318.548          25.000  
G 9  23631466.769      -98624.570          -0.004          15.000                                                                  
G12  22489193.856     -136467.731       -3028.396          17.000                                                                  
G14  24490602.272      126982.770          -0.009          18.000                                                                  
G17  21820007.149       23964.783         536.436          24.000                                                                  
G19  20466198.379      -11366.205        -241.593          21.000                                                                  
G28  22877113.992       99347.801        2259.327          22.000                                                                  
R 7  20576631.068     -155672.974       -3444.119          17.000  
R 8  23195650.837      -70544.312       -5315.245          18.000  
R21  21479685.920       20514.941         569.220          16.000  
R22  20388528.482      -66233.007       -1347.311          32.000  
E20                                                                  23046182.886       -4527.640        -126.256          21.000  
E26                                                                  25187491.315        2042.773         202.629          14.000  
E29                                                                  22213462.159         -14.140        -174.764          24.000  
E35                                                                  22719862.805      -32816.566       -1788.538          17.000  
C 8  36351136.794      -21225.051        -544.186          22.000                                                                                                                                  
C10  36243548.709       -1305.388         -27.313          17.000                                                                                                                                  
C13  36564647.108      -26137.431        -801.549          20.000                                                                                                                                  
C19  22494777.316      -87085.270       -3064.910          28.000                                                                                                                                  
C22  26341691.903     -135934.094       -4331.815          27.000                                                                                                                                  
> 2021  5 17  8 39 59.0000000  0 21                     
G 2  21902113.500      -86561.662           0.003          14.000                                                                  
G 6                                                                  20734577.750      -14571.225        -318.926          25.000  
G 9  23630983.512     -101163.977          -0.004          18.000                                                                  
G12  22488609.925     -139491.448       -3026.012          17.000                                                                  
G14  24491136.290      129821.377        2840.991          17.000                                                                  
G17  21820109.944       24501.441         537.389          23.000                                                                  
G19  20466151.312      -11607.308        -240.529          20.000                                                                  
G28  22877543.350      101604.278        2259.709          21.000                                                                  
R 7  20575987.704     -159112.486       -3442.084          19.000  
R 8  23194668.961      -75855.175       -5316.259          17.000  
R21  21479790.037       21082.073         567.980          17.000  
R22  20388254.548      -67699.302       -1348.746          32.000  
E20                                                                  23046149.561       -4654.069        -125.262          19.000  
E26                                                                  25187542.409        2245.174         201.655          13.000  
E29                                                                  22213416.784        -189.616        -175.924          23.000  
E35                                                                  22719407.572      -34603.337       -1786.556          16.000  
C 8  36351032.909      -21767.636        -542.835          24.000                                                                                                                                  
C10  36243540.727       -1334.127         -29.591          16.000                                                                                                                                  
C13  36564492.901      -26937.058        -799.802          21.000                                                                                                                                  
C19  22494190.125      -90147.432       -3065.114          28.000                                                                                                                                  
C22  26340859.406     -140263.968       -4334.350          25.000                                                                                                                                  
> 2021  5 17  8 40  0.0000000  0 21                     
G 2  21901751.875      -88449.588           0.003          15.000                                                                  
G 6                                                                  20734496.520      -14890.429        -318.118          26.000  
G 9                                                                  23630504.879      -80678.251       -1894.236          17.000  
G12  22488034.463     -142515.464       -3023.102          14.000                                                                  
G14  24491676.870      132661.964        2840.402          16.000                                                                  
G17  21820213.926       25038.693         537.160          20.000                                                                  
G19  20466103.403      -11848.096        -239.810          23.000                                                                  
G28  22877972.207      103863.662        2260.786          26.000                                                                  
R 7  20575364.932     -162554.062       -3440.978          20.000  
R 8  23193690.314      -81170.248       -5314.793          24.000  
R21  21479908.245       21651.161         570.859          20.000  
R22  20387979.947      -69170.009       -1347.390          30.000  
E20                                                                  23046119.180       -4780.445        -126.457          19.000  
E26                                                                  25187594.376        2448.327         203.629          13.000  
E29                                                                  22213371.396        -365.943        -174.307          20.000  
E35                                                                  22718954.132      -36388.569       -1786.861          16.000  
C 8  36350928.696      -22310.828        -542.453          23.000                                                                                                                                  
C10  36243535.104       -1363.559         -30.120          13.000                                                                                                                                  
C13  36564339.796      -27736.940        -798.123          19.000                                                                                                                                  
C19  22493601.459      -93214.282       -3066.233          25.000                                                                                                                                  
C22  26340026.114     -144598.582       -4335.570          25.000                                                                                                                                  
> 2021  5 17  8 40  1.0000000  0 21                     
G 2  21901399.032      -90339.248       -1890.693          17.000                                                                  
G 6                                                                  20734415.300      -15209.228        -318.452          25.000  
G 9                                                                  23630023.925      -82571.538       -1894.056          17.000  
G12  22487459.437     -145537.478       -3021.000          12.000                                                                  
G14  24492210.109      135502.564        2840.558          16.000                                                                  
G17  21820316.520       25576.081         538.249          21.000                                                                  
G19  20466058.740      -12088.573        -240.913          20.000                                                                  
G28  22878402.088      106123.470        2259.360          25.000                                                                  
R 7  20574724.213     -165994.905       -3440.619          20.000  
R 8  23192691.442      -86483.708       -5313.072          22.000  
R21  21480004.505       22222.860         572.317          17.000  
R22  20387706.127      -70639.296       -1348.971          31.000  
E20                                                                  23046089.048       -4906.049        -125.568          22.000  
E26                                                                  25187646.648        2652.753         204.141          14.000  
E29                                                                  22213326.767        -541.129        -177.364          22.000  
E35                                                                  22718498.812      -38176.016       -1786.718          16.000  
C 8  36350824.414      -22853.223        -543.069          22.000                                                                                                                                  
C10  36243530.350       -1394.157         -31.427          16.000                                                                                                                                  
C13  36564186.365      -28536.064        -800.049          17.000                                                                                                                                  
C19  22493013.570      -96280.642       -3065.484          22.000                                                                                                                                  
C22  26339193.503     -148934.115       -4335.980          28.000                                                                                                                                  
> 2021  5 17  8 40  2.0000000  0 21                     
G 2  21901039.151      -92230.834       -1892.075          16.000                                                                  
G 6                                                                  20734334.314      -15527.501        -317.631          25.000  
G 9                                                                  23629541.221      -84466.413       -1895.636          13.000  
G12  22486881.558     -148557.225          -0.011          13.000                                                                  
G14  24492755.932      138343.600        2841.115          18.000                                                                  
G17  21820419.454       26114.921         539.620          21.000                                                                  
G19  20466012.044      -12329.155        -239.489          24.000                                                                  
G28  22878831.547      108383.080        2256.889          20.000                                                                  
R 7  20574084.850     -169433.732       -3438.071          23.000  
R 8  23191701.063      -91795.297       -5308.541          17.000  
R21  21480112.173       22796.380         573.207          18.000  
R22  20387429.746      -72108.865       -1346.883          27.000  
E20                                                                  23046056.360       -5030.543        -123.068          18.000  
E26                                                                  25187704.120        2856.932         204.434          14.000  
E29                                                                  22213282.321        -716.795        -177.789          18.000  
E35                                                                  22718043.369      -39963.930       -1789.007          12.000  
C 8  36350720.022      -23396.626        -543.026          23.000                                                                                                                                  
C10  36243524.579       -1424.318         -30.344          15.000                                                                                                                                  
C13  36564032.366      -29337.408        -802.065          14.000                                                                                                                                  
C19  22492424.581      -99345.557       -3062.547          21.000                                                                                                                                  
C22  26338361.389     -153268.643       -4333.156          24.000                                                                                                                                  
> 2021  5 17  8 40  3.0000000  0 21                     
G 2  21900679.520      -94120.977       -1888.177          17.000                                                                  
G 6                                                                  20734253.255      -15845.642        -318.144          24.000  
G 9                                                                  23629058.212      -86362.488       -1896.157          16.000  
G12  22486307.347     -151574.936          -0.011          13.000                                                                  
G14  24493296.285      141183.123        2839.675          18.000                                                                  
G17  21820522.751       26654.611         538.901          17.000                                                                  
G19  20465968.397      -12568.175        -241.610          18.000                                                                  
G28  22879261.442      110641.223        2258.505          23.000                                                                  
R 7  20573438.524     -172872.111       -3439.619          17.000  
R 8  23190709.773      -97103.596       -5308.396          18.000  
R21  21480216.268       23367.891         570.492          22.000  
R22  20387153.566      -73576.717       -1346.752          29.000  
E20                                                                  23046025.429       -5152.997        -122.336          17.000  
E26                                                                  25187756.571        3062.082         204.357          14.000  
E29                                                                  22213237.308        -894.135        -177.129          15.000  
E35                                                                  22717588.415      -41750.030       -1785.760          15.000  
C 8  36350615.780      -23939.397        -541.755          27.000                                                                                                                                  
C10  36243518.831       -1454.354         -30.017          20.000                                                                                                                                  
C13  36563878.612      -30138.294        -799.543          15.000                                                                                                                                  
C19  22491835.711     -102409.692       -3065.244          23.000                                                                                                                                  
C22  26337528.870     -157602.209       -4332.848          21.000                                                                                                                                  
> 2021  5 17  8 40  4.0000000  0 21                     
G 2  21900327.200      -96007.131       -1884.249          19.000                                                                  
G 6                                                                  20734172.501      -16163.169        -317.375          25.000  
G 9                                                                  23628575.016      -88257.755       -1893.113          17.000  
G12  22485732.727     -154594.885          -0.011          12.000                                                                  
G14  24493836.088      144024.505        2841.970          21.000                                                                  
G17  21820624.617       27193.497         537.116          18.000                                                                  
G19  20465922.962      -12807.097           0.004          15.000                                                                  
G28  22879694.923      112901.749        2260.839          25.000                                                                  
R 7  20572795.629     -176313.617       -3441.496          14.000  
R 8  23189716.014     -102412.906       -5311.973          20.000  
R21  21480325.205       23938.796         571.646          25.000  
R22  20386878.581      -75044.645       -1348.646          27.000  
E20                                                                  23045994.743       -5274.736        -120.166          17.000  
E26                                                                  25187809.035        3266.817         204.602          12.000  
E29                                                                  22213192.426       -1070.962        -176.933          12.000  
E35                                                                  22717134.129      -43535.171       -1784.479          15.000  
C 8  36350511.174      -24482.750        -544.091          27.000                                                                                                                                  
C10  36243515.801       -1484.685         -30.858          20.000                                                                                                                                  
C13  36563724.403      -30938.925           0.024          14.000                                                                                                                                  
C19  22491247.128     -105474.056       -3065.369          22.000                                                                                                                                  
C22  26336696.438     -161935.314       -4333.366          20.000                                                                                                                                  
> 2021  5 17  8 40  5.0000000  0 21                     
G 2  21899967.455      -97890.847       -1882.925          19.000                                                                  
G 6                                                                  20734091.664      -16481.082        -315.234          24.000  
G 9                                                                  23628099.641      -90150.121       -1890.781          18.000  
G12  22485157.640     -157617.385          -0.011          16.000                                                                  
G14  24494378.066      146867.729        2844.574          17.000                                                                  
G17  21820727.414       27733.155         540.666          17.000                                                                  
G19  20465882.853      -13047.846        -241.313          19.000                                                                  
G28  22880126.262      115163.724        2261.870          21.000                                                                  
R 7  20572142.297     -179753.513       -3439.407          17.000  
R 8  23188726.477     -107725.275       -5312.222          23.000  
R21  21480433.292       24512.201         573.780          20.000  
R22  20386604.460      -76513.870       -1347.845          28.000  
E20                                                                  23045966.338       -5396.555        -123.647          17.000  
E26                                                                  25187861.420        3471.700         204.449          11.000  
E29                                                                  22213147.540       -1247.788        -176.685          17.000  
E35                                                                  22716681.573      -45319.456       -1782.981          14.000  
C 8  36350405.976      -25025.650        -545.384          25.000                                                                                                                                  
C10  36243507.993       -1516.140         -31.409          19.000                                                                                                                                  
C13  36563570.535      -31740.404           0.024          17.000                                                                                                                                  
C19  22490658.013     -108537.589       -3062.401          20.000                                                                                                                                  
C22  26335863.731     -166269.730       -4334.917          23.000                                                                                                                                  
> 2021  5 17  8 40  6.0000000  0 21                     
G 2  21899602.881      -99774.189       -1884.603          20.000                                                                  
G 6                                                                  20734010.993      -16797.779        -315.370          23.000  
G 9                                                                  23627617.867      -92041.362       -1891.397          16.000  
G12  22484582.754     -160638.535          -0.011          17.000                                                                  
G14  24494919.352      149712.053        2844.141          17.000                                                                  
G17  21820826.688       28273.821         540.123          19.000                                                                  
G19  20465848.185      -13287.044        -237.186          24.000                                                                  
G28  22880556.282      117424.837        2261.416          21.000                                                                  
R 7  20571509.753     -183193.293       -3437.485          20.000  
R 8  23187716.136     -113038.931       -5316.066          26.000  
R21  21480540.423       25085.545         573.943          22.000  
R22  20386332.625      -77981.260       -1343.545          31.000  
E20                                                                  23045927.935       -5519.625        -121.684          23.000  
E26                                                                  25187913.684        3676.105         204.457          13.000  
E29                                                                  22213108.102       -1422.206        -171.071          18.000  
E35                                                                  22716225.438      -47103.427       -1784.979          17.000  
C 8  36350301.540      -25569.523        -540.655          20.000                                                                                                                                  
C10  36243501.237       -1548.457         -31.730          20.000                                                                                                                                  
C13  36563416.785      -32541.173           0.024          24.000                                                                                                                                  
C19  22490069.701     -111600.873       -3062.037          22.000                                                                                                                                  
C22  26335031.308     -170603.326       -4332.929          20.000                                                                                                                                  
> 2021  5 17  8 40  7.0000000  0 21                     
G 2  21899245.518     -101659.930       -1886.255          17.000                                                                  
G 6                                                                  20733930.383      -17114.215        -316.784          18.000  
G 9                                                                  23627135.290      -93931.839       -1889.538          17.000  
G12  22484011.863     -163656.148       -3016.594          17.000                                                                  
G14  24495462.464      152554.480        2842.701          17.000                                                                  
G17  21820929.588       28814.085         541.821          17.000                                                                  
G19  20465791.372      -13523.434        -232.670          26.000                                                                  
G28  22880987.320      119686.114        2261.861          25.000                                                                  
R 7  20570854.353     -186630.598       -3437.340          22.000  
R 8  23186723.476     -118354.354       -5314.884          25.000  
R21  21480647.454       25658.775         572.985          22.000  
R22  20386057.683      -79447.342       -1344.767          30.000  
E20                                                                  23045896.516       -5644.484        -123.260          21.000  
E26                                                                  25187966.336        3880.040         202.690          14.000  
E29                                                                  22213061.048       -1592.819        -170.479          18.000  
E35                                                                  22715771.002      -48887.479       -1783.213          17.000  
C 8  36350197.428      -26110.912        -540.604          20.000                                                                                                                                  
C10  36243494.895       -1581.674         -34.543          17.000                                                                                                                                  
C13  36563264.885      -33340.641        -798.825          18.000                                                                                                                                  
C19  22489481.982     -114663.228       -3061.373          25.000                                                                                                                                  
C22  26334198.749     -174936.179       -4332.160          20.000                                                                                                                                  
> 2021  5 17  8 40  8.0000000  0 21                     
G 2  21898886.562     -103546.374       -1886.117          17.000                                                                  
G 6                                                                  20733848.011      -17431.427        -318.228          21.000  
G 9                                                                  23626653.233      -95824.105       -1893.675          14.000  
G12  22483449.763     -166671.977       -3016.867          17.000                                                                  
G14  24496003.463      155397.181        2842.538          16.000                                                                  
G17  21821032.492       29354.759         540.201          17.000                                                                  
G19  20465748.650      -13757.439        -234.712          24.000                                                                  
G28  22881417.786      121949.689        2263.325          24.000                                                                  
R 7  20570213.158     -190068.408       -3437.779          21.000  
R 8  23185729.734     -123669.225       -5314.054          28.000  
R21  21480754.860       26231.889         572.965          22.000  
R22  20385781.442      -80915.553       -1347.812          30.000  
E20                                                                  23045866.305       -5766.613        -120.845          23.000  
E26                                                                  25188018.455        4083.768         205.704          12.000  
E29                                                                  22213015.097       -1764.142        -170.800          17.000  
E35                                                                  22715318.823      -50671.074       -1784.338          15.000  
C 8  36350093.582      -26652.017        -542.116          20.000                                                                                                                                  
C10  36243492.091       -1613.586         -29.489          17.000                                                                                                                                  
C13  36563115.654      -34139.045        -798.147          19.000                                                                                                                                  
C19  22488894.402     -117723.967       -3060.873          24.000                                                                                                                                  
C22  26333366.278     -179269.876       -4333.870          20.000                                                                                                                                  
> 2021  5 17  8 40  9.0000000  0 21                     
G 2  21898526.591     -105429.468       -1881.553          17.000                                                                  
G 6                                                                  20733767.688      -17747.597        -315.213          17.000  
G 9                                                                  23626170.769      -97718.022       -1895.778          13.000  
G12  22482875.692     -169688.955       -3016.347          14.000                                                                  
G14  24496544.489      158240.064        2842.592          18.000                                                                  
G17  21821138.445       29895.271         541.113          17.000                                                                  
G19  20465703.529      -13992.055        -236.553          26.000                                                                  
G28  22881849.727      124212.891        2263.723          25.000                                                                  
R 7  20569573.302     -193505.354       -3438.069          20.000  
R 8  23184735.807     -128982.559       -5314.035          25.000  
R21  21480863.078       26804.939         572.587          22.000  
R22  20385507.548      -82379.921       -1344.334          30.000  
E20                                                                  23045836.387       -5888.153        -120.908          21.000  
E26                                                                  25188069.445        4291.196         208.426          14.000  
E29                                                                  22212971.607       -1935.463        -172.021          17.000  
E35                                                                  22714864.873      -52456.373       -1785.281          15.000  
C 8  36349989.317      -27195.015        -541.570          21.000                                                                                                                                  
C10  36243489.212       -1643.174         -30.483          18.000                                                                                                                                  
C13  36562965.372      -34936.661           0.024          17.000                                                                                                                                  
C19  22488307.316     -120783.634       -3059.152          24.000                                                                                                                                  
C22  26332534.007     -183602.708       -4332.674          21.000                                                                                                                                  
> 2021  5 17  8 40 10.0000000  0 21                     
G 2  21898168.451     -107311.548       -1882.678          16.000                                                                  
G 6                                                                  20733687.048      -18064.719        -316.331          20.000  
G 9                                                                  23625687.974      -99613.333       -1892.990          16.000  
G12  22482302.011     -172703.749       -3013.404          16.000                                                                  
G14  24497097.546      161083.120        2842.981          17.000                                                                  
G17  21821232.567       30437.636         543.903          19.000                                                                  
G19  20465656.484      -14227.897        -235.097          29.000                                                                  
G28  22882280.639      126478.203        2265.797          23.000                                                                  
R 7  20568923.203     -196941.458       -3434.426          24.000  
R 8  23183743.963     -134297.830       -5314.864          24.000  
R21  21480971.016       27377.570         571.853          22.000  
R22  20385230.796      -83846.821       -1346.612          30.000  
E20                                                                  23045805.191       -6009.183        -122.153          20.000  
E26                                                                  25188122.541        4498.882         208.127          15.000  
E29                                                                  22212925.857       -2108.074        -171.228          22.000  
E35                                                                  22714409.317      -54244.708       -1788.546          14.000  
C 8  36349885.379      -27737.274        -542.688          25.000                                                                                                                                  
C10  36243486.339       -1674.044         -29.264          18.000                                                                                                                                  
C13  36562811.932      -35735.720           0.024          17.000                                                                                                                                  
C19  22487719.549     -123845.150       -3062.238          20.000                                                                                                                                  
C22  26331701.653     -187935.718       -4333.521          20.000                                                                                                                                  
> 2021  5 17  8 40 11.0000000  0 21                     
G 2  21897819.482     -109195.497       -1885.412          17.000                                                                  
G 6                                                                  20733597.451      -18381.074        -317.496          20.000  
G 9                                                                  23625209.664     -101506.101       -1890.641          16.000  
G12  22481732.133     -175717.832       -3014.103          13.000                                                                  
G14  24497638.754      163926.860        2844.322          17.000                                                                  
G17  21821336.505       30982.708         545.778          19.000                                                                  
G19  20465612.807      -14463.568        -235.039          23.000                                                                  
G28  22882714.721      128743.078        2264.742          26.000                                                                  
R 7  20568283.191     -200374.503       -3431.237          20.000  
R 8  23182751.796     -139612.256       -5315.422          25.000  
R21  21481079.875       27950.483         573.504          24.000  
R22  20384955.467      -85312.967       -1344.940          33.000  
E20                                                                  23045772.812       -6132.237        -123.966          18.000  
E26                                                                  25188175.839        4707.305         208.843          16.000  
E29                                                                  22212883.854       -2280.035        -172.701          22.000  
E35                                                                  22713953.460      -56034.246       -1789.427          11.000  
C 8  36349781.768      -28280.252        -542.403          25.000                                                                                                                                  
C10  36243480.651       -1703.796         -30.072          17.000                                                                                                                                  
C13  36562657.624      -36535.012        -799.548          17.000                                                                                                                                  
C19  22487131.799     -126906.830       -3062.901          20.000                                                                                                                                  
C22  26330869.413     -192270.780       -4335.374          20.000                                                                                                                                  
> 2021  5 17  8 40 12.0000000  0 21                     
G 2  21897460.670     -111080.936       -1885.427          15.000                                                                  
G 6                                                                  20733517.016      -18697.431        -316.348          17.000  
G 9                                                                  23624727.898     -103397.304       -1891.432          15.000  
G12  22481158.467     -178732.432       -3013.942          14.000                                                                  
G14  24498183.548      166770.942        2844.849          15.000                                                                  
G17  21821448.405       31527.150         544.737          18.000                                                                  
G19  20465568.859      -14697.540        -234.452          26.000                                                                  
G28  22883143.281      131007.420        2266.768          25.000                                                                  
R 7  20567649.914     -203807.279       -3433.844          26.000  
R 8  23181759.576     -144926.453       -5315.397          24.000  
R21  21481187.316       28524.439         573.220          23.000  
R22  20384678.680      -86779.806       -1343.849          31.000  
E20                                                                  23045741.458       -6255.981        -123.064          18.000  
E26                                                                  25188228.647        4915.448         208.251          15.000  
E29                                                                  22212838.680       -2452.561        -172.465          20.000  
E35                                                                  22713497.956      -57822.475       -1787.471          14.000  
C 8  36349677.704      -28822.140        -542.676          23.000                                                                                                                                  
C10  36243475.148       -1732.654         -28.347          17.000                                                                                                                                  
C13  36562506.644      -37334.126        -799.296          23.000                                                                                                                                  
C19  22486544.050     -129969.470       -3060.483          21.000                                                                                                                                  
C22  26330036.693     -196604.173       -4331.840          25.000                                                                                                                                  
> 2021  5 17  8 40 13.0000000  0 21                     
G 2  21897102.094     -112965.493       -1883.731          14.000                                                                  
G 6                                                                  20733439.407      -19012.240        -313.892          15.000  
G 9                                                                  23624246.372     -105287.647       -1888.334          14.000  
G12  22480584.584     -181748.177          -0.011          13.000                                                                  
G14  24498724.919      169615.422        2844.831          13.000                                                                  
G17  21821549.697       32073.073         545.588          22.000                                                                  
G19  20465525.125      -14932.567        -234.280          23.000                                                                  
G28  22883575.366      133274.029        2265.906          28.000                                                                  
R 7  20567010.808     -207240.143       -3431.524          22.000  
R 8  23180768.290     -150240.691       -5312.904          26.000  
R21  21481294.670       29098.242         574.421          25.000  
R22  20384404.956      -88246.567       -1343.937          32.000  
E20                                                                  23045711.374       -6378.131        -121.455          17.000  
E26                                                                  25188281.796        5123.452         207.952          14.000  
E29                                                                  22212793.331       -2625.643        -174.381          18.000  
E35                                                                  22713042.915      -59608.900       -1785.216          15.000  
C 8  36349573.888      -29363.334        -540.533          23.000                                                                                                                                  
C10  36243468.252       -1762.686         -32.471          15.000                                                                                                                                  
C13  36562350.665      -38132.332        -798.027          22.000                                                                                                                                  
C19  22485956.972     -133028.386       -3057.865          22.000                                                                                                                                  
C22  26329204.750     -200935.446       -4329.240          25.000                                                                                                                                  
> 2021  5 17  8 40 14.0000000  0 21                     
G 2  21896745.181     -114849.218       -1884.340          17.000                                                                  
G 6                                                                  20733359.369      -19327.012        -314.148          14.000  
G 9                                                                  23623765.488     -107175.444       -1886.676          15.000  
G12  22480010.627     -184764.482          -0.011          14.000                                                                  
G14  24499266.057      172458.975        2842.316          17.000                                                                  
G17  21821653.391       32617.760         543.557          18.000                                                                  
G19  20465481.073      -15165.659        -232.136          26.000                                                                  
G28  22884007.178      135537.557        2262.969          28.000                                                                  
R 7  20566369.818     -210671.700       -3429.703          21.000  
R 8  23179775.329     -155553.675       -5312.172          23.000  
R21  21481402.521       29673.092         575.797          23.000  
R22  20384128.806      -89712.899       -1344.310          30.000  
E20                                                                  23045680.103       -6500.913        -123.015          16.000  
E26                                                                  25188333.514        5331.122         207.299          12.000  
E29                                                                  22212748.925       -2800.712        -175.974          16.000  
C 8  36349469.907      -29905.345        -543.897          17.000                                                                                                                                  
C10  36243461.957       -1795.602         -32.895          16.000                                                                                                                                  
C13  36562197.369      -38930.677        -798.392          18.000                                                                                                                                  
C19  22485369.956     -136087.392       -3060.550          21.000                                                                                                                                  
C22  26328372.492     -205266.546       -4332.361          25.000                                                                                                                                  
C35  22712589.777     -148285.062       -2366.404          19.000                                                                                                                                  
> 2021  5 17  8 40 15.0000000  0 21                     
G 2  21896386.635     -116733.310       -1883.210          14.000                                                                  
G 6                                                                  20733284.469      -19639.302        -312.931          17.000  
G 9                                                                  23623287.906     -109060.777       -1884.981          17.000  
G12  22479436.788     -187780.127          -0.011          15.000                                                                  
G14  24499801.057      175302.531        2844.942          17.000                                                                  
G17  21821763.911       33163.337         546.428          19.000                                                                  
G19  20465435.013      -15397.106        -230.165          26.000                                                                  
G28  22884436.850      137804.226        2268.616          26.000                                                                  
R 7  20565727.990     -214101.269       -3429.684          20.000  
R 8  23178782.805     -160866.011       -5311.932          24.000  
R21  21481509.823       30247.828         573.782          20.000  
R22  20383854.000      -91178.846       -1346.032          28.000  
E20                                                                  23045649.103       -6623.263        -121.862          17.000  
E26                                                                  25188386.815        5539.514         209.608          14.000  
E29                                                                  22212706.603       -2977.329        -176.626          16.000  
C 8  36349365.838      -30447.519        -541.761          15.000                                                                                                                                  
C10  36243456.693       -1827.154         -29.940          17.000                                                                                                                                  
C13  36562043.618      -39728.339        -797.481          16.000                                                                                                                                  
C19  22484782.564     -139146.498       -3058.139          18.000                                                                                                                                  
C22  26327540.296     -209599.549       -4333.820          25.000                                                                                                                                  
C35  22712135.180     -150651.315       -2366.230          19.000                                                                                                                                  
> 2021  5 17  8 40 16.0000000  0 21                     
G 2  21896035.684     -118616.278           0.003          15.000                                                                  
G 6                                                                  20733202.433      -19952.618        -313.568          18.000  
G 9                                                                  23622807.654     -110944.337       -1883.605          17.000  
G12  22478863.153     -190794.608          -0.011          15.000                                                                  
G14  24500342.339      178146.739        2844.305          17.000                                                                  
G17  21821864.748       33710.104         546.977          18.000                                                                  
G19  20465389.356      -15628.285        -229.885          30.000                                                                  
G28  22884866.854      140070.035        2265.482          25.000                                                                  
R 7  20565087.567     -217530.770       -3429.281          23.000  
R 8  23177790.332     -166179.814       -5315.227          21.000  
R21  21481617.931       30823.443         575.330          19.000  
R22  20383580.738      -92643.299       -1343.707          29.000  
E20                                                                  23045622.051       -6743.786        -118.818          17.000  
E26                                                                  25188440.545        5749.630         210.557          15.000  
E29                                                                  22212662.367       -3154.000        -176.836          17.000  
C 8  36349261.630      -30989.260        -540.676          15.000                                                                                                                                  
C10  36243451.210       -1855.962         -28.453          17.000                                                                                                                                  
C13  36561890.768      -40524.481        -794.424          15.000                                                                                                                                  
C19  22484195.286     -142204.767       -3059.584          17.000                                                                                                                                  
C22  26326707.711     -213932.693       -4333.424          23.000                                                                                                                                  
C35  22711682.019     -153018.275       -2365.617          20.000                                                                                                                                  
> 2021  5 17  8 40 17.0000000  0 21                     
G 2  21895677.439     -120498.735           0.003          17.000                                                                  
G 6                                                                  20733121.234      -20264.870        -311.629          18.000  
G 9                                                                  23622327.468     -112829.338       -1884.944          18.000  
G12  22478289.497     -193809.171          -0.011          14.000                                                                  
G14  24500883.919      180992.510        2846.337          15.000                                                                  
G17  21821968.245       34253.746         542.792          16.000                                                                  
G19  20465344.191      -15858.565        -229.998          25.000                                                                  
G28  22885296.252      142335.151        2265.186          24.000                                                                  
R 7  20564449.138     -220959.753       -3427.101          20.000  
R 8  23176797.528     -171493.444       -5312.657          24.000  
R21  21481725.167       31400.668         578.437          20.000  
R22  20383305.391      -94107.060       -1343.297          28.000  
E20                                                                  23045592.185       -6861.403        -116.189          17.000  
E26                                                                  25188498.929        5961.317         211.834          14.000  
E29                                                                  22212618.052       -3328.659        -173.417          17.000  
C 8  36349157.495      -31531.796        -543.328          14.000                                                                                                                                  
C10  36243450.426       -1883.181         -25.906          15.000                                                                                                                                  
C13  36561736.577      -41317.315        -790.303          15.000                                                                                                                                  
C19  22483607.021     -145265.540       -3061.353          18.000                                                                                                                                  
C22  26325875.000     -218266.087       -4331.537          22.000                                                                                                                                  
C35  22711228.108     -155384.551       -2366.319          19.000                                                                                                                                  
> 2021  5 17  8 40 18.0000000  0 21                     
G 2  21895306.116     -122380.424       -1880.424          24.000                                                                  
G 6                                                                  20733041.907      -20576.832        -312.823          17.000  
G 9                                                                  23621848.490     -114714.087       -1885.451          15.000  
G12  22477715.762     -196824.398          -0.011          14.000                                                                  
G14  24501426.676      183839.701        2848.332          19.000                                                                  
G17  21822071.467       34796.081         543.077          18.000                                                                  
G19  20465301.216      -16087.297        -227.159          20.000                                                                  
G28  22885725.579      144600.513        2266.703          25.000                                                                  
R 7  20563809.545     -224386.263       -3425.499          23.000  
R 8  23175805.281     -176805.944       -5311.653          24.000  
R21  21481833.991       31978.087         577.177          20.000  
R22  20383031.126      -95571.871       -1343.389          27.000  
E20                                                                  23045563.091       -6978.195        -116.176          17.000  
E26                                                                  25188553.247        6173.736         212.651          14.000  
E29                                                                  22212577.044       -3501.646        -173.771          17.000  
C 8  36349053.244      -32074.879        -542.777          14.000                                                                                                                                  
C10  36243445.502       -1908.997         -26.537          17.000                                                                                                                                  
C13  36561584.764      -42108.006        -791.694          16.000                                                                                                                                  
C19  22483019.355     -148324.825       -3060.046          18.000                                                                                                                                  
C22  26325042.354     -222598.619       -4333.713          22.000                                                                                                                                  
C35  22710773.625     -157750.821       -2366.320          19.000                                                                                                                                  
> 2021  5 17  8 40 19.0000000  0 21                     
G 2  21894950.171     -124261.428       -1880.494          24.000                                                                  
G 6                                                                  20732962.234      -20890.155        -312.939          20.000  
G 9                                                                  23621368.600     -116597.958       -1884.210          17.000  
G12  22477141.814     -199840.475          -0.011          13.000                                                                  
G14  24501966.097      186687.822        2848.398          18.000                                                                  
G17  21822189.287       35340.732         545.902          15.000                                                                  
G19  20465257.853      -16315.208        -226.866          17.000                                                                  
G28  22886157.049      146867.484        2267.685          24.000                                                                  
R 7  20563169.973     -227811.936       -3425.925          18.000  
R 8  23174814.623     -182116.597       -5310.606          21.000  
R21  21481941.825       32555.261         577.118          21.000  
R22  20382757.428      -97035.565       -1341.882          28.000  
E20                                                                  23045533.326       -7093.663        -113.812          14.000  
E26                                                                  25188607.613        6386.412         211.386          13.000  
E29                                                                  22212532.236       -3675.557        -172.592          15.000  
E35                                                                  22710316.289      -70317.037       -1781.072          17.000  
C 8  36348949.999      -32616.975           0.001          12.000                                                                                                                                  
C10  36243443.841       -1934.016           0.006          15.000                                                                                                                                  
C13  36561432.597      -42900.559        -792.481          16.000                                                                                                                                  
C19  22482431.958     -151383.088       -3055.902          17.000                                                                                                                                  
C22  26324209.398     -226933.780       -4335.703          20.000                                                                                                                                  
> 2021  5 17  8 40 20.0000000  0 21                     
G 2  21894593.667     -126142.613       -1880.465          21.000                                                                  
G 6                                                                  20732882.461      -21203.726        -314.104          22.000  
G 9                                                                  23620884.352     -118481.957       -1883.362          18.000  
G12  22476567.878     -202856.854          -0.011          13.000                                                                  
G14  24502511.764      189537.124        2848.472          19.000                                                                  
G17  21822293.297       35886.996         547.562          15.000                                                                  
G19  20465214.485      -16543.155        -228.996          17.000                                                                  
G28  22886590.800      149134.939        2269.723          27.000                                                                  
R 7  20562529.977     -231238.115       -3426.342          18.000  
R 8  23173822.692     -187428.743       -5309.707          18.000  
R21  21482047.360       33131.742         575.847          20.000  
R22  20382482.352      -98497.741       -1341.646          27.000  
E20                                                                  23045504.150       -7208.829        -114.905          14.000  
E26                                                                  25188661.918        6598.774         212.339          13.000  
E29                                                                  22212491.974       -3846.757        -170.723          17.000  
E35                                                                  22709862.634      -72098.032       -1780.154          13.000  
C 8  36348845.669      -33160.550           0.001          16.000                                                                                                                                  
C10  36243438.991       -1959.382           0.006          15.000                                                                                                                                  
C13  36561284.406      -43693.575           0.024          15.000                                                                                                                                  
C19  22481844.802     -154439.360       -3053.778          18.000                                                                                                                                  
C22  26323376.796     -231267.009       -4332.954          20.000                                                                                                                                  
> 2021  5 17  8 40 21.0000000  0 21                     
G 2  21894237.748     -128022.907       -1880.826          20.000                                                                  
G 6                                                                  20732806.751      -21517.343        -313.899          23.000  
G 9                                                                  23620405.314     -120366.135       -1883.831          19.000  
G12  22475994.261     -205871.159          -0.011          14.000                                                                  
G14  24503057.288      192384.676        2846.922          18.000                                                                  
G17  21822401.384       36435.210           0.013          15.000                                                                  
G19  20465172.274      -16772.145        -229.452          18.000                                                                  
G28  22887022.772      151404.341        2268.178          29.000                                                                  
R 7  20561884.651     -234663.580       -3424.829          17.000  
R 8  23172832.527     -192738.733       -5310.730          22.000  
R21  21482155.255       33706.962         575.404          21.000  
R22  20382206.595      -99959.523       -1341.401          27.000  
E20                                                                  23045475.317       -7322.688        -114.060          14.000  
E26                                                                  25188716.454        6812.053         213.534          13.000  
E29                                                                  22212448.550       -4017.826        -172.061          17.000  
E35                                                                  22709408.627      -73880.286       -1784.073          13.000  
C 8  36348741.286      -33704.212           0.001          13.000                                                                                                                                  
C10  36243434.500       -1982.901           0.006          16.000                                                                                                                                  
C13  36561131.937      -44487.723           0.024          14.000                                                                                                                                  
C19  22481258.702     -157492.256       -3051.831          20.000                                                                                                                                  
C22  26322543.718     -235600.771       -4334.367          21.000                                                                                                                                  
> 2021  5 17  8 40 22.0000000  0 21                     
G 2  21893880.900     -129903.425       -1879.450          18.000                                                                  
G 6                                                                  20732724.797      -21830.220        -310.016          19.000  
G 9                                                                  23619923.509     -122250.043       -1882.575          18.000  
G12  22475421.059     -208883.330          -0.011          15.000                                                                  
G14  24503598.435      195231.510        2846.730          20.000                                                                  
G17  21822504.911       36982.985         546.987          17.000                                                                  
G19  20465123.820      -17002.063        -229.403          18.000                                                                  
G28  22887453.805      153672.436        2268.272          30.000                                                                  
R 7  20561245.031     -238087.756       -3424.223          18.000  
R 8  23171840.199     -198049.102       -5310.725          25.000  
R21  21482264.161       34283.682         579.602          23.000  
R22  20381929.882     -101423.737       -1342.472          25.000  
E20                                                                  23045449.007       -7436.559        -113.341          16.000  
E26                                                                  25188768.373        7024.713         211.823          11.000  
E29                                                                  22212405.792       -4189.957        -171.178          15.000  
E35                                                                  22708954.144      -75664.465       -1782.648          11.000  
C 8  36348637.156      -34246.672           0.001          10.000                                                                                                                                  
C10  36243425.823       -2007.837         -26.466          17.000                                                                                                                                  
C13  36560978.239      -45282.367           0.024          14.000                                                                                                                                  
C19  22480672.523     -160545.023       -3053.271          15.000                                                                                                                                  
C22  26321710.893     -239933.927       -4332.139          23.000                                                                                                                                  
> 2021  5 17  8 40 23.0000000  0 21                     
G 2  21893522.311     -131784.994       -1879.007          20.000                                                                  
G 6                                                                  20732645.086      -22142.707        -313.707          20.000  
G 9                                                                  23619441.382     -124131.682       -1881.653          19.000  
G12  22474847.869     -211894.639          -0.011          15.000                                                                  
G14  24504140.061      198077.644        2846.984          18.000                                                                  
G17  21822609.223       37530.734         549.887          14.000                                                                  
G19  20465086.006      -17232.379        -230.282          19.000                                                                  
G28  22887885.731      155939.981        2268.628          28.000                                                                  
R 7  20560597.540     -241511.050       -3422.839          18.000  
R 8  23170850.448     -203358.684       -5307.649          25.000  
R21  21482373.967       34862.440         578.411          24.000  
R22  20381656.817     -102887.301       -1341.743          25.000  
E20                                                                  23045419.486       -7550.980        -116.887          17.000  
E26                                                                  25188822.469        7236.295         212.074          13.000  
E29                                                                  22212358.960       -4360.852        -171.009          18.000  
C 8  36348533.192      -34788.391           0.001          13.000                                                                                                                                  
C10  36243420.607       -2035.450         -27.958          16.000                                                                                                                                  
C13  36560825.610      -46077.285           0.024          15.000                                                                                                                                  
C19  22480086.305     -163597.761       -3051.482          18.000                                                                                                                                  
C22  26320879.526     -244265.561       -4331.585          27.000                                                                                                                                  
C35  22708503.531     -169576.390       -2365.103          15.000                                                                                                                                  
> 2021  5 17  8 40 24.0000000  0 21                     
G 2  21893165.044     -133664.014       -1880.050          19.000                                                                  
G 6                                                                  20732565.702      -22454.465        -311.318          19.000  
G 9                                                                  23618963.682     -126014.471       -1882.093          20.000  
G12  22474275.095     -214904.486          -0.011          12.000                                                                  
G14  24504678.953      200923.907        2846.327          19.000                                                                  
G17  21822713.933       38080.996         549.753          12.000                                                                  
G19  20465044.169      -17461.247        -227.370          18.000                                                                  
G28  22888318.156      158208.127        2268.378          28.000                                                                  
R 7  20559958.173     -244933.406       -3421.322          19.000  
R 8  23169858.343     -208667.362       -5308.559          23.000  
R21  21482483.101       35441.298         578.528          23.000  
R22  20381383.660     -104348.878       -1340.130          28.000  
E20                                                                  23045389.436       -7669.530        -120.343          17.000  
E26                                                                  25188876.713        7448.484         211.608          13.000  
E29                                                                  22212319.955       -4530.796        -168.850          18.000  
C 8  36348428.735      -35328.555           0.001          13.000                                                                                                                                  
C10  36243417.414       -2063.055         -28.260          14.000                                                                                                                                  
C13  36560672.759      -46873.575           0.024          18.000                                                                                                                                  
C19  22479500.379     -166649.639       -3054.456          16.000                                                                                                                                  
C22  26320047.783     -248595.994       -4327.506          24.000                                                                                                                                  
C35  22708049.599     -171940.364       -2362.585          17.000                                                                                                                                  
> 2021  5 17  8 40 25.0000000  0 21                     
G 2  21892807.607     -135545.756       -1882.885          17.000                                                                  
G 6                                                                  20732486.100      -22766.155        -312.296          19.000  
G 9                                                                  23618485.123     -127895.047       -1879.939          20.000  
G12  22473702.650     -217912.624          -0.011          13.000                                                                  
G14  24505216.481      203771.147        2847.822          20.000                                                                  
G17  21822818.638       38631.298           0.013          14.000                                                                  
G19  20465001.090      -17687.862        -226.465          19.000                                                                  
G28  22888748.072      160476.437        2268.386          27.000                                                                  
R 7  20559323.683     -248356.121       -3422.425          20.000  
R 8  23168865.316     -213976.672       -5309.586          24.000  
R21  21482592.514       36018.128         575.979          21.000  
R22  20381109.473     -105810.588       -1342.511          26.000  
E20                                                                  23045356.809       -7790.446        -119.535          17.000  
E26                                                                  25188933.461        7661.795         213.871          14.000  
E29                                                                  22212277.045       -4699.889        -168.452          17.000  
C 8  36348325.273      -35867.343           0.001          15.000                                                                                                                                  
C10  36243412.020       -2091.373         -27.329          13.000                                                                                                                                  
C13  36560518.093      -47670.905        -796.743          18.000                                                                                                                                  
C19  22478913.755     -169702.941       -3052.659          16.000                                                                                                                                  
C22  26319215.870     -252925.381       -4329.615          25.000                                                                                                                                  
C35  22707596.119     -174303.430       -2363.054          17.000                                                                                                                                  
> 2021  5 17  8 40 26.0000000  0 22                     
G 2  21892449.145     -137429.485       -1882.240          17.000                                                                  
G 6                                                                  20732406.026      -23079.362        -314.265          16.000  
G 9                                                                  23618004.548     -129779.137       -1886.515          17.000  
G12  22473130.373     -220920.073          -0.011          12.000                                                                  
G14  24505755.917      206618.197        2846.622          20.000                                                                  
G17  21822923.819       39183.915           0.013          17.000                                                                  
G19  20464951.244      -17915.757        -228.258          22.000                                                                  
G28  22889177.531      162745.486        2268.265          25.000                                                                  
R 7  20558684.557     -251777.359       -3419.698          17.000  
R 8  23167874.240     -219287.020       -5311.106          20.000  
R21  21482699.584       36593.371         575.950          23.000  
R22  20380835.749     -107274.861       -1342.860          29.000  
E20                                                                  23045331.066       -7909.392        -118.339          15.000  
E26                                                                  25188988.390        7876.620         215.122          13.000  
E29                                                                  22212236.464       -4868.788        -168.363          14.000  
J 3  38920237.301     -109235.569       -1634.043          27.000                                                                  
C 8  36348221.222      -36405.879        -539.292          19.000                                                                                                                                  
C10  36243407.082       -2117.136         -24.893          13.000                                                                                                                                  
C13  36560366.816      -48468.563        -797.144          21.000                                                                                                                                  
C19  22478327.789     -172754.305       -3050.301          19.000                                                                                                                                  
C22  26318384.537     -257255.466       -4331.263          25.000                                                                                                                                  
C35  22707142.282     -176666.826       -2363.203          17.000                                                                                                                                  
> 2021  5 17  8 40 27.0000000  0 22                     
G 2  21892088.021     -139310.704       -1879.609          18.000                                                                  
G 6                                                                  20732326.446      -23392.373        -312.422          14.000  
G 9                                                                  23617524.196     -131664.818       -1885.816          17.000  
G12  22472558.017     -223927.729          -0.011          12.000                                                                  
G14  24506294.699      209462.874        2844.225          19.000                                                                  
G17  21823018.264       39736.543         551.894          24.000                                                                  
G19  20464899.767      -18143.507        -227.601          27.000                                                                  
G28  22889609.738      165013.943        2266.992          26.000                                                                  
R 7  20558051.581     -255196.551       -3419.654          18.000  
R 8  23166880.437     -224598.403       -5311.487          22.000  
R21  21482807.243       37170.685         578.433          24.000  
R22  20380562.400     -108737.101       -1340.392          28.000  
E20                                                                  23045297.357       -8025.814        -115.513          14.000  
E26                                                                  25189045.570        8091.291         214.006          13.000  
E29                                                                  22212193.833       -5036.780        -168.280          16.000  
E35                                                                  22706680.217      -84589.998       -1786.561          16.000  
J 3  38919927.681     -110870.670       -1634.259          25.000                                                                  
C 8  36348118.012      -36945.190        -539.569          22.000                                                                                                                                  
C10  36243402.075       -2143.482           0.006          15.000                                                                                                                                  
C13  36560217.538      -49264.888        -796.284          22.000                                                                                                                                  
C19  22477741.724     -175806.257       -3051.819          19.000                                                                                                                                  
C22  26317553.004     -261587.510       -4332.498          24.000                                                                                                                                  
> 2021  5 17  8 40 28.0000000  0 22                     
G 2  21891724.154     -141190.248       -1879.449          17.000                                                                  
G 6                                                                  20732246.761      -23705.742        -314.037          14.000  
G 9                                                                  23617043.595     -133549.692       -1885.150          18.000  
G12  22471985.761     -226935.028          -0.011          12.000                                                                  
G14  24506835.942      212305.911        2842.041          18.000                                                                  
G17  21823112.517       40288.749         552.102          24.000                                                                  
G19  20464859.509      -18368.954        -226.593          26.000                                                                  
G28  22890040.073      167280.559        2268.292          24.000                                                                  
R 7  20557412.907     -258613.024       -3416.038          23.000  
R 8  23165889.439     -229909.451       -5312.003          22.000  
R21  21482917.886       37749.676         580.503          25.000  
R22  20380289.671     -110199.282       -1342.082          28.000  
E20                                                                  23045271.334       -8139.600        -112.982          17.000  
E26                                                                  25189100.368        8305.637         214.242          14.000  
E29                                                                  22212148.890       -5206.151        -169.608          17.000  
E35                                                                  22706226.986      -86375.417       -1784.474          17.000  
J 3  38919616.601     -112505.430       -1635.737          25.000                                                                  
C 8  36348016.347      -37485.564        -540.570          20.000                                                                                                                                  
C10  36243397.257       -2168.815           0.006          15.000                                                                                                                                  
C13  36560065.864      -50061.990        -797.180          22.000                                                                                                                                  
C19  22477155.645     -178856.330       -3048.885          17.000                                                                                                                                  
C22  26316721.196     -265917.681       -4329.408          22.000                                                                                                                                  
> 2021  5 17  8 40 29.0000000  0 22                     
G 2  21891366.612     -143069.621       -1879.542          17.000                                                                  
G 6                                                                  20732166.430      -24021.616        -316.714          13.000  
G 9                                                                  23616567.863     -135433.042       -1881.667          17.000  
G12  22471413.902     -229940.484          -0.011          13.000                                                                  
G14  24507373.976      215146.761        2841.393          18.000                                                                  
G17  21823215.452       40840.652         551.759          25.000                                                                  
G19  20464817.132      -18594.452        -223.439          25.000                                                                  
G28  22890473.895      169550.495        2270.135          26.000                                                                  
R 7  20556773.959     -262029.426       -3418.029          21.000  
R 8  23164897.638     -235219.931       -5306.577          23.000  
R21  21483024.677       38328.158         577.495          25.000  
R22  20380017.491     -111661.653       -1339.915          25.000  
E20                                                                  23045242.663       -8252.805        -112.963          16.000  
E26                                                                  25189155.000        8519.325         214.535          14.000  
E29                                                                  22212102.372       -5375.623        -169.943          18.000  
E35                                                                  22705776.289      -88159.237       -1782.037          17.000  
J 3  38919305.180     -114140.785       -1633.685          25.000                                                                  
C 8  36347912.152      -38026.004        -541.365          20.000                                                                                                                                  
C10  36243391.695       -2194.124           0.006          15.000                                                                                                                                  
C13  36559911.897      -50859.225        -796.318          21.000                                                                                                                                  
C19  22476570.273     -181905.968       -3052.416          17.000                                                                                                                                  
C22  26315889.204     -270247.473       -4330.921          21.000                                                                                                                                  
> 2021  5 17  8 40 30.0000000  0 22                     
G 2  21891006.740     -144946.592       -1876.762          18.000                                                                  
G 6  20732079.406      -33991.587        -418.364          25.000                                                                  
G 9                                                                  23616086.686     -137314.810       -1882.438          17.000  
G12  22470842.004     -232945.916          -0.011          14.000                                                                  
G14  24507913.877      217990.194        2846.024          17.000                                                                  
G17  21823320.707       41392.555         552.378          24.000                                                                  
G19  20464776.029      -18820.044        -226.433          26.000                                                                  
G28  22890906.629      171821.024        2269.636          24.000                                                                  
R 7  20556140.930     -265447.549       -3416.833          20.000  
R 8  23163907.295     -240527.928       -5308.016          25.000  
R21  21483132.995       38905.679         578.987          24.000  
R22  20379743.601     -113123.291       -1341.159          24.000  
E20                                                                  23045214.219       -8365.125        -112.375          17.000  
E26                                                                  25189208.899        8733.270         213.417          14.000  
E29                                                                  22212062.376       -5545.931        -169.702          18.000  
E35                                                                  22705327.077      -89940.246       -1781.138          17.000  
J 3  38918991.687     -115775.690       -1636.140          23.000                                                                  
C 8  36347808.402      -38566.620        -541.334          20.000                                                                                                                                  
C10  36243386.579       -2220.957           0.006          13.000                                                                                                                                  
C13  36559759.508      -51655.109        -795.905          22.000                                                                                                                                  
C19  22475985.364     -184956.167       -3049.707          22.000                                                                                                                                  
C22  26315056.798     -274578.745       -4331.767          23.000                                                                                                                                  
> 2021  5 17  8 40 31.0000000  0 22                     
G 2  21890649.713     -146823.184       -1878.169          19.000                                                                  
G 6  20732001.043      -34409.774        -419.019          25.000                                                                  
G 9                                                                  23615607.682     -139195.230       -1880.344          17.000  
G12  22470270.202     -235951.142          -0.011          13.000                                                                  
G14  24508458.680      220836.073        2845.907          20.000                                                                  
G17  21823426.894       41944.093         550.604          24.000                                                                  
G19  20464733.529      -19046.274        -225.588          25.000                                                                  
G28  22891337.375      174090.170        2268.347          24.000                                                                  
R 7  20555502.208     -268865.194       -3417.391          21.000  
R 8  23162915.917     -245837.673       -5309.263          25.000  
R21  21483241.588       39483.621         577.947          22.000  
R22  20379469.738     -114585.882       -1341.725          26.000  
E20                                                                  23045187.931       -8477.362        -111.436          17.000  
E26                                                                  25189263.667        8947.435         214.925          14.000  
E29                                                                  22212018.328       -5714.730        -167.877          17.000  
E35                                                                  22704874.470      -91721.037       -1780.099          17.000  
J 3  38918678.848     -117411.468       -1635.924          22.000                                                                  
C 8  36347705.000      -39107.209        -540.740          19.000                                                                                                                                  
C10  36243380.965       -2250.350           0.006          14.000                                                                                                                                  
C13  36559606.831      -52451.629        -796.658          22.000                                                                                                                                  
C19  22475399.534     -188005.920       -3049.837          20.000                                                                                                                                  
C22  26314225.025     -278909.487       -4331.476          22.000                                                                                                                                  
> 2021  5 17  8 40 32.0000000  0 22                     
G 2  21890291.582     -148702.168       -1878.730          19.000                                                                  
G 6  20731920.481      -34829.522        -417.094          25.000                                                                  
G 9                                                                  23615130.070     -141077.093       -1883.073          17.000  
G12  22469698.692     -238954.527          -0.011          17.000                                                                  
G14  24508999.116      223681.216        2845.292          19.000                                                                  
G17  21823532.468       42495.821         552.458          24.000                                                                  
G19  20464690.070      -19272.068        -224.770          25.000                                                                  
G28  22891769.976      176359.533        2270.534          24.000                                                                  
R 7  20554863.378     -272282.198       -3415.772          20.000  
R 8  23161924.091     -251146.364       -5309.210          23.000  
R21  21483349.182       40060.733         577.059          22.000  
R22  20379195.045     -116047.947       -1339.920          27.000  
E20                                                                  23045157.650       -8588.634        -110.960          17.000  
E26                                                                  25189315.625        9162.676         214.822          15.000  
E29                                                                  22211974.096       -5883.303        -168.784          20.000  
E35                                                                  22704421.152      -93500.634       -1778.878          18.000  
J 3  38918366.498     -119046.273       -1634.994          23.000                                                                  
C 8  36347602.118      -39648.805        -541.733          20.000                                                                                                                                  
C10  36243379.653       -2279.340           0.006          15.000                                                                                                                                  
C13  36559454.023      -53248.188        -796.077          24.000                                                                                                                                  
C19  22474813.621     -191055.666       -3049.910          18.000                                                                                                                                  
C22  26313393.688     -283241.042       -4330.631          24.000                                                                                                                                  
> 2021  5 17  8 40 33.0000000  0 22                     
G 2  21889930.821     -150579.968       -1875.854          17.000                                                                  
G 6  20731842.118      -35247.220        -418.002          26.000                                                                  
G 9                                                                  23614648.122     -142958.952       -1881.634          17.000  
G12  22469127.439     -241956.667          -0.011          18.000                                                                  
G14  24509540.818      226527.798        2847.624          19.000                                                                  
G17  21823636.995       43048.758         552.644          23.000                                                                  
G19  20464646.843      -19497.030        -225.667          26.000                                                                  
G28  22892200.547      178629.400        2269.797          24.000                                                                  
R 7  20554225.605     -275697.639       -3415.411          19.000  
R 8  23160931.544     -256456.537       -5310.801          22.000  
R21  21483457.107       40638.828         577.349          19.000  
R22  20378921.439     -117509.495       -1339.912          28.000  
E20                                                                  23045129.673       -8699.115        -110.804          17.000  
E26                                                                  25189370.458        9377.188         213.979          14.000  
E29                                                                  22211931.343       -6050.033        -165.134          19.000  
E35                                                                  22703966.316      -95280.495       -1780.340          17.000  
J 3  38918056.835     -120680.673       -1634.311          23.000                                                                  
C 8  36347498.809      -40188.283        -537.321          19.000                                                                                                                                  
C10  36243373.844       -2309.701           0.006          15.000                                                                                                                                  
C13  36559301.054      -54044.185        -796.392          23.000                                                                                                                                  
C19  22474227.547     -194107.214       -3051.571          16.000                                                                                                                                  
C22  26312561.487     -287573.623       -4332.826          25.000                                                                                                                                  
> 2021  5 17  8 40 34.0000000  0 22                     
G 2  21889583.295     -152455.947       -1876.910          20.000                                                                  
G 6  20731761.651      -35663.925        -416.806          22.000                                                                  
G 9                                                                  23614168.040     -144840.045       -1880.688          16.000  
G12  22468570.382     -244960.337          -0.011          18.000                                                                  
G14  24510081.250      229374.137        2844.353          19.000                                                                  
G17  21823742.242       43603.113         554.558          25.000                                                                  
G19  20464604.609      -19721.709        -225.034          25.000                                                                  
G28  22892633.356      180900.457          -0.010          24.000                                                                  
R 7  20553587.730     -279113.122       -3415.889          21.000  
R 8  23159939.120     -261767.005       -5310.738          23.000  
R21  21483565.286       41215.330         575.872          19.000  
R22  20378647.981     -118968.815       -1339.664          27.000  
E20                                                                  23045104.955       -8808.350        -108.059          18.000  
E26                                                                  25189425.051        9590.739         213.782          14.000  
E29                                                                  22211888.031       -6217.255        -167.352          19.000  
E35                                                                  22703513.786      -97060.942       -1779.932          17.000  
J 3  38917745.881     -122314.971       -1635.513          17.000                                                                  
C 8  36347395.499      -40726.421        -537.554          18.000                                                                                                                                  
C10  36243368.156       -2339.423           0.006          15.000                                                                                                                                  
C13  36559148.338      -54839.838        -795.304          24.000                                                                                                                                  
C19  22473641.385     -197157.203       -3048.990          21.000                                                                                                                                  
C22  26311729.657     -291906.085       -4332.435          24.000                                                                                                                                  
> 2021  5 17  8 40 35.0000000  0 22                     
G 2  21889227.088     -154334.515       -1881.304          17.000                                                                  
G 6  20731681.108      -36080.607        -416.675          24.000                                                                  
G 9                                                                  23613689.088     -146721.962       -1881.284          17.000  
G12  22468009.460     -247962.560          -0.011          17.000                                                                  
G14  24510623.112      232217.694        2844.652          19.000                                                                  
G17  21823849.128       44155.245         551.652          25.000                                                                  
G19  20464561.962      -19945.703        -222.512          25.000                                                                  
G28  22893063.103      183171.995        2270.961          22.000                                                                  
R 7  20552949.667     -282528.936       -3416.745          21.000  
R 8  23158948.545     -267077.628       -5311.249          24.000  
R21  21483672.892       41793.919         580.604          18.000  
R22  20378375.975     -120430.308       -1341.374          30.000  
E20                                                                  23045075.857       -8916.269        -108.868          18.000  
E26                                                                  25189486.632        9805.198         215.744          14.000  
E29                                                                  22211845.091       -6387.286        -169.967          19.000  
E35                                                                  22703060.334      -98841.618       -1781.563          18.000  
J 3  38917435.738     -123949.474       -1633.285          22.000                                                                  
C 8  36347292.168      -41266.328        -540.856          19.000                                                                                                                                  
C10  36243362.154       -2368.630         -29.328          13.000                                                                                                                                  
C13  36558996.109      -55634.234        -792.646          25.000                                                                                                                                  
C19  22473056.781     -200206.186       -3049.092          24.000                                                                                                                                  
C22  26310897.862     -296238.632       -4333.610          24.000                                                                                                                                  
> 2021  5 17  8 40 36.0000000  0 22                     
G 2  21888869.150     -156215.721       -1881.379          19.000                                                                  
G 6  20731601.344      -36497.371        -416.612          20.000                                                                  
G 9                                                                  23613209.888     -148603.117       -1880.527          17.000  
G12  22467445.284     -250963.719       -2999.951          18.000                                                                  
G14  24511165.829      235062.794        2844.053          17.000                                                                  
G17  21823952.713       44708.068         556.328          27.000                                                                  
G19  20464519.855      -20169.552        -225.737          25.000                                                                  
G28  22893493.212      185442.745        2270.979          24.000                                                                  
R 7  20552311.416     -285945.032       -3415.408          21.000  
R 8  23157955.911     -272389.093       -5310.471          23.000  
R21  21483779.292       42374.600         579.979          17.000  
R22  20378103.900     -121892.969       -1340.863          29.000  
E20                                                                  23045047.714       -9025.961        -111.426          17.000  
E26                                                                  25189542.071       10021.975         218.028          14.000  
E29                                                                  22211802.163       -6555.242        -165.783          18.000  
E35                                                                  22702607.312     -100623.620       -1782.219          17.000  
J 3  38917125.853     -125583.202       -1633.628          24.000                                                                  
C 8  36347188.627      -41805.677        -538.635          18.000                                                                                                                                  
C10  36243356.384       -2398.835         -29.210          16.000                                                                                                                                  
C13  36558843.363      -56429.017        -795.470          24.000                                                                                                                                  
C19  22472471.693     -203254.550       -3047.777          25.000                                                                                                                                  
C22  26310065.748     -300571.023       -4330.766          24.000                                                                                                                                  
> 2021  5 17  8 40 37.0000000  0 22                     
G 2  21888509.727     -158093.177       -1874.723          17.000                                                                  
G 6  20731522.396      -36912.733        -413.901          24.000                                                                  
G 9                                                                  23612732.803     -150481.763       -1878.157          17.000  
G12  22466874.586     -253962.966       -2999.543          16.000                                                                  
G14  24511706.197      237906.495        2843.846          17.000                                                                  
G17  21824057.471       45262.662           0.013          26.000                                                                  
G19  20464476.836      -20396.300        -225.468          17.000                                                                  
G28  22893925.379      187714.875        2272.874          26.000                                                                  
R 7  20551673.668     -289359.082       -3412.042          21.000  
R 8  23156967.350     -277699.833       -5310.235          25.000  
R21  21483887.304       42952.695         577.176          17.000  
R22  20377828.444     -123352.249       -1338.100          28.000  
E20                                                                  23045019.611       -9137.165        -109.355          17.000  
E26                                                                  25189598.270       10240.999         220.263          14.000  
E29                                                                  22211760.531       -6718.722        -162.781          16.000  
E35                                                                  22702153.192     -102406.312       -1784.730          12.000  
J 3  38916813.446     -127217.375       -1634.882          22.000                                                                  
C 8  36347085.086      -42345.658        -538.924          19.000                                                                                                                                  
C10  36243348.520       -2426.786         -26.170          18.000                                                                                                                                  
C13  36558690.389      -57224.988        -796.394          23.000                                                                                                                                  
C19  22471887.403     -206302.331       -3047.140          25.000                                                                                                                                  
C22  26309234.406     -304901.499       -4331.141          23.000                                                                                                                                  
> 2021  5 17  8 40 38.0000000  0 22                     
G 2  21888152.722     -159969.375       -1876.426          17.000                                                                  
G 6  20731445.359      -37326.572        -415.104          30.000                                                                  
G 9                                                                  23612253.215     -152358.504       -1875.052          18.000  
G12  22466303.891     -256962.217       -2999.323          14.000                                                                  
G14  24512247.662      240751.847        2847.189          20.000                                                                  
G17  21824164.073       45816.759         554.255          28.000                                                                  
G19  20464433.713      -20622.920        -221.036          18.000                                                                  
G28  22894357.373      189986.768        2270.209          24.000                                                                  
R 7  20551037.162     -292770.801       -3411.061          25.000  
R 8  23155976.867     -283009.640       -5310.053          24.000  
R21  21483981.317       43529.000         576.975          15.000  
R22  20377555.462     -124812.521       -1340.010          27.000  
E20                                                                  23044991.865       -9246.722        -109.830          19.000  
E26                                                                  25189654.337       10460.376         218.956          14.000  
E29                                                                  22211720.972       -6884.503        -166.922          16.000  
E35                                                                  22701699.136     -104188.911       -1780.270          13.000  
J 3  38916500.306     -128853.058       -1635.677          20.000                                                                  
C 8  36346981.859      -42883.536        -538.774          19.000                                                                                                                                  
C10  36243346.266       -2451.833         -24.020          17.000                                                                                                                                  
C13  36558537.656      -58020.803        -796.657          18.000                                                                                                                                  
C19  22471302.755     -209348.303       -3045.293          23.000                                                                                                                                  
C22  26308401.935     -309233.667       -4332.792          22.000                                                                                                                                  
> 2021  5 17  8 40 39.0000000  0 22                     
G 2  21887804.014     -161847.010       -1877.417          17.000                                                                  
G 6  20731369.277      -37742.055        -414.541          30.000                                                                  
G 9                                                                  23611775.214     -154235.352       -1876.716          22.000  
G12  22465733.228     -259960.914          -0.011          13.000                                                                  
G14  24512788.155      243599.404        2847.958          17.000                                                                  
G17  21824270.275       46372.000         554.621          25.000                                                                  
G19  20464377.310      -20844.126        -220.839          22.000                                                                  
G28  22894788.781      192257.156        2270.044          24.000                                                                  
R 7  20550400.875     -296181.712       -3410.135          25.000  
R 8  23154983.605     -288320.259       -5309.594          20.000  
R21  21484089.334       44106.991         577.820          16.000  
R22  20377280.861     -126274.559       -1339.853          28.000  
E20                                                                  23044963.334       -9354.806        -106.993          20.000  
E26                                                                  25189710.331       10679.427         218.506          14.000  
E29                                                                  22211678.310       -7052.556        -168.958          17.000  
E35                                                                  22701246.132     -105967.995       -1779.060          15.000  
J 3  38916189.225     -130488.134       -1636.757          17.000                                                                  
C 8  36346878.624      -43422.320        -538.045          18.000                                                                                                                                  
C10  36243341.716       -2475.719         -23.637          16.000                                                                                                                                  
C13  36558384.822      -58816.460        -796.788          17.000                                                                                                                                  
C19  22470717.614     -212394.577       -3045.426          21.000                                                                                                                                  
C22  26307570.149     -313565.910       -4333.736          20.000                                                                                                                                  
> 2021  5 17  8 40 40.0000000  0 22                     
G 2  21887447.110     -163722.736       -1876.056          18.000                                                                  
G 6  20731292.785      -38155.592        -412.091          29.000                                                                  
G 9                                                                  23611294.151     -156113.263       -1878.750          21.000  
G12  22465162.665     -262959.187          -0.011          16.000                                                                  
G14  24513330.126      246447.488        2849.462          17.000                                                                  
G17  21824376.699       46926.885         554.197          24.000                                                                  
G19  20464340.901      -21065.516        -221.901          20.000                                                                  
G28  22895220.700      194529.722        2273.935          21.000                                                                  
R 7  20549763.280     -299591.831       -3409.486          26.000  
R 8  23153991.625     -293629.599       -5309.621          23.000  
R21  21484197.421       44685.613         579.487          20.000  
R22  20377009.257     -127735.195       -1339.672          28.000  
E20                                                                  23044935.588       -9461.956        -106.830          21.000  
E26                                                                  25189759.837       10897.922         218.773          14.000  
E29                                                                  22211633.149       -7221.584        -169.895          17.000  
E35                                                                  22700789.818     -107747.309       -1780.626          17.000  
J 3  38915876.509     -132126.104       -1639.872          14.000                                                                  
C 8  36346775.113      -43960.549        -537.932          18.000                                                                                                                                  
C10  36243341.116       -2497.707         -20.826          13.000                                                                                                                                  
C13  36558231.661      -59614.265        -797.600          17.000                                                                                                                                  
C19  22470132.548     -215438.702       -3043.846          21.000                                                                                                                                  
C22  26306737.568     -317898.277       -4333.610          20.000                                                                                                                                  
> 2021  5 17  8 40 41.0000000  0 22                     
G 2  21887079.726     -165598.480       -1875.257          17.000                                                                  
G 6  20731214.583      -38570.037        -416.289          30.000                                                                  
G 9                                                                  23610815.770     -157990.972       -1877.151          22.000  
G12  22464590.623     -265959.133          -0.011          14.000                                                                  
G14  24513853.602      249296.446        2848.989          18.000                                                                  
G17  21824481.374       47481.805         553.245          20.000                                                                  
G19  20464300.169      -21287.591        -222.120          21.000                                                                  
G28  22895653.158      196802.063        2272.620          22.000                                                                  
R 7  20549125.644     -303003.626       -3412.737          24.000  
R 8  23153000.235     -298940.102       -5310.428          25.000  
R21  21484299.213       45266.057         580.514          18.000  
R22  20376735.075     -129194.980       -1338.673          28.000  
E20                                                                  23044908.925       -9569.073        -107.096          21.000  
E26                                                                  25189815.874       11117.124         218.951          14.000  
E29                                                                  22211591.103       -7392.511        -170.741          14.000  
E35                                                                  22700336.260     -109527.866       -1781.032          15.000  
J 3  38915564.660     -133764.996       -1637.793          15.000                                                                  
C 8  36346671.402      -44499.301        -539.188          17.000                                                                                                                                  
C10  36243336.877       -2520.079         -21.180          13.000                                                                                                                                  
C13  36558078.735      -60410.922        -794.991          17.000                                                                                                                                  
C19  22469547.411     -218483.029       -3043.372          18.000                                                                                                                                  
C22  26305905.123     -322229.512       -4330.426          20.000                                                                                                                                  
> 2021  5 17  8 40 42.0000000  0 22                     
G 2  21886722.851     -167473.802       -1875.331          15.000                                                                  
G 6  20731137.925      -38984.464        -412.857          34.000                                                                  
G 9                                                                  23610339.170     -159868.455       -1878.015          19.000  
G12  22464019.889     -268958.301          -0.011          14.000                                                                  
G14  24514395.890      252146.030        2849.146          19.000                                                                  
G17  21824587.454       48035.495         555.046          20.000                                                                  
G19  20464275.089      -21509.051        -221.157          23.000                                                                  
G28  22896085.024      199075.545        2274.286          28.000                                                                  
R 7  20548487.547     -306415.679       -3410.884          20.000  
R 8  23152008.508     -304249.138       -5309.742          27.000  
R21  21484407.770       45847.306         582.868          16.000  
R22  20376460.657     -130655.370       -1340.506          29.000  
E20                                                                  23044884.870       -9675.479        -105.905          21.000  
E26                                                                  25189875.881       11335.519         219.386          14.000  
E29                                                                  22211547.285       -7563.312        -170.174          15.000  
E35                                                                  22699881.712     -111309.202       -1780.991          12.000  
J 3  38915253.388     -135400.905       -1632.106          16.000                                                                  
C 8  36346568.241      -45037.409        -538.351          23.000                                                                                                                                  
C10  36243333.039       -2540.248         -19.071          16.000                                                                                                                                  
C13  36557926.042      -61205.463        -793.659          15.000                                                                                                                                  
C19  22468962.990     -221526.466       -3043.607          14.000                                                                                                                                  
C22  26305073.502     -326558.927       -4327.730          19.000                                                                                                                                  
> 2021  5 17  8 40 43.0000000  0 22                     
G 2  21886366.130     -169348.621           0.003          16.000                                                                  
G 6  20731058.381      -39398.904        -413.223          34.000                                                                  
G 9                                                                  23609861.366     -161744.807       -1875.837          18.000  
G12  22463449.243     -271957.252          -0.011          15.000                                                                  
G14  24514934.144      254992.655        2846.264          19.000                                                                  
G17  21824692.967       48589.728         553.368          17.000                                                                  
G19  20464233.375      -21729.866        -219.818          25.000                                                                  
G28  22896521.585      201348.998        2272.483          29.000                                                                  
R 7  20547850.138     -309825.518       -3408.981          21.000  
R 8  23151017.074     -309561.047       -5311.393          27.000  
R21  21484517.122       46432.810         586.651          14.000  
R22  20376188.957     -132114.888       -1340.323          29.000  
E20                                                                  23044858.729       -9781.470        -106.457          22.000  
E26                                                                  25189932.049       11555.259         219.078          15.000  
E29                                                                  22211504.083       -7733.546        -170.040          16.000  
E35                                                                  22699427.931     -113090.625       -1781.762          15.000  
J 3  38914942.508     -137034.845       -1633.480          18.000                                                                  
C 8  36346464.438      -45575.921        -538.269          24.000                                                                                                                                  
C10  36243328.852       -2560.754         -21.842          18.000                                                                                                                                  
C13  36557773.788      -61998.441        -791.434          14.000                                                                                                                                  
C19  22468378.098     -224572.788       -3050.368          14.000                                                                                                                                  
C22  26304242.100     -330888.372       -4330.690          21.000                                                                                                                                  
> 2021  5 17  8 40 44.0000000  0 22                     
G 2  21886009.434     -171223.279           0.003          17.000                                                                  
G 6                                                                  20730979.752        -418.950        -309.534          18.000  
G 9                                                                  23609383.461     -163620.182       -1875.749          19.000  
G12  22462878.955     -274954.234          -0.011          16.000                                                                  
G14  24515479.780      257838.649        2845.214          19.000                                                                  
G17  21824799.112       49143.147         553.058          17.000                                                                  
G19  20464192.193      -21950.089        -220.390          23.000                                                                  
G28  22896956.065      203621.546        2273.681          30.000                                                                  
R 7  20547213.192     -313234.509       -3407.974          22.000  
R 8  23150024.414     -314872.919       -5309.585          24.000  
R21  21484643.414       47018.748         586.091          16.000  
R22  20375913.985     -133574.385       -1337.114          28.000  
E20                                                                  23044831.232       -9885.641        -101.005          22.000  
E26                                                                  25189988.068       11774.363         219.996          15.000  
E29                                                                  22211461.072       -7903.040        -168.571          16.000  
E35                                                                  22698974.238     -114871.705       -1782.457          14.000  
J 3  38914643.751     -138668.081       -1632.642          17.000                                                                  
C 8  36346360.740      -46113.981        -537.666          25.000                                                                                                                                  
C10  36243319.883       -2583.649         -23.642          17.000                                                                                                                                  
C13  36557620.963      -62789.645           0.024          14.000                                                                                                                                  
C19  22467792.687     -227621.290       -3047.459          16.000                                                                                                                                  
C22  26303410.484     -335220.008       -4331.006          19.000                                                                                                                                  
> 2021  5 17  8 40 45.0000000  0 22                     
G 2  21885652.739     -173097.591           0.003          16.000                                                                  
G 6                                                                  20730900.001        -729.764        -312.171          16.000  
G 9                                                                  23608905.482     -165496.514       -1876.545          18.000  
G12  22462309.077     -277949.167          -0.011          14.000                                                                  
G14  24516035.761      260685.711        2847.100          23.000                                                                  
G17  21824904.773       49698.162         556.850          14.000                                                                  
G19  20464150.265      -22169.234        -219.355          20.000                                                                  
G28  22897389.485      205896.191        2274.313          28.000                                                                  
R 7  20546576.181     -316641.874       -3407.246          22.000  
R 8  23149031.619     -320182.837       -5310.488          23.000  
R21  21484753.075       47605.307         586.635          16.000  
R22  20375640.846     -135033.959       -1340.018          28.000  
E20                                                                  23044804.114       -9990.913        -103.947          21.000  
E26                                                                  25190044.590       11995.499         221.981          14.000  
E29                                                                  22211422.263       -8069.738        -165.451          14.000  
E35                                                                  22698519.472     -116656.895       -1786.782          10.000  
J 3  38914332.705     -140302.979       -1636.676          18.000                                                                  
C 8  36346257.579      -46653.796        -538.585          23.000                                                                                                                                  
C10  36243315.793       -2605.176         -20.068          17.000                                                                                                                                  
C13  36557469.328      -63579.534           0.024          18.000                                                                                                                                  
C19  22467210.168     -230666.664       -3043.067          15.000                                                                                                                                  
C22  26302578.099     -339552.491       -4332.685          20.000                                                                                                                                  
> 2021  5 17  8 40 46.0000000  0 22                     
G 2  21885291.174     -174972.485       -1874.590          16.000                                                                  
G 6                                                                  20730823.047       -1040.107        -309.331          17.000  
G 9                                                                  23608427.050     -167372.034       -1875.065          20.000  
G12  22461739.346     -280943.560          -0.011          15.000                                                                  
G14  24516590.995      263532.601        2846.876          22.000                                                                  
G17  21825012.099       50255.779           0.013          15.000                                                                  
G19  20464108.861      -22388.754        -218.426          21.000                                                                  
G28  22897806.009      208170.361        2274.785          25.000                                                                  
R 7  20545939.256     -320047.968       -3405.984          23.000  
R 8  23148041.673     -325492.397       -5308.955          24.000  
R21  21484875.070       48190.962         585.404          13.000  
R22  20375367.396     -136491.608       -1337.549          28.000  
E20                                                                  23044777.752      -10095.121        -102.961          22.000  
E26                                                                  25190101.460       12217.968         222.271          14.000  
E29                                                                  22211380.212       -8237.318        -168.304          15.000  
E35                                                                  22698064.683     -118442.369       -1782.216          12.000  
J 3  38914021.603     -141937.973       -1634.263          20.000                                                                  
C 8  36346154.444      -47192.789        -538.223          24.000                                                                                                                                  
C10  36243311.890       -2625.733         -19.873          16.000                                                                                                                                  
C13  36557316.098      -64371.527        -792.713          18.000                                                                                                                                  
C19  22466625.630     -233710.685       -3042.235          17.000                                                                                                                                  
C22  26301746.195     -343883.756       -4332.343          20.000                                                                                                                                  
> 2021  5 17  8 40 47.0000000  0 22                     
G 2  21884934.379     -176847.491       -1875.167          16.000                                                                  
G 6                                                                  20730744.967       -1348.450        -308.264          19.000  
G 9                                                                  23607948.426     -169247.857       -1878.062          20.000  
G12  22461169.381     -283939.013          -0.011          16.000                                                                  
G14  24517130.266      266378.514        2844.887          20.000                                                                  
G17  21825118.244       50813.442           0.013          13.000                                                                  
G19  20464067.064      -22605.140        -215.351          22.000                                                                  
G28  22898235.855      210444.550        2275.507          25.000                                                                  
R 7  20545304.523     -323453.227       -3406.510          24.000  
R 8  23147051.857     -330801.211       -5308.775          26.000  
R21  21484984.295       48775.129         583.370          13.000  
R22  20375094.362     -137950.224       -1337.842          29.000  
E19                                                                  22466036.170       -6735.272       -2293.859          19.000  
E20                                                                  23044751.249      -10199.534        -104.634          23.000  
E26                                                                  25190158.121       12439.636         221.655          14.000  
E29                                                                  22211337.887       -8404.184        -163.784          15.000  
J 3  38913678.710     -143572.889       -1634.990          21.000                                                                  
C 8  36346051.361      -47731.234        -539.821          26.000                                                                                                                                  
C10  36243312.436       -2645.862         -20.657          14.000                                                                                                                                  
C13  36557164.895      -65164.705        -792.734          17.000                                                                                                                                  
C22  26300914.675     -348217.794       -4333.254          25.000                                                                                                                                  
C35  22697624.806     -226266.734       -2360.238          15.000                                                                                                                                  
> 2021  5 17  8 40 48.0000000  0 22                     
G 2  21884586.460     -178722.702       -1875.298          15.000                                                                  
G 6                                                                  20730667.686       -1655.711        -307.860          18.000  
G 9                                                                  23607470.490     -171124.438       -1876.432          19.000  
G12  22460599.393     -286934.480          -0.011          14.000                                                                  
G14  24517669.467      269223.663        2845.889          18.000                                                                  
G17  21825224.730       51372.828           0.013          14.000                                                                  
G19  20464027.719      -22821.189        -217.072          22.000                                                                  
G28  22898666.775      212718.906        2272.282          26.000                                                                  
R 7  20544670.513     -326859.980       -3406.955          25.000  
R 8  23146060.423     -336110.415       -5309.830          27.000  
R21  21485093.364       49358.718         583.672          14.000  
R22  20374819.577     -139409.866       -1339.389          28.000  
E19                                                                  22465451.365       -9027.768       -2291.452          19.000  
E20                                                                  23044725.149      -10303.567        -102.420          22.000  
E26                                                                  25190214.904       12661.858         222.335          13.000  
E29                                                                  22211295.513       -8569.348        -165.681          15.000  
J 3  38913396.523     -145207.276       -1633.959          22.000                                                                  
C 8  36345947.628      -48271.764        -539.960          25.000                                                                                                                                  
C10  36243308.634       -2665.943         -18.920          13.000                                                                                                                                  
C13  36557012.785      -65956.937        -790.643          15.000                                                                                                                                  
C22  26300083.892     -352550.014       -4332.210          25.000                                                                                                                                  
C35  22697170.062     -228627.798       -2361.234          17.000                                                                                                                                  
> 2021  5 17  8 40 49.0000000  0 22                     
G 2  21884229.660     -180597.936       -1875.370          17.000                                                                  
G 6                                                                  20730589.375       -1963.700        -308.612          15.000  
G 9                                                                  23606992.040     -173000.682       -1874.742          19.000  
G12  22460031.439     -289927.875       -2991.938          14.000                                                                  
G14  24518205.175      272069.557        2847.366          20.000                                                                  
G17  21825331.560       51934.065           0.013          14.000                                                                  
G19  20463987.737      -23038.220        -216.369          25.000                                                                  
G28  22899103.595      214992.327        2273.552          28.000                                                                  
R 7  20544035.164     -330267.828       -3408.226          23.000  
R 8  23145068.662     -341418.899       -5306.439          24.000  
R21  21485202.292       49941.587          -0.005          15.000  
R22  20374546.447     -140869.758       -1337.632          26.000  
E19                                                                  22464867.306      -11319.361       -2292.350          20.000  
E20                                                                  23044699.248      -10406.644        -103.025          22.000  
E26                                                                  25190271.547       12883.471         221.598          14.000  
E29                                                                  22211253.585       -8734.567        -166.032          14.000  
J 3  38913083.676     -146840.673       -1633.472          24.000                                                                  
C 8  36345843.429      -48812.759        -540.050          23.000                                                                                                                                  
C10  36243307.003       -2686.482           0.006          14.000                                                                                                                                  
C13  36556860.733      -66748.886        -792.086          17.000                                                                                                                                  
C22  26299252.520     -356881.661       -4330.566          27.000                                                                                                                                  
C35  22696710.736     -230987.779       -2359.127          19.000                                                                                                                                  
> 2021  5 17  8 40 50.0000000  0 22                     
G 2  21883878.514     -182471.788       -1872.830          16.000                                                                  
G 6                                                                  20730510.881       -2270.881        -307.496          13.000  
G 9                                                                  23606514.633     -174875.265       -1873.523          19.000  
G12  22459462.407     -292918.149       -2988.279          11.000                                                                  
G14  24518749.398      274917.267        2848.095          18.000                                                                  
G17  21825438.805       52497.631           0.013          12.000                                                                  
G19  20463948.492      -23255.536        -218.291          24.000                                                                  
G28  22899538.970      217266.832        2274.333          27.000                                                                  
R 7  20543400.434     -333675.118       -3405.002          20.000  
R 8  23144077.816     -346724.903       -5305.607          24.000  
R21  21485311.570       50526.411          -0.005          14.000  
R22  20374272.740     -142326.923       -1335.797          27.000  
E19                                                                  22464282.353      -13612.760       -2293.386          18.000  
E20                                                                  23044673.143      -10509.420        -101.299          22.000  
E26                                                                  25190328.348       13105.573         222.163          13.000  
E29                                                                  22211211.320       -8901.089        -167.016          14.000  
J 3  38912774.541     -148473.925       -1633.603          25.000                                                                  
C 8  36345739.827      -49352.847        -539.059          26.000                                                                                                                                  
C10  36243303.169       -2706.671           0.006          13.000                                                                                                                                  
C13  36556705.207      -67542.416        -794.186          18.000                                                                                                                                  
C22  26298421.554     -361213.094       -4332.458          27.000                                                                                                                                  
C35  22696250.897     -233347.931       -2359.516          23.000                                                                                                                                  
> 2021  5 17  8 40 51.0000000  0 22                     
G 2  21883522.054     -184345.014       -1873.824          17.000                                                                  
G 6                                                                  20730432.998       -2577.233        -306.955          15.000  
G 9                                                                  23606037.086     -176748.908       -1874.684          17.000  
G12  22458893.693     -295906.765       -2989.801          14.000                                                                  
G14  24519291.412      277765.821        2847.847          18.000                                                                  
G17  21825546.233       53061.889           0.013          13.000                                                                  
G19  20463907.637      -23472.712        -215.411          21.000                                                                  
G28  22899971.883      219541.396        2276.468          25.000                                                                  
R 7  20542764.705     -337078.702       -3403.377          17.000  
R 8  23143085.833     -352034.447       -5310.548          26.000  
R21  21485424.054       51110.648         584.505          17.000  
R22  20374001.607     -143784.420       -1336.407          28.000  
E19                                                                  22463697.400      -15907.293       -2295.709          18.000  
E20                                                                  23044647.220      -10611.677        -100.685          20.000  
E26                                                                  25190384.873       13326.766         220.398          14.000  
E29                                                                  22211168.908       -9068.213        -166.642          13.000  
J 3  38912465.510     -150107.880       -1635.441          22.000                                                                  
C 8  36345636.033      -49892.264        -540.783          24.000                                                                                                                                  
C10  36243299.947       -2723.769           0.006          15.000                                                                                                                                  
C13  36556551.492      -68337.528        -796.189          20.000                                                                                                                                  
C22  26297589.462     -365546.325       -4332.176          22.000                                                                                                                                  
C35  22695798.661     -235707.805       -2359.356          23.000                                                                                                                                  
> 2021  5 17  8 40 52.0000000  0 22                     
G 2  21883170.074     -186220.353       -1874.606          20.000                                                                  
G 6                                                                  20730347.789       -2885.069        -308.599          16.000  
G 9                                                                  23605559.539     -178624.087       -1876.542          17.000  
G12  22458324.849     -298896.134          -0.011          15.000                                                                  
G14  24519833.892      280613.891        2847.915          17.000                                                                  
G17  21825653.281       53624.354           0.013          20.000                                                                  
G19  20463867.114      -23688.771        -217.238          19.000                                                                  
G28  22900404.823      221817.611        2275.880          21.000                                                                  
R 7  20542129.116     -340481.871       -3403.624          17.000  
R 8  23142093.168     -357343.169       -5308.475          23.000  
R21  21485519.394       51694.020         583.111          21.000  
R22  20373728.044     -145242.257       -1338.687          25.000  
E19                                                                  22463112.913      -18202.089       -2294.415          15.000  
E20                                                                  23044620.500      -10714.663        -103.913          18.000  
E26                                                                  25190441.717       13549.062         222.789          14.000  
E29                                                                  22211127.267       -9232.348        -164.193          14.000  
J 3  38912154.281     -151743.139       -1634.708          24.000                                                                  
C 8  36345532.531      -50431.684        -538.348          23.000                                                                                                                                  
C10  36243295.088       -2740.146           0.006          13.000                                                                                                                                  
C13  36556398.893      -69132.451        -794.786          16.000                                                                                                                                  
C22  26296758.055     -369878.670       -4331.904          21.000                                                                                                                                  
C35  22695343.558     -238068.912       -2361.313          24.000                                                                                                                                  
> 2021  5 17  8 40 53.0000000  0 22                     
G 2  21882813.565     -188094.066       -1874.236          16.000                                                                  
G 6                                                                  20730269.849       -3191.701        -304.250          16.000  
G 9                                                                  23605081.159     -180499.047       -1873.021          17.000  
G12  22457755.983     -301885.686          -0.011          15.000                                                                  
G14  24520375.957      283462.045        2848.092          17.000                                                                  
G17  21825764.673       54185.758         562.168          22.000                                                                  
G19  20463822.285      -23903.963        -213.259          21.000                                                                  
G28  22900837.816      224094.112        2277.506          22.000                                                                  
R 7  20541494.748     -343884.742       -3402.915          18.000  
R 8  23141101.376     -362651.285       -5307.756          27.000  
R21  21485634.661       52276.040         581.947          24.000  
R22  20373455.084     -146700.592       -1337.753          25.000  
E19                                                                  22462527.882      -20498.522       -2295.186          14.000  
E20                                                                  23044594.866      -10816.038         -99.052          17.000  
E26                                                                  25190501.816       13772.794         224.987          14.000  
E29                                                                  22211085.705       -9396.137        -165.132          17.000  
J 3  38911842.289     -153377.966       -1635.376          22.000                                                                  
C 8  36345429.156      -50971.083        -540.581          24.000                                                                                                                                  
C10  36243292.014       -2756.447           0.006          16.000                                                                                                                                  
C13  36556246.360      -69926.946        -794.371          15.000                                                                                                                                  
C22  26295926.517     -374210.983       -4332.345          24.000                                                                                                                                  
C35  22694891.296     -240429.424       -2360.504          24.000                                                                                                                                  
> 2021  5 17  8 40 54.0000000  0 22                     
G 2  21882457.135     -189967.329       -1873.615          18.000                                                                  
G 6                                                                  20730198.392       -3496.689        -304.361          20.000  
G 9                                                                  23604606.356     -182370.654       -1871.169          14.000  
G12  22457201.797     -304874.455          -0.011          15.000                                                                  
G14  24520915.651      286309.546        2848.451          17.000                                                                  
G17  21825880.014       54746.736         561.500          20.000                                                                  
G19  20463778.316      -24118.486        -216.974          33.000                                                                  
G28  22901275.319      226372.556        2278.556          24.000                                                                  
R 7  20540843.481     -347286.134       -3399.652          24.000  
R 8  23140109.301     -367960.197       -5309.166          22.000  
R21  21485743.341       52858.519         584.107          27.000  
R22  20373183.113     -148157.536       -1335.456          24.000  
E19                                                                  22461943.601      -22792.116       -2290.955          15.000  
E20                                                                  23044571.496      -10915.072         -96.955          15.000  
E26                                                                  25190559.332       13997.791         225.468          12.000  
E29                                                                  22211043.175       -9562.083        -166.501          15.000  
J 3  38911529.568     -155011.890       -1633.817          27.000                                                                  
C 8  36345324.961      -51511.970        -540.120          24.000                                                                                                                                  
C10  36243287.888       -2771.707         -15.828          19.000                                                                                                                                  
C13  36556088.971      -70721.454        -793.903          20.000                                                                                                                                  
C22  26295094.630     -378543.096       -4330.722          21.000                                                                                                                                  
C35  22694438.035     -242790.162       -2365.072          19.000                                                                                                                                  
> 2021  5 17  8 40 55.0000000  0 22                     
G 2  21882093.442     -191841.178       -1873.712          21.000                                                                  
G 6                                                                  20730121.097       -3800.754        -301.954          15.000  
G 9                                                                  23604129.891     -184241.097       -1869.815          14.000  
G12  22456633.140     -307862.674          -0.011          13.000                                                                  
G14  24521457.683      289157.476        2847.897          16.000                                                                  
G17  21825981.343       55307.979         561.899          18.000                                                                  
G19  20463736.728      -24333.415        -214.238          34.000                                                                  
G28  22901708.363      228648.195        2274.660          18.000                                                                  
R 7  20540219.081     -350687.211       -3399.779          31.000  
R 8  23139118.761     -373268.725       -5307.583          26.000  
R21  21485850.590       53442.312         583.353          29.000  
R22  20372910.017     -149614.059       -1337.013          22.000  
E19                                                                  22461359.751      -25083.914       -2291.491          14.000  
E20                                                                  23044544.727      -11012.556         -97.220          19.000  
E26                                                                  25190611.294       14222.973         225.240          14.000  
E29                                                                  22211000.993       -9728.337        -164.551          13.000  
J 3  38911215.708     -156646.543       -1632.867          32.000                                                                  
C 8  36345220.377      -52052.630        -540.837          24.000                                                                                                                                  
C10  36243289.015       -2787.817         -15.173          20.000                                                                                                                                  
C13  36555936.199      -71517.366        -797.600          18.000                                                                                                                                  
C22  26294263.420     -382874.713       -4332.396          21.000                                                                                                                                  
C35  22693984.713     -245151.715       -2359.615          19.000                                                                                                                                  
> 2021  5 17  8 40 56.0000000  0 22                     
G 2  21881730.408     -193715.067       -1874.831          17.000                                                                  
G 6                                                                  20730041.207       -4103.797        -304.259          17.000  
G 9                                                                  23603653.251     -186112.146       -1872.584          12.000  
G12  22456064.758     -310849.602          -0.011          13.000                                                                  
G14  24521989.115      292004.522        2847.237          16.000                                                                  
G17  21826081.996       55870.792         562.363          17.000                                                                  
G19  20463696.702      -24545.677        -210.729          33.000                                                                  
G28  22902140.985      230921.504        2274.336          21.000                                                                  
R 7  20539585.346     -354084.029       -3396.142          23.000  
R 8  23138127.639     -378576.770       -5307.272          18.000  
R21  21485960.466       54025.973         582.802          26.000  
R22  20372636.913     -151072.268       -1338.527          24.000  
E19                                                                  22460775.889      -27375.750       -2293.234          13.000  
E20                                                                  23044519.717      -11111.099         -99.632          17.000  
E26                                                                  25190669.028       14448.784         226.658          14.000  
E29                                                                  22210959.339       -9892.524        -163.220          12.000  
J 3  38910903.345     -158280.390       -1635.050          31.000                                                                  
C 8  36345116.701      -52592.134        -540.388          23.000                                                                                                                                  
C10  36243288.672       -2804.273         -17.142          22.000                                                                                                                                  
C13  36555780.390      -72314.322        -796.661          18.000                                                                                                                                  
C22  26293432.240     -387205.470       -4330.142          19.000                                                                                                                                  
C35  22693531.901     -247511.842       -2362.166          20.000                                                                                                                                  
> 2021  5 17  8 40 57.0000000  0 22                     
G 2  21881370.767     -195588.779       -1872.458          27.000                                                                  
G 6                                                                  20729958.626       -4408.811        -306.298          22.000  
G 9                                                                  23603176.494     -187983.735       -1871.544          15.000  
G12  22455496.415     -313836.342          -0.011          14.000                                                                  
G14  24522531.149      294852.488        2847.551          17.000                                                                  
G17  21826186.565       56432.579         563.299          22.000                                                                  
G19  20463658.208      -24758.269        -211.581          37.000                                                                  
G28  22902589.412      233196.857        2276.734          20.000                                                                  
R 7  20538952.139     -357481.696       -3400.038          31.000  
R 8  23137138.465     -383883.424       -5306.078          26.000  
R21  21486067.623       54609.462         583.594          37.000  
R22  20372364.388     -152530.599       -1336.968          30.000  
E19                                                                  22460191.948      -29667.669       -2291.219          17.000  
E20                                                                  23044494.422      -11211.028        -101.092          15.000  
E26                                                                  25190726.827       14675.110         225.019          14.000  
E29                                                                  22210919.623      -10054.699        -161.027          16.000  
J 3  38910589.642     -159914.678       -1634.547          34.000                                                                  
C 8  36345012.973      -53132.975        -540.385          24.000                                                                                                                                  
C10  36243286.963       -2820.988         -16.523          18.000                                                                                                                                  
C13  36555627.578      -73110.329        -795.480          16.000                                                                                                                                  
C22  26292600.684     -391536.220       -4330.085          17.000                                                                                                                                  
C35  22693079.424     -249872.965       -2361.259          18.000                                                                                                                                  
> 2021  5 17  8 40 58.0000000  0 23                     
G 2  21881011.441     -197460.128       -1869.715          26.000                                                                  
G 6                                                                  20729882.304       -4714.612        -303.666          24.000  
G 9                                                                  23602699.453     -189856.410       -1871.971          12.000  
G12  22454928.453     -316821.204          -0.011          16.000                                                                  
G14  24523073.356      297701.800        2849.063          15.000                                                                  
G17  21826292.134       56995.687         564.848          19.000                                                                  
G19  20463618.461      -24970.172        -212.132          34.000                                                                  
G28  22903024.775      235474.285        2278.327          21.000                                                                  
R 7  20538319.167     -360879.372       -3398.114          31.000  
R 8  23136149.670     -389190.562       -5307.255          27.000  
R21  21486174.488       55193.887         587.440          35.000  
R22  20372089.962     -153987.369       -1335.879          25.000  
E19                                                                  22459611.409      -31957.557       -2288.709          17.000  
E20                                                                  23044468.487      -11313.474        -102.205          14.000  
E26                                                                  25190789.220       14900.547         224.704          14.000  
E29                                                                  22210878.405      -10215.433        -161.098          16.000  
J 3  38910280.630     -161549.772       -1634.084          32.000                                                                  
C 7  37307791.196       34403.120         365.848          20.000                                                                                                                                  
C 8  36344909.113      -53672.340        -538.823          26.000                                                                                                                                  
C10  36243284.381       -2836.077         -16.354          18.000                                                                                                                                  
C13  36555474.273      -73906.124        -796.001          15.000                                                                                                                                  
C22  26291769.640     -395867.225       -4331.622          23.000                                                                                                                                  
C35  22692626.199     -252233.244       -2360.214          19.000                                                                                                                                  
> 2021  5 17  8 40 59.0000000  0 23                     
G 2  21880658.083     -199332.079       -1870.075          24.000                                                                  
G 6                                                                  20729806.436       -5019.772        -302.967          23.000  
G 9                                                                  23602224.944     -191728.952       -1872.448          18.000  
G12  22454360.689     -319805.027       -2984.158          17.000                                                                  
G14  24523619.559      300550.028        2847.623          14.000                                                                  
G17  21826397.289       57560.585         563.812          19.000                                                                  
G19  20463578.558      -25181.562        -212.168          32.000                                                                  
G28  22903456.999      237753.357        2279.604          23.000                                                                  
R 7  20537684.128     -364275.897       -3397.402          20.000  
R 8  23135159.523     -394498.160       -5307.318          20.000  
R21  21486282.235       55778.647         583.798          25.000  
R22  20371816.910     -155443.215       -1334.495          24.000  
E19                                                                  22459028.088      -34247.283       -2289.187          17.000  
E20                                                                  23044442.784      -11415.123        -103.425          15.000  
E26                                                                  25190847.037       15126.687         225.904          17.000  
E29                                                                  22210837.476      -10376.743        -160.917          16.000  
J 3  38909970.033     -163183.445       -1633.816          33.000                                                                  
C 7  37307861.516       34768.516         362.977          17.000                                                                                                                                  
C 8  36344805.171      -54213.176        -541.217          20.000                                                                                                                                  
C10  36243282.410       -2851.470         -16.679          19.000                                                                                                                                  
C13  36555321.330      -74702.764        -795.706          18.000                                                                                                                                  
C22  26290938.159     -400199.311       -4331.697          17.000                                                                                                                                  
C35  22692176.087     -254592.840       -2358.526          23.000                                                                                                                                  
> 2021  5 17  8 41  0.0000000  0 23                     
G 2  21880303.311     -201201.920       -1870.545          26.000                                                                  
G 6                                                                  20729728.827       -5325.941        -307.039          17.000  
G 9                                                                  23601748.692     -193601.882       -1874.205          18.000  
G12  22453792.801     -322789.485       -2986.375          20.000                                                                  
G14  24524161.626      303398.097        2847.203          15.000                                                                  
G17  21826504.307       58122.836         562.704          18.000                                                                  
G19  20463537.912      -25394.036        -209.073          32.000                                                                  
G28  22903894.930      240032.773        2279.782          24.000                                                                  
R 7  20537047.910     -367672.283       -3395.552          22.000  
R 8  23134168.351     -399805.857       -5309.510          23.000  
R21  21486391.927       56360.580         581.890          21.000  
R22  20371543.622     -156898.534       -1335.913          30.000  
E19                                                                  22458443.698      -36534.070       -2286.629          17.000  
E20                                                                  23044417.215      -11516.240         -98.840          15.000  
E26                                                                  25190900.396       15353.168         226.961          16.000  
E29                                                                  22210795.246      -10538.107        -160.629          17.000  
J 3  38909658.708     -164816.073       -1632.706          25.000                                                                  
C 7  37307931.413       35133.062         365.148          17.000                                                                                                                                  
C 8  36344702.455      -54752.549        -539.639          25.000                                                                                                                                  
C10  36243279.920       -2866.958         -15.834          17.000                                                                                                                                  
C13  36555168.649      -75498.100        -795.582          20.000                                                                                                                                  
C22  26290106.512     -404530.324       -4331.611          17.000                                                                                                                                  
C35  22691727.027     -256952.086       -2359.706          23.000                                                                                                                                  
> 2021  5 17  8 41  1.0000000  0 23                     
G 2  21879947.174     -203072.962       -1871.578          24.000                                                                  
G 6                                                                  20729650.891       -5633.055        -305.034          21.000  
G 9                                                                  23601267.969     -195474.783       -1872.064          19.000  
G12  22453188.951     -325775.624       -2985.836          21.000                                                                  
G14  24524703.551      306245.530          -0.009          16.000                                                                  
G17  21826607.071       58685.783         562.797          24.000                                                                  
G19  20463495.527      -25604.374        -209.591          33.000                                                                  
G28  22904324.201      242311.752        2279.496          27.000                                                                  
R 7  20536412.963     -371067.671       -3393.804          29.000  
R 8  23133179.281     -405116.120       -5312.057          23.000  
R21  21486500.965       56943.769         584.033          22.000  
R22  20371271.555     -158352.626       -1335.256          31.000  
E19                                                                  22457860.660      -38822.626       -2290.643          18.000  
E20                                                                  23044387.698      -11616.638        -101.622          14.000  
E26                                                                  25190958.409       15580.122         227.349          19.000  
E29                                                                  22210754.160      -10700.020        -161.153          14.000  
J 3  38909347.728     -166449.752       -1634.308          24.000                                                                  
C 7  37308001.344       35496.802         364.139          20.000                                                                                                                                  
C 8  36344598.543      -55292.307        -540.054          25.000                                                                                                                                  
C10  36243276.633       -2884.277         -17.874          15.000                                                                                                                                  
C13  36555013.956      -76292.138        -792.327          18.000                                                                                                                                  
C22  26289274.546     -408862.764       -4335.067          15.000                                                                                                                                  
C35  22691276.959     -259309.886       -2357.625          25.000                                                                                                                                  
> 2021  5 17  8 41  2.0000000  0 23                     
G 2  21879590.453     -204943.421       -1869.562          25.000                                                                  
G 6                                                                  20729570.517       -5938.022        -305.281          24.000  
G 9                                                                  23600792.181     -197347.349       -1873.362          17.000  
G12  22452619.540     -328761.297       -2983.790          22.000                                                                  
G14  24525245.579      309094.069          -0.009          14.000                                                                  
G17  21826711.899       59249.066         564.751          26.000                                                                  
G19  20463455.518      -25814.981        -206.322          27.000                                                                  
G28  22904758.362      244589.635        2277.115          24.000                                                                  
R 7  20535778.722     -374461.465       -3393.232          27.000  
R 8  23132185.260     -410424.416       -5305.808          25.000  
R21  21486609.444       57528.707         585.934          20.000  
R22  20371000.370     -159808.032       -1334.522          29.000  
E19                                                                  22457277.827      -41110.183       -2284.341          21.000  
E20                                                                  23044365.418      -11716.362         -97.665          17.000  
E26                                                                  25191016.226       15807.381         228.397          17.000  
E29                                                                  22210712.113      -10860.741        -160.615          17.000  
E35                                                                  22690815.726       -6221.500       -1772.779          20.000  
J 3  38909035.940     -168083.699       -1634.062          24.000                                                                  
C 7  37308071.630       35862.381         366.759          19.000                                                                                                                                  
C 8  36344495.504      -55831.706        -539.022          25.000                                                                                                                                  
C10  36243273.619       -2900.278         -15.920          17.000                                                                                                                                  
C13  36554860.254      -77084.151        -791.927          20.000                                                                                                                                  
C22  26288442.564     -413197.141       -4333.092          17.000                                                                                                                                  
> 2021  5 17  8 41  3.0000000  0 23                     
G 2  21879234.948     -206812.097       -1867.237          18.000                                                                  
G 6                                                                  20729494.584       -6242.302        -302.252          19.000  
G 9                                                                  23600315.092     -199220.218       -1873.024          17.000  
G12  22452052.737     -331743.146       -2980.521          18.000                                                                  
G14  24525787.690      311942.838          -0.009          16.000                                                                  
G17  21826819.637       59812.169         564.371          27.000                                                                  
G19  20463415.855      -26022.553        -205.909          21.000                                                                  
G28  22905190.246      246868.744        2281.644          20.000                                                                  
R 7  20535144.895     -377855.833       -3392.952          24.000  
R 8  23131192.591     -415731.242       -5303.726          20.000  
R21  21486719.608       58114.506         584.995          19.000  
R22  20370726.542     -161263.589       -1335.893          25.000  
E19                                                                  22456695.753      -43395.018       -2285.097          17.000  
E20                                                                  23044344.727      -11813.400         -96.508          19.000  
E26                                                                  25191074.736       16036.196         230.977          15.000  
E29                                                                  22210671.332      -11021.499        -159.098          15.000  
E35                                                                  22690363.093       -7996.989       -1773.798          16.000  
J 3  38908725.026     -169718.337       -1632.563          17.000                                                                  
C 7  37308142.063       36229.029         367.212          19.000                                                                                                                                  
C 8  36344392.221      -56369.913        -538.116          24.000                                                                                                                                  
C10  36243273.394       -2915.341         -16.031          17.000                                                                                                                                  
C13  36554718.104      -77876.351        -793.210          21.000                                                                                                                                  
C22  26287610.616     -417529.418       -4331.879          17.000                                                                                                                                  
> 2021  5 17  8 41  4.0000000  0 23                     
G 2  21878879.321     -208680.811       -1871.673          17.000                                                                  
G 6                                                                  20729418.829       -6542.806        -300.349          17.000  
G 9                                                                  23599841.462     -201091.808       -1870.224          13.000  
G12  22451485.445     -334722.589       -2980.104          16.000                                                                  
G14  24526335.004      314791.464          -0.009          14.000                                                                  
G17  21826926.225       60376.722         565.517          22.000                                                                  
G19  20463376.950      -26227.243        -202.462          17.000                                                                  
G28  22905624.486      249150.588          -0.010          17.000                                                                  
R 7  20534512.874     -381248.872       -3392.598          29.000  
R 8  23130201.990     -421036.443          -0.001          17.000  
R21  21486828.750       58698.994         583.127          17.000  
R22  20370453.393     -162720.434       -1337.204          19.000  
E19                                                                  22456114.094      -45678.301       -2281.301          15.000  
E20                                                                  23044319.986      -11911.159         -98.076          15.000  
E26                                                                  25191136.104       16267.575         231.193          12.000  
E29                                                                  22210630.987      -11180.536        -158.200          14.000  
E35                                                                  22689911.236       -9770.869       -1773.878          14.000  
J 3  38908414.534     -171350.232       -1631.367          17.000                                                                  
C 7  37308213.016       36598.298         370.052          15.000                                                                                                                                  
C 8  36344288.784      -56907.672        -536.388          17.000                                                                                                                                  
C10  36243270.354       -2931.424         -14.815          17.000                                                                                                                                  
C13  36554566.344      -78667.900        -788.765          19.000                                                                                                                                  
C22  26286778.921     -421860.917       -4331.375          17.000                                                                                                                                  
> 2021  5 17  8 41  5.0000000  0 23                     
G 2  21878541.149     -210550.588       -1867.570          21.000                                                                  
G 6                                                                  20729342.294       -6843.799        -302.502          20.000  
G 9                                                                  23599364.779     -202963.085       -1870.758          12.000  
G12  22450918.054     -337704.505       -2982.433          16.000                                                                  
G14  24526877.291      317641.028          -0.009          17.000                                                                  
G17  21827032.353       60941.452         564.772          21.000                                                                  
G19  20463338.198      -26430.992        -204.961          23.000                                                                  
G28  22906058.691      251432.079          -0.010          29.000                                                                  
R 7  20533878.537     -384640.752       -3390.489          22.000  
R 8  23129211.110     -426343.477          -0.001          30.000  
R21  21486937.875       59283.070         583.018          16.000  
R22  20370179.975     -164176.527       -1335.858          24.000  
E19                                                                  22455532.827      -47959.963       -2281.840          16.000  
E20                                                                  23044295.600      -12007.562         -97.052          14.000  
E26                                                                  25191194.737       16497.041         229.122          11.000  
E29                                                                  22210590.437      -11340.306        -160.106          13.000  
J 3  38908104.395     -172980.867       -1628.214          16.000                                                                  
C 7  37308283.584       36965.723         368.112          16.000                                                                                                                                  
C 8  36344185.876      -57443.693        -535.945          16.000                                                                                                                                  
C10  36243267.481       -2946.692         -15.687          17.000                                                                                                                                  
C13  36554414.718      -79457.808        -789.664          16.000                                                                                                                                  
C22  26285947.335     -426191.845       -4329.245          18.000                                                                                                                                  
C35  22689467.839     -268741.089       -2359.722          20.000                                                                                                                                  
> 2021  5 17  8 41  6.0000000  0 23                     
G 2  21878174.961     -212420.919       -1871.989          20.000                                                                  
G 6                                                                  20729261.749       -7147.232        -303.309          29.000  
G 9                                                                  23598888.152     -204834.094       -1872.489          15.000  
G12  22450350.344     -340688.091       -2983.494          16.000                                                                  
G14  24527415.118      320490.723        2848.674          18.000                                                                  
G17  21827138.307       61506.624         565.602          25.000                                                                  
G19  20463299.507      -26636.744        -205.036          28.000                                                                  
G28  22906495.379      253716.735        2286.724          20.000                                                                  
R 7  20533244.305     -388031.166       -3389.317          30.000  
R 8  23128212.866     -431649.651       -5304.816          26.000  
R21  21487045.958       59866.655         585.507          18.000  
R22  20369906.626     -165632.463       -1334.109          25.000  
E19                                                                  22454948.755      -50243.473       -2284.732          21.000  
E20                                                                  23044272.619      -12104.097         -98.471          15.000  
E26                                                                  25191253.222       16725.883         228.229          12.000  
E29                                                                  22210549.032      -11498.925        -157.163          18.000  
J 3  38907795.383     -174610.509       -1632.687          22.000                                                                  
C 7  37308353.202       37333.113         369.451          19.000                                                                                                                                  
C 8  36344080.071      -57981.942        -538.266          21.000                                                                                                                                  
C10  36243268.969       -2962.760         -15.495          15.000                                                                                                                                  
C13  36554262.884      -80248.610        -791.888          20.000                                                                                                                                  
C22  26285115.684     -430521.881       -4329.820          17.000                                                                                                                                  
C35  22689014.984     -271099.396       -2354.369          18.000                                                                                                                                  
> 2021  5 17  8 41  7.0000000  0 23                     
G 2  21877822.008     -214290.965       -1869.592          25.000                                                                  
G 6                                                                  20729184.110       -7449.956        -302.579          28.000  
G 9                                                                  23598411.713     -206704.496       -1868.237          16.000  
G12  22449790.661     -343670.533       -2983.265          17.000                                                                  
G14  24527967.664      323338.819        2848.938          20.000                                                                  
G17  21827246.332       62075.814         569.457          17.000                                                                  
G19  20463259.167      -26843.141        -207.327          28.000                                                                  
G28  22906912.127      255998.989        2279.926          21.000                                                                  
R 7  20532610.600     -391419.884       -3390.262          30.000  
R 8  23127217.833     -436953.777       -5305.037          28.000  
R21  21487155.480       60452.352         586.235          17.000  
R22  20369633.992     -167087.849       -1335.566          17.000  
E19                                                                  22454367.283      -52528.399       -2285.965          22.000  
E20                                                                  23044247.176      -12202.466         -97.658          16.000  
E26                                                                  25191311.889       16955.288         231.415          11.000  
E29                                                                  22210511.148      -11655.611        -157.457          17.000  
E35                                                                  22688557.368      -15097.224       -1772.686          17.000  
J 3  38907484.594     -176243.909       -1631.863          24.000                                                                  
C 7  37308424.050       37702.822         369.037          17.000                                                                                                                                  
C 8  36343978.799      -58520.468        -537.832          20.000                                                                                                                                  
C10  36243266.100       -2978.165         -15.547          14.000                                                                                                                                  
C13  36554108.857      -81040.346        -791.043          21.000                                                                                                                                  
C22  26284284.831     -434848.818       -4327.658          19.000                                                                                                                                  
> 2021  5 17  8 41  8.0000000  0 23                     
G 2  21877466.395     -216159.953       -1870.178          20.000                                                                  
G 6                                                                  20729107.108       -7752.593        -301.846          28.000  
G 9                                                                  23597929.346     -208572.925       -1869.066          16.000  
G12  22449223.405     -346651.551       -2979.338          15.000                                                                  
G14  24528508.872      326188.281        2849.109          21.000                                                                  
G17  21827354.454       62643.922         567.387          18.000                                                                  
G19  20463220.097      -27050.621        -209.329          26.000                                                                  
G28  22907346.209      258279.666        2280.698          19.000                                                                  
R 7  20531980.255     -394809.237       -3389.034          23.000  
R 8  23126227.350     -442258.957       -5305.273          26.000  
R21  21487246.975       61040.569         588.545          24.000  
R22  20369361.402     -168542.701       -1334.669          17.000  
E19                                                                  22453784.537      -54815.850       -2289.924          18.000  
E20                                                                  23044218.462      -12298.335         -94.037          17.000  
E26                                                                  25191370.587       17185.058         228.609          12.000  
E29                                                                  22210471.261      -11812.839        -157.154          17.000  
E35                                                                  22688100.299      -16873.001       -1777.918          18.000  
J 3  38907175.237     -177874.861       -1631.234          21.000                                                                  
C 7  37308494.898       38070.911         368.507          15.000                                                                                                                                  
C 8  36343875.786      -59057.105        -536.972          17.000                                                                                                                                  
C10  36243262.048       -2993.630           0.006          17.000                                                                                                                                  
C13  36553957.019      -81831.102        -789.253          17.000                                                                                                                                  
C22  26283453.442     -439177.416       -4329.522          20.000                                                                                                                                  
