     3.04           OBSERVATION DATA    M: Mixed            RINEX VERSION / TYPE
Higeo_Hi1105        Huawei CBG          20210720 020202 UTC PGM / RUN BY / DATE 
************************************************************COMMENT             
* If you have any problem,                                 *COMMENT             
*     please contact with LBS Technology Group, thanks.    *COMMENT             
*                                                          *COMMENT             
* Version Higeo2RinexV1.1 2020.07.21                       *COMMENT             
* Fuction:  Convert Higeo Log to Rinex file                *COMMENT             
*                                                          *COMMENT             
* Note that the verision support B1C B2A signal            *COMMENT             
*     BDS: C1D L1D D1D S1D indicate BDS B1C                *COMMENT             
*     BDS: C5D L5D D5D S5D indicate BDS B2A                *COMMENT             
*     Reference: RINEX V3.04                               *COMMENT             
*                                                          *COMMENT             
* Copyright(C) Huawei Technologies Co., Ltd. 2019 - 2020   *COMMENT             
*     All rights reserved.                                 *COMMENT             
************************************************************COMMENT             
                                                            MARKER NAME         
                                                            MARKER NUMBER       
                                                            MARKER TYPE         
                                                            OBSERVER / AGENCY   
                                                            REC # / TYPE / VERS 
                                                            ANT # / TYPE        
        0.0000        0.0000        0.0000                  APPROX POSITION XYZ 
        0.0000        0.0000        0.0000                  ANTENNA: DELTA H/E/N
G    8 C1C L1C D1C S1C C5I L5I D5I S5I                      SYS / # / OBS TYPES 
R    4 C1C L1C D1C S1C                                      SYS / # / OBS TYPES 
E    8 C1C L1C D1C S1C C5I L5I D5I S5I                      SYS / # / OBS TYPES 
J    8 C1C L1C D1C S1C C5I L5I D5I S5I                      SYS / # / OBS TYPES 
C   12 C2I L2I D2I S2I C1D L1D D1D S1D C5D L5D D5D S5D      SYS / # / OBS TYPES 
  2021     5    17     8    40    0.0000000     GPS         TIME OF FIRST OBS   
  2021     5    17     8    55   10.0000000     GPS         TIME OF LAST OBS    
G                                                           SYS / PHASE SHIFT   
R                                                           SYS / PHASE SHIFT   
E                                                           SYS / PHASE SHIFT   
J                                                           SYS / PHASE SHIFT   
C                                                           SYS / PHASE SHIFT   
  0                                                         GLONASS SLOT / FRQ #
 C1C    0.000 C1P    0.000 C2C    0.000 C2P    0.000        GLONASS COD/PHS/BIS 
                                                            END OF HEADER       
> 2021  5 17  8 40  0.0000000  0 18                     
G 2  21839443.717       -3096.859       -1728.070          19.000                                                                  
G 6                                                                  20672189.335       -1027.714        -204.475          17.000  
G 9  23568190.905      -27807.870       -2376.194          18.000                                                                  
G12  22425744.163      -19928.086       -2862.523          20.000                                                                  
G17  21757907.954        8319.472         697.453          26.000                                                                  
G19  20403801.105        -962.577         -80.795          32.000                                                                  
R 7  20513051.313      -36155.082       -3279.555          20.000  
R 8  23131362.887      -13100.585       -5152.209          18.000  
R12  21471879.012       15859.726        1328.854          20.000  
R21  21417617.700        8244.456         734.083          25.000  
R22  20325677.445      -16688.674       -1200.031          29.000  
E12  23772050.724        -501.531        -731.897          30.000                                                                  
C 8  36288621.932       -5144.465        -387.342          28.000                                                                                                                                  
C13  36502032.738       -2122.752        -642.204          23.000                                                                                                                                  
C20  22983823.651        -268.257          -7.896          33.000                                                                                                                                  
C26  25125302.104        1438.855         432.228          27.000                                                                                                                                  
C29  22269010.045        -207.943         -72.467          35.000                                                                                                                                  
C35  22656649.823       -6125.750       -2211.257          28.000                                                                                                                                  
> 2021  5 17  8 40  1.0000000  0 21                     
G 2  21839114.998       -4824.396       -1727.310          18.000                                                                  
G 6                                                                  20672140.821       -1229.646        -196.964          20.000  
G 9  23567745.079      -30183.873       -2372.846          18.000                                                                  
G12  22425199.470      -22790.522       -2861.047          17.000                                                                  
G17  21758041.047        9019.429         699.177          20.000                                                                  
G19  20403785.880       -1042.087         -79.349          34.000                                                                  
R 7  20512446.820      -39438.046       -3278.783          25.000  
R 8  23130401.009      -18251.585       -5152.945          15.000  
R12  21472150.573       17310.817        1332.748          19.000  
R21  21417755.565        8978.957         735.543          24.000  
R22  20325432.051      -17993.991       -1195.661          26.000  
E11  26141742.121       -3338.727       -2249.549          19.000                                                                  
E12  23771912.021       -1232.249        -731.118          28.000                                                                  
C 8  36288547.616       -5530.426        -383.037          28.000                                                                                                                                  
C10  36181250.652         224.761         127.997          17.000                                                                                                                                  
C13  36501910.433       -2764.795        -642.342          26.000                                                                                                                                  
C19  22681971.448      -10887.593       -2904.667          17.000                                                                                                                                  
C20  22983821.962        -274.928          -7.390          34.000                                                                                                                                  
C26  25125384.565        1870.051         432.090          23.000                                                                                                                                  
C29  22268995.400        -281.737         -72.996          35.000                                                                                                                                  
C35  22656225.289       -8336.483       -2208.237          28.000                                                                                                                                  
> 2021  5 17  8 40  2.0000000  0 22                     
G 2  21838796.196       -6549.604       -1725.442          30.000                                                                  
G 6                                                                  20672089.100       -1427.589        -194.176          20.000  
G 9  23567286.509      -32556.425       -2371.058          21.000                                                                  
G12  22424654.869      -25652.494       -2861.919          19.000                                                                  
G17  21758173.367        9719.212         701.107          20.000                                                                  
G19  20403770.232       -1120.554         -79.565          28.000                                                                  
R 7  20511835.216      -42720.815       -3280.643          20.000  
R 8  23129435.798      -23406.213       -5152.767          17.000  
R12  21472422.128       18765.116        1335.299          18.000  
R21  21417891.511        9713.683         734.737          23.000  
R22  20325187.674      -19297.220       -1196.183          23.000  
E11  26141301.429       -5586.496       -2247.052          21.000                                                                  
E12  23771773.409       -1963.165        -730.580          25.000                                                                  
C 8  36288473.889       -5913.173        -383.775          25.000                                                                                                                                  
C10  36181277.762         350.504         128.078          17.000                                                                                                                                  
C13  36501787.409       -3405.558        -640.930          27.000                                                                                                                                  
C19  22681399.203      -13789.672       -2899.522          19.000                                                                                                                                  
C20  22983820.296        -283.980          -6.863          29.000                                                                                                                                  
C26  25125467.078        2301.363         429.593          21.000                                                                                                                                  
C29  22268981.653        -354.996         -74.097          28.000                                                                                                                                  
C30  25878851.722        4720.747        1429.827          19.000                                                                                                                                  
C35  22655800.951      -10544.753       -2207.861          25.000                                                                                                                                  
> 2021  5 17  8 40  3.0000000  0 20                     
G 2  21838462.486       -8273.579       -1723.745          19.000                                                                  
G 6                                                                  20672038.862       -1625.175        -197.240          24.000  
G 9  23566836.716      -34929.707       -2372.848          22.000                                                                  
G12  22424100.478      -28513.590       -2860.438          18.000                                                                  
G17  21758305.439       10419.230         699.257          18.000                                                                  
G19  20403755.775       -1199.086         -77.925          23.000                                                                  
R 7  20511223.228      -45996.997       -3263.009          17.000  
R 8  23128473.672      -28558.899       -5152.861          19.000  
R12  21472694.496       20220.094        1336.524          17.000  
R21  21418029.303       10449.749         736.913          19.000  
R22  20324943.231      -20600.843       -1195.330          24.000  
E11  26140865.719       -7833.337       -2248.447          17.000                                                                  
E12  23771634.104       -2692.661        -728.729          25.000                                                                  
E35                                                                  22655375.256       -3602.048       -1664.785          18.000  
C 8  36288400.362       -6296.004        -380.826          25.000                                                                                                                                  
C13  36501662.905       -4046.392        -640.677          28.000                                                                                                                                  
C19  22680837.910      -16692.120       -2902.907          24.000                                                                                                                                  
C20  22983820.174        -288.963          -4.099          25.000                                                                                                                                  
C26  25125550.355        2733.682         433.544          21.000                                                                                                                                  
C29  22268967.212        -428.357         -72.531          22.000                                                                                                                                  
> 2021  5 17  8 40  4.0000000  0 18                     
G 2  21838134.379       -9998.052           0.003          16.000                                                                  
G 6                                                                  20671991.338       -1822.285        -196.628          24.000  
G 9  23566390.828      -37301.997       -2371.649          21.000                                                                  
G12  22423561.918      -31371.473       -2856.926          19.000                                                                  
G17  21758438.759       11119.708           0.013          17.000                                                                  
G19  20403739.883       -1275.385         -74.847          20.000                                                                  
R 7  20510612.541      -49266.820       -3279.208          19.000  
R 8  23127510.542      -33710.037       -5150.160          18.000  
R12  21472967.246       21676.830        1335.837          16.000  
R21  21418167.303       11188.266         738.287          17.000  
R22  20324698.331      -21904.424       -1196.376          25.000  
E35                                                                  22654951.320       -5267.412       -1665.465          19.000  
C 8  36288327.394       -6675.899        -377.450          24.000                                                                                                                                  
C13  36501539.126       -4686.280        -637.575          28.000                                                                                                                                  
C19  22680285.279      -19594.243       -2902.736          20.000                                                                                                                                  
C20  22983818.568        -294.449          -5.489          23.000                                                                                                                                  
C26  25125633.859        3167.179         435.327          21.000                                                                                                                                  
C29  22268953.161        -501.576         -71.516          21.000                                                                                                                                  
> 2021  5 17  8 40  5.0000000  0 18                     
G 2  21837803.950      -11720.547       -1720.670          19.000                                                                  
G 6                                                                  20671940.864       -2018.632        -195.234          24.000  
G 9  23565939.156      -39672.122       -2368.750          17.000                                                                  
G12  22423015.070      -34227.634       -2854.688          18.000                                                                  
G17  21758572.360       11821.852           0.013          17.000                                                                  
G19  20403725.653       -1350.235         -73.713          16.000                                                                  
R 7  20510000.518      -52543.839       -3282.370          17.000  
R 8  23126549.899      -38859.930       -5152.169          17.000  
R12  21473250.908       23132.553        1336.329          17.000  
R21  21418301.121       11926.562         738.894          18.000  
R22  20324452.235      -23207.628       -1194.240          28.000  
E35                                                                  22654527.690       -6931.622       -1663.313          19.000  
C 8  36288254.051       -7056.283        -379.454          26.000                                                                                                                                  
C13  36501416.385       -5324.575        -637.724          30.000                                                                                                                                  
C19  22679727.557      -22496.512       -2903.053          17.000                                                                                                                                  
C20  22983817.134        -298.683          -3.534          24.000                                                                                                                                  
C26  25125717.118        3602.111         435.907          23.000                                                                                                                                  
C29  22268940.082        -572.665         -70.731          24.000                                                                                                                                  
> 2021  5 17  8 40  6.0000000  0 19                     
G 2  21837460.299      -13441.588       -1722.326          19.000                                                                  
G 6                                                                  20671890.818       -2214.723        -196.174          23.000  
G 9  23565489.075      -42040.885       -2368.690          18.000                                                                  
G12  22422474.429      -37083.600       -2855.024          19.000                                                                  
G17  21758693.792       12524.141         702.105          18.000                                                                  
G19  20403711.537       -1424.518         -75.011          20.000                                                                  
R 7  20509387.283      -55830.168       -3288.484          18.000  
R 8  23125588.008      -44011.010       -5152.234          16.000  
R12  21473523.825       24590.128        1337.813          18.000  
R21  21418439.292       12665.451         739.350          18.000  
R22  20324208.922      -24508.553       -1197.598          27.000  
E35                                                                  22654104.578       -8594.354       -1663.632          19.000  
C 8  36288181.022       -7435.840        -379.190          27.000                                                                                                                                  
C13  36501293.348       -5962.939        -637.463          30.000                                                                                                                                  
C19  22679169.146      -25399.475       -2901.711          20.000                                                                                                                                  
C20  22983817.212        -301.844          -0.153          29.000                                                                                                                                  
C26  25125801.131        4038.483         433.724          23.000                                                                                                                                  
C29  22268926.990        -643.106         -70.466          22.000                                                                                                                                  
C30  25879952.726       10436.767        1433.569          16.000                                                                                                                                  
> 2021  5 17  8 40  7.0000000  0 19                     
G 2  21837149.453      -15164.784       -1722.056          22.000                                                                  
G 6                                                                  20671840.388       -2413.727        -199.214          20.000  
G 9  23565040.003      -44408.758       -2367.118          22.000                                                                  
G12  22421933.074      -39937.844       -2853.347          18.000                                                                  
G17  21758826.165       13227.952         704.540          17.000                                                                  
G19  20403699.540       -1498.548         -73.929          27.000                                                                  
R 7  20508772.826      -59118.350       -3284.780          17.000  
R 8  23124626.187      -49161.754       -5149.365          18.000  
R12  21473792.035       26048.599        1339.382          17.000  
R21  21418563.022       13404.650         736.976          23.000  
R22  20323963.345      -25812.122       -1196.140          25.000  
E35                                                                  22653680.798      -10256.866       -1662.245          17.000  
C 8  36288107.626       -7816.879        -380.089          26.000                                                                                                                                  
C13  36501170.903       -6600.011        -637.697          20.000                                                                                                                                  
C19  22678612.408      -28300.705       -2901.220          18.000                                                                                                                                  
C20  22983817.125        -302.419          -1.272          30.000                                                                                                                                  
C26  25125884.574        4473.930         436.305          26.000                                                                                                                                  
C29  22268912.794        -712.283         -68.705          32.000                                                                                                                                  
C30  25880228.239       11871.354        1436.221          16.000                                                                                                                                  
> 2021  5 17  8 40  8.0000000  0 21                     
G 2  21836822.886      -16886.553       -1721.638          21.000                                                                  
G 6                                                                  20671791.367       -2608.066        -192.104          21.000  
G 9  23564589.805      -46775.986       -2367.034          22.000                                                                  
G12  22421385.740      -42790.577       -2853.332          20.000                                                                  
G17  21758970.984       13932.218         704.549          20.000                                                                  
G19  20403685.489       -1570.691         -70.867          29.000                                                                  
R 7  20508160.978      -62394.227       -3278.491          17.000  
R 8  23123701.125      -54309.543       -5146.771          20.000  
R12  21474065.375       27508.424        1340.063          19.000  
R21  21418700.024       14144.798         741.352          19.000  
R22  20323720.569      -27115.709       -1195.612          24.000  
E35                                                                  22653254.751      -11918.347       -1661.206          15.000  
C 8  36288034.431       -8196.469        -380.461          25.000                                                                                                                                  
C10  36181429.176         699.566         127.354          18.000                                                                                                                                  
C13  36501047.926       -7237.389        -637.677          22.000                                                                                                                                  
C19  22678055.659      -31199.972       -2900.875          14.000                                                                                                                                  
C20  22983816.510        -302.309           2.723          25.000                                                                                                                                  
C22  25984778.325       -9296.586       -4170.497          17.000                                                                                                                                  
C26  25125968.431        4911.443         441.581          20.000                                                                                                                                  
C29  22268899.662        -780.956         -68.790          30.000                                                                                                                                  
C30  25880502.918       13306.578        1434.518          16.000                                                                                                                                  
> 2021  5 17  8 40  9.0000000  0 20                     
G 2  21836504.406      -18607.400       -1719.614          19.000                                                                  
G 6                                                                  20671741.670       -2805.027        -196.840          20.000  
G 9  23564140.187      -49143.763       -2367.530          19.000                                                                  
G12  22420838.072      -45644.018       -2854.402          18.000                                                                  
G17  21759102.860       14636.983         705.077          24.000                                                                  
G19  20403672.686       -1642.298         -72.903          27.000                                                                  
R 7  20507547.934      -65676.591       -3271.373          18.000  
R 8  23122740.139      -59455.906       -5144.958          17.000  
R12  21474312.606       28968.666        1339.970          20.000  
R21  21418839.538       14885.990         740.846          24.000  
R22  20323477.435      -28417.587       -1194.489          27.000  
E26                                                                  25126043.676        1000.057         331.873          19.000  
E29                                                                  22268876.980         -37.789         -50.742          18.000  
E35                                                                  22652831.879      -13578.557       -1657.791          15.000  
C 8  36287961.110       -8577.377        -381.462          23.000                                                                                                                                  
C10  36181458.877         830.354         131.924          17.000                                                                                                                                  
C13  36500925.792       -7874.309        -635.542          21.000                                                                                                                                  
C19  22677497.187      -34101.254       -2902.218          17.000                                                                                                                                  
C20  22983815.899        -300.636          -0.715          29.000                                                                                                                                  
C30  25880778.178       14739.685        1434.030          17.000                                                                                                                                  
> 2021  5 17  8 40 10.0000000  0 21                     
G 2  21836175.190      -20326.983       -1718.747          20.000                                                                  
G 6                                                                  20671692.284       -3000.148        -196.580          20.000  
G 9  23563691.315      -51508.851       -2364.857          20.000                                                                  
G12  22420294.997      -48498.193       -2852.076          19.000                                                                  
G17  21759242.196       15342.622         706.904          19.000                                                                  
G19  20403660.550       -1713.794         -71.271          27.000                                                                  
G28  22820297.692        3716.113        2427.063          22.000                                                                  
R 7  20506935.623      -68954.780       -3263.981          20.000  
R 8  23121779.016      -64602.621       -5146.381          18.000  
R12  21474595.827       30429.420        1341.308          25.000  
R21  21418977.452       15628.114         743.025          25.000  
R22  20323235.479      -29718.080       -1193.495          25.000  
E26                                                                  25126129.369        1333.139         332.709          20.000  
E29                                                                  22268864.612         -87.053         -48.703          15.000  
E35                                                                  22652409.270      -15237.605       -1659.387          15.000  
C 8  36287887.566       -8958.394        -380.854          30.000                                                                                                                                  
C10  36181475.611         961.594         128.608          15.000                                                                                                                                  
C13  36500803.753       -8510.243        -636.333          29.000                                                                                                                                  
C19  22676939.944      -37003.007       -2901.727          15.000                                                                                                                                  
C20  22983816.353        -299.617           1.855          27.000                                                                                                                                  
C30  25881053.346       16172.363        1432.351          14.000                                                                                                                                  
> 2021  5 17  8 40 11.0000000  0 21                     
G 2  21835842.771      -22046.747       -1719.761          19.000                                                                  
G 6                                                                  20671643.175       -3193.792        -193.244          21.000  
G 9  23563242.605      -53873.945       -2367.368          20.000                                                                  
G12  22419750.806      -51350.195       -2852.086          18.000                                                                  
G17  21759375.668       16049.342         705.974          20.000                                                                  
G19  20403647.245       -1786.058         -72.609          26.000                                                                  
G28  22820759.521        6142.966        2425.554          17.000                                                                  
R 7  20506325.726      -72219.113       -3261.833          20.000  
R 8  23120818.067      -69748.979       -5145.183          15.000  
R12  21474870.296       31892.796        1343.919          25.000  
R21  21419116.020       16369.598         741.718          19.000  
R22  20322990.937      -31018.747       -1193.426          25.000  
E26                                                                  25126214.326        1664.418         331.514          19.000  
E29                                                                  22268856.437        -135.079         -47.669          16.000  
E35                                                                  22651987.672      -16897.652       -1660.382          17.000  
C 8  36287814.720       -9338.361        -382.650          26.000                                                                                                                                  
C10  36181505.238        1089.104         127.543          15.000                                                                                                                                  
C13  36500682.020       -9145.388        -632.193          31.000                                                                                                                                  
C19  22676382.722      -39904.865       -2900.879          15.000                                                                                                                                  
C20  22983817.077        -297.670          -0.709          29.000                                                                                                                                  
C30  25881323.982       17602.770        1430.953          14.000                                                                                                                                  
> 2021  5 17  8 40 12.0000000  0 21                     
G 2  21835511.587      -23766.348       -1719.372          24.000                                                                  
G 6                                                                  20671594.089       -3386.214        -190.970          20.000  
G 9  23562793.646      -56240.001       -2364.538          24.000                                                                  
G12  22419208.364      -54201.152       -2850.812          16.000                                                                  
G17  21759511.815       16755.618         707.140          23.000                                                                  
G19  20403633.495       -1856.478         -69.999          35.000                                                                  
G28  22821210.317        8568.831        2427.190          23.000                                                                  
R 7  20505716.535      -75480.840       -3261.998          20.000  
R 8  23119850.828      -74895.243       -5145.408          16.000  
R12  21475146.926       33359.128        1345.021          22.000  
R21  21419258.340       17111.078         741.315          22.000  
R22  20322748.182      -32319.961       -1190.787          27.000  
E26                                                                  25126299.544        1997.402         333.703          20.000  
E29                                                                  22268845.081        -182.356         -46.070          16.000  
E35                                                                  22651564.799      -18558.616       -1660.961          17.000  
C 8  36287741.097       -9718.674        -377.827          30.000                                                                                                                                  
C10  36181529.970        1217.736         130.368          17.000                                                                                                                                  
C13  36500560.613       -9779.258        -633.851          29.000                                                                                                                                  
C19  22675824.917      -42804.892       -2898.420          18.000                                                                                                                                  
C20  22983817.108        -295.086           5.876          30.000                                                                                                                                  
C30  25881599.289       19036.206        1435.279          14.000                                                                                                                                  
> 2021  5 17  8 40 13.0000000  0 22                     
G 2  21835184.662      -25484.155       -1717.351          19.000                                                                  
G 6                                                                  20671545.378       -3578.760        -191.844          32.000  
G 9  23562343.552      -58604.626       -2363.118          20.000                                                                  
G12  22418666.052      -57051.256       -2848.559          18.000                                                                  
G17  21759648.234       17465.206         710.394          26.000                                                                  
G19  20403620.700       -1924.403         -66.030          20.000                                                                  
G28  22821677.398       10996.607        2427.847          20.000                                                                  
R 7  20505111.003      -78732.113       -3247.875          19.000  
R 8  23118890.272      -80039.575       -5144.248          17.000  
R12  21475418.621       34825.563        1347.300          21.000  
R21  21419396.755       17852.978         741.537          20.000  
R22  20322503.971      -33617.719       -1192.123          28.000  
E24  24552409.612         666.112         289.658          16.000                                                                  
E26                                                                  25126384.334        2329.959         332.365          18.000  
E29                                                                  22268832.199        -227.211         -44.604          17.000  
E35                                                                  22651142.181      -20217.804       -1657.102          14.000  
C 8  36287669.024      -10094.523        -376.057          21.000                                                                                                                                  
C10  36181554.746        1346.436         125.400          15.000                                                                                                                                  
C13  36500439.487      -10412.638        -631.954          26.000                                                                                                                                  
C19  22675268.569      -45702.122       -2896.383          17.000                                                                                                                                  
C20  22983819.015        -287.704           7.686          25.000                                                                                                                                  
C30  25881872.294       20472.525        1435.774          17.000                                                                                                                                  
> 2021  5 17  8 40 14.0000000  0 21                     
G 2  21834858.591      -27197.635       -1712.596          16.000                                                                  
G 6                                                                  20671496.602       -3770.637        -190.424          23.000  
G 9  23561893.808      -60967.931       -2362.368          18.000                                                                  
G12  22418123.894      -59900.457       -2848.674          22.000                                                                  
G17  21759784.420       18175.963         711.446          28.000                                                                  
G19  20403609.759       -1989.160         -64.910          23.000                                                                  
G28  22822142.033       13425.076        2429.995          17.000                                                                  
R 7  20504502.519      -81989.855       -3269.949          17.000  
R 8  23117923.888      -85183.630       -5144.740          17.000  
R12  21475693.519       36292.231        1343.874          17.000  
R21  21419531.453       18595.530         743.172          26.000  
R22  20322261.068      -34916.372       -1190.610          27.000  
E26                                                                  25126469.291        2662.731         333.304          18.000  
E29                                                                  22268817.404        -272.205         -46.547          22.000  
E35                                                                  22650719.950      -21875.368       -1660.367          13.000  
C 8  36287597.107      -10470.923        -377.817          21.000                                                                                                                                  
C10  36181582.903        1473.224         128.851          14.000                                                                                                                                  
C13  36500317.674      -11045.202        -631.391          20.000                                                                                                                                  
C19  22674712.614      -48597.351       -2895.012          19.000                                                                                                                                  
C20  22983820.140        -281.695           4.328          25.000                                                                                                                                  
C30  25882147.772       21906.920        1433.059          17.000                                                                                                                                  
> 2021  5 17  8 40 15.0000000  0 22                     
G 2  21834532.713      -28910.340       -1711.548          18.000                                                                  
G 6                                                                  20671447.620       -3963.564        -190.062          22.000  
G 9  23561444.787      -63330.399       -2362.595          16.000                                                                  
G12  22417580.915      -62749.442       -2848.856          19.000                                                                  
G17  21759919.110       18885.814         707.509          24.000                                                                  
G19  20403593.143       -2055.017         -67.223          23.000                                                                  
G28  22822612.221       15853.858        2427.937          21.000                                                                  
R 7  20503892.825      -85253.889       -3255.614          19.000  
R 8  23116963.192      -90327.838       -5143.494          22.000  
R12  21475967.727       37757.157        1345.930          19.000  
R21  21419672.072       19338.431         742.841          24.000  
R22  20322019.902      -36213.799       -1188.985          30.000  
E20                                                                  22983817.308         113.820           2.701          20.000  
E26                                                                  25126554.439        2996.878         335.779          20.000  
E29                                                                  22268808.269        -322.336         -52.404          19.000  
E30                                                                  25882405.986        6185.746        1082.463          17.000  
E31  25902703.101        7279.831        2130.517          16.000                                                                  
E35                                                                  22650297.283      -23534.771       -1657.698          15.000  
C 8  36287524.893      -10849.127        -376.081          30.000                                                                                                                                  
C10  36181608.281        1605.269         136.441          15.000                                                                                                                                  
C13  36500196.121      -11679.611        -633.916          28.000                                                                                                                                  
C19  22674158.215      -51493.673       -2895.654          17.000                                                                                                                                  
> 2021  5 17  8 40 16.0000000  0 22                     
G 2  21834220.812      -30623.559       -1714.113          20.000                                                                  
G 6                                                                  20671398.844       -4155.484        -192.581          20.000  
G 9  23560995.335      -65692.404       -2361.403          18.000                                                                  
G12  22417039.175      -65596.469       -2845.893          16.000                                                                  
G17  21760052.425       19594.247         709.864          23.000                                                                  
G19  20403580.671       -2124.225         -69.023          25.000                                                                  
G28  22823074.141       18281.246        2426.446          17.000                                                                  
R 7  20503283.739      -88515.045       -3267.407          15.000  
R 8  23115999.565      -95469.998       -5140.651          22.000  
R12  21476237.639       39225.734        1347.726          23.000  
R21  21419812.140       20083.440         745.319          23.000  
R22  20321776.362      -37511.246       -1191.332          32.000  
E26                                                                  25126641.053        3331.703         335.275          20.000  
E30                                                                  25882681.935        7267.941        1081.577          17.000  
E31  25903108.845        9411.764        2131.731          13.000                                                                  
E35                                                                  22649873.797      -25192.846       -1659.055          17.000  
C 8  36287452.981      -11227.624        -379.286          29.000                                                                                                                                  
C10  36181633.546        1739.605         133.137          15.000                                                                                                                                  
C13  36500075.670      -12312.014        -630.838          28.000                                                                                                                                  
C19  22673602.390      -54388.215       -2893.855          17.000                                                                                                                                  
C20  22983822.226        -273.115           5.513          30.000                                                                                                                                  
C29  22268799.754       -1301.690         -63.984          29.000                                                                                                                                  
> 2021  5 17  8 40 17.0000000  0 22                     
G 2  21833892.216      -32337.128       -1713.217          19.000                                                                  
G 6                                                                  20671350.024       -4347.347        -189.446          21.000  
G 9  23560544.618      -68052.663       -2358.911          18.000                                                                  
G12  22416490.734      -68441.138          -0.011          14.000                                                                  
G17  21760186.307       20305.531         712.808          27.000                                                                  
G19  20403570.040       -2191.596         -67.514          26.000                                                                  
G28  22823533.776       20711.815        2431.758          23.000                                                                  
R 7  20502671.620      -91792.384       -3281.187          17.000  
R 8  23115039.275     -100612.715       -5142.901          21.000  
R12  21476535.632       40693.415        1344.554          21.000  
R21  21419951.568       20828.801         744.166          23.000  
R22  20321532.125      -38807.807       -1187.297          27.000  
E20                                                                  22983817.471         124.973           6.362          21.000  
E26                                                                  25126726.428        3665.773         333.772          19.000  
E30                                                                  25882957.701        8349.407        1081.190          17.000  
E31  25903509.781       11539.876        2126.000          16.000                                                                  
E35                                                                  22649450.440      -26852.768       -1660.429          16.000  
C 8  36287380.515      -11604.996        -375.366          24.000                                                                                                                                  
C10  36181659.296        1873.336         136.564          13.000                                                                                                                                  
C13  36499953.117      -12945.203        -634.595          23.000                                                                                                                                  
C19  22673050.968      -57282.809       -2894.657          20.000                                                                                                                                  
C29  22268787.369       -1365.607         -63.364          27.000                                                                                                                                  
> 2021  5 17  8 40 18.0000000  0 22                     
G 2  21833558.240      -34051.144       -1714.771          20.000                                                                  
G 6                                                                  20671300.916       -4538.579        -191.558          23.000  
G 9  23560107.093      -70412.070       -2360.398          17.000                                                                  
G12  22415949.684      -71284.244          -0.011          12.000                                                                  
G17  21760319.980       21017.996         711.936          24.000                                                                  
G19  20403557.442       -2257.936         -63.906          28.000                                                                  
G28  22823994.357       23143.633        2430.782          19.000                                                                  
R 7  20502059.904      -95067.583       -3267.198          17.000  
R 8  23114086.836     -105756.393       -5142.963          20.000  
R12  21476811.240       42159.397        1347.436          19.000  
R21  21420090.772       21571.988         742.813          26.000  
R22  20321290.435      -40104.653       -1191.166          24.000  
E20                                                                  22983818.539         131.030           6.611          21.000  
E26                                                                  25126811.580        3999.412         330.308          18.000  
E29                                                                  22268769.399        -478.116         -49.978          18.000  
E30                                                                  25883234.618        9430.999        1082.415          14.000  
E31  25903915.124       13669.788        2129.410          14.000                                                                  
E35                                                                  22649027.656      -28512.545       -1660.220          17.000  
C 8  36287307.957      -11981.768        -378.059          28.000                                                                                                                                  
C10  36181685.808        2011.088         138.080          19.000                                                                                                                                  
C13  36499831.051      -13579.643        -633.647          22.000                                                                                                                                  
C19  22672494.951      -60175.530       -2891.070          19.000                                                                                                                                  
> 2021  5 17  8 40 19.0000000  0 21                     
G 2  21833231.908      -35766.013       -1714.129          20.000                                                                  
G 6                                                                  20671252.035       -4730.301        -188.845          24.000  
G 9  23559637.333      -72773.551       -2361.805          22.000                                                                  
G12  22415408.838      -74126.653          -0.011          15.000                                                                  
G17  21760454.556       21729.591         710.635          18.000                                                                  
G19  20403546.030       -2323.484         -65.307          24.000                                                                  
G28  22824457.372       25574.473        2431.964          16.000                                                                  
R 7  20501448.736      -98338.958       -3266.961          22.000  
R 8  23113125.975     -110901.991       -5148.421          17.000  
R12  21477090.931       43629.459        1350.073          20.000  
R21  21420230.029       22316.416         744.226          24.000  
R22  20321048.257      -41402.978       -1190.632          21.000  
E20                                                                  22983820.276         137.547           5.375          19.000  
E26                                                                  25126893.309        4330.162         330.477          17.000  
E29                                                                  22268757.022        -527.384         -49.251          16.000  
E30                                                                  25883511.204       10515.624        1085.188          12.000  
E35                                                                  22648604.950      -30172.423       -1657.903          17.000  
C 8  36287235.704      -12358.848        -377.725          22.000                                                                                                                                  
C10  36181715.200        2151.290         137.892          17.000                                                                                                                                  
C13  36499709.829      -14212.087        -632.009          22.000                                                                                                                                  
C19  22671940.918      -63067.845       -2892.973          19.000                                                                                                                                  
> 2021  5 17  8 40 20.0000000  0 22                     
G 2  21832902.269      -37479.892       -1713.613          20.000                                                                  
G 6                                                                  20671203.341       -4921.559        -190.455          25.000  
G 9  23559188.749      -75134.062       -2359.950          17.000                                                                  
G12  22414871.391      -76968.146          -0.011          16.000                                                                  
G17  21760589.349       22440.680         713.208          25.000                                                                  
G19  20403533.375       -2389.709         -66.679          18.000                                                                  
G28  22824919.820       28004.617        2430.259          17.000                                                                  
R 7  20500840.753     -101601.803       -3270.834          20.000  
R 8  23112164.947     -116048.612       -5144.583          16.000  
R12  21477362.501       45104.168        1356.078          18.000  
R21  21420369.073       23061.667         745.655          20.000  
R22  20320805.507      -42698.475       -1188.714          24.000  
E11  26133608.273      -30263.499       -2237.723          25.000                                                                  
E20                                                                  22983826.518         146.828           9.703          18.000  
E26                                                                  25126979.177        4663.838         337.878          19.000  
E29                                                                  22268745.525        -577.580         -49.735          16.000  
E30                                                                  25883786.517       11600.913        1084.467          10.000  
E35                                                                  22648181.790      -31829.880       -1658.720          19.000  
C 8  36287162.937      -12737.654        -378.868          23.000                                                                                                                                  
C10  36181742.183        2291.501         141.627          19.000                                                                                                                                  
C13  36499588.772      -14843.369        -630.830          24.000                                                                                                                                  
C19  22671383.960      -65959.157       -2891.810          17.000                                                                                                                                  
> 2021  5 17  8 40 21.0000000  0 22                     
G 2  21832568.521      -39194.803       -1715.698          24.000                                                                  
G 6                                                                  20671155.010       -5111.267        -190.524          28.000  
G 9  23558739.756      -77493.716       -2359.389          16.000                                                                  
G12  22414334.157      -79810.434       -2842.329          19.000                                                                  
G17  21760725.168       23153.421         713.824          28.000                                                                  
G19  20403520.528       -2457.157         -67.166          18.000                                                                  
G28  22825382.338       30434.889        2431.023          19.000                                                                  
R 7  20500232.194     -104864.003       -3261.754          19.000  
R 8  23111205.814     -121194.031       -5145.926          16.000  
R12  21477638.707       46580.074        1353.437          18.000  
R21  21420509.294       23808.654         746.974          26.000  
R22  20320564.489      -43993.443       -1187.704          25.000  
E26                                                                  25127066.101        4999.148         332.733          21.000  
E29                                                                  22268732.686        -629.229         -51.971          15.000  
E30                                                                  25884063.168       12685.851        1084.150          11.000  
E35                                                                  22647762.566      -33487.629       -1658.755          23.000  
C 8  36287090.073      -13116.281        -378.624          24.000                                                                                                                                  
C10  36181772.549        2433.107         141.921          18.000                                                                                                                                  
C13  36499467.488      -15475.765        -632.906          27.000                                                                                                                                  
C19  22670827.751      -68849.922       -2889.646          20.000                                                                                                                                  
C20  22983830.921        -225.795          10.346          23.000                                                                                                                                  
C22  25974370.823      -12213.012       -4167.981          20.000                                                                                                                                  
> 2021  5 17  8 40 22.0000000  0 22                     
G 2  21832241.517      -40909.491       -1713.973          22.000                                                                  
G 6                                                                  20671106.739       -5300.587        -188.432          24.000  
G 9  23558299.962      -79853.465       -2359.307          14.000                                                                  
G12  22413793.369      -82652.384       -2841.704          18.000                                                                  
G17  21760862.829       23867.813         714.360          30.000                                                                  
G19  20403511.145       -2523.103         -65.014          23.000                                                                  
G28  22825861.591       32867.148        2431.941          20.000                                                                  
R 7  20499624.041     -108120.423       -3252.905          19.000  
R 8  23110244.603     -126341.217       -5147.002          17.000  
R12  21477915.655       48055.336        1352.629          18.000  
R21  21420650.009       24555.019         745.244          25.000  
R22  20320320.325      -45287.862       -1188.632          24.000  
E26                                                                  25127152.340        5336.622         338.858          20.000  
E29                                                                  22268721.452        -681.985         -52.101          14.000  
E30                                                                  25884339.640       13770.134        1083.020          13.000  
E35                                                                  22647337.426      -35142.730       -1652.316          22.000  
C 8  36287017.738      -13495.109        -376.588          22.000                                                                                                                                  
C10  36181799.929        2575.384         142.878          17.000                                                                                                                                  
C13  36499345.825      -16109.118        -634.215          24.000                                                                                                                                  
C19  22670275.086      -71740.572       -2891.148          23.000                                                                                                                                  
C20  22983833.115        -215.148          10.385          19.000                                                                                                                                  
C22  25973570.338      -16379.807       -4167.901          18.000                                                                                                                                  
> 2021  5 17  8 40 23.0000000  0 23                     
G 2  21831915.006      -42623.919       -1713.826          19.000                                                                  
G 6                                                                  20671058.521       -5489.964        -188.651          20.000  
G 9  23557850.907      -82213.346       -2360.061          14.000                                                                  
G12  22413253.601      -85493.385       -2839.667          20.000                                                                  
G14  24442561.691        5552.166        3012.818          15.000                                                                  
G17  21761002.145       24582.238         715.298          30.000                                                                  
G19  20403503.899       -2586.593         -62.789          23.000                                                                  
G28  22826324.582       35300.053        2434.682          19.000                                                                  
R 7  20499017.497     -111374.586       -3248.236          20.000  
R 8  23109283.061     -131486.481       -5144.094          18.000  
R12  21478191.726       49529.715        1352.231          20.000  
R21  21420789.048       25302.659         750.558          20.000  
R22  20320077.305      -46585.821       -1189.402          20.000  
E19                                                                  22669718.441       -3145.148       -2179.846          17.000  
E20                                                                  22983834.154         174.615           9.570          15.000  
E26                                                                  25127237.793        5674.726         339.801          22.000  
E29                                                                  22268708.557        -733.289         -51.824          12.000  
E30                                                                  25884611.807       14853.088        1082.327          13.000  
E35                                                                  22646916.038      -36795.839       -1658.242          19.000  
C 8  36286945.821      -13872.796        -376.803          21.000                                                                                                                                  
C10  36181829.918        2718.095         142.870          17.000                                                                                                                                  
C13  36499224.502      -16742.698        -632.618          23.000                                                                                                                                  
C22  25972769.639      -20549.432       -4167.595          17.000                                                                                                                                  
> 2021  5 17  8 40 24.0000000  0 23                     
G 2  21831588.735      -44338.469       -1713.114          16.000                                                                  
G 6                                                                  20671010.273       -5677.944        -188.099          19.000  
G 9  23557401.848      -84573.570       -2359.300          13.000                                                                  
G12  22412713.292      -88332.985       -2839.460          17.000                                                                  
G14  24443113.249        8567.782        3013.974          16.000                                                                  
G17  21761139.151       25298.138         716.639          28.000                                                                  
G19  20403501.570       -2648.353         -60.935          23.000                                                                  
G28  22826792.004       37733.000        2433.082          20.000                                                                  
R 7  20498413.375     -114621.812       -3249.293          25.000  
R 8  23108330.820     -136629.941       -5143.252          19.000  
R12  21478467.946       51005.406        1353.574          18.000  
R21  21420929.278       26051.566         746.905          20.000  
R22  20319835.166      -47882.384       -1188.020          18.000  
E19                                                                  22669163.688       -5322.915       -2176.852          19.000  
E20                                                                  22983836.579         183.477           7.973          13.000  
E26                                                                  25127325.009        6013.298         338.890          23.000  
E29                                                                  22268695.500        -785.234         -51.606          13.000  
E30                                                                  25884887.734       15935.148        1082.829          12.000  
E35                                                                  22646493.707      -38453.853       -1657.878          17.000  
C 8  36286873.904      -14247.408        -373.481          18.000                                                                                                                                  
C10  36181857.701        2862.522         145.175          17.000                                                                                                                                  
C13  36499103.087      -17375.154        -631.588          18.000                                                                                                                                  
C22  25971969.276      -24717.230       -4167.542          17.000                                                                                                                                  
> 2021  5 17  8 40 25.0000000  0 23                     
G 2  21831260.501      -46050.641       -1711.141          16.000                                                                  
G 6                                                                  20670961.976       -5866.447        -187.502          22.000  
G 9  23556952.906      -86932.604          -0.004          14.000                                                                  
G12  22412173.102      -91171.837       -2839.319          13.000                                                                  
G14  24443687.089       11583.116        3019.170          13.000                                                                  
G17  21761277.762       26015.430         716.816          25.000                                                                  
G19  20403491.476       -2708.729         -59.673          24.000                                                                  
G28  22827254.805       40165.151        2432.263          19.000                                                                  
R 7  20497807.124     -117874.858       -3248.497          20.000  
R 8  23107399.158     -141772.669       -5141.053          24.000  
R12  21478742.970       52481.776        1355.786          18.000  
R21  21421068.632       26797.507         746.676          22.000  
R22  20319590.562      -49179.044       -1190.135          18.000  
E19                                                                  22668603.684       -7498.633       -2172.638          20.000  
E20                                                                  22983838.032         188.613           1.369          13.000  
E26                                                                  25127411.833        6352.817         343.237          23.000  
E29                                                                  22268683.119        -834.585         -47.646          17.000  
E30                                                                  25885161.044       17019.042        1085.071          14.000  
E35                                                                  22646071.297      -40111.728       -1659.217          17.000  
C 8  36286801.722      -14623.104        -375.560          17.000                                                                                                                                  
C10  36181890.465        3008.525           0.007          17.000                                                                                                                                  
C13  36498981.629      -18007.624        -633.086          18.000                                                                                                                                  
C22  25971163.177      -28883.570       -4166.002          20.000                                                                                                                                  
> 2021  5 17  8 40 26.0000000  0 23                     
G 2  21830934.753      -47762.773       -1710.559          17.000                                                                  
G 6                                                                  20670914.016       -6054.738        -186.422          24.000  
G 9  23556504.313      -89290.079          -0.004          16.000                                                                  
G12  22411632.853      -94011.017          -0.011          13.000                                                                  
G14  24444261.539       14601.606        3017.419          15.000                                                                  
G17  21761414.882       26733.680         717.729          20.000                                                                  
G19  20403476.369       -2768.263         -58.696          24.000                                                                  
G28  22827715.774       42598.611        2432.544          18.000                                                                  
R 7  20497199.465     -121128.471       -3258.703          18.000  
R 8  23106431.914     -146914.038       -5142.156          20.000  
R12  21479019.162       53957.133        1355.378          17.000  
R21  21421207.993       27545.574         749.881          20.000  
R22  20319346.128      -50473.090       -1186.023          23.000  
E19                                                                  22668048.161       -9674.293       -2178.015          17.000  
E20                                                                  22983838.560         189.970           2.596          15.000  
E26                                                                  25127499.442        6695.046         341.561          21.000  
E29                                                                  22268674.816        -881.112         -45.286          17.000  
E30                                                                  25885437.756       18104.186        1085.701          13.000  
E35                                                                  22645647.872      -41770.441       -1656.845          17.000  
C 8  36286729.674      -14998.469        -374.834          23.000                                                                                                                                  
C10  36181918.608        3154.817           0.007          16.000                                                                                                                                  
C13  36498860.183      -18640.163        -630.823          17.000                                                                                                                                  
C22  25970366.667      -33048.296       -4163.641          18.000                                                                                                                                  
> 2021  5 17  8 40 27.0000000  0 23                     
G 2  21830609.045      -49474.843       -1713.814          19.000                                                                  
G 6                                                                  20670866.268       -6242.362        -187.297          25.000  
G 9  23556053.421      -91644.551       -2354.736          17.000                                                                  
G12  22411092.313      -96851.469          -0.011          13.000                                                                  
G14  24444834.406       17619.855        3018.389          15.000                                                                  
G17  21761551.377       27451.706         717.253          20.000                                                                  
G19  20403464.783       -2827.611         -58.023          20.000                                                                  
G28  22828178.812       45031.384        2431.805          18.000                                                                  
R 7  20496592.306     -124383.741       -3247.207          17.000  
R 8  23105471.611     -152055.714       -5140.666          18.000  
R12  21479295.923       55435.582        1357.095          22.000  
R21  21421349.122       28294.506         749.225          23.000  
R22  20319103.806      -51765.699       -1187.322          18.000  
E19                                                                  22667493.113      -11853.048       -2179.768          15.000  
E20                                                                  22983843.647         195.117           7.296          19.000  
E26                                                                  25127585.956        7034.313         338.897          18.000  
E29                                                                  22268665.249        -923.888         -40.738          19.000  
E30                                                                  25885714.373       19188.991        1085.294          15.000  
E35                                                                  22645226.273      -43425.693       -1653.878          12.000  
C 8  36286657.461      -15373.443        -375.073          18.000                                                                                                                                  
C10  36181946.566        3300.221           0.007          17.000                                                                                                                                  
C13  36498739.108      -19270.676        -629.355          19.000                                                                                                                                  
C22  25969563.786      -37214.894       -4166.988          17.000                                                                                                                                  
> 2021  5 17  8 40 28.0000000  0 23                     
G 2  21830286.552      -51186.946       -1709.568          18.000                                                                  
G 6                                                                  20670818.631       -6429.473        -186.141          25.000  
G 9  23555605.291      -93999.447       -2354.994          15.000                                                                  
G12  22410551.743      -99692.033          -0.011          13.000                                                                  
G14  24445408.671       20637.472        3017.722          15.000                                                                  
G17  21761687.624       28167.671         714.544          15.000                                                                  
G19  20403452.712       -2886.090         -57.298          18.000                                                                  
G28  22828640.352       47465.251        2435.938          17.000                                                                  
R 7  20495986.548     -127627.069       -3235.291          17.000  
R 8  23104511.897     -157195.139       -5136.577          16.000  
R12  21479565.319       56915.068        1357.051          17.000  
R21  21421490.643       29043.941         750.097          21.000  
R22  20318861.335      -53060.202       -1189.507          16.000  
E19                                                                  22666936.759      -14031.987       -2177.396          16.000  
E20                                                                  22983846.412         207.810          13.099          21.000  
E26                                                                  25127672.718        7373.422         338.919          18.000  
E29                                                                  22268652.619        -967.574         -43.681          21.000  
E30                                                                  25885986.972       20273.775        1085.106          17.000  
E35                                                                  22644804.789      -45080.311       -1656.449          14.000  
C 8  36286585.435      -15748.686        -375.102          16.000                                                                                                                                  
C10  36181973.802        3442.446         140.516          17.000                                                                                                                                  
C13  36498618.436      -19901.270        -629.156          17.000                                                                                                                                  
C22  25968759.550      -41382.353       -4166.279          16.000                                                                                                                                  
> 2021  5 17  8 40 29.0000000  0 23                     
G 2  21829950.312      -52896.870       -1710.687          17.000                                                                  
G 6                                                                  20670771.028       -6616.406        -186.542          25.000  
G 9  23555157.152      -96354.557       -2355.456          15.000                                                                  
G12  22410011.076     -102533.302          -0.011          14.000                                                                  
G14  24445983.833       23654.969        3018.569          14.000                                                                  
G17  21761823.605       28882.104         716.160          15.000                                                                  
G19  20403439.979       -2943.848         -57.292          20.000                                                                  
G28  22829099.738       49901.829        2435.538          17.000                                                                  
R 7  20495390.492     -130869.631       -3247.842          17.000  
R 8  23103539.693     -162332.086       -5138.071          16.000  
R12  21479841.970       58392.850        1354.400          15.000  
R21  21421629.730       29793.251         748.718          22.000  
R22  20318629.129      -54356.833       -1188.544          16.000  
E19                                                                  22666383.539      -16209.290       -2176.729          16.000  
E20                                                                  22983847.590         220.484          13.500          19.000  
E26                                                                  25127756.191        7712.050         338.615          17.000  
E29                                                                  22268641.115       -1011.643         -44.553          19.000  
E30                                                                  25886263.636       21358.729        1085.829          18.000  
E35                                                                  22644383.165      -46735.547       -1656.473          13.000  
C 8  36286513.051      -16125.763        -377.427          13.000                                                                                                                                  
C10  36182001.060        3584.048         142.328          16.000                                                                                                                                  
C13  36498497.936      -20529.059        -627.268          17.000                                                                                                                                  
C22  25967959.531      -45548.423       -4165.092          16.000                                                                                                                                  
> 2021  5 17  8 40 30.0000000  0 23                     
G 2  21829624.940      -54606.830       -1709.602          16.000                                                                  
G 6                                                                  20670723.543       -6803.062        -185.536          25.000  
G 9  23554711.020      -98710.193          -0.004          16.000                                                                  
G12  22409470.195     -105375.692          -0.011          13.000                                                                  
G14  24446558.379       26674.023        3017.201          15.000                                                                  
G17  21761967.426       29597.406         714.948          15.000                                                                  
G19  20403428.423       -3001.010         -57.033          20.000                                                                  
G28  22829563.438       52338.332        2437.515          16.000                                                                  
R 7  20494784.215     -134117.650       -3249.677          13.000  
R 8  23102580.093     -167470.851       -5137.982          15.000  
R12  21480100.691       59870.310        1357.295          14.000  
R21  21421770.855       30540.585         745.978          19.000  
R22  20318386.458      -55652.305       -1188.500          15.000  
E19                                                                  22665830.201      -18384.320       -2174.566          17.000  
E20                                                                  22983852.159         234.338          14.345          20.000  
E26                                                                  25127842.740        8050.990         339.071          19.000  
E29                                                                  22268631.723       -1055.602         -38.906          20.000  
E30                                                                  25886536.854       22444.513        1086.072          19.000  
E35                                                                  22643958.609      -48394.134       -1659.506          14.000  
C 8  36286442.901      -16501.284           0.000          14.000                                                                                                                                  
C10  36182027.743        3729.704         147.421          17.000                                                                                                                                  
C13  36498376.949      -21159.291        -631.177          17.000                                                                                                                                  
C22  25967159.378      -49715.107       -4167.543          17.000                                                                                                                                  
> 2021  5 17  8 40 31.0000000  0 23                     
G 2  21829299.550      -56316.952       -1710.637          20.000                                                                  
G 6                                                                  20670676.088       -6989.107        -185.616          26.000  
G 9  23554262.776     -101065.644          -0.004          15.000                                                                  
G12  22408929.498     -108217.275          -0.011          12.000                                                                  
G14  24447132.753       29692.205        3019.605          14.000                                                                  
G17  21762103.662       30312.771         716.571          14.000                                                                  
G19  20403417.386       -3057.931         -56.074          18.000                                                                  
G28  22830027.544       54777.038        2438.882          18.000                                                                  
R 7  20494177.406     -137365.983       -3245.022          16.000  
R 8  23101620.671     -172608.395       -5135.896          14.000  
R12  21480377.853       61351.077        1360.344          16.000  
R21  21421910.169       31287.489         749.910          18.000  
R22  20318143.860      -56947.427       -1188.266          15.000  
E19  25726013.147      -17357.494       -2625.895          11.000    22665274.024      -20557.543       -2172.828          17.000  
E20                                                                  22983855.823         248.354          14.040          19.000  
E26                                                                  25127933.599        8391.142         341.399          18.000  
E29                                                                  22268620.860       -1098.581         -42.614          21.000  
E30                                                                  25886813.654       23530.039        1085.560          19.000  
E35                                                                  22643536.392      -50051.699       -1658.223          13.000  
C 8  36286371.111      -16875.373           0.000          13.000                                                                                                                                  
C10  36182056.009        3876.842         147.883          17.000                                                                                                                                  
C13  36498255.643      -21791.056        -632.246          17.000                                                                                                                                  
C22  25966358.443      -53880.776       -4164.523          17.000                                                                                                                                  
> 2021  5 17  8 40 32.0000000  0 23                     
G 2  21828985.254      -58025.677       -1706.829          17.000                                                                  
G 6                                                                  20670628.939       -7174.587        -185.261          23.000  
G 9  23553823.563     -103421.179       -2355.974          16.000                                                                  
G12  22408388.683     -111059.493          -0.011          11.000                                                                  
G14  24447706.998       32709.665        3019.490          15.000                                                                  
G17  21762240.254       31030.619           0.013          13.000                                                                  
G19  20403406.363       -3113.338         -55.962          18.000                                                                  
G28  22830501.525       57215.077        2437.658          19.000                                                                  
R 7  20493567.782     -140610.387       -3243.826          15.000  
R 8  23100654.784     -177747.279          -0.001          15.000  
R12  21480655.032       62831.738        1358.518          15.000  
R21  21422050.050       32035.461         748.422          17.000  
R22  20317902.023      -58241.709          -0.003          15.000  
E19  25725513.482      -19983.269       -2626.056          11.000    22664720.416      -22730.794       -2172.658          16.000  
E20                                                                  22983860.072         263.190          15.523          18.000  
E26                                                                  25128019.999        8733.654         340.936          18.000  
E29                                                                  22268610.053       -1140.387         -41.854          20.000  
E30                                                                  25887086.283       24615.230        1085.481          18.000  
E35                                                                  22643114.240      -51709.047       -1656.667          12.000  
C 8  36286297.615      -17251.009           0.000          14.000                                                                                                                                  
C10  36182084.293        4023.939         146.611          16.000                                                                                                                                  
C13  36498133.522      -22419.963        -626.352          18.000                                                                                                                                  
C22  25965558.586      -58046.003       -4164.438          17.000                                                                                                                                  
> 2021  5 17  8 40 33.0000000  0 23                     
G 2  21828660.244      -59733.889       -1708.600          16.000                                                                  
G 6                                                                  20670581.550       -7360.237        -185.106          25.000  
G 9  23553375.398     -105776.287       -2354.090          16.000                                                                  
G12  22407847.668     -113902.528          -0.011          13.000                                                                  
G14  24448281.940       35730.910        3022.173          15.000                                                                  
G17  21762376.784       31748.114           0.013          12.000                                                                  
G19  20403396.181       -3166.789         -54.380          16.000                                                                  
G28  22830965.273       59651.883        2436.529          16.000                                                                  
R 7  20492961.599     -143855.616       -3244.514          16.000  
R 8  23099694.891     -182887.511          -0.001          17.000  
R12  21480936.692       64314.716        1361.870          14.000  
R21  21422190.175       32785.535         751.363          17.000  
R22  20317660.154      -59533.262          -0.003          14.000  
E19  25725013.782      -22609.161       -2625.851          10.000    22664165.748      -24902.300       -2171.519          16.000  
E20                                                                  22983863.911         277.061          13.374          18.000  
E26                                                                  25128104.393        9075.545         342.728          18.000  
E29                                                                  22268599.748       -1181.507         -41.463          20.000  
E30                                                                  25887370.255       25700.552        1085.348          17.000  
E35                                                                  22642692.001      -53366.665       -1657.014          13.000  
C 8  36286225.515      -17626.411           0.000          12.000                                                                                                                                  
C10  36182110.723        4170.764         146.974          14.000                                                                                                                                  
C13  36498014.759      -23046.965        -627.163          17.000                                                                                                                                  
C22  25964759.288      -62210.313       -4165.875          17.000                                                                                                                                  
> 2021  5 17  8 40 34.0000000  0 22                     
G 2  21828341.624      -61442.326           0.003          14.000                                                                  
G 6                                                                  20670534.378       -7545.515        -184.566          26.000  
G 9  23552927.539     -108129.606       -2353.048          15.000                                                                  
G14  24448857.027       38752.990        3024.494          14.000                                                                  
G17  21762512.909       32463.389           0.013          16.000                                                                  
G19  20403385.742       -3221.730         -55.940          19.000                                                                  
G28  22831429.030       62088.743        2437.941          14.000                                                                  
R 7  20492355.265     -147101.099       -3244.419          17.000  
R 8  23098734.985     -188028.102          -0.001          14.000  
R12  21481214.948       65800.850        1364.866          12.000  
R21  21422345.002       33536.249         750.772          23.000  
R22  20317418.146      -60824.906          -0.003          14.000  
E19  25724514.211      -25234.572       -2625.292          10.000    22663611.333      -27072.247       -2170.235          16.000  
E20                                                                  22983867.449         291.663          16.609          20.000  
E26                                                                  25128192.791        9415.911         340.443          18.000  
E29                                                                  22268588.890       -1223.648         -42.130          20.000  
E30                                                                  25887647.669       26785.496        1085.111          17.000  
C 8  36286153.215      -18002.999           0.000          12.000                                                                                                                                  
C10  36182139.255        4319.115         149.061          16.000                                                                                                                                  
C13  36497894.296      -23674.458        -626.709          18.000                                                                                                                                  
C22  25963959.383      -66375.714       -4165.617          17.000                                                                                                                                  
C35  22642277.091      -80984.303           0.028          13.000                                                                                                                                  
> 2021  5 17  8 40 35.0000000  0 22                     
G 2  21828016.592      -63150.583           0.003          17.000                                                                  
G 6                                                                  20670487.252       -7730.567        -184.378          26.000  
G 9  23552487.579     -110481.937       -2352.260          11.000                                                                  
G14  24449431.763       41773.817        3017.857          13.000                                                                  
G17  21762648.344       33179.051           0.013          15.000                                                                  
G19  20403369.078       -3278.059         -56.631          20.000                                                                  
G28  22831892.922       64526.487          -0.010          14.000                                                                  
R 7  20491751.963     -150344.928       -3243.526          17.000  
R 8  23097772.763     -193168.145       -5139.283          15.000  
R12  21481493.353       67288.103        1363.771          13.000  
R21  21422473.100       34288.866         753.681          23.000  
R22  20317176.068      -62116.922          -0.003          13.000  
E19  25640386.337      -27859.850       -2624.914           8.000    22663058.449      -29242.549       -2170.193          16.000  
E20                                                                  22983871.284         306.916          14.482          18.000  
E26                                                                  25128280.160        9757.118         342.892          17.000  
E29                                                                  22268578.154       -1266.444         -42.545          19.000  
E30                                                                  25887923.304       27871.876        1087.109          17.000  
C 8  36286080.015      -18378.869           0.000          13.000                                                                                                                                  
C10  36182167.944        4468.358         149.888          15.000                                                                                                                                  
C13  36497773.766      -24302.388        -628.215          16.000                                                                                                                                  
C22  25963157.942      -70541.441       -4165.028          17.000                                                                                                                                  
C35  22641855.332      -83180.816           0.028          17.000                                                                                                                                  
> 2021  5 17  8 40 36.0000000  0 22                     
G 2  21827695.849      -64859.098       -1708.447          17.000                                                                  
G 6                                                                  20670440.373       -7915.087        -184.133          27.000  
G 9  23552039.754     -112835.033       -2353.782          12.000                                                                  
G14  24450005.381       44788.041        3010.212          15.000                                                                  
G17  21762784.761       33895.837           0.013          15.000                                                                  
G19  20403366.230       -3332.673         -53.104          18.000                                                                  
G28  22832356.928       66964.630          -0.010          16.000                                                                  
R 7  20491146.287     -153587.195       -3241.745          16.000  
R 8  23096812.966     -198308.379       -5139.117          16.000  
R12  21481771.571       68774.724           0.006          10.000  
R21  21422609.700       35041.908         752.336          21.000  
R22  20316934.007      -63409.406          -0.003          15.000  
E19  25639886.794      -30484.959       -2624.815           8.000    22662502.779      -31412.517       -2171.207          16.000  
E20                                                                  22983874.914         320.479          13.605          17.000  
E26                                                                  25128367.097       10099.923         342.903          17.000  
E29                                                                  22268567.736       -1307.944         -40.197          19.000  
E30                                                                  25888198.992       28958.955        1088.124          18.000  
C 8  36286007.767      -18755.256           0.000          13.000                                                                                                                                  
C10  36182197.135        4619.367         152.689          16.000                                                                                                                                  
C13  36497652.671      -24930.410        -627.399          17.000                                                                                                                                  
C22  25962358.426      -74704.909       -4163.044          15.000                                                                                                                                  
C35  22641433.669      -85376.778           0.028          18.000                                                                                                                                  
> 2021  5 17  8 40 37.0000000  0 22                     
G 2  21827370.834      -66567.269       -1707.813          17.000                                                                  
G 6                                                                  20670393.516       -8099.552        -183.978          25.000  
G 9  23551591.790     -115189.151          -0.004          15.000                                                                  
G14  24450579.731       47796.259          -0.008          13.000                                                                  
G17  21762912.658       34613.691           0.013          16.000                                                                  
G19  20403356.262       -3385.347         -52.101          15.000                                                                  
G28  22832809.381       69403.288        2439.221          15.000                                                                  
R 7  20490540.926     -156828.032       -3240.092          19.000  
R 8  23095848.599     -203444.942       -5135.516          16.000  
R12  21482049.950       70261.341           0.006          14.000  
R21  21422748.805       35795.718         752.674          19.000  
R22  20316689.176      -64699.889          -0.003          15.000  
E19  25639387.308      -33109.783       -2624.959           8.000    22661949.813      -33583.164       -2170.018          14.000  
E20                                                                  22983877.610         334.467          13.299          16.000  
E26                                                                  25128455.016       10442.458         343.721          19.000  
E29                                                                  22268557.086       -1349.094         -41.226          17.000  
E30                                                                  25888480.625       30047.396        1088.940          16.000  
C 8  36285935.981      -19129.366           0.000          20.000                                                                                                                                  
C10  36182226.378        4771.596         151.941          15.000                                                                                                                                  
C13  36497532.621      -25555.680        -624.129          18.000                                                                                                                                  
C22  25961557.666      -78867.563       -4162.029          15.000                                                                                                                                  
C35  22641011.229      -87571.760       -2194.924          16.000                                                                                                                                  
> 2021  5 17  8 40 38.0000000  0 22                     
G 2  21827046.866      -68273.933       -1704.802          15.000                                                                  
G 6                                                                  20670346.868       -8283.375        -182.402          27.000  
G 9  23551144.179     -117541.255          -0.004          14.000                                                                  
G14  24451152.423       50805.665          -0.008          12.000                                                                  
G17  21763049.916       35334.844           0.013          19.000                                                                  
G19  20403346.591       -3436.157         -49.231          15.000                                                                  
G28  22833273.575       71842.366        2439.357          15.000                                                                  
R 7  20489941.324     -160068.462       -3240.557          16.000  
R 8  23094889.592     -208580.732       -5138.044          15.000  
R12  21482328.367       71748.894           0.006          16.000  
R21  21422890.588       36547.190         750.006          22.000  
R22  20316447.691      -65989.203          -0.003          14.000  
E19  25638887.799      -35734.751       -2624.958           8.000    22661397.352      -35751.829       -2168.884          14.000  
E20                                                                  22983882.902         348.584          15.673          16.000  
E26                                                                  25128547.650       10785.925         343.084          20.000  
E29                                                                  22268548.623       -1390.937         -42.023          16.000  
E30                                                                  25888758.267       31136.251        1087.733          15.000  
C 8  36285868.336      -19502.777        -373.144          19.000                                                                                                                                  
C10  36182255.050        4923.014         151.578          15.000                                                                                                                                  
C13  36497411.015      -26180.419        -625.575          14.000                                                                                                                                  
C22  25960758.934      -83026.903       -4157.099          13.000                                                                                                                                  
C35  22640589.793      -89766.432       -2194.345          17.000                                                                                                                                  
> 2021  5 17  8 40 39.0000000  0 22                     
G 2  21826722.497      -69978.442       -1703.795          14.000                                                                  
G 6                                                                  20670300.173       -8467.008        -183.493          26.000  
G 9  23550696.607     -119893.534          -0.004          11.000                                                                  
G14  24451725.231       53815.805          -0.008          10.000                                                                  
G17  21763186.206       36057.519         723.396          24.000                                                                  
G19  20403327.196       -3485.752         -50.145          18.000                                                                  
G28  22833737.593       74280.773        2437.932          14.000                                                                  
R 7  20489336.167     -163308.201       -3239.801          19.000  
R 8  23093930.436     -213717.143       -5136.753          15.000  
R12  21482602.449       73236.762        1366.017          17.000  
R21  21423030.875       37296.030         747.380          20.000  
R22  20316208.654      -67278.829          -0.003          14.000  
E19  25638388.291      -38359.649       -2624.851           7.000    22660844.586      -37921.666       -2169.176          13.000  
E20                                                                  22983886.069         364.857          16.897          15.000  
E26                                                                  25128633.710       11130.579         344.576          19.000  
E29                                                                  22268538.266       -1432.282         -41.097          19.000  
E30                                                                  25889037.464       32223.584        1087.544          15.000  
C 8  36285796.803      -19875.582        -372.158          15.000                                                                                                                                  
C10  36182284.173        5074.588         151.499          17.000                                                                                                                                  
C13  36497290.939      -26806.006        -627.042          15.000                                                                                                                                  
C22  25959960.674      -87183.803       -4157.412          12.000                                                                                                                                  
C35  22640167.606      -91959.259       -2192.897          18.000                                                                                                                                  
> 2021  5 17  8 40 40.0000000  0 22                     
G 2  21826398.307      -71682.147       -1703.674          16.000                                                                  
G 6                                                                  20670253.565       -8650.224        -182.039          25.000  
G 9  23550249.428     -122243.709          -0.004          13.000                                                                  
G14  24452298.159       56826.475          -0.008          10.000                                                                  
G17  21763322.523       36780.570         723.574          21.000                                                                  
G19  20403315.234       -3535.290         -48.898          19.000                                                                  
G28  22834201.595       76719.098          -0.010          14.000                                                                  
R 7  20488732.626     -166549.068       -3241.130          18.000  
R 8  23092971.346     -218856.053       -5137.855          17.000  
R12  21482884.850       74726.648        1367.412          17.000  
R21  21423170.970       38045.498         751.655          20.000  
R22  20315966.947      -68569.016          -0.003          16.000  
E19  25637888.775      -40984.672       -2625.521           4.000    22660291.517      -40092.685       -2172.328          12.000  
E20                                                                  22983890.825         382.804          17.866          11.000  
E26                                                                  25128722.968       11476.914         346.209          19.000  
E29                                                                  22268526.745       -1473.793         -42.659          19.000  
E30                                                                  25889314.909       33311.557        1089.369          15.000  
C 8  36285724.245      -20248.825        -373.050          14.000                                                                                                                                  
C10  36182313.220        5225.859         151.564          17.000                                                                                                                                  
C13  36497170.650      -27432.707        -626.159          14.000                                                                                                                                  
C22  25959161.001      -91342.491           0.005          13.000                                                                                                                                  
C35  22639746.810      -94152.870       -2194.749          20.000                                                                                                                                  
> 2021  5 17  8 40 41.0000000  0 22                     
G 2  21826072.202      -73386.530           0.003          16.000                                                                  
G 6                                                                  20670207.109       -8833.085        -180.218          25.000  
G 9  23549802.109     -124594.444          -0.004          13.000                                                                  
G14  24452871.065       59836.977          -0.008          13.000                                                                  
G17  21763465.056       37504.288         723.788          20.000                                                                  
G19  20403306.126       -3584.752         -51.271          21.000                                                                  
G28  22834665.733       79158.275          -0.010          15.000                                                                  
R 7  20488126.912     -169790.475       -3242.846          18.000  
R 8  23092038.065     -223993.691       -5137.182          19.000  
R12  21483172.190       76217.466        1368.173          19.000  
R21  21423310.423       38797.595         751.512          19.000  
R22  20315725.497      -69858.212          -0.003          15.000  
E19  25637389.188      -43609.956       -2625.223           5.000    22659738.022      -42265.385       -2172.954          14.000  
E20                                                                  22983895.213         399.366          16.130          13.000  
E26                                                                  25128812.134       11823.121         346.506          20.000  
E29                                                                  22268517.766       -1513.785         -38.686          19.000  
E30                                                                  25889590.789       34400.163        1088.107          15.000  
E35                                                                  22639323.685       -1915.273       -1652.842          21.000  
C 8  36285652.695      -20621.657        -372.132          16.000                                                                                                                                  
C10  36182342.315        5378.749         153.613          16.000                                                                                                                                  
C13  36497047.948      -28060.405        -628.229          17.000                                                                                                                                  
C22  25958362.400      -95501.319           0.005          14.000                                                                                                                                  
> 2021  5 17  8 40 42.0000000  0 21                     
G 2  21825747.903      -75091.070           0.003          15.000                                                                  
G 6                                                                  20670160.391       -9016.131        -182.580          24.000  
G 9  23549354.742     -126945.526          -0.004          12.000                                                                  
G17  21763603.044       38228.924         724.483          17.000                                                                  
G19  20403296.503       -3634.252         -48.415          19.000                                                                  
G28  22835129.852       81597.135          -0.010          11.000                                                                  
R 7  20487530.132     -173033.375       -3240.894          17.000  
R 8  23091078.896     -229130.550       -5135.502          19.000  
R12  21483448.218       77710.185        1369.760          20.000  
R21  21423451.181       39550.521         751.566          17.000  
R22  20315486.629      -71145.955       -1180.885          14.000  
E19  25636889.623      -46235.162       -2624.994           5.000    22659184.283      -44439.033       -2173.528          12.000  
E20                                                                  22983900.008         417.425          19.980          14.000  
E26                                                                  25128900.523       12168.479         345.535          18.000  
E29                                                                  22268507.829       -1553.279         -39.405          17.000  
E30                                                                  25889868.225       35488.180        1088.090          13.000  
E35                                                                  22638902.065       -3569.721       -1660.494          19.000  
C 8  36285581.367      -20993.242        -370.230          14.000                                                                                                                                  
C10  36182371.946        5532.706         155.316          15.000                                                                                                                                  
C13  36496927.415      -28688.292        -628.335          15.000                                                                                                                                  
C22  25957563.019      -99659.136           0.005          15.000                                                                                                                                  
> 2021  5 17  8 40 43.0000000  0 22                     
G 2  21825418.634      -76793.928       -1702.371          14.000                                                                  
G 6                                                                  20670113.801       -9198.845        -182.415          25.000  
G 9  23548907.205     -129297.439          -0.004          12.000                                                                  
G17  21763741.350       38955.517         726.690          19.000                                                                  
G19  20403290.291       -3682.627         -49.079          16.000                                                                  
G28  22835593.971       84035.913          -0.010          11.000                                                                  
R 7  20486924.252     -176273.219       -3239.218          17.000  
R 8  23090100.218     -234266.343       -5136.239          20.000  
R12  21483732.255       79203.568        1370.132          20.000  
R21  21423591.594       40301.652         750.427          16.000  
R22  20315245.799      -72432.328       -1179.074          15.000  
E19  25636390.207      -48859.610       -2624.175           5.000    22658630.653      -46612.250       -2173.776          17.000  
E20                                                                  22983910.618         437.109          18.757          17.000  
E26                                                                  25128988.019       12513.143         344.305          19.000  
E29                                                                  22268498.160       -1591.295         -36.956          17.000  
E30                                                                  25890145.649       36576.109        1088.765          12.000  
E31  25914157.224        3547.592        2140.434          18.000                                                                  
E35                                                                  22638480.144       -5223.384       -1653.212          20.000  
C 8  36285508.473      -21363.890        -372.654          13.000                                                                                                                                  
C10  36182401.059        5689.006         156.369          14.000                                                                                                                                  
C13  36496806.645      -29316.132        -626.906          14.000                                                                                                                                  
C22  25956764.758     -103816.029           0.005          15.000                                                                                                                                  
> 2021  5 17  8 40 44.0000000  0 22                     
G 2  21825094.667      -78496.348       -1702.504          14.000                                                                  
G 6                                                                  20670067.354       -9380.994        -181.935          25.000  
G 9  23548459.707     -131648.935          -0.004          13.000                                                                  
G17  21763881.314       39680.995         725.501          20.000                                                                  
G19  20403280.939       -3731.540         -48.837          12.000                                                                  
G28  22836057.946       86474.114          -0.010          12.000                                                                  
R 7  20486319.427     -179511.247       -3237.174          17.000  
R 8  23089140.613     -239402.964       -5135.997          18.000  
R12  21484015.201       80697.708        1371.072          23.000  
R21  21423721.119       41053.156         752.675          17.000  
R22  20315008.053      -73717.068          -0.003          15.000  
E19  25635890.930      -51483.273       -2623.090           7.000    22658084.725      -48782.565       -2167.887          16.000  
E20                                                                  22983919.482         456.364          18.727          19.000  
E26                                                                  25129077.059       12860.225         346.471          18.000  
E29                                                                  22268486.953       -1628.595         -38.563          17.000  
E30                                                                  25890423.417       37665.395        1089.798          13.000  
E31  25914565.807        5687.504        2138.433          17.000                                                                  
E35                                                                  22638059.471       -6875.122       -1651.271          18.000  
C 8  36285436.966      -21736.484        -371.789          13.000                                                                                                                                  
C10  36182430.944        5844.398         155.216          17.000                                                                                                                                  
C13  36496686.387      -29942.593        -626.090          14.000                                                                                                                                  
C22  25955966.263     -107974.238           0.005          16.000                                                                                                                                  
> 2021  5 17  8 40 45.0000000  0 22                     
G 2  21824770.594      -80199.474       -1704.733          15.000                                                                  
G 6                                                                  20670020.916       -9563.007        -182.337          25.000  
G 9  23548012.698     -133998.220          -0.004          14.000                                                                  
G17  21764028.877       40405.332         724.320          20.000                                                                  
G19  20403271.660       -3780.461         -49.635          13.000                                                                  
G28  22836521.651       88910.817          -0.010          14.000                                                                  
R 7  20485714.716     -182747.694       -3236.521          16.000  
R 8  23088180.668     -244541.008       -5141.091          17.000  
R12  21484290.068       82191.882        1369.878          20.000  
R21  21423869.415       41804.989         752.181          17.000  
R22  20314767.363      -75001.623          -0.003          14.000  
E19                                                                  22657535.231      -50950.394       -2165.948          17.000  
E20                                                                  22983924.592         475.581          19.847          17.000  
E26                                                                  25129163.162       13209.049         351.131          19.000  
E29                                                                  22268478.337       -1665.872         -36.687          17.000  
E30                                                                  25890701.255       38755.001        1089.262          14.000  
E31  25914974.025        7825.668        2136.615          15.000                                                                  
E35                                                                  22637638.388       -8526.142       -1650.956          17.000  
C 8  36285365.708      -22107.866        -370.620          15.000                                                                                                                                  
C10  36182460.885        6000.014         154.872          16.000                                                                                                                                  
C13  36496566.328      -30568.197        -627.469          13.000                                                                                                                                  
C22  25955165.769     -112134.644       -4161.654          16.000                                                                                                                                  
> 2021  5 17  8 40 46.0000000  0 22                     
G 2  21824444.171      -81904.781           0.003          16.000                                                                  
G 6                                                                  20669974.871       -9744.509        -180.778          26.000  
G 9  23547565.917     -136346.194          -0.004          14.000                                                                  
G17  21764170.964       41129.422         723.760          19.000                                                                  
G19  20403262.233       -3830.229           0.004          12.000                                                                  
G28  22836985.081       91345.981          -0.010          13.000                                                                  
R 7  20485104.177     -185983.369       -3234.456          16.000  
R 8  23087220.557     -249682.156       -5140.531          14.000  
R12  21484569.201       83686.653        1372.523          21.000  
R21  21424012.184       42557.261         753.652          19.000  
R22  20314526.650      -76286.934          -0.003          15.000  
E19                                                                  22656983.625      -53115.701       -2165.068          17.000  
E20                                                                  22983929.447         495.743          20.373          16.000  
E26                                                                  25129253.140       13561.430         352.018          18.000  
E29                                                                  22268469.385       -1701.745         -34.066          14.000  
E30                                                                  25890979.377       39845.618        1091.241          12.000  
E31  25915380.593        9965.968        2140.902          18.000                                                                  
E35                                                                  22637217.995      -10176.513       -1651.713          17.000  
C 8  36285292.487      -22479.679           0.000          15.000                                                                                                                                  
C10  36182489.074        6155.284         156.092          15.000                                                                                                                                  
C13  36496444.219      -31196.988           0.024          15.000                                                                                                                                  
C22  25954366.928     -116294.559       -4160.329          16.000                                                                                                                                  
> 2021  5 17  8 40 47.0000000  0 22                     
G 2  21824119.693      -83610.198           0.003          13.000                                                                  
G 6                                                                  20669928.716       -9925.953        -180.786          25.000  
G 9  23547119.440     -138692.746          -0.004          14.000                                                                  
G17  21764309.802       41856.112         727.344          18.000                                                                  
G19  20403252.807       -3879.984           0.004          14.000                                                                  
G28  22837448.340       93780.313          -0.010          12.000                                                                  
R 7  20484499.916     -189218.270       -3234.411          14.000  
R 8  23086263.618     -254821.833       -5140.230          17.000  
R12  21484851.585       85182.701        1371.968          20.000  
R21  21424152.165       43311.284         752.918          19.000  
R22  20314285.841      -77571.946          -0.003          13.000  
E19                                                                  22656433.695      -55282.110       -2166.590          17.000  
E20                                                                  22983934.782         515.996          19.927          16.000  
E26                                                                  25129340.688       13912.807         350.421          18.000  
E29                                                                  22268460.476       -1737.395         -33.924          14.000  
E30                                                                  25891253.171       40936.475        1090.925          14.000  
E31  25915787.885       12106.333        2141.338          16.000                                                                  
E35                                                                  22636795.441      -11825.599       -1650.784          18.000  
C 8  36285221.129      -22851.427           0.000          16.000                                                                                                                                  
C10  36182519.002        6310.889         156.289          16.000                                                                                                                                  
C13  36496323.485      -31825.840           0.024          16.000                                                                                                                                  
C22  25953569.222     -120454.500       -4160.779          17.000                                                                                                                                  
> 2021  5 17  8 40 48.0000000  0 21                     
G 2  21823795.191      -85315.612           0.003          16.000                                                                  
G 6                                                                  20669882.692      -10106.740        -179.865          25.000  
G 9  23546673.133     -141038.396          -0.004          14.000                                                                  
G17  21764446.071       42583.605         726.681          18.000                                                                  
G19  20403243.620       -3928.362           0.004          14.000                                                                  
R 7  20483895.514     -192453.879       -3235.228          15.000  
R 8  23085303.895     -259961.747       -5138.975          17.000  
R12  21485132.067       86679.916        1373.637          23.000  
R21  21424287.296       44064.706         755.591          19.000  
R22  20314045.347      -78856.044          -0.003          13.000  
E19                                                                  22655881.989      -57449.200       -2166.895          15.000  
E20                                                                  22983940.276         538.499          23.909          13.000  
E26                                                                  25129431.538       14263.286         350.406          18.000  
E29                                                                  22268451.961       -1771.467         -35.677          16.000  
E30                                                                  25891531.353       42027.367        1092.169          11.000  
E31  25916190.702       14250.375        2143.603          14.000                                                                  
E35                                                                  22636376.037      -13475.534       -1649.296          17.000  
C 8  36285149.993      -23222.415        -371.765          14.000                                                                                                                                  
C10  36182546.927        6465.086         154.533          16.000                                                                                                                                  
C13  36496202.921      -32453.929           0.024          16.000                                                                                                                                  
C22  25952770.329     -124614.728       -4159.526          15.000                                                                                                                                  
> 2021  5 17  8 40 49.0000000  0 21                     
G 2  21823470.215      -87022.023           0.003          15.000                                                                  
G 6                                                                  20669836.612      -10287.339        -180.533          25.000  
G 9  23546226.987     -143383.250          -0.004          15.000                                                                  
G17  21764584.743       43312.173         729.677          18.000                                                                  
G19  20403234.830       -3974.972           0.004          14.000                                                                  
R 7  20483286.606     -195688.794       -3234.908          14.000  
R 8  23084349.953     -265100.476       -5138.702          18.000  
R12  21485412.117       88177.743        1374.458          22.000  
R21  21424426.710       44821.812         756.417          19.000  
R22  20313804.726      -80140.648          -0.003          17.000  
E19                                                                  22655327.463      -59614.914       -2164.906          16.000  
E20                                                                  22983947.273         565.213          27.134          15.000  
E26                                                                  25129520.237       14614.016         350.756          17.000  
E29                                                                  22268439.919       -1807.388         -35.419          16.000  
E30                                                                  25891808.668       43118.299        1090.507          12.000  
E31  25916599.172       16396.673        2148.689          16.000                                                                  
E35                                                                  22635956.744      -15125.163       -1651.067          18.000  
C 8  36285078.451      -23595.271        -374.371          12.000                                                                                                                                  
C10  36182576.633        6619.611         155.346          15.000                                                                                                                                  
C13  36496082.231      -33081.455        -627.081          12.000                                                                                                                                  
C22  25951971.825     -128772.933       -4156.613          15.000                                                                                                                                  
> 2021  5 17  8 40 50.0000000  0 20                     
G 2  21823145.803      -88727.197           0.003          16.000                                                                  
G 6                                                                  20669790.724      -10467.499        -179.757          26.000  
G 9  23545786.849     -145726.540          -0.004          15.000                                                                  
G17  21764722.722       44042.573         729.775          20.000                                                                  
G19  20403225.892       -4022.267           0.004          14.000                                                                  
R 7  20482682.646     -198921.892       -3231.303          13.000  
R 8  23083387.966     -270238.446       -5137.158          18.000  
R12  21485690.770       89675.413        1375.043          21.000  
R21  21424572.254       45578.141         756.701          20.000  
R22  20313565.431      -81425.295       -1179.581          15.000  
E19                                                                  22654775.940      -61779.885       -2164.256          17.000  
E20                                                                  22983954.114         591.675          25.141          15.000  
E26                                                                  25129609.120       14965.095         351.413          19.000  
E29                                                                  22268432.821       -1842.955         -37.473          14.000  
E30                                                                  25752006.654       44209.250        1089.773          11.000  
E35                                                                  22635532.035      -16775.819       -1650.476          17.000  
C 8  36285006.845      -23968.343        -372.001          14.000                                                                                                                                  
C10  36182606.593        6775.420         156.982          14.000                                                                                                                                  
C13  36495961.946      -33708.012        -627.369          13.000                                                                                                                                  
C22  25951173.002     -132930.141           0.005          11.000                                                                                                                                  
> 2021  5 17  8 40 51.0000000  0 19                     
G 2  21822823.641      -90431.934       -1704.120          14.000                                                                  
G 6                                                                  20669745.084      -10647.111        -178.502          25.000  
G 9  23545341.206     -148068.644          -0.004          14.000                                                                  
G17  21764859.000       44773.638         732.536          18.000                                                                  
G19  20403216.194       -4067.991           0.004           9.000                                                                  
R 7  20482073.991     -202152.001       -3228.813          17.000  
R 8  23082425.045     -275374.400       -5134.739          17.000  
R12  21485971.056       91174.355        1374.229          19.000  
R21  21424713.631       46334.393         756.279          21.000  
R22  20313324.627      -82710.707       -1180.421          15.000  
E19                                                                  22654225.660      -63943.666       -2163.963          16.000  
E20                                                                  22983961.425         615.872          23.879          16.000  
E26                                                                  25129699.059       15315.668         351.516          20.000  
E29                                                                  22268423.027       -1882.044         -39.159          13.000  
E30                                                                  25752284.300       45298.120        1088.590           9.000  
E35                                                                  22635109.251      -18426.007       -1650.090          18.000  
C 8  36284934.858      -24340.379           0.000          18.000                                                                                                                                  
C13  36495841.692      -34334.452           0.024          13.000                                                                                                                                  
C22  25950374.532     -137088.149           0.005          11.000                                                                                                                                  
> 2021  5 17  8 40 52.0000000  0 19                     
G 2  21822499.551      -92135.222       -1703.258          16.000                                                                  
G 6                                                                  20669699.378      -10826.507        -179.704          25.000  
G 9  23544895.680     -150410.076          -0.004          17.000                                                                  
G17  21764996.708       45506.916         733.216          17.000                                                                  
G19  20403207.736       -4112.870           0.004          17.000                                                                  
R 7  20481470.213     -205381.281       -3229.128          19.000  
R 8  23081466.287     -280508.376       -5134.266          15.000  
R12  21486251.577       92672.778        1373.806          16.000  
R21  21424855.636       47089.552         754.471          18.000  
R22  20313084.145      -83997.304          -0.003          15.000  
E19                                                                  22653674.866      -66107.119       -2164.102          14.000  
E20                                                                  22983964.244         639.131          23.070          19.000  
E26                                                                  25129787.213       15666.477         350.159          19.000  
E29                                                                  22268413.277       -1921.013         -37.978          17.000  
E30                                                                  25752561.859       46386.567        1090.099          14.000  
E35                                                                  22634693.014      -20075.704       -1650.314          17.000  
C 8  36284865.829      -24711.291        -372.425          16.000                                                                                                                                  
C13  36495721.708      -34959.388           0.024          17.000                                                                                                                                  
C22  25949575.949     -141246.145           0.005          14.000                                                                                                                                  
> 2021  5 17  8 40 53.0000000  0 19                     
G 2  21822175.540      -93838.222       -1703.089          14.000                                                                  
G 6                                                                  20669654.201      -11004.379        -175.864          22.000  
G 9  23544453.823     -152749.695       -2339.891          14.000                                                                  
G17  21765136.077       46239.064         731.406          17.000                                                                  
G19  20403199.383       -4157.097           0.004          20.000                                                                  
R 7  20480869.638     -208610.085       -3230.019          17.000  
R 8  23080517.396     -285642.633       -5133.948          15.000  
R12  21486532.001       94170.670        1373.647          16.000  
R21  21424996.294       47844.359         756.134          23.000  
R22  20312841.064      -85282.925       -1178.609          23.000  
E19                                                                  22653122.059      -68272.636       -2166.158          16.000  
E20                                                                  22983968.728         665.198          26.618          18.000  
E26                                                                  25129878.979       16017.638         353.264          20.000  
E29                                                                  22268399.151       -1959.396         -39.482          16.000  
E30                                                                  25752839.946       47477.087        1091.025          16.000  
C 8  36284794.366      -25083.638        -370.124          18.000                                                                                                                                  
C13  36495602.030      -35582.816           0.024          13.000                                                                                                                                  
C22  25948777.462     -145404.173           0.005          14.000                                                                                                                                  
C35  22634273.066     -122663.179       -2191.473          18.000                                                                                                                                  
> 2021  5 17  8 40 54.0000000  0 19                     
G 2  21821863.321      -95542.188       -1703.861          17.000                                                                  
G 6                                                                  20669608.889      -11184.125        -180.076          22.000  
G 9  23544008.419     -155090.596       -2341.670          13.000                                                                  
G17  21765275.369       46970.760         731.514          20.000                                                                  
G19  20403184.620       -4201.855         -43.641          20.000                                                                  
R 7  20480265.940     -211842.077       -3232.234          16.000  
R 8  23079558.638     -290776.416       -5133.757          16.000  
R12  21486805.193       95668.061        1372.801          14.000  
R21  21425136.341       48600.488         755.109          22.000  
R22  20312590.496      -86567.620       -1179.170          24.000  
E19                                                                  22652567.181      -70438.823       -2167.304          17.000  
E20                                                                  22983973.684         689.271          22.024          20.000  
E26                                                                  25129968.503       16369.221         350.824          21.000  
E29                                                                  22268389.331       -1998.648         -38.783          16.000  
E30                                                                  25753118.665       48567.600        1090.524          18.000  
C 8  36284723.366      -25453.477        -370.485          18.000                                                                                                                                  
C13  36495482.473      -36206.786        -624.123          15.000                                                                                                                                  
C22  25947978.814     -149563.161           0.005          13.000                                                                                                                                  
C35  22633853.528     -124854.144       -2191.095          19.000                                                                                                                                  
> 2021  5 17  8 40 55.0000000  0 20                     
G 2  21821539.344      -97244.935       -1701.859          14.000                                                                  
G 6                                                                  20669563.676      -11364.021        -180.704          20.000  
G 9  23543562.915     -157431.912          -0.004          14.000                                                                  
G17  21765415.450       47702.485         731.723          23.000                                                                  
G19  20403180.935       -4244.911         -42.383          17.000                                                                  
R 7  20479668.060     -215072.244       -3227.934          17.000  
R 8  23078600.137     -295908.907       -5131.994          16.000  
R12  21487085.391       97164.270        1373.594          17.000  
R21  21425277.317       49356.266         755.822          21.000  
R22  20312355.939      -87852.328       -1175.697          23.000  
E19                                                                  22652015.409      -72604.780       -2165.745          16.000  
E20                                                                  22983987.060         717.077          29.964          21.000  
E26                                                                  25130057.665       16720.314         349.687          18.000  
E29                                                                  22268381.181       -2036.587         -38.495          18.000  
E30                                                                  25893476.843       49657.806        1090.045          18.000  
E31  25919049.615        8172.604        2145.705          18.000                                                                  
C 8  36284652.910      -25823.345        -371.164          17.000                                                                                                                                  
C13  36495362.494      -36831.752        -624.955          12.000                                                                                                                                  
C22  25947182.251     -153718.598           0.005          11.000                                                                                                                                  
C35  22633433.918     -127043.851       -2188.729          18.000                                                                                                                                  
> 2021  5 17  8 40 56.0000000  0 20                     
G 2  21821219.517      -98946.961       -1701.370          18.000                                                                  
G 6                                                                  20669518.363      -11543.517        -179.177          17.000  
G 9  23543117.616     -159772.203          -0.004          16.000                                                                  
G17  21765541.711       48434.110         732.025          24.000                                                                  
G19  20403173.113       -4286.288         -41.663          25.000                                                                  
R 7  20479065.068     -218300.463       -3228.244          16.000  
R 8  23077642.362     -301040.617       -5132.480          19.000  
R12  21487360.594       98661.981        1375.469          18.000  
R21  21425417.765       50112.410         756.676          22.000  
R22  20312113.913      -89135.396       -1177.060          25.000  
E19                                                                  22651466.199      -74769.051       -2161.988          17.000  
E20                                                                  22983992.919         744.438          28.981          22.000  
E26                                                                  25130146.962       17071.720         352.699          20.000  
E29                                                                  22268370.493       -2073.697         -35.079          18.000  
E30                                                                  25893755.418       50747.767        1089.201          19.000  
E31  25919458.011       10318.556        2145.084          18.000                                                                  
C 8  36284582.180      -26194.875        -371.853          23.000                                                                                                                                  
C13  36495241.698      -37457.453           0.024          17.000                                                                                                                                  
C22  25946384.466     -157872.961           0.005          13.000                                                                                                                                  
C35  22633013.446     -129233.639       -2190.196          23.000                                                                                                                                  
> 2021  5 17  8 40 57.0000000  0 20                     
G 2  21820893.390     -100648.362       -1702.424          24.000                                                                  
G 6                                                                  20669476.773      -11721.287        -178.442          14.000  
G 9  23542671.754     -162115.404          -0.004          13.000                                                                  
G12  22394938.966       -3883.012       -2816.067          21.000                                                                  
G17  21765680.901       49164.232         730.346          21.000                                                                  
G19  20403159.625       -4327.955         -40.931          30.000                                                                  
R 7  20478462.093     -221528.486       -3228.085          18.000  
R 8  23076695.016     -306174.048       -5134.624          18.000  
R12  21487657.675      100161.866        1377.955          21.000  
R21  21425559.688       50869.111         756.596          21.000  
R22  20311873.127      -90418.757       -1177.580          25.000  
E19                                                                  22650916.314      -76930.655       -2161.649          15.000  
E20                                                                  22983997.339         771.541          26.554          19.000  
E26                                                                  25130237.040       17424.237         352.369          19.000  
E29                                                                  22268362.073       -2107.517         -32.411          17.000  
E30                                                                  25894028.855       51837.631        1089.838          17.000  
C 8  36284513.021      -26566.708        -372.760          28.000                                                                                                                                  
C13  36495124.743      -38082.099        -625.146          24.000                                                                                                                                  
C22  25945586.515     -162028.278           0.005          16.000                                                                                                                                  
C35  22632595.578     -131423.251       -2189.138          24.000                                                                                                                                  
> 2021  5 17  8 40 58.0000000  0 21                     
G 2  21820574.465     -102351.958       -1702.757          21.000                                                                  
G 6                                                                  20669431.613      -11899.186        -178.664          15.000  
G 9  23542233.584     -164457.015          -0.004          17.000                                                                  
G12  22394380.321       -6699.053       -2816.428          20.000                                                                  
G17  21765819.356       49895.286         731.250          22.000                                                                  
G19  20403150.900       -4369.339         -39.494          26.000                                                                  
G28  22842571.340       10744.867        2448.733          15.000                                                                  
R 7  20477851.960     -224755.582       -3225.692          18.000  
R 8  23075736.257     -311308.958       -5135.460          17.000  
R12  21487944.133      101664.256        1378.913          21.000  
R21  21425702.570       51625.557         755.951          20.000  
R22  20311632.249      -91703.580       -1176.639          25.000  
E19                                                                  22650367.130      -79093.832       -2163.455          14.000  
E20                                                                  22984006.173         799.302          29.091          23.000  
E26                                                                  25130327.040       17777.280         352.476          19.000  
E29                                                                  22268351.816       -2140.675         -34.113          18.000  
E30                                                                  25894306.985       52928.331        1090.745          16.000  
C 8  36284442.456      -26938.838        -369.861          30.000                                                                                                                                  
C13  36495003.672      -38706.650        -625.197          22.000                                                                                                                                  
C22  25944789.900     -166185.737           0.005          16.000                                                                                                                                  
C35  22632174.220     -133612.120       -2188.897          25.000                                                                                                                                  
> 2021  5 17  8 40 59.0000000  0 21                     
G 2  21820242.405     -104053.963       -1701.438          25.000                                                                  
G 6                                                                  20669380.175      -12077.784        -178.472          18.000  
G 9  23541788.365     -166796.400          -0.004          16.000                                                                  
G12  22393904.099       -9515.023       -2814.119          25.000                                                                  
G17  21765959.254       50627.120         729.726          20.000                                                                  
G19  20403145.239       -4409.080         -40.557          27.000                                                                  
G28  22843037.457       13193.700        2450.340          18.000                                                                  
R 7  20477253.378     -227980.636       -3224.889          19.000  
R 8  23074777.176     -316445.296       -5135.979          16.000  
R12  21488228.206      103168.189        1380.457          20.000  
R21  21425846.195       52381.924         756.667          22.000  
R22  20311392.090      -92986.512       -1176.669          29.000  
E19                                                                  22649816.357      -81255.952       -2158.248          14.000  
E20                                                                  22984014.204         827.672          30.176          20.000  
E26                                                                  25130416.952       18131.017         354.526          23.000  
E29                                                                  22268343.371       -2174.523         -33.809          18.000  
E30                                                                  25894589.896       54018.983        1089.747          16.000  
C 8  36284371.883      -27308.449        -368.805          25.000                                                                                                                                  
C13  36494885.198      -39332.304        -625.441          25.000                                                                                                                                  
C22  25943991.269     -170344.501           0.005          15.000                                                                                                                                  
C35  22631753.212     -135800.673       -2189.391          25.000                                                                                                                                  
> 2021  5 17  8 41  0.0000000  0 21                     
G 2  21819916.727     -105755.764       -1701.899          21.000                                                                  
G 6                                                                  20669330.954      -12254.178        -170.741          23.000  
G 9  23541356.481     -169135.327       -2338.670          19.000                                                                  
G12  22393365.944      -12328.504       -2812.470          25.000                                                                  
G17  21766097.844       51355.022           0.013          17.000                                                                  
G19  20403139.167       -4449.967         -40.890          24.000                                                                  
G28  22843503.050       15640.357        2445.182          18.000                                                                  
R 7  20476656.153     -231204.258       -3224.109          17.000  
R 8  23073813.658     -321581.810       -5136.209          17.000  
R12  21488510.200      104674.217        1382.182          17.000  
R21  21425987.725       53139.514         758.810          18.000  
R22  20311152.529      -94268.367       -1176.401          25.000  
E19                                                                  22649266.209      -83415.504       -2158.680          15.000  
E26                                                                  25130507.483       18483.651         354.675          20.000  
E29                                                                  22268335.876       -2206.355         -30.974          16.000  
E30                                                                  25894869.157       55109.580        1091.429          14.000  
C 8  36284301.267      -27676.614        -368.162          17.000                                                                                                                                  
C13  36494765.554      -39956.150        -622.591          23.000                                                                                                                                  
C20  22984027.066         785.755          37.203          20.000                                                                                                                                  
C22  25943188.027     -174504.765           0.005          15.000                                                                                                                                  
C35  22631332.560     -137990.402       -2190.186          24.000                                                                                                                                  
> 2021  5 17  8 41  1.0000000  0 21                     
G 2  21819589.924     -107457.218       -1701.641          22.000                                                                  
G 6                                                                  20669285.353      -12430.669        -176.414          24.000  
G 9  23540928.916     -171470.902       -2334.346          23.000                                                                  
G12  22392830.251      -15140.874          -0.011          24.000                                                                  
G17  21766236.342       52082.660           0.013          15.000                                                                  
G19  20403133.605       -4490.325         -39.836          25.000                                                                  
G28  22843979.520       18087.111        2446.642          16.000                                                                  
R 7  20476056.556     -234427.772       -3224.352          18.000  
R 8  23072854.807     -326716.609       -5134.503          21.000  
R12  21488792.405      106181.510        1383.743          19.000  
R21  21426129.085       53898.701         759.245          21.000  
R22  20310912.196      -95551.182       -1176.045          27.000  
E19                                                                  22648708.563      -85573.956       -2157.551          16.000  
E26                                                                  25130598.290       18838.777         356.225          18.000  
E29                                                                  22268327.952       -2238.177         -30.455          15.000  
E30                                                                  25895147.143       56199.838        1089.237          13.000  
C 8  36284230.689      -28044.384        -368.288          18.000                                                                                                                                  
C13  36494646.762      -40579.631        -622.849          27.000                                                                                                                                  
C20  22984034.338         822.849          38.294          23.000                                                                                                                                  
C22  25942389.081     -178665.217           0.005          17.000                                                                                                                                  
C35  22630912.477     -140178.430       -2187.047          24.000                                                                                                                                  
> 2021  5 17  8 41  2.0000000  0 23                     
G 2  21819263.749     -109155.937       -1697.184          24.000                                                                  
G 6                                                                  20669241.646      -12607.498        -176.732          27.000  
G 9  23540477.278     -173805.261       -2334.464          22.000                                                                  
G12  22392294.253      -17953.252       -2812.764          23.000                                                                  
G17  21766386.536       52811.146         729.512          21.000                                                                  
G19  20403128.401       -4529.106         -37.335          28.000                                                                  
G28  22844445.013       20533.388        2447.392          15.000                                                                  
R 7  20475454.375     -237651.354       -3224.147          17.000  
R 8  23071895.844     -331849.844       -5132.516          19.000  
R12  21489079.627      107690.612        1384.309          19.000  
R21  21426270.265       54658.228         758.957          18.000  
R22  20310670.476      -96832.605       -1175.877          27.000  
E19                                                                  22648159.130      -87732.534       -2157.292          15.000  
E26                                                                  25130688.831       19195.613         356.727          19.000  
E29                                                                  22268320.632       -2267.597         -30.113          13.000  
E30                                                                  25895424.553       57287.904        1085.789          10.000  
E31  25921905.570       23181.264        2142.572          17.000                                                                  
E35                                                                  22630488.190       -2912.907       -1647.233          20.000  
C 8  36284160.727      -28411.781        -366.192          24.000                                                                                                                                  
C10  36182935.789         691.947         151.710          16.000                                                                                                                                  
C13  36494528.011      -41203.306        -622.366          28.000                                                                                                                                  
C20  22984042.112         861.600          39.374          24.000                                                                                                                                  
C22  25941590.180     -182825.424           0.005          18.000                                                                                                                                  
> 2021  5 17  8 41  3.0000000  0 22                     
G 2  21818938.882     -110856.333       -1701.317          24.000                                                                  
G 6                                                                  20669196.975      -12784.702        -176.512          29.000  
G 9  23540026.273     -176139.286       -2334.465          24.000                                                                  
G12  22391758.948      -20764.653       -2810.682          22.000                                                                  
G17  21766526.063       53542.759         732.299          25.000                                                                  
G19  20403121.587       -4567.775         -39.221          26.000                                                                  
G28  22844906.170       22979.961          -0.011          14.000                                                                  
R 7  20474852.307     -240874.840       -3223.871          14.000  
R 8  23070937.443     -336982.782       -5133.838          16.000  
R12  21489360.837      109198.486        1383.337          22.000  
R21  21426411.761       55414.934         755.739          16.000  
R22  20310431.233      -98114.012       -1174.579          27.000  
E19                                                                  22647607.651      -89888.930       -2157.049          14.000  
E26                                                                  25130778.912       19550.179         355.104          22.000  
E29                                                                  22268311.444       -2300.021         -32.438          17.000  
E30                                                                  25895694.321       58374.282        1085.657          10.000  
E31  25922312.640       25327.004        2148.719          18.000                                                                  
E35                                                                  22630066.509       -4561.936       -1649.655          22.000  
C 8  36284090.106      -28780.175        -369.892          23.000                                                                                                                                  
C13  36494409.677      -41826.705        -624.552          27.000                                                                                                                                  
C20  22984049.878         901.004          39.260          26.000                                                                                                                                  
C22  25940789.612     -186987.060       -4160.379          18.000                                                                                                                                  
> 2021  5 17  8 41  4.0000000  0 22                     
G 2  21818616.032     -112556.722       -1698.572          26.000                                                                  
G 6                                                                  20669152.203      -12961.494        -175.912          24.000  
G 9  23539581.951     -178472.574       -2331.762          20.000                                                                  
G12  22391223.857      -23575.266       -2810.685          20.000                                                                  
G17  21766671.448       54277.497         734.872          20.000                                                                  
G19  20403113.360       -4606.167         -36.833          25.000                                                                  
G28  22845371.877       25427.253          -0.011          15.000                                                                  
R 7  20474246.231     -244096.433       -3220.602          17.000  
R 8  23069978.745     -342116.782       -5135.649          19.000  
R12  21489647.674      110706.365        1383.353          23.000  
R21  21426553.348       56172.112         757.070          18.000  
R22  20310190.473      -99393.911       -1175.044          32.000  
E19                                                                  22647058.462      -92044.786       -2154.935          14.000  
E20                                                                  22984050.248         988.237          30.023          17.000  
E26                                                                  25130869.601       19904.492         354.621          19.000  
E29                                                                  22268303.003       -2333.862         -33.332          17.000  
E30                                                                  25895971.631       59461.701        1088.533          10.000  
E31  25922723.898       27473.017        2146.768          19.000                                                                  
E35                                                                  22629648.695       -6210.642       -1648.541          19.000  
C 8  36284017.339      -29150.538        -369.676          22.000                                                                                                                                  
C13  36494290.120      -42450.346        -624.001          25.000                                                                                                                                  
C22  25939990.593     -191147.845       -4160.454          16.000                                                                                                                                  
> 2021  5 17  8 41  5.0000000  0 22                     
G 2  21818292.875     -114255.492       -1698.487          25.000                                                                  
G 6                                                                  20669107.462      -13137.935        -176.092          25.000  
G 9  23539139.069     -180802.509       -2331.651          18.000                                                                  
G12  22390689.589      -26385.760       -2809.122          20.000                                                                  
G17  21766811.146       55014.353         737.568          17.000                                                                  
G19  20403105.696       -4643.358         -37.375          25.000                                                                  
G28  22845837.959       27876.427          -0.011          14.000                                                                  
R 7  20473644.578     -247317.294       -3222.844          14.000  
R 8  23069018.975     -347251.592       -5134.470          18.000  
R12  21489934.229      112214.983        1384.917          25.000  
R21  21426732.269       56929.664         758.446          22.000  
R22  20309947.426     -100675.632       -1176.846          30.000  
E19                                                                  22646513.362      -94199.596       -2155.738          14.000  
E20                                                                  22984058.249        1018.933          30.828          17.000  
E26                                                                  25130959.945       20260.294         356.947          20.000  
E29                                                                  22268292.952       -2366.046         -30.818          16.000  
E30                                                                  25896248.666       60548.283        1084.561           9.000  
E31  25923141.459       29619.465        2148.197          19.000                                                                  
E35                                                                  22629228.985       -7858.514       -1647.185          20.000  
C 8  36283946.351      -29520.432        -370.940          19.000                                                                                                                                  
C13  36494170.712      -43073.815        -623.686          25.000                                                                                                                                  
C22  25939189.393     -195308.404       -4160.062          15.000                                                                                                                                  
> 2021  5 17  8 41  6.0000000  0 21                     
G 2  21817968.188     -115953.832       -1698.287          26.000                                                                  
G 6                                                                  20669062.782      -13314.168        -175.208          24.000  
G 9  23538697.338     -183133.860       -2330.969          17.000                                                                  
G12  22390154.223      -29195.844       -2809.426          20.000                                                                  
G17  21766951.336       55750.042         735.303          19.000                                                                  
G19  20403099.362       -4680.635         -35.462          28.000                                                                  
G28  22846294.749       30327.354        2452.317          18.000                                                                  
R 7  20473040.059     -250538.820       -3218.544          18.000  
R 8  23068057.773     -352385.788       -5134.282          18.000  
R12  21490217.577      113725.622        1386.526          23.000  
R21  21426865.510       57689.211         759.689          24.000  
R22  20309706.526     -101956.448       -1174.339          31.000  
E19                                                                  22645965.669      -96356.646       -2157.556          15.000  
E20                                                                  22984065.657        1050.079          31.372          17.000  
E26                                                                  25131050.555       20615.981         357.009          18.000  
E29                                                                  22268286.822       -2396.988         -30.220          17.000  
E30                                                                  25896525.252       61633.025        1083.241           7.000  
E35                                                                  22628809.495       -9507.249       -1647.944          22.000  
C 8  36283875.586      -29889.081        -367.941          23.000                                                                                                                                  
C13  36494051.256      -43698.229        -623.041          22.000                                                                                                                                  
C22  25938390.539     -199468.524       -4160.334          14.000                                                                                                                                  
> 2021  5 17  8 41  7.0000000  0 22                     
G 2  21817643.754     -117651.876       -1698.210          24.000                                                                  
G 6                                                                  20669018.076      -13490.002        -175.932          26.000  
G 9  23538253.793     -185464.773       -2331.059          18.000                                                                  
G12  22389620.380      -32004.416       -2808.774          26.000                                                                  
G17  21767091.217       56485.054         736.482          18.000                                                                  
G19  20403093.809       -4716.225         -36.779          29.000                                                                  
G28  22846761.488       32780.023        2453.214          16.000                                                                  
R 7  20472446.411     -253755.998       -3215.250          18.000  
R 8  23067098.587     -357521.907       -5135.593          16.000  
R12  21490500.632      115237.389        1387.641          18.000  
R21  21427006.582       58450.436         760.838          24.000  
R22  20309467.279     -103236.760       -1175.368          30.000  
E19                                                                  22645413.391      -98514.519       -2157.447          15.000  
E20                                                                  22984078.583        1082.327          34.917          17.000  
E26                                                                  25131142.208       20973.792         360.043          19.000  
E29                                                                  22268279.833       -2427.831         -30.537          15.000  
E30                                                                  25896801.175       62715.136        1082.053           8.000  
E31  25923963.919       33912.318        2144.983          17.000                                                                  
E35                                                                  22628389.817      -11154.302       -1647.255          20.000  
C 8  36283805.580      -30257.033        -367.699          24.000                                                                                                                                  
C13  36493932.184      -44320.376        -621.944          27.000                                                                                                                                  
C22  25937591.773     -203628.080       -4159.692          16.000                                                                                                                                  
> 2021  5 17  8 41  8.0000000  0 22                     
G 2  21817321.758     -119349.991       -1698.682          28.000                                                                  
G 6                                                                  20668973.501      -13665.314        -175.485          24.000  
G 9  23537807.874     -187796.267       -2331.396          21.000                                                                  
G12  22389085.363      -34811.024       -2805.584          26.000                                                                  
G17  21767229.938       57220.723         735.226          21.000                                                                  
G19  20403086.167       -4751.368         -36.475          27.000                                                                  
G28  22847228.482       35233.824        2454.801          16.000                                                                  
R 7  20471845.082     -256971.511       -3213.857          18.000  
R 8  23066139.610     -362657.268       -5134.768          17.000  
R12  21490784.364      116749.337        1387.354          19.000  
R21  21427149.622       59210.386         757.447          19.000  
R22  20309228.299     -104518.246       -1174.100          24.000  
E19                                                                  22644864.355     -100669.775       -2154.557          16.000  
E20                                                                  22984085.162        1117.816          35.311          19.000  
E26                                                                  25131233.120       21332.272         356.714          21.000  
E29                                                                  22268271.875       -2459.674         -34.176          19.000  
E30                                                                  25897077.351       63798.090        1085.335           9.000  
E35                                                                  22627969.597      -12802.702       -1647.213          17.000  
C 8  36283735.090      -30624.934        -366.664          23.000                                                                                                                                  
C10  36183082.671         915.970         158.830          15.000                                                                                                                                  
C13  36493812.951      -44943.151        -623.584          23.000                                                                                                                                  
C22  25936794.076     -207789.183       -4161.572          17.000                                                                                                                                  
> 2021  5 17  8 41  9.0000000  0 23                     
G 2  21816998.632     -121048.132       -1698.685          19.000                                                                  
G 6                                                                  20668928.986      -13840.627        -172.868          22.000  
G 9  23537368.513     -190127.938       -2332.162          21.000                                                                  
G12  22388552.365      -37618.473       -2807.308          22.000                                                                  
G17  21767371.302       57956.767           0.013          21.000                                                                  
G19  20403077.901       -4788.373         -34.014          27.000                                                                  
G28  22847715.718       37688.539        2454.278          17.000                                                                  
R 7  20471244.851     -260184.693       -3213.548          16.000  
R 8  23065170.783     -367791.920       -5134.807          15.000  
R12  21491066.128      118262.467        1387.806          20.000  
R21  21427292.679       59968.216         759.330          17.000  
R22  20308988.384     -105797.931       -1173.937          21.000  
E19                                                                  22644315.780     -102823.221       -2154.321          14.000  
E20                                                                  22984090.497        1151.999          33.424          18.000  
E26                                                                  25131323.019       21689.511         358.243          24.000  
E29                                                                  22268258.015       -2492.674         -34.060          17.000  
E30                                                                  25897354.692       64885.512        1090.417          10.000  
E31  25924768.177       38204.766        2143.398          14.000                                                                  
E35                                                                  22627550.329      -14448.755       -1643.575          16.000  
C 8  36283664.822      -30991.404        -367.088          22.000                                                                                                                                  
C10  36183113.315        1075.277         160.190          17.000                                                                                                                                  
C13  36493693.102      -45566.681        -623.803          20.000                                                                                                                                  
C22  25935993.150     -211952.175       -4163.936          18.000                                                                                                                                  
> 2021  5 17  8 41 10.0000000  0 23                     
G 2  21816676.497     -122743.230       -1692.892          18.000                                                                  
G 6                                                                  20668884.468      -14015.823        -174.820          20.000  
G 9  23536917.883     -192459.849       -2332.503          20.000                                                                  
G12  22388017.893      -40423.589       -2804.110          18.000                                                                  
G17  21767512.261       58694.347         737.107          22.000                                                                  
G19  20403073.120       -4820.843         -34.189          25.000                                                                  
G28  22848182.764       40142.827        2455.063          14.000                                                                  
R 7  20470644.620     -263397.801       -3213.997          17.000  
R 8  23064212.024     -372926.618       -5134.930          14.000  
R12  21491349.603      119776.129        1389.066          20.000  
R21  21427434.637       60727.458         761.005          20.000  
R22  20308748.906     -107076.305       -1172.674          18.000  
E19                                                                  22643766.983     -104977.470       -2155.726          17.000  
E20                                                                  22984099.175        1186.520          34.306          17.000  
E26                                                                  25131414.148       22047.158         357.838          25.000  
E29                                                                  22268250.996       -2526.333         -34.380          19.000  
E30                                                                  25897632.721       65975.895        1089.784          11.000  
E31  25925176.089       40348.247        2143.546          14.000                                                                  
E35                                                                  22627131.819      -16091.835       -1642.224          16.000  
C 8  36283594.071      -31358.249        -368.502          24.000                                                                                                                                  
C10  36183151.619        1235.053         158.844          16.000                                                                                                                                  
C13  36493573.206      -46189.716        -623.497          19.000                                                                                                                                  
C22  25935194.781     -216115.836       -4163.879          17.000                                                                                                                                  
> 2021  5 17  8 41 11.0000000  0 23                     
G 2  21816354.527     -124436.843       -1694.551          16.000                                                                  
G 6                                                                  20668838.619      -14192.349        -176.391          18.000  
G 9  23536475.943     -194790.974       -2331.758          22.000                                                                  
G12  22387484.421      -43230.408       -2808.706          16.000                                                                  
G17  21767653.523       59431.485         736.698          20.000                                                                  
G19  20403068.225       -4855.168         -33.345          24.000                                                                  
G28  22848650.011       42598.103        2454.966          16.000                                                                  
R 7  20470038.980     -266612.192       -3215.541          16.000  
R 8  23063251.250     -378061.775          -0.001          12.000  
R12  21491632.789      121289.714        1388.350          20.000  
R21  21427576.010       61488.513         762.449          24.000  
R22  20308509.175     -108355.535       -1173.689          17.000  
E19                                                                  22643218.335     -107134.647       -2156.006          16.000  
E20                                                                  22984110.086        1219.731          32.392          17.000  
E26                                                                  25131505.469       22404.290         357.096          23.000  
E29                                                                  22268238.807       -2559.351         -33.784          20.000  
E30                                                                  25897910.232       67064.238        1088.929          11.000  
E31  25925583.962       42491.418        2142.990          12.000                                                                  
E35                                                                  22626713.039      -17735.849       -1645.990          15.000  
C 8  36283523.214      -31727.797        -370.267          23.000                                                                                                                                  
C10  36183183.261        1399.788         161.729          17.000                                                                                                                                  
C13  36493453.619      -46812.453        -621.740          17.000                                                                                                                                  
C22  25934395.534     -220277.794       -4161.163          16.000                                                                                                                                  
> 2021  5 17  8 41 12.0000000  0 23                     
G 2  21816032.051     -126131.651       -1694.568          17.000                                                                  
G 6                                                                  20668793.795      -14368.940        -176.269          16.000  
G 9  23536032.704     -197122.311       -2331.359          18.000                                                                  
G12  22386950.407      -46036.575       -2803.842          14.000                                                                  
G17  21767793.827       60168.832         735.599          16.000                                                                  
G19  20403062.437       -4888.632         -34.469          25.000                                                                  
G28  22849117.411       45051.527        2453.354          17.000                                                                  
R 7  20469438.291     -269827.327       -3214.590          15.000  
R 8  23062292.247     -383197.452          -0.001          14.000  
R12  21491916.586      122804.665        1389.269          23.000  
R21  21427717.239       62250.608         760.585          20.000  
R22  20308269.043     -109635.436       -1174.822          19.000  
E19  25705622.362      -18093.315       -2608.486          15.000    22642673.051     -109290.713       -2155.860          15.000  
E20                                                                  22984118.968        1252.315          32.829          18.000  
E26                                                                  25131596.516       22761.061         356.793          23.000  
E29                                                                  22268233.500       -2593.064         -32.051          22.000  
E30                                                                  25898188.092       68153.890        1089.486          11.000  
E31  25925991.756       44634.335        2143.133          11.000                                                                  
E35                                                                  22626293.675      -19382.201       -1645.403          14.000  
C 8  36283452.423      -32098.530        -370.760          23.000                                                                                                                                  
C10  36183213.936        1559.410         157.182          16.000                                                                                                                                  
C13  36493334.037      -47435.342        -623.453          17.000                                                                                                                                  
C22  25933595.525     -224439.488       -4162.077          15.000                                                                                                                                  
> 2021  5 17  8 41 13.0000000  0 23                     
G 2  21815709.301     -127827.733       -1697.642          25.000                                                                  
G 6                                                                  20668748.033      -14545.215        -174.826          19.000  
G 9  23535589.028     -199454.176       -2331.898          19.000                                                                  
G12  22386416.746      -48841.013       -2804.434          17.000                                                                  
G17  21767933.961       60905.072         737.669          24.000                                                                  
G19  20403054.101       -4923.676         -35.649          33.000                                                                  
G28  22849569.503       47505.637        2455.948          20.000                                                                  
R 7  20468837.838     -273042.009       -3215.456          15.000  
R 8  23061333.157     -388333.544          -0.001          14.000  
R12  21492200.335      124319.711        1390.672          29.000  
R21  21427859.131       63011.365         759.838          18.000  
R22  20308030.420     -110915.281       -1173.761          23.000  
E19  25705126.161      -20700.917       -2607.035          15.000    22642123.958     -111446.168       -2154.713          15.000  
E20                                                                  22984127.606        1286.591          36.024          23.000  
E26                                                                  25131687.868       23119.058         358.424          25.000  
E29                                                                  22268225.159       -2626.455         -31.898          22.000  
E30                                                                  25898477.120       69243.101        1090.992          12.000  
E31  25926378.750       46778.630        2144.563          12.000                                                                  
E35                                                                  22625875.380      -21027.565       -1643.984          16.000  
C 8  36283381.291      -32468.667        -369.583          32.000                                                                                                                                  
C10  36183267.780        1715.049         155.062          28.000                                                                                                                                  
C13  36493210.933      -48059.121        -621.533          33.000                                                                                                                                  
C22  25932796.209     -228601.851       -4162.989          17.000                                                                                                                                  
> 2021  5 17  8 41 14.0000000  0 23                     
G 2  21815371.425     -129524.267       -1694.762          28.000                                                                  
G 6                                                                  20668703.645      -14720.154        -174.216          25.000  
G 9  23535145.561     -201784.656       -2330.159          18.000                                                                  
G12  22385882.030      -51645.127       -2804.879          17.000                                                                  
G17  21768069.230       61643.733         738.702          20.000                                                                  
G19  20403046.122       -4957.761         -33.831          24.000                                                                  
G28  22850035.127       49960.501        2455.310          20.000                                                                  
R 7  20468236.163     -276257.030           0.001          17.000  
R 8  23060381.667     -393467.635          -0.001          19.000  
R12  21492485.096      125840.102        1396.987          21.000  
R21  21428001.194       63771.512         760.833          20.000  
R22  20307790.371     -112195.450       -1174.797          22.000  
E19  25704630.072      -23307.831       -2606.661          15.000    22641575.945     -113601.591       -2155.968          17.000  
E20                                                                  22984134.503        1322.171          34.882          21.000  
E22                                                                  25931980.555      -10706.771       -3141.419          17.000  
E29                                                                  22268216.617       -2659.489         -31.988          23.000  
E30                                                                  25898755.560       70334.979        1093.254          13.000  
E31  25926786.967       48923.800        2145.618          12.000                                                                  
E35                                                                  22625454.219      -22671.919       -1644.826          20.000  
C 8  36283309.671      -32838.677        -369.464          28.000                                                                                                                                  
C10  36183295.824        1869.898         154.902          20.000                                                                                                                                  
C13  36493091.587      -48679.466        -620.421          28.000                                                                                                                                  
C26  25131784.124       35150.960         476.971          19.000                                                                                                                                  
> 2021  5 17  8 41 15.0000000  0 22                     
G 2  21815051.175     -131218.553       -1695.850          25.000                                                                  
G 6                                                                  20668659.432      -14894.850        -176.102          22.000  
G 9  23534698.897     -204115.353       -2330.808          21.000                                                                  
G12  22385348.514      -54448.530       -2803.186          19.000                                                                  
G17  21768209.504       62380.740         736.878          19.000                                                                  
G19  20403040.914       -4991.103         -31.379          26.000                                                                  
G28  22850502.387       52416.007        2456.791          23.000                                                                  
R 7  20467627.492     -279469.646       -3211.807          24.000  
R 8  23059399.052     -398600.720       -5132.571          23.000  
R12  21492768.418      127360.891        1395.794          22.000  
R21  21428143.190       64531.499         759.918          17.000  
R22  20307550.456     -113475.621       -1174.747          23.000  
E19  25704134.006      -25914.666       -2606.872          14.000    22641021.037     -115758.715       -2157.424          20.000  
E20                                                                  22984145.484        1357.735          35.865          23.000  
E22                                                                  25931180.423      -13847.317       -3140.942          15.000  
E29                                                                  22268207.495       -2689.883         -32.342          29.000  
E30                                                                  25899043.801       71429.417        1094.326          12.000  
E35                                                                  22625029.283      -24318.856       -1647.583          20.000  
C 8  36283238.086      -33208.260        -370.210          28.000                                                                                                                                  
C10  36183325.530        2024.344           0.007          17.000                                                                                                                                  
C13  36492972.191      -49300.355        -621.861          23.000                                                                                                                                  
C26  25131875.659       35628.885         481.132          17.000                                                                                                                                  
> 2021  5 17  8 41 16.0000000  0 22                     
G 2  21814729.026     -132913.949       -1695.427          19.000                                                                  
G 6                                                                  20668616.192      -15070.833        -174.664          24.000  
G 9  23534256.259     -206444.660       -2329.190          19.000                                                                  
G12  22384812.852      -57252.707       -2804.684          18.000                                                                  
G17  21768349.834       63118.030         737.109          25.000                                                                  
G19  20403036.269       -5023.541         -32.592          20.000                                                                  
G28  22850974.190       54872.395        2455.903          20.000                                                                  
R 7  20467031.192     -282680.117       -3209.405          20.000  
R 8  23058441.161     -403732.881       -5133.721          19.000  
R12  21493053.092      128881.265        1394.532          24.000  
R21  21428259.950       65292.897         762.244          24.000  
R22  20307310.311     -114755.417       -1173.122          23.000  
E19  25703631.405      -28520.821       -2606.757          16.000    22640467.015     -117912.446       -2153.520          17.000  
E20                                                                  22984155.147        1392.487          35.196          19.000  
E22                                                                  25930380.069      -16987.812       -3138.045          14.000  
E26                                                                  25131960.693       24187.825         360.108          23.000  
E29                                                                  22268198.735       -2724.908         -37.913          17.000  
E30                                                                  25899322.747       72523.424        1092.959          14.000  
E35                                                                  22624608.645      -25967.550       -1647.485          19.000  
C 8  36283167.334      -33575.943        -369.361          20.000                                                                                                                                  
C10  36183355.428        2179.942           0.007          18.000                                                                                                                                  
C13  36492852.117      -49925.703        -624.334          18.000                                                                                                                                  
> 2021  5 17  8 41 17.0000000  0 22                     
G 2  21814405.983     -134610.889       -1697.316          19.000                                                                  
G 6                                                                  20668571.904      -15240.785        -167.804          23.000  
G 9  23533814.620     -208771.716       -2326.305          19.000                                                                  
G12  22384276.032      -60057.738       -2805.010          17.000                                                                  
G17  21768493.546       63856.954         740.710          22.000                                                                  
G19  20403030.262       -5055.270         -30.331          23.000                                                                  
G28  22851440.875       57328.283        2456.298          19.000                                                                  
R 7  20466434.534     -285889.237       -3206.994          18.000  
R 8  23057483.184     -408866.907       -5130.277          20.000  
R12  21493336.318      130400.227        1392.703          20.000  
R21  21428407.195       66055.279         761.972          20.000  
R22  20307070.244     -116034.736       -1172.295          24.000  
E19  25703135.351      -31127.600       -2606.578          15.000    22639916.277     -120066.526       -2154.350          18.000  
E20                                                                  22984165.015        1429.678          40.850          24.000  
E22                                                                  25929580.574      -20125.871       -3137.630          14.000  
E26                                                                  25132052.438       24546.623         358.560          20.000  
E29                                                                  22268189.644       -2761.369         -33.460          17.000  
E30                                                                  25899601.606       73616.975        1094.178          14.000  
E35                                                                  22624188.823      -27614.738       -1648.472          20.000  
C 8  36283096.648      -33945.353        -368.795          23.000                                                                                                                                  
C10  36183386.508        2336.355         156.332          17.000                                                                                                                                  
C13  36492732.690      -50548.766        -619.443          20.000                                                                                                                                  
> 2021  5 17  8 41 18.0000000  0 22                     
G 2  21814085.637     -136305.999       -1695.973          25.000                                                                  
G 6                                                                  20668528.550      -15413.183        -170.888          20.000  
G 9  23533372.824     -211097.340       -2326.523          17.000                                                                  
G12  22383756.476      -62860.570       -2803.694          19.000                                                                  
G17  21768641.222       64598.958         741.088          25.000                                                                  
G19  20403022.759       -5085.250         -29.905          27.000                                                                  
G28  22851909.919       59784.663        2457.042          20.000                                                                  
R 7  20465835.817     -289097.917       -3209.383          22.000  
R 8  23056525.747     -413997.519       -5130.935          18.000  
R12  21493620.381      131918.263        1393.557          20.000  
R21  21428552.979       66818.205         761.784          19.000  
R22  20306831.315     -117312.436       -1172.410          22.000  
E19  25702639.372      -33734.059       -2606.460          13.000    22639365.638     -122220.091       -2152.978          23.000  
E20                                                                  22984176.642        1467.495          38.877          28.000  
E22                                                                  25928781.214      -23263.423       -3136.622          14.000  
E26                                                                  25132144.261       24906.007         358.720          17.000  
E29                                                                  22268183.583       -2793.589         -32.249          25.000  
E30                                                                  25899881.468       74711.169        1094.446          17.000  
E35                                                                  22623770.217      -29261.453       -1647.486          20.000  
C 8  36283026.206      -34313.355        -368.075          25.000                                                                                                                                  
C10  36183416.427        2491.850         154.544          17.000                                                                                                                                  
C13  36492614.068      -51168.091        -619.387          23.000                                                                                                                                  
> 2021  5 17  8 41 19.0000000  0 22                     
G 2  21813763.266     -138002.945       -1698.440          26.000                                                                  
G 6                                                                  20668483.766      -15588.140        -177.792          20.000  
G 9  23532930.269     -213423.360       -2324.930          17.000                                                                  
G12  22383219.509      -65662.846       -2801.094          17.000                                                                  
G17  21768770.226       65339.702         739.998          23.000                                                                  
G19  20403016.378       -5115.633         -30.763          23.000                                                                  
G28  22852369.340       62240.584        2455.644          22.000                                                                  
R 7  20465242.474     -292306.991       -3208.217          23.000  
R 8  23055567.660     -419129.041       -5130.794          20.000  
R12  21493905.482      133436.935        1393.641          18.000  
R21  21428696.097       67579.174         760.234          19.000  
R22  20306592.361     -118590.046       -1173.078          22.000  
E19  25702143.520      -36339.772       -2604.663          13.000    22638815.289     -124373.528       -2153.812          25.000  
E20                                                                  22984186.872        1507.291          43.643          23.000  
E22                                                                  25927980.816      -26400.178       -3136.798          14.000  
E29                                                                  22268175.094       -2824.303         -30.990          23.000  
E30                                                                  25900160.632       75805.996        1093.801          14.000  
E35                                                                  22623350.034      -30908.459       -1647.004          17.000  
C 8  36282955.663      -34682.363        -368.585          24.000                                                                                                                                  
C10  36183447.050        2646.176         153.982          18.000                                                                                                                                  
C13  36492495.693      -51788.256        -620.727          24.000                                                                                                                                  
C26  25132242.000       37544.725         482.536          17.000                                                                                                                                  
> 2021  5 17  8 41 20.0000000  0 22                     
G 2  21813441.034     -139700.739       -1696.065          27.000                                                                  
G 6                                                                  20668439.347      -15762.526        -176.453          20.000  
G 9  23532485.690     -215748.065       -2324.275          18.000                                                                  
G12  22382686.564      -68463.579       -2798.877          17.000                                                                  
G17  21768911.223       66080.505         741.348          19.000                                                                  
G19  20403007.732       -5145.899         -29.144          25.000                                                                  
G28  22852831.583       64697.376        2457.309          21.000                                                                  
R 7  20464645.450     -295516.052       -3209.148          25.000  
R 8  23054610.136     -424259.624       -5132.625          17.000  
R12  21494189.925      134956.319        1395.881          17.000  
R21  21428835.620       68341.465         764.074          19.000  
R22  20306351.936     -119868.389       -1172.814          23.000  
E19                                                                  22638266.719     -126526.987       -2152.932          23.000  
E20                                                                  22984196.841        1545.949          39.530          24.000  
E22                                                                  25927181.383      -29537.929       -3138.183          15.000  
E29                                                                  22268167.254       -2855.194         -30.129          23.000  
E30                                                                  25900439.792       76900.708        1095.245          13.000  
E35                                                                  22622930.652      -32554.910       -1646.839          16.000  
C 8  36282885.387      -35049.694        -366.625          25.000                                                                                                                                  
C10  36183475.194        2801.172         154.010          19.000                                                                                                                                  
C13  36492376.534      -52409.003        -619.920          25.000                                                                                                                                  
C26  25132334.355       38025.552         480.319          15.000                                                                                                                                  
> 2021  5 17  8 41 21.0000000  0 22                     
G 2  21813120.282     -141396.672       -1694.244          23.000                                                                  
G 6                                                                  20668395.313      -15935.511        -172.281          21.000  
G 9  23532043.327     -218072.945       -2325.222          17.000                                                                  
G12  22382153.995      -71262.756       -2799.573          15.000                                                                  
G17  21769053.870       66822.770         742.683          25.000                                                                  
G19  20403002.009       -5176.732         -31.400          22.000                                                                  
G28  22853301.879       67153.268        2453.946          20.000                                                                  
R 7  20464045.970     -298721.972       -3205.003          22.000  
R 8  23053650.911     -429392.026       -5131.941          19.000  
R12  21494475.266      136479.018        1397.951          13.000  
R21  21428974.157       69104.403         764.162          22.000  
R22  20306113.256     -121146.728       -1172.454          21.000  
E19                                                                  22637718.224     -128680.116       -2151.856          22.000  
E20                                                                  22984207.058        1585.283          39.502          24.000  
E22                                                                  25926385.570      -32674.767       -3136.527          14.000  
E29                                                                  22268159.188       -2885.907         -30.400          25.000  
E30                                                                  25900717.255       77994.821        1093.781          14.000  
E35                                                                  22622509.389      -34201.899       -1647.010          16.000  
C 8  36282814.382      -35415.949        -367.606          22.000                                                                                                                                  
C10  36183505.292        2957.838         159.409          16.000                                                                                                                                  
C13  36492257.601      -53029.612        -620.006          20.000                                                                                                                                  
C26  25132426.571       38505.460         479.424          17.000                                                                                                                                  
> 2021  5 17  8 41 22.0000000  0 22                     
G 2  21812799.438     -143091.628       -1696.483          26.000                                                                  
G 6                                                                  20668350.926      -16108.478        -171.919          22.000  
G 9  23531600.863     -220398.202       -2325.815          14.000                                                                  
G12  22381627.008      -74062.769          -0.011          16.000                                                                  
G17  21769195.828       67564.621         740.908          23.000                                                                  
G19  20402996.752       -5207.861         -30.606          20.000                                                                  
G28  22853769.824       69608.180        2456.080          26.000                                                                  
R 7  20463444.710     -301927.632       -3204.414          23.000  
R 8  23052692.061     -434523.720       -5131.017          20.000  
R12  21494760.355      138001.999        1395.803          14.000  
R21  21429121.132       69868.323         763.669          20.000  
R22  20305872.239     -122425.226       -1173.389          21.000  
E19                                                                  22637169.622     -130833.525       -2153.085          25.000  
E20                                                                  22984217.188        1624.539          39.754          26.000  
E22                                                                  25925586.533      -35811.050       -3135.632          15.000  
E29                                                                  22268151.414       -2917.108         -30.913          30.000  
E30                                                                  25900996.367       79089.393        1094.234          17.000  
E35                                                                  22622089.446      -35848.632       -1647.712          17.000  
C 8  36282743.215      -35785.239        -369.498          23.000                                                                                                                                  
C10  36183535.556        3115.302         156.448          19.000                                                                                                                                  
C13  36492138.512      -53651.934        -623.562          23.000                                                                                                                                  
C26  25132518.743       38984.790         478.659          19.000                                                                                                                                  
> 2021  5 17  8 41 23.0000000  0 23                     
G 2  21812476.299     -144788.594       -1696.121          30.000                                                                  
G 6                                                                  20668306.538      -16282.003        -173.028          22.000  
G 9  23531168.443     -222724.794          -0.004          14.000                                                                  
G12  22381094.286      -76862.342          -0.011          17.000                                                                  
G17  21769337.672       68304.566         740.183          21.000                                                                  
G19  20402990.532       -5238.160         -30.294          20.000                                                                  
G28  22854236.007       72063.633        2454.405          22.000                                                                  
R 7  20462845.575     -305131.765       -3204.731          25.000  
R 8  23051734.663     -439655.587       -5131.796          22.000  
R12  21495045.029      139522.342        1394.037          20.000  
R21  21429268.155       70632.074         763.708          24.000  
R22  20305632.970     -123703.196       -1170.999          21.000  
E19                                                                  22636621.227     -132986.308       -2151.556          25.000  
E20                                                                  22984227.457        1663.979          40.592          23.000  
E22                                                                  25924787.592      -38946.846       -3137.358          14.000  
E24  24556614.450       21901.208         333.226          23.000                                                                  
E29                                                                  22268143.661       -2948.162         -30.140          26.000  
E30                                                                  25901278.284       80182.993        1094.626          16.000  
E35                                                                  22621669.059      -37497.119       -1650.048          17.000  
C 8  36282672.145      -36154.749        -370.820          23.000                                                                                                                                  
C10  36183563.609        3270.618         154.094          20.000                                                                                                                                  
C13  36492018.855      -54275.493        -622.548          19.000                                                                                                                                  
C26  25132611.945       39462.689         477.923          18.000                                                                                                                                  
> 2021  5 17  8 41 24.0000000  0 22                     
G 2  21812153.374     -146482.454       -1694.086          29.000                                                                  
G 6                                                                  20668263.049      -16454.971        -173.718          29.000  
G 9  23530717.098     -225050.495       -2324.471          17.000                                                                  
G12  22380561.472      -79662.277          -0.011          17.000                                                                  
G17  21769477.343       69045.237         742.392          27.000                                                                  
G19  20402985.621       -5268.406         -32.126          17.000                                                                  
G28  22854703.380       74519.560        2455.987          18.000                                                                  
R 7  20462247.543     -308335.313       -3201.995          22.000  
R 8  23050776.559     -444786.666       -5131.323          19.000  
R12  21495328.809      141043.399        1396.437          18.000  
R21  21429411.286       71395.413         762.797          19.000  
R22  20305396.895     -124979.933       -1171.373          26.000  
E19                                                                  22636073.033     -135138.627       -2152.055          24.000  
E20                                                                  22984237.696        1704.357          39.845          22.000  
E22                                                                  25923989.952      -42084.517       -3138.100          13.000  
E29                                                                  22268135.926       -2978.826         -31.052          24.000  
E30                                                                  25901555.546       81277.674        1095.232          14.000  
E35                                                                  22621249.220      -39145.351       -1649.499          14.000  
C 8  36282600.935      -36525.276        -370.903          21.000                                                                                                                                  
C10  36183593.455        3425.899         157.671          16.000                                                                                                                                  
C13  36491898.654      -54897.974        -622.655          24.000                                                                                                                                  
C26  25132703.659       39940.173         478.223          16.000                                                                                                                                  
> 2021  5 17  8 41 25.0000000  0 22                     
G 2  21811829.966     -148176.907       -1693.888          24.000                                                                  
G 6                                                                  20668219.328      -16626.906        -171.316          24.000  
G 9  23530274.792     -227375.191       -2323.345          18.000                                                                  
G12  22380022.695      -82460.960       -2797.837          17.000                                                                  
G17  21769619.593       69790.118         747.843          19.000                                                                  
G19  20402979.893       -5298.623         -28.105          20.000                                                                  
G28  22855168.903       76976.036        2456.820          22.000                                                                  
R 7  20461650.008     -311538.240       -3202.247          27.000  
R 8  23049818.633     -449916.815       -5129.919          17.000  
R12  21495614.225      142567.713        1398.869          17.000  
R21  21429556.040       72157.666         763.297          23.000  
R22  20305157.530     -126255.961       -1170.064          23.000  
E19                                                                  22635524.983     -137290.559       -2150.873          27.000  
E20                                                                  22984248.171        1745.461          43.015          21.000  
E22                                                                  25923190.588      -45222.108       -3136.530          14.000  
E29                                                                  22268128.457       -3008.869         -29.292          25.000  
E30                                                                  25901834.915       82373.219        1096.499          14.000  
E35                                                                  22620828.791      -40795.879       -1650.486          14.000  
C 8  36282530.148      -36893.794        -366.450          18.000                                                                                                                                  
C10  36183623.911        3584.324         157.968          18.000                                                                                                                                  
C13  36491778.800      -55520.189        -622.183          23.000                                                                                                                                  
C26  25132795.603       40419.010         479.174          15.000                                                                                                                                  
> 2021  5 17  8 41 26.0000000  0 22                     
G 2  21811507.001     -149871.526       -1693.241          25.000                                                                  
G 6                                                                  20668175.717      -16798.365        -170.709          26.000  
G 9  23529830.335     -229698.095       -2322.073          18.000                                                                  
G12  22379490.526      -85257.799       -2796.843          15.000                                                                  
G17  21769761.435       70536.087         744.409          19.000                                                                  
G19  20402966.597       -5325.288         -26.585          19.000                                                                  
G28  22855634.375       79433.091        2457.622          20.000                                                                  
R 7  20461050.349     -314739.827       -3200.561          26.000  
R 8  23048860.726     -455046.982       -5131.639          18.000  
R12  21495899.819      144092.871        1400.599          18.000  
R21  21429699.450       72921.551         764.751          21.000  
R22  20304917.468     -127531.159       -1170.271          21.000  
E19                                                                  22634977.162     -139441.264       -2150.640          26.000  
E20                                                                  22984258.859        1787.375          42.481          24.000  
E22                                                                  25922394.465      -48357.309       -3135.271          16.000  
E29                                                                  22268121.150       -3038.221         -28.895          26.000  
E30                                                                  25902114.446       83469.476        1095.752          14.000  
E35                                                                  22620408.672      -42445.509       -1649.714          15.000  
C 8  36282459.771      -37260.542        -366.406          18.000                                                                                                                                  
C10  36183655.013        3742.440         156.864          17.000                                                                                                                                  
C13  36491658.904      -56141.973        -621.304          22.000                                                                                                                                  
C26  25132885.912       40899.143         480.233          17.000                                                                                                                                  
> 2021  5 17  8 41 27.0000000  0 22                     
G 2  21811185.123     -151564.092       -1692.456          24.000                                                                  
G 6                                                                  20668132.028      -16969.776        -171.368          23.000  
G 9  23529388.643     -232019.533       -2321.827          15.000                                                                  
G12  22378957.760      -88054.708       -2797.743          18.000                                                                  
G17  21769903.428       71281.838         747.948          24.000                                                                  
G19  20402967.658       -5350.542         -25.686          23.000                                                                  
G28  22856102.106       81890.420        2456.395          23.000                                                                  
R 7  20460452.478     -317941.044       -3201.348          25.000  
R 8  23047890.982     -460178.737       -5133.954          20.000  
R12  21496176.077      145619.526        1400.538          21.000  
R21  21429841.717       73686.355         763.568          24.000  
R22  20304678.365     -128807.008       -1170.297          17.000  
E19                                                                  22634429.120     -141592.422       -2150.617          25.000  
E20                                                                  22984269.823        1829.418          42.019          23.000  
E22                                                                  25921595.559      -51493.019       -3136.067          16.000  
E29                                                                  22268113.720       -3067.813         -29.739          29.000  
E30                                                                  25902396.284       84566.009        1095.405          15.000  
E35                                                                  22619988.418      -44095.341       -1650.183          13.000  
C 8  36282389.709      -37627.135        -365.068          19.000                                                                                                                                  
C10  36183684.300        3900.148         159.136          17.000                                                                                                                                  
C13  36491539.256      -56763.535        -622.073          19.000                                                                                                                                  
C26  25132978.159       41379.327         481.960          19.000                                                                                                                                  
> 2021  5 17  8 41 28.0000000  0 22                     
G 2  21810862.285     -153256.731       -1692.288          22.000                                                                  
G 6                                                                  20668088.220      -17140.876        -170.041          26.000  
G 9  23528946.882     -234341.289       -2321.386          16.000                                                                  
G12  22378425.579      -90851.551       -2794.781          16.000                                                                  
G17  21770044.413       72026.298         742.699          20.000                                                                  
G19  20402960.443       -5377.006         -26.911          24.000                                                                  
G28  22856570.178       84347.535        2458.497          20.000                                                                  
R 7  20472576.580     -321140.547       -3201.593          25.000  
R 8  23046942.689     -465312.140       -5133.557          20.000  
R12  21496452.746      147146.003        1399.875          19.000  
R21  21429983.771       74454.009         768.908          31.000  
R22  20304439.358     -130083.057       -1171.333          20.000  
E19                                                                  22633880.625     -143745.015       -2154.656          19.000  
E20                                                                  22984280.620        1871.275          39.509          19.000  
E22                                                                  25920796.653      -54628.744       -3136.224          14.000  
E29                                                                  22268106.225       -3097.342         -31.762          22.000  
E30                                                                  25902675.719       85661.842        1095.749          15.000  
E35                                                                  22619569.320      -45744.485       -1645.717          17.000  
C 8  36282319.869      -37993.193        -366.353          24.000                                                                                                                                  
C10  36183716.038        4058.970         158.287          17.000                                                                                                                                  
C13  36491420.092      -57384.391        -620.089          17.000                                                                                                                                  
C26  25133070.444       41861.061         480.684          17.000                                                                                                                                  
> 2021  5 17  8 41 29.0000000  0 22                     
G 2  21810541.167     -154948.255       -1691.354          18.000                                                                  
G 6                                                                  20668044.691      -17311.267        -170.068          28.000  
G 9  23528500.615     -236660.034       -2317.694          20.000                                                                  
G12  22377893.973      -93645.172       -2793.950          15.000                                                                  
G17  21770186.087       72770.633         747.130          31.000                                                                  
G19  20402961.996       -5403.028         -26.560          26.000                                                                  
G28  22857038.943       86807.389        2461.992          20.000                                                                  
R 7  20471979.464     -324340.793       -3200.784          26.000  
R 8  23045989.537     -470446.485       -5133.795          18.000  
R12  21496735.453      148673.199        1401.764          20.000  
R21  21430127.648       75218.857         763.624          26.000  
R22  20304205.931     -131358.863       -1169.135          17.000  
E19                                                                  22633331.903     -145898.001       -2150.024          21.000  
E20                                                                  22984291.348        1914.001          42.423          21.000  
E22                                                                  25919994.641      -57764.977       -3136.613          14.000  
E29                                                                  22268099.062       -3125.984         -28.226          29.000  
E30                                                                  25902955.167       86757.772        1095.537          15.000  
E35                                                                  22619150.214      -47389.847       -1645.084          17.000  
C 8  36282249.662      -38359.622        -367.862          21.000                                                                                                                                  
C10  36183746.573        4217.850         159.050          17.000                                                                                                                                  
C13  36491301.339      -58003.002        -617.134          17.000                                                                                                                                  
C26  25133162.922       42342.380         483.063          17.000                                                                                                                                  
> 2021  5 17  8 41 30.0000000  0 23                     
G 2  21810220.907     -156640.275       -1690.707          18.000                                                                  
G 6                                                                  20668001.526      -17482.046        -169.839          25.000  
G 9  23528037.818     -238979.275       -2319.184          20.000                                                                  
G12  22377363.802      -96438.632       -2792.733          16.000                                                                  
G17  21770323.448       73517.936         747.614          25.000                                                                  
G19  20402960.379       -5428.596         -25.482          25.000                                                                  
G28  22857508.476       89268.539        2461.099          28.000                                                                  
R 7  20471382.492     -327539.167       -3194.067          35.000  
R 8  23045020.849     -475579.346       -5129.364          22.000  
R12  21497026.605      150202.058        1401.839          18.000  
R21  21430270.225       75983.919         767.117          24.000  
R22  20303967.212     -132633.197       -1168.769          17.000  
E11  26103896.113      -89525.952       -2224.076          17.000                                                                  
E19                                                                  22632784.422     -148047.119       -2148.438          23.000  
E20                                                                  22984303.188        1959.273          47.356          20.000  
E22                                                                  25919195.849      -60900.327       -3134.760          15.000  
E29                                                                  22268091.941       -3154.172         -27.210          28.000  
E30                                                                  25903227.578       87852.632        1094.608          15.000  
E35                                                                  22618737.973      -49033.843       -1643.061          16.000  
C 8  36282179.159      -38727.405        -367.120          18.000                                                                                                                                  
C10  36183777.689        4376.787         159.236          22.000                                                                                                                                  
C13  36491183.601      -58619.797        -616.933          18.000                                                                                                                                  
C26  25133255.770       42825.685         483.274          15.000                                                                                                                                  
> 2021  5 17  8 41 31.0000000  0 23                     
G 2  21809899.679     -158330.732       -1690.556          19.000                                                                  
G 6                                                                  20667957.980      -17653.572        -172.468          23.000  
G 9  23527605.746     -241298.438       -2319.982          27.000                                                                  
G12  22376832.249      -99232.199       -2795.077          17.000                                                                  
G17  21770464.468       74265.411         748.492          31.000                                                                  
G19  20402957.142       -5454.404         -26.369          30.000                                                                  
G28  22857975.915       91726.551        2455.562          20.000                                                                  
R 7  20470788.107     -330735.661       -3197.815          33.000  
R 8  23044077.237     -480707.737       -5127.894          18.000  
R12  21497311.877      151729.834        1401.440          20.000  
R21  21430413.164       76750.051         766.380          27.000  
R22  20303736.355     -133905.195       -1166.900          16.000  
E11  26103472.513      -91752.257       -2224.778          18.000                                                                  
E19                                                                  22632236.787     -150197.136       -2148.529          23.000  
E20                                                                  22984315.416        2007.015          49.747          20.000  
E22                                                                  25918397.240      -64034.912       -3134.353          16.000  
E29                                                                  22268084.691       -3182.991         -28.333          27.000  
E30                                                                  25903506.864       88947.888        1095.186          14.000  
E35                                                                  22618320.942      -50678.068       -1644.124          18.000  
C 8  36282108.481      -39095.776        -370.585          17.000                                                                                                                                  
C10  36183808.830        4536.462         159.439          20.000                                                                                                                                  
C13  36491064.434      -59237.416        -618.269          17.000                                                                                                                                  
C26  25133350.411       43309.315         484.827          18.000                                                                                                                                  
> 2021  5 17  8 41 32.0000000  0 24                     
G 2  21809579.572     -160021.408       -1690.572          17.000                                                                  
G 6                                                                  20667914.247      -17824.067        -170.708          26.000  
G 9                                                                  23527184.586       -4574.932       -1732.219          21.000  
G12  22376300.256     -102028.005          -0.011          15.000                                                                  
G14  24482168.882       17587.721        3019.927          16.000                                                                  
G17  21770604.009       75010.266         742.579          27.000                                                                  
G19  20402951.328       -5479.383         -24.215          30.000                                                                  
G28  22858443.171       94183.525        2458.752          17.000                                                                  
R 7  20470193.552     -333932.145       -3196.268          27.000  
R 8  23043116.856     -485837.003       -5129.992          19.000  
R12  21497599.701      153258.663        1403.221          20.000  
R21  21430555.366       77515.809         766.661          25.000  
R22  20303497.850     -135178.743       -1169.543          17.000  
E11  26103051.200      -93971.647       -2218.994          14.000                                                                  
E19                                                                  22631689.465     -152346.063       -2148.979          25.000  
E20                                                                  22984325.594        2051.295          44.413          23.000  
E22                                                                  25917589.290      -67168.682       -3133.998          16.000  
E29                                                                  22268077.405       -3211.645         -28.220          28.000  
E30                                                                  25903792.167       90043.849        1096.178          12.000  
E35                                                                  22617904.886      -52323.403       -1646.089          21.000  
C 8  36282037.380      -39466.227        -370.104          17.000                                                                                                                                  
C10  36183839.356        4695.260         158.977          18.000                                                                                                                                  
C13  36490945.675      -59855.982        -619.730          17.000                                                                                                                                  
C26  25133443.438       43793.444         484.463          18.000                                                                                                                                  
> 2021  5 17  8 41 33.0000000  0 25                     
G 2  21809258.549     -161712.137       -1690.042          21.000                                                                  
G 6                                                                  20667870.501      -17995.062        -172.136          22.000  
G 9  23526726.582     -245936.653       -2317.177          27.000                                                                  
G12  22375768.484     -104822.806          -0.011          17.000                                                                  
G14  24482743.522       20607.283        3017.525          15.000                                                                  
G17  21770744.592       75754.690         746.933          28.000                                                                  
G19  20402945.125       -5502.091         -22.238          30.000                                                                  
G28  22858910.825       96642.957        2459.468          19.000                                                                  
R 7  20456873.547     -337128.584       -3196.492          26.000  
R 8  23042158.956     -490966.872       -5128.577          18.000  
R12  21497888.262      154786.842        1402.352          17.000  
R21  21430697.974       78282.373         766.329          28.000  
R22  20303261.901     -136454.339       -1169.672          18.000  
E11  26102628.630      -96192.448       -2219.387          14.000                                                                  
E19                                                                  22631142.305     -154494.179       -2146.426          24.000  
E20                                                                  22984336.884        2096.053          43.429          21.000  
E22                                                                  25916793.652      -70303.073       -3134.719          14.000  
E29                                                                  22150135.297       -3240.212         -28.915          23.000  
E30                                                                  25904071.767       91140.435        1094.170          10.000  
E35                                                                  22617485.822      -53968.608       -1645.331          14.000  
C 7  37302571.797        1932.320         537.694          17.000                                                                                                                                  
C 8  36281965.769      -39834.956        -368.416          24.000                                                                                                                                  
C10  36183870.841        4854.785         160.390          17.000                                                                                                                                  
C13  36490828.654      -60473.770        -617.461          17.000                                                                                                                                  
C26  25133538.847       44278.134         483.742          19.000                                                                                                                                  
> 2021  5 17  8 41 34.0000000  0 24                     
G 2  21808934.804     -163403.369       -1691.777          22.000                                                                  
G 6                                                                  20667827.338      -18165.348        -169.244          23.000  
G 9  23526285.829     -248254.308       -2317.252          17.000                                                                  
G12  22375236.731     -107617.326          -0.011          15.000                                                                  
G14  24483326.322       23627.776        3023.012          19.000                                                                  
G17  21770887.902       76503.286         748.050          18.000                                                                  
G19  20402938.778       -5526.517         -26.702          25.000                                                                  
G28  22859379.076       99102.788        2459.294          24.000                                                                  
R 7  20456276.850     -340324.462       -3194.960          23.000  
R 8  23041200.813     -496097.002       -5130.924          18.000  
R12  21498175.064      156314.112        1401.111          19.000  
R21  21430841.297       79050.148         768.293          18.000  
R22  20303023.169     -137728.940       -1169.821          20.000  
E11  26102216.324      -98412.473       -2221.625          11.000                                                                  
E19                                                                  22630595.051     -156642.809       -2149.762          24.000  
E20                                                                  22984348.427        2139.630          41.970          19.000  
E29                                                                  22150128.107       -3268.606         -27.356          25.000  
E30                                                                  25904350.578       92233.828        1094.194          11.000  
E35                                                                  22617066.035      -55616.544       -1649.459          13.000  
C 8  36281890.083      -40201.844        -365.735          25.000                                                                                                                                  
C10  36183901.716        5015.238         160.348          19.000                                                                                                                                  
C13  36490709.965      -61092.097        -617.767          17.000                                                                                                                                  
C22  25915999.956     -315980.076       -4159.418          17.000                                                                                                                                  
C26  25133631.591       44761.198         483.812          19.000                                                                                                                                  
> 2021  5 17  8 41 35.0000000  0 24                     
G 2  21808613.171     -165095.750       -1692.906          22.000                                                                  
G 6                                                                  20667784.094      -18335.566        -168.981          23.000  
G 9  23525845.163     -250570.240       -2314.961          18.000                                                                  
G12  22374712.392     -110411.747          -0.011          16.000                                                                  
G14  24483901.386       26649.668        3020.489          17.000                                                                  
G17  21771032.163       77250.815         748.719          20.000                                                                  
G19  20402932.004       -5551.874         -25.689          26.000                                                                  
G28  22859848.002      101562.143        2460.870          23.000                                                                  
R 7  20455680.781     -343519.075       -3194.188          23.000  
R 8  23040241.045     -501225.927       -5128.176          20.000  
R12  21498461.078      157841.148        1400.836          17.000  
R21  21430985.615       79818.717         768.741          17.000  
R22  20302786.736     -139005.288       -1171.556          20.000  
E11  26101793.506     -100634.331       -2221.884          14.000                                                                  
E19                                                                  22630047.843     -158790.739       -2147.743          24.000  
E20                                                                  22984360.046        2183.568          45.083          20.000  
E29                                                                  22150121.048       -3296.760         -27.841          26.000  
E30                                                                  25904635.178       93328.357        1096.768          11.000  
C 8  36281818.533      -40569.481        -368.065          26.000                                                                                                                                  
C10  36183933.577        5174.919         159.325          17.000                                                                                                                                  
C13  36490591.220      -61710.544        -618.265          15.000                                                                                                                                  
C22  25915201.150     -320139.900       -4160.656          17.000                                                                                                                                  
C26  25133723.636       45244.969         482.934          20.000                                                                                                                                  
C35  22616645.624     -214494.439       -2181.862          23.000                                                                                                                                  
> 2021  5 17  8 41 36.0000000  0 24                     
G 2  21808291.310     -166788.018       -1692.079          22.000                                                                  
G 6                                                                  20667741.154      -18504.783        -167.400          20.000  
G 9  23525412.542     -252886.194       -2316.585          17.000                                                                  
G12  22374180.407     -113207.857          -0.011          16.000                                                                  
G14  24484476.028       29669.139        3019.726          17.000                                                                  
G17  21771174.539       77998.764         748.965          19.000                                                                  
G19  20402927.354       -5575.964         -21.888          26.000                                                                  
G28  22860315.271      104022.841        2460.165          23.000                                                                  
R 7  20455084.813     -346712.935       -3193.313          20.000  
R 8  23039282.866     -506353.983       -5127.140          21.000  
R12  21498747.331      159370.058        1404.155          15.000  
R21  21431129.121       80586.426         766.282          16.000  
R22  20302535.483     -140279.254       -1168.735          20.000  
E11  26101370.713     -102856.215       -2222.323          13.000                                                                  
E19                                                                  22629500.892     -160938.045       -2146.190          24.000  
E20                                                                  22984372.536        2230.253          45.383          18.000  
E29                                                                  22150114.212       -3324.187         -26.517          25.000  
E30                                                                  25904914.678       94424.526        1095.467          11.000  
C 8  36281747.506      -40937.614        -367.290          25.000                                                                                                                                  
C10  36183964.130        5334.982         160.646          17.000                                                                                                                                  
C13  36490473.391      -62328.578        -617.718          14.000                                                                                                                                  
C22  25914400.604     -324300.568       -4162.101          16.000                                                                                                                                  
C26  25133816.336       45729.724         485.363          18.000                                                                                                                                  
C35  22616228.184     -216676.534       -2182.298          25.000                                                                                                                                  
> 2021  5 17  8 41 37.0000000  0 26                     
G 2  21807968.895     -168479.832       -1691.436          20.000                                                                  
G 6                                                                  20667697.456      -18673.807        -169.165          21.000  
G 9  23524971.706     -255202.885       -2317.561          15.000                                                                  
G12  22373645.431     -116006.290       -2797.855          14.000                                                                  
G14  24485037.945       32688.720        3020.105          16.000                                                                  
G17  21771318.410       78750.295         753.354          17.000                                                                  
G19  20402924.719       -5598.603         -22.547          26.000                                                                  
G28  22860783.796      106483.465        2459.519          23.000                                                                  
R 7  20454487.588     -349905.859       -3191.175          20.000  
R 8  23038324.234     -511481.168       -5125.925          20.000  
R12  21499031.063      160900.663        1405.649          16.000  
R21  21431272.400       81352.854         768.523          18.000  
R22  20302299.247     -141553.011       -1169.472          20.000  
E11  26100947.746     -105079.011       -2223.950          13.000                                                                  
E19                                                                  22628954.011     -163084.798       -2146.681          23.000  
E20                                                                  22984384.140        2274.948          44.857          19.000  
E25  26754085.868       -7191.527       -2288.708          12.000                                                                  
E29                                                                  22150107.394       -3350.950         -26.683          24.000  
E30                                                                  25905193.986       95519.891        1095.462          11.000  
C 7  37302999.129         851.932         540.892          21.000                                                                                                                                  
C 8  36281677.714      -41304.616        -367.284          24.000                                                                                                                                  
C10  36183994.949        5495.208         160.251          16.000                                                                                                                                  
C13  36490354.782      -62946.414        -617.105          14.000                                                                                                                                  
C22  25913601.179     -328463.506       -4162.655          15.000                                                                                                                                  
C26  25133908.805       46214.998         484.163          17.000                                                                                                                                  
C35  22615809.077     -218857.350       -2178.531          24.000                                                                                                                                  
> 2021  5 17  8 41 38.0000000  0 26                     
G 2  21807647.934     -170169.836       -1691.073          22.000                                                                  
G 6                                                                  20667654.059      -18843.196        -169.898          22.000  
G 9  23524530.870     -257519.581       -2316.635          16.000                                                                  
G12  22373113.271     -118803.030       -2795.761          15.000                                                                  
G14  24485612.858       35709.692        3019.897          17.000                                                                  
G17  21771462.527       79504.103         751.902          18.000                                                                  
G19  20402921.623       -5619.712         -19.508          27.000                                                                  
G28  22861250.437      108942.596        2459.448          24.000                                                                  
R 7  20453889.237     -353097.437       -3190.882          21.000  
R 8  23037367.203     -516607.772       -5126.905          23.000  
R12  21499318.057      162433.453        1406.770          17.000  
R21  21431405.053       82120.344         766.262          20.000  
R22  20302064.367     -142826.242       -1168.567          21.000  
E11  26100525.747     -107303.030       -2224.690          13.000                                                                  
E19                                                                  22628407.080     -165231.928       -2146.730          25.000  
E20                                                                  22984396.630        2321.611          48.299          22.000  
E25  26753650.294       -9480.509       -2288.944          15.000                                                                  
E29                                                                  22150100.353       -3378.655         -27.825          25.000  
E30                                                                  25905473.565       96616.296        1095.826          12.000  
C 7  37303096.214        1393.826         542.620          20.000                                                                                                                                  
C 8  36281607.245      -41671.375        -366.816          24.000                                                                                                                                  
C10  36184025.222        5654.264         159.769          15.000                                                                                                                                  
C13  36490236.286      -63563.638        -617.678          15.000                                                                                                                                  
C22  25912802.011     -332627.062       -4163.409          17.000                                                                                                                                  
C26  25134002.028       46699.831         486.851          17.000                                                                                                                                  
C35  22615390.284     -221038.238       -2182.090          25.000                                                                                                                                  
> 2021  5 17  8 41 39.0000000  0 26                     
G 2  21807326.322     -171861.028       -1692.224          19.000                                                                  
G 6                                                                  20667610.984      -19012.901        -169.613          21.000  
G 9  23524089.397     -259837.126       -2318.542          15.000                                                                  
G12  22372581.285     -121598.976       -2796.057          13.000                                                                  
G14  24486187.459       38729.121        3019.937          16.000                                                                  
G17  21771606.618       80255.692         752.472          19.000                                                                  
G19  20402916.964       -5642.227         -23.400          27.000                                                                  
G28  22861717.592      111402.264        2459.933          23.000                                                                  
R 7  20453292.575     -356289.027       -3192.189          22.000  
R 8  23036408.536     -521736.018       -5127.952          20.000  
R12  21499600.759      163967.433        1407.824          15.000  
R21  21431545.405       82885.942         765.638          20.000  
R22  20301824.344     -144100.240       -1169.743          20.000  
E11  26100102.254     -109527.929       -2225.419          12.000                                                                  
E19                                                                  22627860.098     -167379.007       -2147.277          22.000  
E20                                                                  22984408.932        2368.092          44.715          20.000  
E25  26753214.727      -11769.348       -2288.584          16.000                                                                  
E29                                                                  22150093.207       -3406.315         -27.025          25.000  
E30                                                                  25905752.904       97711.742        1096.368          13.000  
C 7  37303202.444        1936.442         542.392          20.000                                                                                                                                  
C 8  36281536.925      -42039.327        -368.925          24.000                                                                                                                                  
C10  36184055.992        5814.358         159.298          17.000                                                                                                                                  
C13  36490117.419      -64181.274           0.024          13.000                                                                                                                                  
C22  25912002.455     -336790.772       -4163.940          17.000                                                                                                                                  
C26  25134095.618       47186.937         487.839          17.000                                                                                                                                  
C35  22614970.854     -223221.658       -2183.407          25.000                                                                                                                                  
