     3.03           OBSERVATION DATA    M: Mixed            RINEX VERSION / TYPE
RTKCONV 2.4.3 b34                       20211028 100537 UTC PGM / RUN BY / DATE 
format: RINEX                                               COMMENT             
log: E:\Dropbox\210930_qw\bag_hw\0geo++\best\GEOP273L.21o   COMMENT             
                                                            MARKER NAME         
                                                            MARKER NUMBER       
                                                            MARKER TYPE         
                                                            OBSERVER / AGENCY   
                                                            REC # / TYPE / VERS 
                                                            ANT # / TYPE        
        0.0000        0.0000        0.0000                  APPROX POSITION XYZ 
        0.0000        0.0000        0.0000                  ANTENNA: DELTA H/E/N
G    8 C1C L1C D1C S1C C5Q L5Q D5Q S5Q                      SYS / # / OBS TYPES 
C    4 C2I L2I D2I S2I                                      SYS / # / OBS TYPES 
  2021    09    30    11    26   59.9998999     GPS         TIME OF FIRST OBS   
  2021    09    30    11    59   59.9994217     GPS         TIME OF LAST OBS    
G L1C                                                       SYS / PHASE SHIFT   
G L5Q  0.00000                                              SYS / PHASE SHIFT   
C L2I                                                       SYS / PHASE SHIFT   
  0                                                         GLONASS SLOT / FRQ #
                                                            GLONASS COD/PHS/BIS 
                                                            END OF HEADER       
> 2021 09 30 11 26 59.9998999  0  7                     
C06  36532142.324   190232428.6251        184.995          28.000  
C19  22178959.326   115491681.5361      -2394.494          26.000  
C22  22336394.436   116311486.5041        629.058          32.000  
C36  22604110.300   117705572.3451      -1484.681          34.000  
G25  23805255.165   125097489.9871      -3873.757          41.000    23805262.060    93416958.6721      -2890.676          33.000  
G26                                                                  20426451.762    80157781.3361        788.886          31.000  
G32  20797965.668   109294127.4731       -720.076          32.000                                                                  
> 2021 09 30 11 27 00.9998996  0  7                     
C06  36532016.711   190231774.900         185.694          28.000  
C10  37356553.296   194525385.9341        518.767          21.000  
C19  22179332.867   115493609.201       -2396.339          27.000  
C22  22336177.386   116310390.194         629.699          30.000  
C36  22604311.161   117706587.899       -1486.580          34.000  
G25  23805902.716   125100891.133       -3875.619          40.000    23805909.312    93419498.485       -2895.514          33.000  
G26  20426159.764   107340163.9611       1050.702          32.000    20426160.963    80156640.192         787.576          31.000  
> 2021 09 30 11 27 01.9998994  0  8                     
C06  36531921.677   190231277.281         185.250          29.000  
C19  22179736.388   115495693.156       -2397.417          25.000  
C22  22335996.012   116309450.467         626.870          26.000  
C30  25703499.038   133844958.7431       1244.659          23.000  
C36  22604539.003   117707760.045       -1482.825          35.000  
G25                                                                  23806585.644    93422156.442       -2893.121          33.000  
G26                                                                  20425900.144    80155616.724         787.936          31.000  
G32  20798094.279   109294778.8691       -720.875          30.000                                                                  
> 2021 09 30 11 27 02.9998994  0  8                     
C01  37486298.975   195200866.6001       -345.960          37.000  
C06  36531885.402   190231092.540         183.873          27.000  
C10  37356295.175   194524041.1091        515.761          20.000  
C19  22180202.265   115498091.476       -2398.567          22.000  
C30  25703265.500   133843715.685        1241.290          19.000  
C36  22604830.701   117709244.762       -1484.368          34.000  
G25                                                                  23807323.133    93425049.927       -2895.080          33.000  
G26  20425690.589   107337738.2181       1055.546          29.000    20425699.283    80154828.805         787.733          32.000  
> 2021 09 30 11 27 03.9998991  0 10                     
C01  37486270.795   195200743.723        -344.472          38.000  
C06  36531758.290   190230439.792         184.370          22.000  
C10  37356107.805   194523055.667         519.093          17.000  
C19  22180575.807   115500022.040       -2399.557          19.000  
C22  22335673.435   116307730.5821        624.972          32.000  
C30  25702939.925   133842005.194        1243.307          18.000  
C36  22605029.464   117710261.130       -1485.855          35.000  
G10  23187072.324   121848887.7931      -3876.460          28.000                                                                  
G25  23807965.588   125111727.2111      -3875.455          38.000    23807969.486    93427590.424       -2891.579          34.000  
G26                                                                  20425409.084    80153688.760         786.939          34.000  
> 2021 09 30 11 27 04.9998989  0  8                     
C01  37486275.891   195200774.894        -343.466          38.000  
C06  36531662.656   190229943.654         183.098          25.000  
C19  22180979.627   115502109.301       -2399.629          25.000  
C22  22335494.759   116306793.631         624.346          29.000  
C36  22605253.708   117711434.345       -1482.976          36.000  
G25  23808644.319   125115287.464       -3874.675          39.000    23808647.017    93430249.041       -2894.020          32.000  
G26  20425138.371   107334841.6621       1053.516          33.000    20425148.564                         786.224          34.000  
G29  23730870.660   124706465.7201        184.397          33.000                                                                  
> 2021 09 30 11 27 05.9998986  0  9                     
C01  37486253.407   195200650.122        -344.025          38.000  
C06  36531537.943   190229291.656         184.109          27.000  
C19  22181349.871   115504039.764       -2398.515          27.000  
C22  22335286.103   116305700.598         624.723          28.000  
C30  25702322.652   133838737.2531       1244.399          20.000  
C36  22605446.175   117712451.319       -1485.951          36.000  
G25  23809292.170   125118690.116       -3874.917          40.000    23809293.369    93432789.978       -2894.909          33.000  
G26  20424847.572                        1052.077          33.000    20424858.365    80151531.7991        786.058          33.000  
G29  23730742.049   124705809.488         184.586          34.000                                                                  
> 2021 09 30 11 27 06.9998984  0  7                     
C01  37486261.501   195200682.150        -344.074          37.000  
C06  36531441.709   190228794.753         184.386          28.000  
C22  22335107.727   116304763.857         623.959          29.000  
C36  22605665.324   117713624.908       -1486.953          37.000  
G25  23809969.101   125122250.859       -3876.162          39.000    23809972.099    93435448.960       -2895.304          32.000  
G26  20424588.851                        1051.190          33.000    20424598.445    80150511.094         784.367          33.000  
G29  23730653.910   124705311.768         183.159          33.000                                                                  
> 2021 09 30 11 27 07.9998981  0  8                     
C01  37486237.518   195200557.965        -344.382          38.000  
C06  36531316.696   190228141.591         185.632          26.000  
C22  22334898.771   116303671.750         622.833          30.000  
C36  22605855.992   117714642.625       -1485.858          35.000  
G25  23810617.552   125125654.192       -3875.830          39.000    23810620.251    93437990.414       -2895.287          33.000  
G26  20424299.252   107330408.3681       1050.914          35.000    20424308.246    80149373.192         785.410          34.000  
G29  23730525.599   124704656.825         183.443          31.000                                                                  
G32  20798516.087   109296940.1291       -722.875          31.000                                                                  
> 2021 09 30 11 27 08.9998979  0 10                     
C01  37486242.914   195200591.339        -346.679          38.000  
C06  36531221.961   190227643.893         185.092          25.000  
C19  22182520.561   115510146.7871      -2400.500          26.000  
C22  22334719.795   116302736.593         622.204          29.000  
C30  25701411.583   133833907.2151       1246.445          23.000  
C36  22606080.236   117715816.844       -1486.756          35.000  
G10  23190435.396   121866385.1291      -3878.518          21.000                                                                  
G25                                                                  23811297.482    93440649.851       -2896.028          32.000  
G26  20424038.133   107329042.951        1047.999          36.000    20424048.625    80148353.515         781.917          34.000  
G29  23730420.971   124704160.163         180.659          29.000                                                                  
> 2021 09 30 11 27 09.9998976  0  8                     
C01  37486218.331   195200468.923        -345.271          38.000  
C06  36531095.749   190226990.697         184.704          26.000  
C10  37355059.131   194517596.0161        516.270          12.000  
C19  22182893.502   115512079.268       -2401.542          28.000  
C22  22334511.140   116301646.199         621.547          29.000  
G10  23191098.836   121869792.636       -3879.868          21.000                                                                  
G25                                                                  23811944.734    93443191.608       -2893.988          32.000  
G26  20423747.634   107327520.463        1049.076          36.000    20423759.026    80147216.615         783.718          35.000  
> 2021 09 30 11 27 10.9998976  0  9                     
C01  37486282.786   195200813.993        -345.210          38.000  
C06  36531059.774   190226806.023         184.112          23.000  
C07  36587859.352   190522542.9691        476.865          22.000  
C19  22183354.283   115514480.848       -2402.025          27.000  
C22  22334391.522   116301025.847         620.074          30.000  
C36  22606562.303   117718321.7121      -1487.584          31.000  
G10  23191547.026   121872402.637       -3878.088          19.000                                                                  
G25  23812681.024   125136495.9171      -3877.864          37.000    23812683.123    93446086.524       -2895.560          31.000  
G26  20423549.471   107326471.344        1048.175          36.000    20423559.964    80146433.218         782.924          35.000  
> 2021 09 30 11 27 11.9998973  0 12                     
C01  37486259.702   195200690.883        -345.210          39.000  
C06  36530934.760   190226153.221         183.017          23.000  
C07  36587677.678   190521598.783         477.417          23.000  
C10  37354772.829   194516103.1631        506.643          11.000  
C22  22334182.567   116299937.185         620.373          28.000  
C30  25700535.889   133829242.0231       1241.294          23.000  
C36  22606755.969   117719340.257       -1486.851          32.000  
G10  23192186.483   121875808.567       -3877.751          20.000                                                                  
G25  23813329.175   125139900.531       -3876.992          37.000    23813330.674    93448628.913       -2895.718          32.000  
G26  20423261.970   107324950.800        1048.336          36.000    20423270.064    80145297.673         782.593          35.000  
G29  23729965.587   124701811.5461        179.973          29.000                                                                  
G32  20798832.068   109298578.2311       -726.394          30.000                                                                  
> 2021 09 30 11 27 12.9998973  0 13                     
C01  37486325.357   195201035.971        -345.317          34.000  
C06  36530902.383   190225970.376         182.769          23.000  
C07  36587587.140   190521122.094         476.784          24.000  
C10  37354674.197   194515595.031         509.443          14.000  
C19  22184187.107   115518817.3341      -2402.923          27.000  
C22  22334064.449   116299316.632         620.194          32.000  
C30  25700302.351   133827999.610        1241.667          23.000  
C36  22607048.866   117720826.666       -1481.253          35.000  
G10  23192929.969   121879686.751       -3878.339          20.000                                                                  
G25  23814064.566   125143777.590       -3876.538          40.000    23814069.063    93451524.106       -2897.408          33.000  
G26  20423059.910   107323903.064        1047.933          33.000    20423069.803    80144515.259         781.897          35.000  
G29  23729936.807   124701632.018         179.409          32.000                                                                  
G32  20798982.564   109299304.248        -725.880          37.000                                                                  
> 2021 09 30 11 27 13.9998971  0 10                     
C01  37486331.952   195201068.954        -345.359          34.000  
C06  36530809.747   190225474.977         183.841          28.000  
C07  36587432.448   190520332.640         476.753          20.000  
C19  22184585.831   115520908.333       -2404.345          28.000  
C22  22333885.473   116298384.887         619.167          33.000  
C36  22607277.308   117722000.018       -1486.187          31.000  
G25                                                                  23814746.594    93454184.518       -2896.984          32.000  
G26                                                                  20422810.183    80143498.136         780.601          34.000  
G29  23729864.257   124701137.929         177.658          33.000                                                                  
G32  20799055.713   109299715.529        -726.939          39.000                                                                  
> 2021 09 30 11 27 14.9998968  0  8                     
C06  36530685.033   190224822.459         184.217          27.000  
C10  37354328.237   194513792.7011        512.084          16.000  
C19  22184954.875   115522844.330       -2404.818          26.000  
C22  22333679.216   116297298.261         617.206          32.000  
C36  22607470.074   117723018.496       -1487.544          30.000  
G25                                                                  23815394.745    93456727.584       -2896.072          32.000  
G26  20422517.285   107321022.4081       1044.099          35.000    20422521.183    80142364.288         781.869          34.000  
G29  23729739.243                         178.748          33.000                                                                  
> 2021 09 30 11 27 15.9998966  0  8                     
C06  36530589.999   190224325.316         185.420          27.000  
C07  36587093.982   190518601.3251        474.927          24.000  
C10  37354169.646   194512966.168         515.372          18.000  
C19  22185355.998   115524937.280       -2405.370          31.000  
C22  22333499.940                         619.699          31.000  
C36  22607692.820   117724193.990       -1488.107          33.000  
G25  23816077.073   125154308.7831      -3877.639          35.000    23816072.576    93459388.260       -2894.751          32.000  
G26  20422262.462   107319661.913        1045.205          34.000    20422263.061    80141348.273         781.472          34.000  
> 2021 09 30 11 27 16.9998963  0 10                     
C01  37486295.078   195200851.0311       -343.867          25.000  
C06  36530464.985   190223670.330         186.993          25.000  
C07  36586912.607   190517658.751         473.995          24.000  
C10  37353982.276   194511982.900         515.416          20.000  
C19  22185726.541   115526874.698       -2404.358          31.000  
C22  22333288.886   116295310.1741        618.055          32.000  
C36  22607882.888   117725213.861       -1488.679          33.000  
G25  23816718.929   125157714.666       -3877.072          36.000    23816721.327    93461931.694       -2896.907          31.000  
G26  20421973.162   107318144.620        1044.653          36.000    20421973.762    80140215.225         779.341          34.000  
G29  23729470.330   124699208.7431        175.819          29.000                                                                  
> 2021 09 30 11 27 17.9998961  0  8                     
C01  37486302.573   195200883.322        -344.943          30.000  
C06  36530369.352   190223171.446         186.279          25.000  
C07  36586761.212   190516871.876         475.411          22.000  
C22  22333110.509                         611.136          31.000  
C36  22608110.431                       -1493.120          32.000  
G25                                                                  23817398.558    93464593.425       -2899.960          32.000  
G26  20421709.345   107316785.997        1041.591          35.000    20421715.940    80139200.620         777.698          34.000  
G32  20799306.939   109301095.8751       -729.106          34.000                                                                  
> 2021 09 30 11 27 18.9998958  0  9                     
C06  36530242.539   190222516.570         187.238          25.000  
C07  36586579.538   190515928.532         473.679          27.000  
C22  22332908.449   116293295.3611        617.425          29.000  
C30  25698464.024   133818646.0941       1241.962          25.000  
C36  22608317.288   117727384.7711      -1488.069          32.000  
G25  23818049.707   125164685.7751      -3880.022          34.000    23818045.810    93467136.477       -2894.800          29.000  
G26  20421417.947   107315270.335        1042.393          40.000    20421426.641    80138068.752         777.562          34.000  
G29  23729230.496   124698070.4671        174.472          22.000                                                                  
G32  20799355.206   109301352.389        -728.863          40.000                                                                  
> 2021 09 30 11 27 19.9998956  0  9                     
C01  37486290.881   195200794.2001       -346.633          29.000  
C07  36586428.742   190515142.793         473.149          29.000  
C22  22332729.173   116292366.271         615.859          31.000  
C30  25698180.720   133817091.146        1243.305          24.000  
C36  22608542.432   117728561.617       -1490.189          30.000  
G25                                                                  23818726.039    93469797.204       -2897.316          24.000  
G26  20421158.026   107313912.803        1040.764          39.000    20421167.320    80137055.034         777.066          33.000  
G29  23729134.562   124697580.679         176.184          23.000                                                                  
G32  20799439.448                        -730.755          39.000                                                                  
> 2021 09 30 11 27 20.9998953  0  7                     
C07  36586248.267   190514201.694         472.408          29.000  
C22  22332519.319   116291282.697         612.979          31.000  
C30  25697868.636   133815381.304        1242.392          23.000  
G25  23819374.790   125171656.8541      -3880.352          35.000    23819376.289    93472343.673       -2900.209          23.000  
G26  20420871.725   107312398.347        1041.373          39.000    20420878.620    80135924.106         778.371          32.000  
G29  23728993.660   124696933.098         175.277          15.000                                                                  
G32  20799488.314   109302051.0671       -730.934          40.000                                                                  
> 2021 09 30 11 27 21.9998950  0 11                     
C06  36529888.185   190220722.1581        180.388          20.000  
C07  36586067.193   190513260.842         472.994          29.000  
C10  37353105.083   194507378.0331        514.292          20.000  
C16  36907688.139   192188043.8071        229.885          28.000  
C22  22332305.866   116290200.352         613.183          31.000  
C30  25697417.148   133813194.778        1240.129          22.000  
C36  22608920.170   117730605.3811      -1490.253          27.000  
G25  23820023.541   125175063.641       -3879.831          35.000    23820024.740    93474890.125       -2898.512          24.000  
G26  20420581.526   107310884.319        1042.272          39.000    20420590.819    80134793.543         777.752          32.000  
G29  23728863.250   124696018.739         175.341          18.000                                                                  
G32  20799534.782   109302309.438        -731.376          38.000                                                                  
> 2021 09 30 11 27 22.9998948  0 10                     
C01  37486258.503   195200590.2051       -349.016          29.000  
C07  36585915.198   190512476.028         471.529          27.000  
C19  22188047.834   115538980.5851      -2411.230          25.000  
C22  22332125.691   116289275.045         612.909          26.000  
C30  25697136.543   133811642.563        1239.754          20.000  
C36  22609145.015   117731783.443       -1490.629          30.000  
G25  23820707.068   125178628.152       -3880.633          35.000    23820701.671    93477552.493       -2897.133          28.000  
G26  20420326.702   107309528.958        1040.075          38.000    20420334.497    80133781.508         776.696          32.000  
G29  23728764.018   124695528.098         174.375          19.000                                                                  
G32  20799615.426   109302727.083        -736.298          39.000                                                                  
> 2021 09 30 11 27 23.9998948  0  9                     
C01  37486324.757   195200939.252        -349.719          34.000  
C06  36529764.670   190220048.8201        180.811          25.000  
C10  37352847.262   194506037.5301        515.182          19.000  
C16  36907546.937   192187278.1121        225.714          26.000  
C19  22188509.515   115541391.905       -2411.233          26.000  
C22  22332008.772   116288662.505         611.771          30.000  
G25  23821435.863   125182508.890       -3880.038          35.000    23821439.461    93480450.122       -2898.068          30.000  
G26                                                                  20420136.634    80133005.744         774.832          34.000  
G29  23728724.746   124695355.488         170.438          20.000                                                                  
> 2021 09 30 11 27 24.9998945  0  9                     
C01  37486299.875   195200820.706        -349.996          30.000  
C06  36529642.954   190219399.016         181.755          33.000  
C07  36585640.288   190511066.5371        470.546          26.000  
C16  36907413.229   192186583.656         225.956          25.000  
C19  22188881.857   115543334.653       -2411.339          33.000  
C22  22331803.114   116287582.743         610.590          34.000  
G25  23822081.916   125185917.436       -3881.236          39.000    23822087.912    93482995.260       -2897.769          32.000  
G26  20419842.537   107306978.7151       1037.659          28.000    20419849.133    80131877.398         775.458          33.000  
G29  23728604.529   124694712.022         170.437          23.000                                                                  
> 2021 09 30 11 27 25.9998943  0  9                     
C06  36529550.618   190218904.896         180.134          32.000  
C07  36585490.692   190510284.173         470.871          28.000  
C16  36907308.302   192186044.698         227.297          29.000  
C19  22189285.377   115545433.352       -2409.674          36.000  
C22  22331630.734   116286659.656         612.260          33.000  
G25  23822758.547   125189483.361       -3880.076          37.000    23822766.342    93485657.963       -2898.599          33.000  
G26                                                                  20419590.412    80130866.947         773.603          32.000  
G29  23728513.692   124694226.782         169.944          24.000                                                                  
G32  20799850.163   109304141.5021       -732.958          21.000                                                                  
> 2021 09 30 11 27 26.9998940  0 12                     
C06  36529427.703   190218255.648         181.606          30.000  
C07  36585311.716   190509345.464         470.177          29.000  
C10  37352302.539   194503245.0881        511.729          22.000  
C16  36907174.295   192185348.998         227.268          31.000  
C19  22189660.718   115547376.149       -2412.008          34.000  
C22  22331426.875   116285579.856         611.100          33.000  
C30  25695989.537   133805760.9411       1238.747          24.000  
C36  22610059.681   117736499.2901      -1492.258          26.000  
G25  23823409.697   125192892.086       -3881.249          37.000    23823414.493                       -2897.431          32.000  
G26  20419293.018   107304116.4571       1037.368          25.000    20419303.211    80129739.536         777.174          31.000  
G29  23728393.175   124693584.534         169.454          24.000                                                                  
G32  20799893.633   109304402.912        -734.598          24.000                                                                  
> 2021 09 30 11 27 27.9998940  0  9                     
C07  36585222.677   190508875.764         469.177          30.000  
C19  22190123.297   115549787.886       -2411.837          31.000  
C22  22331309.956                         610.082          32.000  
C30  25695760.795   133804521.941        1239.469          26.000  
G10  23203073.447   121932974.1881      -3883.359          25.000                                                                  
G25  23824149.584   125196773.717       -3881.983          37.000    23824153.182    93491094.3261      -2901.247          33.000  
G26  20419097.553   107303079.758        1035.585          28.000    20419105.947    80128965.510         775.135          30.000  
G29  23728363.196   124693415.241         170.989          23.000                                                                  
G32  20800046.228   109305137.903        -735.581          33.000                                                                  
> 2021 09 30 11 27 28.9998938  0  9                     
C07  36585073.381   190508094.133         469.488          30.000  
C10  37352041.120   194501910.6351        510.202          23.000  
C16  36907019.902   192184580.3881        227.160          32.000  
C22  22331133.378   116284070.6981        608.554          32.000  
C30  25695468.198   133802970.125        1238.982          25.000  
G25  23824831.612   125200340.974       -3883.174          37.000    23824831.612    93493758.183       -2899.484          31.000  
G26  20418840.631   107301729.094        1034.093          27.000    20418849.025    80127956.965         770.495          30.000  
G29  23728273.858   124692929.070         169.090          22.000                                                                  
G32  20800128.671   109305558.696        -736.801          31.000                                                                  
> 2021 09 30 11 27 29.9998935  0 12                     
C06  36529186.370   190216928.2781        182.579          27.000  
C07  36584893.205   190507155.662         470.341          31.000  
C10  37351852.551   194500932.126         510.344          23.000  
C16  36906887.094                         227.990          34.000  
C19  22190903.057   115553830.2871      -2412.079          31.000  
C22  22330930.119   116282993.979         608.438          32.000  
C30  25695151.017   133801262.529        1239.827          21.000  
G10  23204406.024   121939953.7421      -3884.136          23.000                                                                  
G25  23825483.961   125203750.753       -3882.260          37.000    23825480.963    93496304.445       -2899.675          32.000  
G26  20418556.128   107300223.128        1032.753          26.000    20418562.423    80126831.305         773.072          30.000  
G29  23728154.540   124692286.818         170.537          17.000                                                                  
G32  20800186.830   109305821.830        -735.778          31.000                                                                  
> 2021 09 30 11 27 30.9998932  0 11                     
C03  36477527.333                        -363.561          32.000  
C07  36584713.030   190506216.917         470.312          31.000  
C10  37351664.281   194499952.320         511.074          22.000  
C16  36906753.386   192183150.8651        225.817          33.000  
C22  22330713.968   116281917.924         605.902          32.000  
C36  22610954.562   117741221.4281      -1493.198          24.000  
G10  23205055.075   121943365.364       -3883.578          24.000                                                                  
G25  23826133.311   125207160.994       -3883.058          37.000    23826128.814    93498851.026       -2898.900          32.000  
G26  20418269.226   107298716.083        1035.903          23.000    20418275.822    80125706.158         771.969          31.000  
G29  23728032.225   124691643.046         171.475          17.000                                                                  
G32  20800235.397   109306085.345        -736.358          30.000                                                                  
> 2021 09 30 11 27 31.9998930  0 10                     
C01  37486301.374   195200847.4531       -348.211          32.000  
C06  36528973.518   190215781.0951        182.289          24.000  
C07  36584569.130   190505435.450         467.511          31.000  
C10  37351506.290   194499129.089         511.105          22.000  
C16  36906646.960   192182610.665         230.364          31.000  
C19  22191679.520   115557876.8631      -2414.285          20.000  
C22  22330540.988   116280998.562         606.746          32.000  
G25  23826812.041   125210728.844       -3882.852          37.000    23826807.544    93501515.305       -2901.554          30.000  
G26  20418014.103   107297365.613        1034.887          21.000    20418018.900    80124699.141         771.462          30.000  
G32  20800309.146   109306507.129        -737.549          27.000                                                                  
> 2021 09 30 11 27 32.9998927  0 12                     
C03  36477521.637   189948027.6381       -364.347          32.000  
C06  36528850.303   190215130.144         182.477          28.000  
C07  36584385.657                         468.970          32.000  
C10  37351316.821   194498149.272         511.030          21.000  
C16  36906516.250   192181914.832         226.965          31.000  
C19  22192050.663   115559823.888       -2416.730          26.000  
C22  22330335.331   116279924.026         607.438          33.000  
G10  23206390.350   121950346.5701      -3885.137          23.000                                                                  
G25  23827457.195   125214139.641       -3881.926          38.000    23827457.494    93504062.350       -2897.931          30.000  
G26  20417727.501   107295858.951        1033.255          21.000    20417733.197    80123575.182         771.811          31.000  
G29  23727824.769   124690516.9651        166.353          17.000                                                                  
G32  20800361.010   109306772.419        -738.367          25.000                                                                  
> 2021 09 30 11 27 33.9998925  0 10                     
C01  37486287.883   195200770.3981       -354.499          31.000  
C06  36528756.768   190214635.486         182.627          27.000  
C07  36584230.664   190503716.0231        466.666          30.000  
C10  37351159.430   194497326.039         510.476          24.000  
C16  36906410.424   192181374.729         225.054          29.000  
C19  22192455.982   115561929.206       -2417.414          25.000  
C22  22330156.055   116279005.882         606.363          33.000  
C30  25693935.958   133795067.5031       1238.174          23.000  
G25  23828134.126   125217708.257       -3884.909          37.000    23828136.824    93506727.316       -2900.705          30.000  
G26  20417470.279   107294511.906        1031.206          25.000    20417477.474    80122569.225         770.186          31.000  
> 2021 09 30 11 27 34.9998922  0 11                     
C01  37486267.197   195200657.272        -355.797          33.000  
C06  36528632.654   190213985.714         181.112          22.000  
C07  36584049.290   190502778.598         468.958          23.000  
C16  36906279.414   192180680.600         226.003          26.000  
C19  22192832.522   115563878.178       -2417.392          29.000  
C22  22329949.198   116277931.839         604.724          30.000  
C30  25693618.478   133793362.131        1235.870          26.000  
C36  22611808.970   117745637.3291      -1493.414          31.000  
G25  23828788.873   125221119.999       -3885.244          34.000    23828785.875    93509275.160       -2901.883          29.000  
G26  20417183.978   107293008.539        1030.316          30.000    20417191.772    80121446.311         768.457          33.000  
G29  23727643.394   124689399.8501        163.205          26.000                                                                  
> 2021 09 30 11 27 35.9998922  0 11                     
C01  37486336.149   195201012.534        -354.916          33.000  
C06  36528597.578   190213804.967         181.058          18.000  
C07  36583956.654   190502308.995         469.019          19.000  
C16  36906239.842   192180454.126         226.988          28.000  
C19  22193298.099   115566294.699       -2417.008          24.000  
C22  22329833.778   116277326.613         605.666          24.000  
C30  25693396.332   133792124.293        1237.762          23.000  
C36  22612097.071   117747131.410       -1494.253          31.000  
G25  23829525.763   125225003.424       -3883.161          31.000    23829524.264    93512174.872       -2899.805          26.000  
G26  20416987.913   107291978.278        1029.820          36.000    20416994.809    80120676.687         767.270          35.000  
G29  23727632.002   124689547.867         162.864          24.000                                                                  
> 2021 09 30 11 27 36.9998920  0 12                     
C01  37486343.944   195201054.956        -354.570          33.000  
C06  36528501.944   190213310.912         181.899          26.000  
C07  36583809.156   190501527.422         468.988          28.000  
C10  37350718.735   194495016.8361        508.846          19.000  
C16  36906137.313   192179915.064         226.125          22.000  
C22  22329658.399   116276409.401         604.422          31.000  
C36  22612326.412   117748314.086       -1495.318          29.000  
G10  23209115.164   121964787.5811      -3886.922          22.000                                                                  
G25  23830205.992   125228572.429       -3883.141          35.000    23830202.994    93514838.900       -2900.089          28.000  
G26  20416733.090   107290633.373        1029.508          28.000    20416738.486    80119672.252         770.341          34.000  
G29  23727550.459   124689069.954         162.743          25.000                                                                  
G32  20800723.459   109308628.0781       -740.197          29.000                                                                  
> 2021 09 30 11 27 37.9998917  0  9                     
C01  37486320.260   195200940.418        -352.817          33.000  
C03  36477586.093   189948354.2781       -362.068          29.000  
C06  36528376.631   190212660.771         182.338          30.000  
C07  36583631.979   190500590.223         468.878          29.000  
C22  22329453.041   116275337.108         604.235          33.000  
C36  22612525.474   117749341.238       -1495.433          28.000  
G25  23830850.845   125231984.137       -3883.675          36.000    23830852.344    93517386.056       -2901.008          30.000  
G26  20416444.390   107289131.873        1028.790          24.000    20416452.784    80118550.561         767.510          33.000  
G29  23727446.131   124688434.568         162.618          25.000                                                                  
> 2021 09 30 11 27 38.9998915  0 11                     
C01  37486325.057   195200980.182        -351.192          33.000  
C06  36528280.098   190212166.396         181.662          26.000  
C07  36583483.581   190499809.430         467.501          29.000  
C10  37350374.274   194493216.9341        510.747          20.000  
C16  36905894.481   192178679.0791        229.127          21.000  
C19  22194466.391   115572451.8791      -2417.330          28.000  
C22  22329276.464   116274422.279         602.214          31.000  
C36  22612754.816   117750523.652       -1494.396          29.000  
G25  23831525.378   125235553.423       -3883.861          34.000    23831531.374    93520051.272       -2900.993          29.000  
G26  20416186.868   107287788.007        1028.941          25.000    20416196.761    80117547.140         768.604          33.000  
G29  23727373.281   124687956.893         162.241          28.000                                                                  
> 2021 09 30 11 27 39.9998912  0 12                     
C01  37486302.273   195200864.413        -360.607          33.000  
C06  36528155.384   190211516.908         179.973          26.000  
C07  36583304.605   190498873.970         467.173          30.000  
C10  37350182.407   194492238.418         509.863          23.000  
C16  36905760.773   192177981.834         228.856          28.000  
C19  22194842.330   115574400.758       -2417.660          26.000  
C22  22329071.106   116273351.475         602.417          33.000  
C36  22612952.679   117751550.162       -1495.040          29.000  
G25  23832176.528   125238965.612       -3884.236          37.000    23832180.725    93522598.800       -2900.881          29.000  
G26                                                                  20415911.359    80116426.645         767.952          33.000  
G29  23727274.949   124687671.459         161.241          25.000                                                                  
G32  20800908.131   109309590.7331       -743.476          25.000                                                                  
> 2021 09 30 11 27 40.9998909  0 11                     
C06  36528029.471   190210868.303         180.193          28.000  
C07  36583125.329   190497938.343         467.275          30.000  
C10  37349995.336   194491260.115         510.862          24.000  
C16  36905626.466   192177285.122         228.059          30.000  
C19  22195217.371   115576350.885       -2419.276          32.000  
C22  22328865.148   116272281.104         601.404          33.000  
C30  25691803.235   133783913.3971       1235.197          24.000  
G10  23211744.943   121978599.4471      -3886.162          26.000                                                                  
G25  23832826.777   125242378.049       -3884.687          37.000    23832830.675    93525146.673       -2900.728          31.000  
G26                                                                  20415626.256    80115306.548         766.813          32.000  
G29  23727158.630   124687037.789         160.651          19.000                                                                  
> 2021 09 30 11 27 41.9998907  0 10                     
C06  36527934.137   190210375.530         180.891          30.000  
C07  36582975.733   190497159.286         466.581          29.000  
C10  37349836.446   194490436.551         511.457          25.000  
C16  36905522.438   192176745.388         226.971          30.000  
C22  22328692.468                         599.754          33.000  
C36  22613376.285   117753760.7861      -1494.603          28.000  
G10  23212423.973   121982170.744       -3887.333          26.000                                                                  
G25  23833506.407   125245948.304       -3886.424          37.000    23833510.604    93527813.154       -2902.374          31.000  
G26  20415359.441   107283444.0971       1026.499          23.000    20415371.432    80114304.636         765.337          33.000  
G29  23727060.298   124686562.187         160.238          20.000                                                                  
> 2021 09 30 11 27 42.9998907  0 11                     
C01  37486352.338   195201133.2521       -348.550          27.000  
C07  36582886.695   190496692.085         467.330          26.000  
C16  36905478.669   192176518.345         226.452          27.000  
C19  22196086.469   115580877.6831      -2419.872          26.000  
C22  22328571.352   116270761.4651        599.593          33.000  
C30  25691259.411   133781130.1311       1235.982          27.000  
G10  23213164.760   121986057.947       -3887.096          22.000                                                                  
G25  23834244.196   125249833.876       -3886.079          38.000    23834249.592    93530714.739       -2900.817          31.000  
G26  20415163.077   107282417.535        1025.788          25.000    20415176.268    80113538.543         765.659          33.000  
G29  23727035.115   124686401.693         160.201          27.000                                                                  
G32  20801183.940   109311030.8441       -743.058          31.000                                                                  
> 2021 09 30 11 27 43.9998904  0 10                     
C01  37486329.854   195201013.552        -348.954          34.000  
C06  36527768.052   190209546.2051        178.666          18.000  
C16  36905345.261   192175822.579         229.616          25.000  
C22  22328358.799   116269693.215         599.240          31.000  
C30  25690937.734   133779426.053        1236.202          27.000  
G10  23213808.415   121989470.070       -3886.249          21.000                                                                  
G25  23834893.247   125253246.787       -3886.448          39.000    23834898.043    93533262.639       -2901.350          28.000  
G26                                                                  20414890.865    80112419.952         763.087          35.000  
G29  23726931.687   124685769.260         159.325          28.000                                                                  
G32  20801232.506   109311301.510        -743.404          34.000                                                                  
> 2021 09 30 11 27 44.9998902  0 11                     
C01  37486337.049   195201050.295        -349.399          34.000  
C07  36582549.428   190494975.1271        466.975          25.000  
C10  37349396.651   194488121.3471        508.996          20.000  
C16  36905242.133   192175281.010         228.382          24.000  
C19  22196871.925   115584939.0381      -2421.804          26.000  
C22  22328192.114   116268781.736         599.419          29.000  
C30  25690643.038   133777877.872        1235.419          28.000  
C36  22614073.902   117757465.7131      -1497.016          27.000  
G25  23835572.576   125256817.642       -3884.394          39.000    23835577.373    93535928.954       -2901.789          27.000  
G26  20414623.750   107279579.6901       1024.052          31.000    20414634.842    80111419.471         765.342          34.000  
G32  20801336.235   109311730.724        -744.802          29.000                                                                  
> 2021 09 30 11 27 45.9998899  0 11                     
C01  37486314.864   195200931.088        -349.212          32.000  
C06  36527539.611   190208406.3891        180.896          20.000  
C07  36582367.454   190494040.481         466.480          25.000  
C10  37349211.079   194487145.224         506.153          20.000  
C19  22197249.964   115586892.687       -2422.110          25.000  
C22  22327991.553   116267714.792         598.070          31.000  
C36  22614270.566   117758494.635       -1497.273          24.000  
G25  23836223.426   125260231.180       -3886.128          39.000    23836227.023    93538477.273       -2900.693          28.000  
G26  20414339.547   107278083.307        1023.499          30.000    20414350.939    80110302.061         764.678          32.000  
G29  23726734.124   124684663.1541        158.472          27.000                                                                  
G32  20801410.283   109312003.157        -745.408          33.000                                                                  
> 2021 09 30 11 27 46.9998897  0  8                     
C01  37486322.059   195200968.111        -349.627          30.000  
C06  36527443.677   190207913.570         181.824          20.000  
C07  36582217.858   190493262.321         465.198          27.000  
C10  37349048.592   194486325.875         507.657          23.000  
C22  22327816.474   116266804.509         596.270          30.000  
C30  25690020.369   133774626.5691       1234.704          26.000  
G25  23836903.955   125263802.498       -3888.369          39.000    23836907.252    93541143.727       -2902.504          29.000  
G26  20414085.623   107276744.917        1022.857          30.000    20414096.415    80109302.609         764.828          32.000  
> 2021 09 30 11 27 47.9998897  0  9                     
C01  37486388.913   195201317.896        -350.153          33.000  
C06  36527405.903   190207731.206         181.844          19.000  
C07  36582128.519   190492797.560         464.012          26.000  
C10  37348950.560   194485817.606         507.751          21.000  
C22  22327703.453   116266207.026         596.272          29.000  
C30  25689785.631   133773391.922        1234.449          27.000  
G25  23837644.142   125267689.075       -3887.156          36.000    23837647.740    93544045.806       -2901.899          29.000  
G26  20413891.957   107275722.718        1021.725          26.000    20413901.850    80108538.990         763.510          34.000  
G29  23726620.203   124684032.2961        157.404          27.000                                                                  
> 2021 09 30 11 27 48.9998894  0  8                     
C06  36527282.089   190207080.422         182.062          18.000  
C07  36581951.342   190491864.595         465.146          26.000  
C10  37348762.590   194484840.767         507.514          23.000  
C16  36904838.012   192173122.6741        226.946          28.000  
C22  22327495.397   116265142.073         596.540          30.000  
C30  25689461.256   133771688.779        1235.027          26.000  
G25  23838293.493   125271103.392       -3886.285          37.000    23838297.390    93546595.055       -2902.418          29.000  
G26  20413607.454   107274228.117        1022.659          26.000    20413617.047    80107423.040         762.312          34.000  
> 2021 09 30 11 27 49.9998892  0 11                     
C01  37486371.525   195201237.9331       -350.586          31.000  
C06  36527198.747   190206588.782         176.565          18.000  
C07  36581803.245   190491086.416         466.047          29.000  
C10  37348605.498   194484020.556         507.609          23.000  
C16  36904737.282   192172583.782         226.456          30.000  
C19  22198911.413   115595484.2911      -2423.658          21.000  
C22  22327321.517   116264234.012         594.871          29.000  
C30  25689165.061   133770142.629        1233.953          26.000  
G25  23838974.022   125274675.857       -3886.592          39.000    23838977.319    93549262.199       -2902.560          29.000  
G26  20413353.230   107272891.273        1021.367          28.000    20413362.823    80106425.514         761.661          33.000  
G31  21247073.657   111653943.0751       -889.227          26.000                                                                  
> 2021 09 30 11 27 50.9998889  0  8                     
C01  37486348.741   195201120.703        -351.317          32.000  
C07  36581623.069   190490152.352         465.377          26.000  
C10  37348418.728   194483044.436         507.937          22.000  
C22  22327115.560   116263170.353         595.558          29.000  
C36  22615420.870   117764420.3511      -1498.061          28.000  
G25  23839625.171   125278090.777       -3886.677          39.000    23839627.569    93551812.735       -2903.506          29.000  
G26  20413069.326   107271397.829        1021.782          26.000    20413079.519    80105310.694         763.122          34.000  
G29  23726304.521   124682572.3811        154.222          28.000                                                                  
> 2021 09 30 11 27 51.9998886  0  9                     
C01  37486326.256   195201003.616        -351.395          34.000  
C06  36526940.625   190205293.9371        179.295          13.000  
C07  36581443.194   190489218.529         465.422          26.000  
C10  37348232.856   194482066.517         511.013          21.000  
C22  22326912.600   116262107.096         595.862          30.000  
G25  23840274.222   125281505.850       -3889.651          39.000    23840277.819    93554362.874       -2903.391          29.000  
G26  20412783.024   107269903.936        1020.019          22.000    20412795.016    80104196.275         760.864          34.000  
G29  23726192.998   124681945.846         153.992          25.000                                                                  
G31  21247231.648   111654777.5811       -890.099          23.000                                                                  
> 2021 09 30 11 27 52.9998884  0  8                     
C01  37486334.351   195201042.727        -351.563          33.000  
C06  36526844.692   190204801.246         180.493          14.000  
C07  36581293.897   190488441.439         465.211          26.000  
C10  37348074.266   194481245.346         506.100          22.000  
C22  22326737.221   116261200.573         592.479          29.000  
G25  23840954.151   125285078.652       -3888.284          39.000    23840958.048    93557031.355       -2904.105          29.000  
G26  20412525.503   107268567.786        1020.676          21.000    20412540.492    80103199.996         760.225          33.000  
G29  23726089.270   124681477.454         151.526          25.000                                                                  
> 2021 09 30 11 27 53.9998881  0  7                     
C01  37486312.466   195200925.762        -351.474          34.000  
C07  36581114.621   190487508.885         462.731          26.000  
C22  22326533.962   116260138.659         592.102          29.000  
G25  23841604.401   125288494.221       -3888.349          38.000    23841607.698    93559582.280       -2904.340          30.000  
G26  20412242.499   107267075.337        1018.436          26.000    20412257.488    80102086.740         759.828          34.000  
G29  23725950.166   124680852.139         152.544          23.000                                                                  
G31  21247415.121   111655771.2191       -890.961          23.000                                                                  
> 2021 09 30 11 27 54.9998879  0  8                     
C01  37486320.260   195200964.923        -351.557          34.000  
C10  37347734.002   194479454.5151        504.477          20.000  
C19  22200830.685   115605590.6351      -2427.792          23.000  
C22  22326360.982   116259233.535         594.623          29.000  
C36  22616262.387   117768853.4051      -1498.704          29.000  
G25  23842283.131   125292067.626       -3888.753          39.000    23842287.628    93562251.013       -2903.065          30.000  
G26  20411987.075   107265742.498        1016.161          25.000    20412003.264    80101091.564         758.921          34.000  
G29  23725838.943   124680384.070         152.075          24.000                                                                  
> 2021 09 30 11 27 55.9998876  0 10                     
C01  37486298.076   195200848.063        -351.641          34.000  
C06  36526494.534   190203008.5531        180.504          14.000  
C07  36580786.948   190485803.5121        461.469          25.000  
C16  36904017.181   192168724.3861        227.094          27.000  
C19  22201203.627   115607549.502       -2426.314          24.000  
C22  22326157.123   116258172.838         589.483          29.000  
G25  23842933.680   125295483.651       -3889.153          39.000    23842937.278    93564801.519       -2903.608          30.000  
G26  20411702.273   107264254.758        1014.222          23.000    20411720.560    80099979.335         758.238          33.000  
G29  23725696.542   124679376.992         153.365          23.000                                                                  
G31  21247599.793   111656772.2491       -899.530          15.000                                                                  
> 2021 09 30 11 27 56.9998874  0 11                     
C01  37486305.571   195200887.213        -351.361          33.000  
C06  36526399.200   190202519.100         175.511          15.000  
C07  36580637.652   190485029.552         461.802          26.000  
C16  36903918.249   192168185.548         225.624          28.000  
C19  22201605.348   115609662.580       -2424.815          21.000  
C22  22325985.042   116257268.870         590.173          28.000  
G10  23222585.139   122035282.6501      -3890.184          21.000                                                                  
G25                                                                  23843617.207    93567470.156       -2903.475          29.000  
G26  20411446.250   107262924.746        1015.491          24.000    20411466.636    80098985.244         759.797          33.000  
G29  23725594.613   124678909.803         151.436          21.000                                                                  
G32  20802329.147   109316978.2851       -751.137          31.000                                                                  
> 2021 09 30 11 27 57.9998871  0  9                     
C01  37486283.386   195200770.269        -351.576          33.000  
C07  36580456.877   190484099.054         463.454          26.000  
C10  37347201.570   194476692.3261        505.627          20.000  
C16  36903789.038   192167491.083         225.968          28.000  
C19  22201979.789   115611620.249       -2426.370          23.000  
C22  22325777.586   116256210.548         591.979          28.000  
G25  23844262.660   125302474.0171      -3888.956          38.000    23844267.457    93570021.230       -2904.544          30.000  
G26  20411161.447   107261435.904        1016.368          24.000    20411183.332    80097873.951         759.059          33.000  
G31  21247775.471   111657781.3761       -897.232          16.000                                                                  
> 2021 09 30 11 27 58.9998871  0  6                     
C01  37486351.739   195201121.553        -351.361          33.000  
C16  36903750.065   192167265.345         225.124          27.000  
C22  22325663.065   116255619.499         590.024          28.000  
C30  25686395.279   133755768.6291       1228.184          25.000  
G25  23845000.749   125306363.247       -3890.419          38.000    23845007.945    93572925.232       -2903.293          30.000  
G26  20410967.481   107260419.582        1016.012          27.000    20410990.565    80097116.019         756.775          34.000  
> 2021 09 30 11 27 59.9998871  0  8                     
C01  37486420.091   195201472.757        -351.306          33.000  
C16  36903709.893   192167302.042         224.411          26.000  
C19  22202910.945   115616477.1461      -2430.328          23.000  
C22  22325547.045   116255029.326         589.967          26.000  
C30  25686159.342   133754539.516        1230.478          23.000  
C36  22617473.849   117775105.7671      -1502.205          29.000  
G25  23845741.537   125310253.108       -3890.539          37.000    23845748.132    93575830.010       -2906.716          30.000  
G26                                                                  20410797.799    80096358.854         757.539          34.000  
> 2021 09 30 11 28 00.9998868  0  7                     
C01  37486398.506   195201355.790        -351.655          33.000  
C07  36580098.325   190482238.7261        461.963          24.000  
C16  36903580.383   192166608.704         225.593          26.000  
C36  22617669.313   117776139.316       -1502.045          27.000  
G25                                                                  23846398.682    93578382.533       -2905.231          31.000  
G26                                                                  20410515.094    80095249.115         754.864          34.000  
G32  20802680.804   109319043.6641       -754.270          30.000                                                                  
> 2021 09 30 11 28 01.9998866  0  8                     
C01  37486406.601   195201395.156        -351.954          32.000  
C07  36579950.527   190481464.175         461.214          24.000  
C16  36903480.852   192166070.041         227.190          26.000  
C19  22203697.300   115620560.8511      -2433.420          22.000  
C30  25685536.673   133751294.7631       1232.828          21.000  
G10  23226059.434   122053766.2111      -3890.731          21.000                                                                  
G25  23847070.517   125317245.3951      -3889.416          38.000    23847079.211    93581052.248       -2905.215          32.000  
G26                                                                  20410262.669    80094257.544         754.428          34.000  
> 2021 09 30 11 28 02.9998863  0  6                     
C01  37486383.517   195201278.727        -352.121          33.000  
C19  22204075.339   115622523.680       -2431.840          23.000  
C22  22324962.750   116252012.5331        587.220          26.000  
C36  22618089.023   117778362.3301      -1501.466          28.000  
G25  23847718.968   125320663.623       -3891.335          36.000    23847729.460    93583604.959       -2906.462          32.000  
G26  20409962.277   107255103.8881       1011.359          31.000    20409980.265    80093149.230         755.935          35.000  
> 2021 09 30 11 28 03.9998861  0  9                     
C01  37486390.412   195201318.603        -352.396          33.000  
C07  36579621.655   190479760.6481        462.693          21.000  
C19  22204482.756   115624643.393       -2432.555          26.000  
C22  22324787.072   116251114.325         584.672          27.000  
C30  25684919.101   133748049.1581       1231.594          24.000  
C36  22618317.764   117779552.171       -1502.281          28.000  
G25                                                                  23848409.989                       -2905.501          32.000  
G26  20409711.351   107253777.938        1010.320          31.000    20409728.139    80092159.070         754.242          34.000  
G29  23724929.673   124675347.0411        146.937          26.000                                                                  
> 2021 09 30 11 28 04.9998858  0  8                     
C01  37486367.628   195201202.642        -352.698          32.000  
C07  36579445.377   190478830.522         461.406          26.000  
C19  22204859.895   115626608.210       -2433.349          26.000  
C22  22324582.013   116250061.410         584.615          26.000  
C36  22618518.625   117780585.652       -1501.404          30.000  
G25  23849050.946   125327658.0331      -3891.226          37.000    23849060.539    93588836.7711      -2905.282          32.000  
G26                                                                  20409446.035    80091051.679         754.460          34.000  
G29  23724802.861   124674727.715         146.361          26.000                                                                  
> 2021 09 30 11 28 05.9998856  0  9                     
C01  37486376.621   195201243.005        -352.707          32.000  
C07  36579298.778   190478057.249         462.145          25.000  
C19  22205267.613   115628729.301       -2432.858          26.000  
C22  22324406.035   116249164.170         585.331          25.000  
C30  25684299.729   133744809.1911       1227.897          24.000  
C36  22618750.065   117781774.804       -1501.742          30.000  
G25                                                                  23849741.068    93591507.183       -2907.636          32.000  
G26  20409183.416   107250970.9131       1008.569          35.000    20409194.209    80090062.215         752.858          34.000  
G29  23724704.529   124674266.297         146.316          26.000                                                                  
> 2021 09 30 11 28 06.9998853  0 11                     
C01  37486356.535   195201127.391        -352.981          32.000  
C07  36579120.102   190477127.417         460.036          25.000  
C10  37345796.443   194469331.8811        503.261          18.000  
C16  36902879.768   192162917.6001        224.347          24.000  
C19  22205645.352   115630694.030       -2433.332          27.000  
C22  22324202.476   116248109.797         585.503          26.000  
C30  25683976.553   133743113.365        1228.308          24.000  
C36  22618950.327   117782808.395       -1502.190          31.000  
G25  23850382.624   125334652.8421      -3891.093          37.000    23850391.318    93594060.159       -2906.917          32.000  
G26  20408903.710   107249489.747        1008.826          35.000    20408911.505    80088955.633         752.970          34.000  
G29  23724575.618   124673647.833         145.087          22.000                                                                  
> 2021 09 30 11 28 07.9998851  0  9                     
C01  37486364.630   195201168.324        -353.638          33.000  
C07  36578971.705   190476355.557         459.120          25.000  
C19  22206051.870   115632815.729       -2435.049          26.000  
C22  22324030.395   116247212.094         584.931          27.000  
C30  25683683.356   133741573.658        1226.858          23.000  
C36  22619180.867   117783998.629       -1502.477          31.000  
G25                                                                  23851072.146    93596731.200       -2907.048          32.000  
G26  20408653.683                        1007.724          34.000    20408659.679    80087967.506         752.045          34.000  
G29  23724472.789   124673188.124         144.337          20.000                                                                  
> 2021 09 30 11 28 08.9998848  0 10                     
C07  36578792.129   190475427.356         459.562          25.000  
C10  37345458.577   194467550.1131        499.477          20.000  
C19  22206429.309   115634782.476       -2435.241          25.000  
C22  22323830.134   116246159.994         582.293          27.000  
C30  25683359.280   133739877.350        1227.816          22.000  
C36  22619380.229   117785032.957       -1503.066          32.000  
G25  23851717.300   125341649.2601      -3892.007          36.000    23851722.696    93599284.798       -2907.826          32.000  
G26  20408372.178   107246719.5681       1006.861          32.000    20408377.874    80086862.250         752.704          33.000  
G29  23724322.893   124672158.271         145.924          17.000                                                                  
G32  20803167.367   109321382.7881       -758.993          32.000                                                                  
> 2021 09 30 11 28 09.9998845  0 11                     
C01  37486321.460   195200939.6031       -354.404          31.000  
C06  36525083.711   190195672.2081        177.773          22.000  
C07  36578614.052   190474500.076         456.561          23.000  
C10  37345274.205   194466581.695         499.571          20.000  
C19  22206804.049   115636749.145       -2434.275          26.000  
C22  22323629.573   116245109.260         582.169          28.000  
C30  25682902.996   133737615.584        1226.572          21.000  
C36  22619578.392   117786067.086       -1501.679          31.000  
G25  23852368.749   125345069.164       -3893.660          38.000    23852373.845    93601838.581       -2908.075          32.000  
G26  20408084.977   107245240.189        1004.898          34.000    20408095.769    80085757.522         750.640          33.000  
G29  23724178.693   124671540.325         145.714          16.000                                                                  
> 2021 09 30 11 28 10.9998843  0  7                     
C01  37486330.154   195200981.746        -354.510          32.000  
C19  22207212.667   115638872.090       -2435.233          26.000  
C22  22323456.593   116244214.294         582.862          27.000  
C36  22619802.936   117787256.108       -1501.849          26.000  
G25  23853045.680   125348647.035       -3892.813          39.000    23853054.674    93604510.433       -2905.460          32.000  
G26  20407829.853   107243918.570        1005.114          29.000    20407844.543    80084771.118         751.271          33.000  
G29  23724074.665   124671079.650         146.818          14.000                                                                  
> 2021 09 30 11 28 11.9998840  0  8                     
C01  37486309.468   195200867.844        -354.332          36.000  
C07  36578293.874   190472802.1681        460.867          19.000  
C19  22207590.405   115640839.153       -2435.670          28.000  
C22  22323256.631   116243163.178         581.813          28.000  
C36  22620001.099   117788290.334       -1503.719          27.000  
G25  23853697.129   125352067.467       -3893.332          39.000    23853705.523    93607064.607       -2909.567          32.000  
G26  20407551.046   107242439.204        1006.689          31.000    20407563.338    80083667.517         749.681          32.000  
G29  23723970.037   124670461.238         144.554          14.000                                                                  
> 2021 09 30 11 28 12.9998838  0  7                     
C01  37486319.361   195200909.823        -354.201          31.000  
C07  36578147.575   190472029.630         461.195          21.000  
C22  22323082.751   116242268.773         582.265          25.000  
C36  22620229.241   117789482.285       -1504.053          28.000  
G25  23854380.956   125355645.314       -3892.144          39.000    23854386.952    93609736.420       -2905.935          33.000  
G26  20407300.720   107241117.905        1005.604          33.000    20407311.812    80082681.838         751.003          33.000  
G29  23723898.986   124670002.479         141.672          14.000                                                                  
> 2021 09 30 11 28 13.9998838  0 10                     
C06  36524729.056   190193863.5281        179.478          21.000  
C07  36578060.036   190471569.328         460.192          23.000  
C10  37344681.515   194463484.2091        501.639          19.000  
C22  22322972.428   116241686.172         581.605          27.000  
C30  25681745.198   133731606.7741       1231.312          24.000  
C36  22620519.140   117790986.481       -1503.796          31.000  
G10  23234106.163   122096076.4071      -3894.792          23.000                                                                  
G25  23855124.441   125359538.236       -3892.144          39.000    23855126.839    93612643.467       -2906.927          32.000  
G26  20407109.452   107240112.665        1004.140          32.000    20407121.744    80081931.783         749.715          33.000  
G29  23723882.498   124669861.564         141.033          12.000                                                                  
> 2021 09 30 11 28 14.9998838  0  7                     
C07  36577973.996   190471108.268         461.096          25.000  
C16  36902066.431   192158782.2111        224.654          25.000  
C30  25681508.662   133730375.607        1230.952          22.000  
C36  22620808.740   117792490.493       -1504.591          32.000  
G25  23855863.130   125363432.008       -3892.332          39.000    23855867.926    93615551.219       -2906.978          32.000  
G26  20406916.985   107239109.538        1002.698          33.000    20406931.076    80081182.651         749.595          33.000  
G29  23723845.923   124669718.753         141.848          11.000                                                                  
> 2021 09 30 11 28 15.9998835  0  9                     
C06  36524580.059   190193036.9871        177.858          26.000  
C07  36577798.317   190470180.320         459.147          25.000  
C22  22322665.140   116240056.8741        579.694          29.000  
C30  25681184.586   133728676.963        1229.671          25.000  
C36  22621009.901   117793527.065       -1505.691          32.000  
G25  23856515.478   125366853.091       -3894.121          38.000    23856519.076    93618105.883       -2906.507          32.000  
G26  20406643.874                        1004.699          33.000    20406650.170    80080080.845         750.238          34.000  
G29  23723747.292   124669102.670         145.752          12.000                                                                  
G32  20803748.365   109324658.0221       -761.506          29.000                                                                  
> 2021 09 30 11 28 16.9998833  0 10                     
C01  37486443.175   195201563.2351       -361.337          30.000  
C07  36577652.918   190469409.697         457.114          25.000  
C19  22209716.533   115651930.1221      -2438.602          27.000  
C22  22322491.261   116239165.326         578.409          27.000  
C30  25680891.389   133727135.787        1230.129          24.000  
C36  22621238.343   117794720.114       -1504.197          29.000  
G10  23236159.741   122106973.8251      -3896.513          22.000                                                                  
G25  23857196.007   125370432.305       -3894.701          40.000    23857199.904    93620778.690       -2909.232          34.000  
G26                                                                  20406399.544    80079097.556         748.617          33.000  
G29  23723666.348   124668642.638         141.947          11.000                                                                  
> 2021 09 30 11 28 17.9998830  0  9                     
C01  37486421.590   195201455.784        -360.476          36.000  
C07  36577474.242   190468484.836         455.835          24.000  
C22  22322286.802   116238118.792         577.773          26.000  
C30  25680564.315   133725437.634        1229.403          22.000  
C36  22621437.105   117795756.619       -1504.899          26.000  
G10  23236789.605   122110398.329       -3897.483          18.000                                                                  
G25  23857847.456   125373853.796       -3894.246          40.000    23857851.353    93623333.630       -2909.466          33.000  
G26  20406108.745   107234846.7721       1001.981          25.000    20406118.638    80077996.676         745.888          33.000  
G29  23723555.125   124668028.310         141.496          14.000                                                                  
> 2021 09 30 11 28 18.9998828  0  9                     
C06  36524260.181   190191419.1651        176.280          21.000  
C07  36577327.043   190467716.965         456.650          23.000  
C22  22322116.820   116237228.994         576.879          27.000  
C36  22621665.847   117796949.312       -1505.212          30.000  
G10  23237460.241   122113678.393       -3897.363          18.000                                                                  
G25  23858528.285   125377433.373       -3893.357          40.000    23858532.182    93626006.745       -2908.461          34.000  
G26  20405857.219   107233529.927        1001.387          29.000    20405867.712    80077014.445         748.446          33.000  
G29  23723477.178   124667571.995         140.067          15.000                                                                  
G32  20803988.498   109325844.5511       -765.090          35.000                                                                  
> 2021 09 30 11 28 19.9998825  0  9                     
C01  37486406.301   195201392.5621       -356.915          33.000  
C06  36524135.467   190190774.282         176.713          24.000  
C07  36577149.266   190466792.498         455.840          21.000  
C22  22321917.158   116236184.027         576.158          29.000  
G10  23238097.300   122117102.246       -3896.029          18.000                                                                  
G25  23859180.033   125380856.021       -3894.235          40.000    23859182.731    93628562.540       -2908.932          33.000  
G26  20405576.913   107232056.675         999.696          31.000    20405588.605    80075915.158         745.363          33.000  
G29  23723371.951   124666959.811         137.476          17.000                                                                  
G32  20804045.459   109326137.259        -764.802          35.000                                                                  
> 2021 09 30 11 28 20.9998822  0  9                     
C01  37486383.816   195201280.904        -356.429          30.000  
C06  36524011.953   190190128.139         178.303          27.000  
C07  36576973.888   190465868.016         456.807          31.000  
C22  22321715.698   116235139.663         575.849          31.000  
C36  22622066.969   117799024.5991      -1506.215          29.000  
G10  23238745.151   122120524.096       -3892.957          19.000                                                                  
G25  23859830.283   125384278.436       -3895.531          35.000    23859834.480    93631118.378       -2908.827          33.000  
G26                                                                  20405308.599    80074816.255         745.246          31.000  
G29  23723270.921   124666630.317         136.658          26.000                                                                  
> 2021 09 30 11 28 21.9998820  0 12                     
C01  37486389.213   195201324.377        -355.392          33.000  
C06  36523915.120   190189637.074         178.570          24.000  
C07  36576826.090   190465098.844         456.877          30.000  
C16  36901193.435   192154409.0221        223.959          30.000  
C22  22321546.615   116234251.987         575.542          28.000  
C30  25679329.470   133718961.2941       1226.684          20.000  
C36  22622296.010   117800218.290       -1505.481          37.000  
G10  23239417.586   122124101.592       -3891.880          18.000                                                                  
G25  23860512.011   125387858.601       -3896.528          36.000    23860515.609    93633791.900       -2909.345          35.000  
G26                                                                  20405057.972    80073835.263         746.267          30.000  
G29  23723195.973   124666178.232         139.671          19.000                                                                  
G32  20804173.770   109326881.1321       -767.529          27.000                                                                  
> 2021 09 30 11 28 22.9998817  0 11                     
C01  37486367.028   195201210.757        -354.514          34.000  
C06  36523788.307   190188989.040         180.241          25.000  
C07  36576647.414   190464173.359         457.536          28.000  
C16  36901057.030   192153717.749         222.530          26.000  
C22  22321345.754   116233207.986         575.101          29.000  
C36  22622498.370   117801255.646       -1504.208          37.000  
G10  23240058.242   122127521.720       -3893.876          18.000                                                                  
G25  23861167.957   125391282.134       -3895.547          37.000    23861167.058    93636348.419       -2911.113          36.000  
G26  20404769.572   107227801.7751        997.318          33.000    20404776.167    80072737.822         743.656          29.000  
G29  23723097.641   124665567.610         136.691          18.000                                                                  
G32  20804223.236   109327174.992        -766.487          25.000                                                                  
> 2021 09 30 11 28 23.9998815  0 12                     
C01  37486376.022   195201252.324        -353.344          36.000  
C06  36523694.472   190188497.366         178.947          23.000  
C07  36576498.717   190463404.384         456.928          27.000  
C16  36900950.004   192153181.999         224.221          29.000  
C19  22212462.932   115666200.4041      -2444.000          29.000  
C22  22321177.570   116232321.128         574.453          29.000  
C30  25678713.097   133715733.9181       1221.605          19.000  
C36  22622727.711   117802448.824       -1506.102          31.000  
G10  23240736.073   122131100.319       -3895.122          19.000                                                                  
G25  23861852.383   125394862.770       -3897.598          37.000    23861848.486    93639022.405       -2907.664          34.000  
G26  20404520.145                         996.973          36.000    20404527.040    80071757.495         745.584          28.000  
G29  23723034.385   124665387.927         131.311          25.000                                                                  
> 2021 09 30 11 28 24.9998812  0 12                     
C01  37486354.137   195201137.050        -353.058          30.000  
C06  36523570.358   190187849.918         179.143          24.000  
C07  36576321.839   190462479.696         456.303          26.000  
C16  36900814.498   192152225.431         224.149          32.000  
C19  22212846.067   115668175.851       -2443.506          28.000  
C22  22320977.309   116231279.723         572.377          25.000  
C30  25678385.424   133714044.191        1218.345          23.000  
C36  22622925.874   117803486.586       -1505.286          32.000  
G10  23241381.526   122134522.277       -3894.327          19.000                                                                  
G25  23862503.233   125398286.224       -3896.876          32.000    23862500.535    93641578.748       -2908.759          32.000  
G26  20404238.939   107225008.7781        996.621          38.000    20404247.933    80070660.165         743.515          33.000  
G29  23722938.451   124664783.655         132.162          25.000                                                                  
> 2021 09 30 11 28 25.9998810  0  9                     
C01  37486362.231   195201177.690        -353.088          35.000  
C06  36523478.922   190187359.856         176.426          29.000  
C07  36576176.140   190461710.988         456.359          27.000  
C16  36900710.170   192151689.172         223.613          31.000  
C19  22213260.979   115670306.723       -2442.750          29.000  
C36  22623154.316   117804679.666       -1505.602          28.000  
G10  23242060.256   122138103.442       -3897.495          18.000                                                                  
G25  23863182.862   125401867.332       -3897.179          38.000    23863182.263    93644252.927       -2909.987          33.000  
G26  20403986.214   107223698.018         994.166          36.000    20404000.005    80069681.253         744.005          32.000  
> 2021 09 30 11 28 26.9998807  0 12                     
C01  37486342.145   195201062.719        -354.981          39.000  
C06  36523359.005   190186714.672         177.375          29.000  
C07  36576002.860   190460787.008         455.973          26.000  
C16  36900577.662   192150997.094         223.680          33.000  
C22  22320603.168   116229356.0051        571.958          27.000  
C30  25677760.956   133710823.0531       1222.693          19.000  
C36  22623353.378   117805717.214       -1506.793          28.000  
G10  23242711.106   122141526.988       -3896.545          18.000                                                                  
G25  23863831.014   125405290.992       -3895.722          37.000    23863832.812    93646809.581       -2909.835          35.000  
G26  20403709.506   107222230.250         995.298          36.000    20403720.898                         741.494          32.000  
G29  23722757.976   124663730.4341        133.729          28.000                                                                  
G32  20804543.714   109328616.0221       -767.237          39.000                                                                  
> 2021 09 30 11 28 27.9998804  0  8                     
C07  36575824.184   190459862.886         455.471          26.000  
C16  36900441.256   192150304.489         225.060          30.000  
C19  22214020.953   115674256.6311      -2443.776          27.000  
C22  22320405.605   116228316.031         571.491          29.000  
C36  22623554.239   117806755.329       -1506.138          28.000  
G25  23864481.263   125408714.873       -3896.390          39.000    23864483.962    93649366.473       -2911.269          34.000  
G26  20403434.296   107220763.140         995.142          36.000    20403440.892    80067487.7411        744.613          30.000  
G29  23722663.542   124663438.442         132.976          28.000                                                                  
> 2021 09 30 11 28 28.9998802  0  9                     
C01  37486326.556   195200992.8741       -355.589          28.000  
C07  36575676.386   190459095.548         455.059          26.000  
C19  22214430.170   115676388.752       -2444.831          30.000  
C22  22320238.021   116227431.952         571.762          28.000  
C36  22623788.377   117807949.865       -1507.269          31.000  
G10  23244037.088   122148239.4521      -3896.954          18.000                                                                  
G25  23865162.991   125412296.634       -3897.641          37.000    23865165.390    93652041.176       -2911.342          33.000  
G26  20403186.068   107219454.269         993.072          36.000    20403191.764    80066510.345         741.267          29.000  
G29  23722608.080   124662990.178         132.908          26.000                                                                  
> 2021 09 30 11 28 29.9998802  0 10                     
C01  37486392.211   195201348.452        -354.763          31.000  
C07  36575586.448   190458640.961         454.404          24.000  
C16  36900288.662   192149542.4721        224.569          25.000  
C22  22320128.896   116226860.658         570.252          30.000  
C36  22624083.073   117809457.258       -1507.020          36.000  
G10  23244777.575   122152137.164       -3899.312          18.000                                                                  
G25  23865904.378   125416193.519       -3897.517          37.000    23865907.676    93654951.194       -2911.521          33.000  
G26  20402995.400   107218461.125         992.466          39.000    20403001.696    80065768.732         741.496          31.000  
G29  23722595.189   124662858.007         131.798          28.000                                                                  
G32  20804818.624   109330135.7581       -771.444          38.000                                                                  
> 2021 09 30 11 28 30.9998802  0 10                     
C01  37486457.565   195201702.776        -354.079          32.000  
C07  36575497.110   190458185.798         456.037          25.000  
C16  36900243.393   192149319.273         222.083          14.000  
C19  22215374.816   115681279.5641      -2445.343          30.000  
C22  22320020.671   116226290.198         569.759          28.000  
C36  22624379.268   117810964.266       -1508.279          34.000  
G10  23245527.956   122156036.218       -3896.068          19.000                                                                  
G25  23866645.765   125420090.516       -3897.289          36.000    23866648.763    93657861.358       -2909.898          33.000  
G26  20402805.632   107217468.494         993.338          36.000    20402813.426    80065027.505         740.830          31.000  
G29  23722579.300   124662996.151         131.887          30.000                                                                  
> 2021 09 30 11 28 31.9998799  0  9                     
C01  37486433.882   195201588.314        -353.903          32.000  
C06  36522951.587   190184588.7551        177.295          24.000  
C07  36575318.434   190457261.717         455.779          26.000  
C16  36900107.887   192148630.297         222.659          15.000  
C19  22215755.552   115683256.781       -2445.595          30.000  
C36  22624582.228                       -1507.856          34.000  
G10  23246191.996   122159459.319       -3896.443          20.000                                                                  
G25  23867297.814   125423515.166       -3897.038          35.000    23867300.212    93660418.646       -2910.797          33.000  
G26  20402529.823   107216003.921         991.663          36.000    20402534.020    80063933.524         742.198          29.000  
> 2021 09 30 11 28 32.9998797  0  6                     
C01  37486440.777   195201630.289        -354.701          30.000  
C07  36575167.039   190456493.732         455.179          25.000  
C22  22319652.526   116224372.2721        568.957          26.000  
C36  22624812.468   117813333.9821      -1509.087          34.000  
G25  23867975.644   125427097.648       -3898.235          36.000    23867981.940    93663093.939       -2911.011          33.000  
G26  20402283.093   107214697.662         990.210          35.000    20402285.492    80062957.098         740.608          27.000  
> 2021 09 30 11 28 33.9998794  0  6                     
C01  37486417.693   195201516.733        -355.214          31.000  
C07  36574989.262   190455570.122         455.499          26.000  
C36  22625012.430   117814374.620       -1508.657          34.000  
G10  23247535.366   122166467.3741      -3898.425          22.000                                                                  
G25  23868629.192   125430522.993       -3896.997          36.000    23868634.288    93665651.841       -2911.060          33.000  
G26  20402000.389   107213234.690         989.583          37.000    20402007.284    80061864.049         739.543          30.000  
> 2021 09 30 11 28 34.9998792  0 10                     
C01  37486424.588   195201559.776        -355.745          33.000  
C06  36522634.406   190182959.4581        177.496          24.000  
C07  36574840.865   190454802.729         455.437          26.000  
C16  36899768.222   192146872.2971        217.420          15.000  
C22  22319282.582   116222455.9531        567.721          27.000  
C30  25675434.267   133698684.5951       1225.625          24.000  
C36  22625241.471   117815571.564       -1510.386          34.000  
G10  23248222.790   122170051.532       -3899.621          22.000                                                                  
G25  23869311.220   125434106.007       -3898.950          35.000    23869316.016    93668327.449       -2912.511          33.000  
G26  20401753.960   107211929.852         989.065          37.000    20401759.356    80060890.283         737.737          29.000  
> 2021 09 30 11 28 35.9998789  0 11                     
C01  37486401.504   195201447.075        -355.823          32.000  
C06  36522513.590   190182314.465         176.124          25.000  
C07  36574664.287   190453879.228         454.051          26.000  
C16  36899637.513   192146186.660         217.828          15.000  
C19  22217326.465   115691485.5301      -2449.094          32.000  
C22  22319085.319   116221420.699         565.286          27.000  
C30  25675110.191   133696991.178        1223.614          24.000  
C36  22625438.435   117816612.519       -1509.942          34.000  
G10  23248881.135   122173478.574       -3899.490          24.000                                                                  
G25  23869962.669   125437531.651       -3899.199          35.000    23869967.765    93670885.563       -2911.012          33.000  
G26  20401476.951   107210468.056         989.187          37.000    20401481.748    80059799.047         739.059          29.000  
> 2021 09 30 11 28 36.9998787  0  6                     
C01  37486409.599   195201490.812        -356.209          34.000  
C07  36574517.089   190453112.563         454.057          26.000  
C22  22318916.835   116220542.747         565.834          27.000  
C36  22625659.982   117817809.881       -1509.754          36.000  
G25  23870646.495   125441115.017       -3897.837          34.000    23870649.193    93673561.470       -2911.040          32.000  
G26  20401227.824   107209164.540         987.478          38.000    20401233.820    80058825.315         737.490          31.000  
> 2021 09 30 11 28 37.9998784  0  9                     
C01  37486388.613   195201378.869        -356.748          38.000  
C06  36522294.442   190181178.8921        177.429          24.000  
C07  36574341.710   190452190.603         453.219          26.000  
C22  22318718.972   116219508.101         566.306          27.000  
C30  25674489.621   133693763.0451       1224.068          22.000  
C36  22625859.044   117818851.308       -1511.307          35.000  
G25  23871297.944   125444541.104       -3899.960          34.000    23871301.542    93676119.966       -2912.182          33.000  
G26  20400947.218   107207704.178         987.203          38.000    20400956.212    80057735.209         736.762          32.000  
G29  23721897.572   124659252.9901        126.968          28.000                                                                  
> 2021 09 30 11 28 38.9998781  0  7                     
C01  37486370.326   195201267.336        -357.112          38.000  
C07  36574165.132   190451269.322         452.552          27.000  
C16  36899276.263   192144281.3961        220.315          16.000  
C22  22318520.810   116218473.902         565.674          27.000  
C36  22626060.504   117819893.103       -1510.947          35.000  
G25  23871950.293   125447967.481       -3899.956          35.000    23871953.590    93678678.560       -2912.429          32.000  
G26  20400670.809   107206244.512         986.208          38.000    20400678.304    80056645.042         738.173          32.000  
> 2021 09 30 11 28 39.9998779  0  8                     
C01  37486382.617   195201312.384        -357.224          37.000  
C07  36574018.234   190450504.194         452.375          25.000  
C22  22318351.727   116217596.506         564.455          27.000  
C36  22626290.445   117821091.286       -1509.271          35.000  
G10  23251575.969   122187856.9951      -3900.222          19.000                                                                  
G25                                                                  23872635.618    93681355.109       -2913.019          33.000  
G26  20400424.080   107204943.183         986.589          39.000    20400430.676                         736.280          32.000  
G29  23721703.906   124658212.8041        125.638          26.000                                                                  
> 2021 09 30 11 28 40.9998776  0  9                     
C01  37486360.433   195201200.862        -356.077          38.000  
C07  36573842.556   190449583.304         452.643          27.000  
C16  36899043.923   192143057.4621        225.456          19.000  
C22  22318151.465   116216564.136         563.860          25.000  
C30  25673540.778   133688841.7051       1222.695          22.000  
C36  22626493.105   117822133.464       -1509.899          35.000  
G25  23873288.866   125454978.4501      -3898.943          35.000    23873288.266    93683914.014       -2910.818          33.000  
G26  20400148.871   107203484.890         988.211          39.000    20400153.068    80054583.1181        736.452          33.000  
G29  23721574.096   124657614.471         125.204          24.000                                                                  
> 2021 09 30 11 28 41.9998774  0 10                     
C01  37486366.429   195201244.711        -355.972          37.000  
C06  36521855.246   190178910.3491        177.572          24.000  
C07  36573696.257   190448818.565         452.643          29.000  
C22  22317986.579   116215687.435         563.571          25.000  
C30  25673246.381   133687308.037        1220.339          20.000  
C36  22626722.746   117823331.783       -1510.092          34.000  
G10  23252910.645   122194868.7551      -3900.639          20.000                                                                  
G25  23873968.795   125458562.777       -3899.683          35.000    23873969.994    93686590.647       -2911.251          33.000  
G26  20399901.242   107202184.595         984.997          37.000    20399905.439    80053612.178         733.761          31.000  
G29  23721477.863   124657174.611         124.537          24.000                                                                  
> 2021 09 30 11 28 42.9998774  0  9                     
C01  37486434.182   195201600.344        -355.737          36.000  
C06  36521821.369   190178732.465         177.197          26.000  
C07  36573610.816   190448366.051         450.648          28.000  
C22  22317880.753   116215124.261         562.813          26.000  
C30  25673011.644   133686087.899        1218.538          19.000  
C36  22627015.343   117824843.400       -1511.074          33.000  
G10  23253651.732   122198769.790       -3902.154          19.000                                                                  
G25  23874709.582   125462463.160       -3900.129          36.000    23874712.880    93689503.289       -2912.518          33.000  
G26  20399713.872   107201200.766         983.314          37.000    20399718.069    80052877.563         733.775          28.000  
> 2021 09 30 11 28 43.9998771  0 10                     
C06  36521699.653   190178087.406         176.973          25.000  
C07  36573436.037   190447446.722         451.190          28.000  
C16  36898776.209   192141606.1551        225.841          18.000  
C22  22317683.789   116214093.911         560.756          26.000  
C30  25672680.673   133684401.815        1216.576          18.000  
C36  22627222.800   117825886.749       -1512.376          32.000  
G10  23254302.282   122202199.710       -3902.944          19.000                                                                  
G25                                                                  23875364.629    93692063.069       -2912.506          33.000  
G26  20399434.166   107199745.035         983.512          37.000    20399441.361    80051790.382         735.040          29.000  
G32  20806102.335   109336806.1851       -778.208          35.000                                                                  
> 2021 09 30 11 28 44.9998769  0  8                     
C07  36573291.237   190446682.273         453.620          26.000  
C16  36898673.080   192141066.227         226.514          24.000  
C22  22317514.706   116213220.769         561.273          28.000  
C36  22627454.539   117827084.653       -1511.310          29.000  
G25  23876043.059   125469476.4131      -3900.686          36.000    23876047.856    93694740.385       -2913.557          33.000  
G26  20399187.736   107198447.348         980.425          35.000    20399194.631    80050821.669         732.466          28.000  
G29  23721233.832   124656017.6461        121.985          26.000                                                                  
G32  20806205.464   109337268.986        -777.107          30.000                                                                  
> 2021 09 30 11 28 45.9998769  0  7                     
C01  37486493.840   195201880.4011       -353.490          35.000  
C06  36521573.741   190177418.2571        179.613          20.000  
C07  36573206.696   190446229.809         452.238          27.000  
C22  22317402.284   116212660.071         560.018          28.000  
G25  23876785.945   125473376.989       -3900.980          37.000    23876790.142    93697653.233       -2913.195          36.000  
G26  20399000.066   107197465.299         979.581          38.000    20399006.961    80050088.738         732.268          29.000  
G32  20806351.762   109338046.539        -778.147          33.000                                                                  
> 2021 09 30 11 28 46.9998766  0  7                     
C01  37486476.153   195201765.935        -354.442          38.000  
C06  36521449.327   190176771.417         178.391          27.000  
C07  36573030.418   190445310.325         450.886          29.000  
C22  22317206.220   116211631.827         559.317          31.000  
C36  22627930.909   117829640.4511      -1512.678          37.000  
G25  23877438.593   125476805.335       -3901.700          37.000    23877442.790    93700213.360       -2914.561          37.000  
G26  20398725.456   107196011.434         980.955          36.000    20398729.653    80049003.268         731.989          25.000  
> 2021 09 30 11 28 47.9998764  0  9                     
C01  37486492.042   195201808.722        -356.677          37.000  
C06  36521359.689   190176281.832         176.820          29.000  
C07  36572881.121   190444547.080         451.232          29.000  
C22  22317043.432   116210760.281         560.221          31.000  
C36  22628152.156                       -1512.767          38.000  
G10  23257064.569   122216704.2871      -3902.001          21.000                                                                  
G25  23878117.923   125480391.667       -3901.520          38.000    23878124.818    93702891.468       -2913.611          37.000  
G26  20398474.830   107194715.834         981.402          34.000    20398482.624    80048035.439         732.835          25.000  
G32  20806304.695   109337869.1861       -780.227          29.000                                                                  
> 2021 09 30 11 28 48.9998761  0  9                     
C01  37486475.853   195201698.891        -359.680          37.000  
C06  36521235.875   190175636.355         177.451          27.000  
C07  36572705.143   190443628.196         448.893          29.000  
C22  22316847.068   116209731.315         560.614          31.000  
C36  22628352.717   117831771.8501      -1512.347          38.000  
G10  23257723.813   122220134.199       -3903.240          22.000                                                                  
G25  23878770.271   125483820.780       -3902.001          38.000    23878777.466    93705452.180       -2913.713          37.000  
G26  20398194.824   107193263.535         979.696          32.000    20398205.616    80046949.309         733.401          26.000  
G29  23720875.280   124654271.6311        119.897          29.000                                                                  
> 2021 09 30 11 28 49.9998758  0 11                     
C01  37486457.266   195201589.650        -358.641          37.000  
C06  36521113.259   190174990.612         176.311          28.000  
C07  36572530.064   190442711.172         448.692          29.000  
C19  22222967.360   115720976.9101      -2455.280          20.000  
C22  22316650.105   116208703.623         558.699          31.000  
C36  22628553.578   117832816.758       -1512.771          38.000  
G10  23258378.260   122223564.746       -3904.215          24.000                                                                  
G25  23879422.920   125487250.127       -3901.481          37.000    23879429.515    93708013.054       -2914.330          37.000  
G26  20397915.717   107191811.988         977.125          32.000    20397928.908    80045863.987         730.605          26.000  
G29  23720759.260   124653679.781         118.361          29.000                                                                  
G32  20806445.597   109338488.2371       -782.141          30.000                                                                  
> 2021 09 30 11 28 50.9998756  0  6                     
C06  36521020.024   190174502.370         175.268          29.000  
C07  36572382.267   190441950.252         448.644          29.000  
C36  22628785.618   117834017.902       -1513.408          38.000  
G10  23259059.988   122227152.186       -3901.463          24.000                                                                  
G25  23880104.048   125490837.152       -3903.030          37.000    23880111.543    93710691.692       -2914.730          37.000  
G26                                                                  20397682.778    80044898.022         730.314          26.000  
> 2021 09 30 11 28 51.9998753  0 11                     
C06  36520899.507   190173858.546         174.508          29.000  
C07  36572204.490   190441032.571         449.308          28.000  
C16  36897886.425   192137009.4651        222.520          26.000  
C19  22223757.013   115725107.0791      -2457.508          21.000  
C22  22316283.458   116206807.3441        558.153          28.000  
C36  22628986.778   117835062.960       -1514.174          38.000  
G10  23259714.135   122230580.881       -3902.022          22.000                                                                  
G25  23880755.197   125494266.607       -3903.486          36.000    23880764.491    93713252.671       -2914.876          37.000  
G26  20397403.671   107189067.7411        978.943          33.000    20397407.569    80043816.211         726.787          25.000  
G29  23720557.800   124652372.6961        118.293          29.000                                                                  
G32  20806583.502   109339265.8081       -783.021          27.000                                                                  
> 2021 09 30 11 28 52.9998751  0  8                     
C06  36520806.572   190173371.665         174.649          27.000  
C07  36572059.090   190440271.072         448.505          29.000  
C22  22316118.573   116205937.649         556.530          31.000  
C30  25670036.504   133670617.0021       1220.909          25.000  
C36  22629218.818   117836264.778       -1513.128          38.000  
G10  23260392.565   122234167.744       -3901.946          21.000                                                                  
G25  23881439.623   125497854.278       -3903.593          36.000    23881447.418    93715931.762       -2914.134          37.000  
G26  20397159.640   107187775.748         977.798          33.000    20397161.439    80042852.934         728.385          26.000  
> 2021 09 30 11 28 53.9998748  0  8                     
C07  36571884.012   190439354.924         447.987          29.000  
C16  36897647.490   192135782.8161        223.194          23.000  
C22  22315922.508   116204913.238         555.736          32.000  
C30  25669722.321   133668927.523        1221.829          22.000  
C36  22629420.278   117837310.787       -1513.636          36.000  
G10  23261043.715   122237597.275       -3900.995          19.000                                                                  
G25  23882095.869   125501285.114       -3904.372          37.000    23882100.666    93718493.601       -2914.642          37.000  
G26  20396882.932   107186326.979         976.004          36.000    20396886.829    80041770.841         729.541          28.000  
> 2021 09 30 11 28 54.9998746  0  7                     
C06  36520589.522   190172239.5991        174.970          22.000  
C07  36571739.811   190438595.012         447.879          24.000  
C16  36897547.359   192135247.556         223.033          29.000  
C36  22629650.819   117838511.816       -1515.380          32.000  
G25  23882785.692   125504873.631       -3901.560          34.000    23882784.193    93721173.928       -2916.527          35.000  
G26  20396637.402   107185036.156         976.423          38.000    20396641.899    80040806.591         728.162          30.000  
G29  23720275.995   124650919.1241        117.664          27.000                                                                  
> 2021 09 30 11 28 55.9998743  0  7                     
C07  36571563.533   190437678.049         448.909          31.000  
C22  22315554.663   116203019.3741        557.596          24.000  
C36  22629851.380   117839558.243       -1514.502          23.000  
G10  23262371.495   122244616.1721      -3905.339          20.000                                                                  
G25                                                                  23883436.541    93723736.085       -2913.733          26.000  
G26  20396363.691   107183588.381         975.082          38.000    20396367.289    80039725.324         728.601          33.000  
G32  20806906.678   109341032.9131       -785.646          36.000                                                                  
> 2021 09 30 11 28 56.9998740  0 12                     
C01  37486390.412   195201295.2701       -359.340          29.000  
C06  36520343.392   190170951.8691        177.109          22.000  
C07  36571388.754   190436761.090         447.960          27.000  
C19  22225757.228   115735371.5901      -2460.865          24.000  
C22  22315356.800   116201993.743         556.955          25.000  
C30  25668800.759   133664020.6791       1218.435          23.000  
C36  22630053.440   117840604.438       -1514.726          25.000  
G10  23263022.045   122248048.008       -3904.908          19.000                                                                  
G25  23884094.585   125511735.0491      -3902.465          26.000    23884088.290    93726296.055       -2913.177          23.000  
G26  20396086.083   107182141.196         974.446          36.000    20396091.779    80038643.300         730.365          32.000  
G29  23720041.857   124649741.1281        115.205          31.000                                                                  
G32  20806997.815   109341345.914        -784.725          34.000                                                                  
> 2021 09 30 11 28 57.9998738  0 10                     
C01  37486399.705   195201342.119        -359.023          33.000  
C06  36520249.258   190170463.235         175.697          26.000  
C16  36897182.212   192133334.1641        220.342          24.000  
C22  22315189.216   116201126.575         553.833          28.000  
C30  25668491.073   133662489.893        1216.626          17.000  
C36  22630282.481   117841806.679       -1514.801          35.000  
G10  23263706.171   122251640.091       -3908.113          17.000                                                                  
G25  23884774.515   125515322.820       -3903.006          33.000    23884770.617    93728974.385       -2913.983          32.000  
G26  20395838.755   107180852.597         974.119          37.000    20395845.950    80037678.207         729.863          29.000  
G32  20807213.366   109342645.147        -784.110          29.000                                                                  
> 2021 09 30 11 28 58.9998735  0 10                     
C01  37486378.720   195201232.534        -358.772          36.000  
C06  36520126.043   190169819.455         175.035          30.000  
C07  36571058.683   190435084.5871        447.705          28.000  
C19  22226559.773   115739511.5401      -2459.782          27.000  
C30  25668156.505   133660806.317        1214.464          19.000  
C36  22630480.944   117842853.022       -1514.334          35.000  
G10  23264359.719   122255074.231       -3906.737          18.000                                                                  
G25  23885422.366   125518753.355       -3904.104          31.000    23885423.266    93731535.964       -2915.601          33.000  
G26  20395563.845   107179407.023         971.812          37.000    20395570.141    80036596.338         728.150          26.000  
G32  20807311.698   109342958.350        -788.514          30.000                                                                  
> 2021 09 30 11 28 59.9998733  0 10                     
C01  37486391.611   195201279.097        -359.789          37.000  
C06  36520032.807   190169331.624         175.813          28.000  
C07  36570911.485   190434324.066         448.895          28.000  
C19  22226971.987   115741659.168       -2461.159          25.000  
C30  25667872.302   133659279.979        1214.617          19.000  
C36  22630712.983                       -1511.990          36.000  
G10  23265040.847   122258664.758       -3905.092          17.000                                                                  
G25  23886102.595   125522341.966       -3904.117          31.000    23886106.493                       -2916.915          34.000  
G26  20395318.915   107178119.602         970.348          36.000    20395324.611    80035634.316         724.572          26.000  
G29  23719749.859   124648291.4691        113.767          24.000                                                                  
> 2021 09 30 11 29 00.9998733  0 10                     
C01  37486462.362   195201638.707        -359.667          37.000  
C06  36519997.432   190169155.833         175.159          29.000  
C07  36570825.145   190433875.905         448.094          27.000  
C22  22314719.441   116198691.1581        549.739          25.000  
C30  25667649.856   133658063.979        1217.910          19.000  
C36  22631000.784                       -1516.172          35.000  
G10  23265782.834   122262569.827       -3906.107          17.000                                                                  
G25  23886843.982   125526245.638       -3904.515          30.000    23886849.378    93737127.8671      -2914.664          34.000  
G26  20395134.842   107177147.951         971.515          36.000    20395140.538    80034910.320         724.147          25.000  
G29  23719717.781   124648177.233         113.740          22.000                                                                  
> 2021 09 30 11 29 01.9998730  0 10                     
C06  36519873.917   190168512.904         173.918          30.000  
C07  36570648.267   190432960.157         447.070          28.000  
C16  36896766.700   192131196.8791        221.591          24.000  
C22  22314523.677   116197673.961         548.138          25.000  
C30  25667338.971   133656377.019        1218.480          19.000  
C36  22631203.444   117846625.0541      -1516.325          35.000  
G10  23266435.182   122266003.711       -3905.058          18.000                                                                  
G25  23887494.232   125529677.420       -3904.700          28.000    23887501.727    93739690.489       -2917.068          34.000  
G26  20394860.232   107175704.265         969.256          35.000    20394865.029    80033833.006         724.809          25.000  
G29  23719593.367   124647305.367         112.908          24.000                                                                  
> 2021 09 30 11 29 02.9998730  0 10                     
C06  36519839.441   190168338.393         174.874          29.000  
C07  36570562.526   190432513.333         446.305          29.000  
C16  36896722.331   192130975.283         221.847          24.000  
C22  22314420.548   116197125.945         548.917          24.000  
C30  25667120.122   133655430.117        1217.437          20.000  
C36  22631500.238   117848141.298       -1516.767          36.000  
G10  23267168.474   122269908.316       -3905.036          18.000                                                                  
G25  23888234.120   125533582.349       -3905.230          28.000    23888244.612    93742606.518       -2915.646          34.000  
G26  20394673.461   107174734.083         969.877          35.000    20394680.057    80033107.995         723.606          26.000  
G29  23719560.990   124647192.817         111.766          24.000                                                                  
> 2021 09 30 11 29 03.9998728  0  9                     
C06  36519744.407   190167851.963         173.701          28.000  
C07  36570417.727   190431756.133         444.897          29.000  
C22  22314252.365   116196265.060         549.118          25.000  
C30  25666832.921   133653900.263        1217.682          20.000  
C36  22631734.376   117849346.274       -1518.392          36.000  
G10  23267850.802   122273498.913       -3906.734          18.000                                                                  
G25  23888915.248   125537173.026       -3906.171          28.000    23888928.739    93745287.846       -2915.519          34.000  
G26  20394428.231   107173450.231         968.096          35.000    20394436.326    80032150.006         721.313          26.000  
G29  23719471.352   124646766.448         110.314          24.000                                                                  
> 2021 09 30 11 29 04.9998725  0  8                     
C06  36519620.593   190167210.390         173.073          28.000  
C07  36570242.948   190430843.435         444.651          29.000  
C16  36896484.895   192129753.2191        220.896          24.000  
C22  22314054.202   116195247.388         549.027          25.000  
C36  22631937.636   117850395.360       -1517.978          37.000  
G25  23889569.095   125540606.608       -3906.450          29.000    23889582.286    93747851.601       -2918.262          33.000  
G26  20394150.923   107172009.474         967.602          34.000    20394162.015    80031075.692         722.268          26.000  
G29  23719348.737   124646183.941         109.342          24.000                                                                  
> 2021 09 30 11 29 05.9998723  0  8                     
C06  36519527.058   190166724.022         174.200          29.000  
C07  36570097.848   190430086.374         445.068          29.000  
C16  36896383.865   192129221.282         218.947          24.000  
C22  22313884.519   116194386.168         549.160          21.000  
C36  22632165.178   117851601.099       -1518.679          36.000  
G25  23890250.824   125544197.911       -3906.617          27.000    23890265.513    93750533.482       -2917.212          34.000  
G26  20393908.691   107170727.271         964.454          34.000    20393917.385    80030117.952         723.615          26.000  
G29  23719259.698   124645759.831         108.723          24.000                                                                  
> 2021 09 30 11 29 06.9998720  0  7                     
C06  36519403.843   190166081.360         173.272          30.000  
C07  36569922.769   190429173.362         445.134          29.000  
C16  36896255.854   192128534.424         218.948          27.000  
C36  22632364.540   117852651.271       -1517.511          36.000  
G25  23890905.270   125547632.148       -3907.402          28.000    23890918.761    93753098.123       -2917.484          33.000  
G26  20393635.280   107169288.462         965.749          34.000    20393643.075    80029042.278         720.391          26.000  
G29  23719144.578   124645178.789         108.216          25.000                                                                  
> 2021 09 30 11 29 07.9998717  0  7                     
C06  36519280.328   190165439.484         174.017          29.000  
C07  36569747.690   190428260.389         443.573          29.000  
C16  36896126.043   192127847.211         219.291          26.000  
C36  22632564.502   117853702.256       -1520.674          36.000  
G25  23891560.617   125551067.123       -3908.174          29.000    23891572.009    93755663.379       -2918.490          33.000  
G26  20393357.972   107167850.963         964.741          33.000    20393369.664    80027969.677         720.797          26.000  
G29  23719031.856   124644598.454         106.819          25.000                                                                  
> 2021 09 30 11 29 08.9998715  0  7                     
C06  36519187.692   190164953.679         172.960          29.000  
C07  36569602.891   190427504.662         443.325          30.000  
C16  36896026.512   192127316.324         218.215          25.000  
C36  22632795.642   117854910.004       -1521.239          37.000  
G25  23892245.343   125554660.350       -3908.841          29.000    23892255.835    93758346.799       -2918.657          33.000  
G26  20393116.339   107166572.184         962.235          32.000    20393126.532    80027013.812         720.249          27.000  
G29  23718951.212   124644177.158         105.235          25.000                                                                  
> 2021 09 30 11 29 09.9998712  0  9                     
C06  36519065.977   190164313.029         171.887          31.000  
C07  36569428.112   190426593.405         442.795          31.000  
C16  36895895.203   192126629.841         218.772          26.000  
C22  22313134.438   116190491.0821        540.900          21.000  
C36  22632998.901   117855962.223       -1521.647          36.000  
G10  23271848.535   122294425.0981      -3909.130          21.000                                                                  
G25  23892900.089   125558096.955       -3909.856          28.000    23892909.683    93760912.880       -2918.448          32.000  
G26  20392845.927   107165136.852         963.359          34.000    20392852.822    80025941.556         719.272          26.000  
G29  23718843.286   124643599.737         104.104          26.000                                                                  
> 2021 09 30 11 29 10.9998710  0  8                     
C06  36518973.940   190163829.064         171.458          31.000  
C07  36569283.312   190425839.109         441.816          30.000  
C16  36895793.574   192126099.644         217.938          28.000  
C19  22231484.464   115765195.4381      -2468.852          20.000  
C36  22633233.638   117857171.017       -1522.314          36.000  
G25  23893585.115   125561691.886       -3910.198          29.000    23893593.809    93763596.958       -2919.909          32.000  
G26  20392603.694   107163859.895         960.108          35.000    20392610.290    80024988.442         715.621          27.000  
G29  23718765.340   124643180.963         103.229          26.000                                                                  
> 2021 09 30 11 29 11.9998707  0  8                     
C06  36518854.023   190163189.346         171.517          31.000  
C07  36569107.034   190424929.543         441.080          30.000  
C16  36895662.864   192125414.693         216.101          29.000  
C19  22231866.099   115767195.649       -2468.701          19.000  
C36  22633435.399   117858224.095       -1521.388          37.000  
G25  23894240.162   125565129.388       -3910.376          30.000    23894248.256    93766163.802       -2920.278          32.000  
G26  20392331.483   107162426.248         961.142          34.000    20392338.378    80023920.057         714.626          27.000  
G29  23718658.614   124642605.354         102.789          27.000                                                                  
> 2021 09 30 11 29 12.9998705  0  8                     
C06  36518761.687   190162705.475         171.453          31.000  
C07  36568962.234   190424176.029         441.258          30.000  
C16  36895561.234   192124886.134         216.033          28.000  
C22  22312603.806   116187766.8331        543.952          19.000  
C36  22633669.537   117859433.406       -1521.791          37.000  
G25  23894924.588   125568724.701       -3910.552          30.000    23894932.982    93768848.319       -2918.978          33.000  
G26  20392089.850   107161150.795         962.431          34.000    20392096.146    80022969.393         715.379          26.000  
G29  23718581.268   124642187.626         102.402          25.000                                                                  
> 2021 09 30 11 29 13.9998702  0  8                     
C06  36518638.772   190162065.624         171.568          30.000  
C07  36568788.055   190423266.330         442.262          30.000  
C16  36895430.225   192124201.454         216.395          28.000  
C30  25663694.394   133637703.9841       1211.556          31.000  
C36  22633874.595   117860487.055       -1520.165          37.000  
G25  23895579.934   125572162.623       -3910.723          31.000    23895587.129    93771415.486       -2919.481          33.000  
G26  20391814.640   107159718.584         960.340          34.000    20391823.634    80021901.236         715.748          28.000  
G29  23718474.542   124641613.036         101.622          27.000                                                                  
> 2021 09 30 11 29 14.9998700  0  8                     
C01  37486444.974   195201548.8141       -364.091          37.000  
C06  36518545.537   190161581.335         171.704          30.000  
C07  36568643.555   190422512.214         441.305          30.000  
C16  36895329.195   192123673.192         215.625          27.000  
C36  22634108.133   117861696.838       -1521.909          37.000  
G25  23896265.560   125575758.106       -3909.796          31.000    23896270.956    93774100.288       -2920.718          33.000  
G26  20391574.507   107158444.421         957.907          34.000    20391580.203    80020950.077         716.781          27.000  
G29  23718400.493   124641196.440         101.316          28.000                                                                  
> 2021 09 30 11 29 15.9998697  0 10                     
C01  37486425.787   195201444.235        -363.170          37.000  
C06  36518422.922   190160941.887         170.926          31.000  
C16  36895198.486   192122988.482         216.436          28.000  
C19  22233478.383   115775519.6041      -2473.242          25.000  
C22  22312050.689   116184898.0071        536.972          19.000  
C36  22634306.296   117862750.320       -1522.402          37.000  
G25  23896927.501                       -3910.208          30.000    23896925.403    93776667.301       -2921.221          33.000  
G26  20391297.798   107157012.946         957.828          34.000    20391307.092    80019880.198         718.263          27.000  
G29  23718296.465   124640622.598         101.296          30.000                                                                  
G31  21255982.889   111700944.1471       -914.639          20.000                                                                  
> 2021 09 30 11 29 16.9998697  0  9                     
C06  36518389.945   190160770.256         171.517          32.000  
C16  36895157.714   192122771.256         217.083          29.000  
C22  22311945.462   116184360.704         537.902          18.000  
C30  25662839.986   133633290.9481       1210.877          30.000  
C36  22634595.596   117864272.198       -1521.902          36.000  
G25  23897675.783   125583112.1411      -3911.840          32.000    23897669.488    93779587.358       -2921.375          33.000  
G26  20391119.422   107156054.641         957.587          33.000    20391124.518    80019162.128         716.762          26.000  
G29  23718281.775   124640521.301         100.881          30.000                                                                  
G31  21256159.467   111701854.702        -908.508          19.000                                                                  
> 2021 09 30 11 29 17.9998694  0  9                     
C06  36518265.231   190160130.034         171.405          30.000  
C07  36568206.158   190420250.8601        442.360          27.000  
C16  36895027.904   192122085.259         217.793          29.000  
C19  22234333.691   115779997.4281      -2473.557          23.000  
C36  22634795.857   117865326.303       -1523.309          35.000  
G25  23898330.530   125586550.978       -3911.071          29.000    23898324.534    93782155.011       -2921.268          32.000  
G26  20390847.810   107154624.285         956.829          36.000    20390854.105    80018093.497         714.555          27.000  
G29  23718180.745   124639947.689         100.982          26.000                                                                  
G32  20808740.509   109350670.3921       -797.192          32.000                                                                  
> 2021 09 30 11 29 18.9998692  0  9                     
C01  37486486.945   195201752.6901       -363.294          33.000  
C06  36518171.096   190159646.016         171.885          30.000  
C16  36894929.572   192121554.812         218.624          27.000  
C19  22234748.604   115782158.782       -2473.995          30.000  
C36  22635025.498   117866537.676       -1523.618          27.000  
G25  23899010.759   125590146.602       -3910.663          30.000    23899008.361    93784840.121       -2920.850          34.000  
G26  20390607.676   107153352.621         957.892          36.000    20390613.672    80017143.618         714.108          31.000  
G29  23718105.197   124639531.782         100.259          24.000                                                                  
G32  20808841.239   109351154.225        -799.352          38.000                                                                  
> 2021 09 30 11 29 19.9998689  0  7                     
C01  37486465.060   195201647.613        -363.499          34.000  
C06  36518042.185   190159004.973         173.014          28.000  
C07  36567894.074   190418588.9091        440.042          31.000  
C16  36894800.361   192120867.897         218.448          30.000  
G25  23899663.707   125593584.909       -3911.071          30.000    23899662.208    93787407.338       -2920.710          33.000  
G26  20390334.865   107151922.973         955.827          35.000    20390342.060    80016077.292         711.774          33.000  
G32  20808914.089   109351478.856        -798.996          30.000                                                                  
> 2021 09 30 11 29 20.9998687  0  8                     
C01  37486472.855   195201698.872        -363.638          30.000  
C06  36517947.751   190158519.252         173.485          30.000  
C07  36567754.071   190417836.267         440.512          29.000  
C16  36894702.929   192120338.258         216.497          26.000  
G25  23900343.037   125597180.251       -3910.712          30.000    23900347.234    93790092.379       -2920.496          32.000  
G26  20390091.733   107150652.181         954.602          33.000    20390100.427                         711.524          32.000  
G29  23717920.825   124638543.2751        100.203          26.000                                                                  
G32  20809006.425   109351962.892        -799.728          23.000                                                                  
> 2021 09 30 11 29 21.9998684  0  8                     
C01  37486451.869   195201594.397        -364.062          30.000  
C06  36517823.637   190157877.669         172.364          28.000  
C07  36567580.191   190416927.799         439.650          29.000  
C16  36894573.718   192119653.351         216.721          29.000  
C36  22635657.161   117869858.8921      -1522.764          31.000  
G25                                                                  23901001.381    93792660.151       -2922.364          34.000  
G26  20389821.021   107149224.402         952.308          33.000    20389828.815    80014068.4271        710.929          32.000  
G29  23717815.298   124637970.291         100.185          22.000                                                                  
> 2021 09 30 11 29 22.9998684  0  9                     
C01  37486519.922   195201958.447        -364.271          32.000  
C06  36517790.360   190157705.293         172.440          30.000  
C07  36567498.348   190416488.110         439.502          30.000  
C16  36894532.347   192119436.382         216.451          29.000  
C19  22236419.047   115790811.3981      -2477.011          21.000  
C36  22635951.557   117871381.072       -1522.343          30.000  
G25                                                                  23901745.466    93795581.005       -2923.886          32.000  
G26                                                                  20389646.841    80013355.840         713.814          32.000  
G29  23717796.711   124637871.383          98.247          25.000                                                                  
> 2021 09 30 11 29 23.9998682  0  8                     
C01  37486529.815   195202011.142        -365.384          32.000  
C06  36517697.424   190157220.722         171.805          31.000  
C07  36567355.347   190415735.869         440.506          31.000  
C16  36894430.417   192118906.769         217.959          29.000  
C19  22236856.145   115792976.083       -2475.883          17.000  
G25  23902423.896   125608126.3471      -3911.805          31.000    23902430.192    93798266.211       -2920.079          31.000  
G26  20389394.416   107146996.9131        957.364          26.000    20389404.609    80012407.895         711.260          32.000  
G29  23717712.170   124637458.151          96.700          21.000                                                                  
> 2021 09 30 11 29 24.9998679  0  7                     
C06  36517574.209   190156579.939         172.395          29.000  
C07  36567181.767   190414826.985         440.377          32.000  
C16  36894297.309   192118220.186         217.925          31.000  
C30  25660428.755   133620780.4021       1211.756          26.000  
G25  23903085.238                       -3910.722          33.000    23903085.238    93800833.968       -2922.046          32.000  
G26  20389121.305   107145567.224         956.048          27.000    20389133.597    80011342.848         713.667          31.000  
G29  23717600.647   124636889.760          93.760          23.000                                                                  
> 2021 09 30 11 29 25.9998676  0  7                     
C06  36517450.095   190155938.818         172.913          28.000  
C07  36567003.690   190413918.691         439.640          32.000  
C16  36894165.401   192117534.182         217.343          32.000  
C36  22636592.813   117874699.8071      -1522.888          31.000  
G25  23903737.287   125615000.1221      -3911.624          33.000    23903739.985    93803402.024       -2920.767          32.000  
G26  20388850.592   107144139.940         953.446          29.000    20388862.284    80010278.343         710.806          31.000  
G29  23717489.724   124636323.879          93.938          20.000                                                                  
> 2021 09 30 11 29 26.9998674  0  8                     
C06  36517355.061   190155453.831         172.189          28.000  
C07  36566857.691                         440.889          31.000  
C16  36894063.771   192117004.236         217.143          32.000  
C36  22636827.251   117875910.745       -1523.015          32.000  
G25  23904426.510   125618596.777       -3912.321          34.000    23904424.112    93806087.832       -2921.297          33.000  
G26  20388610.459   107142871.807         952.164          30.000    20388621.851    80009332.001         710.777          31.000  
G29  23717399.186   124635914.545          93.397          18.000                                                                  
G32  20809512.474   109354726.9661       -803.634          32.000                                                                  
> 2021 09 30 11 29 27.9998671  0  9                     
C06  36517230.347   190154813.620         170.809          27.000  
C07  36566688.308   190412317.1301        440.423          28.000  
C10  37332643.049   194400948.7991        482.615          22.000  
C16  36893933.062   192116319.217         216.076          30.000  
C36  22637032.009   117876966.031       -1524.441          32.000  
G25                                                                  23905078.558    93808656.315       -2922.622          33.000  
G26  20388340.945   107141447.928         951.611          31.000    20388350.838    80008268.662         710.912          32.000  
G29  23717297.557   124635349.244          91.548          17.000                                                                  
G32  20809590.720   109355056.805        -801.271          21.000                                                                  
> 2021 09 30 11 29 28.9998669  0 10                     
C06  36517138.611   190154329.619         171.869          28.000  
C07  36566545.307   190411565.888         437.851          30.000  
C10  37332491.354   194400151.956         485.208          22.000  
C16  36893829.933   192115790.209         217.711          28.000  
C19  22238896.233   115803768.6271      -2477.755          21.000  
C36  22637272.742   117878177.613       -1523.578          31.000  
G10  23284690.444   122361966.2791      -3912.195          26.000                                                                  
G25  23905762.385   125625633.5721      -3912.570          35.000    23905762.685    93811342.610       -2920.236          33.000  
G26  20388098.713   107140181.777         950.035          28.000    20388109.505    80007323.500         707.017          32.000  
G29  23717206.719   124634941.611          91.288          17.000                                                                  
> 2021 09 30 11 29 29.9998666  0  8                     
C06  36517015.996   190153688.603         172.920          28.000  
C07  36566366.331   190410658.828         438.885          29.000  
C16  36893698.024   192115104.550         216.860          32.000  
C19  22239293.458   115805778.568       -2479.125          21.000  
C36  22637472.404   117879233.215       -1524.155          31.000  
G25  23906415.333   125629073.307       -3912.665          36.000    23906417.432    93813911.233       -2921.822          33.000  
G26  20387829.499   107138759.205         949.710          31.000    20387838.493    80006261.013         708.454          32.000  
G29  23717105.689   124634377.475          92.012          18.000                                                                  
> 2021 09 30 11 29 30.9998664  0  9                     
C06  36516923.360   190153203.427         172.382          29.000  
C07  36566219.433   190409907.981         434.355          30.000  
C10  37332154.387   194398405.1521        482.131          21.000  
C16  36893594.296   192114575.014         217.203          31.000  
C19  22239718.863   115807948.569       -2483.102          21.000  
C36  22637700.246   117880444.854       -1523.277          32.000  
G25  23907100.659   125632670.792       -3912.651          36.000    23907102.457    93816597.696       -2922.607          32.000  
G26  20387590.265   107137494.240         949.251          29.000    20387598.359    80005316.748         709.990          32.000  
G29  23717032.240   124633969.084          93.786          18.000                                                                  
> 2021 09 30 11 29 31.9998664  0 11                     
C01  37486550.201   195202118.9461       -371.123          28.000  
C06  36516891.282   190153031.078         172.110          28.000  
C07  36566134.892   190409470.570         437.952          25.000  
C16  36893551.426   192114357.600         216.884          27.000  
C19  22240206.925   115810431.601       -2482.388          21.000  
C30  25658352.692   133609964.6951       1211.885          23.000  
C36  22637991.644   117881969.022       -1524.935          32.000  
G10  23286771.304   122372918.5631      -3914.637          23.000                                                                  
G25  23907840.846   125636584.081       -3914.901          36.000    23907845.043    93819519.978       -2924.075          32.000  
G26                                                                  20387416.985    80004608.834         709.268          31.000  
G29  23717026.844   124633875.049          94.063          19.000                                                                  
> 2021 09 30 11 29 32.9998661  0  6                     
C07  36565959.513   190408563.953         437.963          31.000  
C10  37331874.081   194396969.9621        482.186          20.000  
C19  22240592.758   115812445.864       -2482.403          27.000  
G10  23287427.849   122376360.750       -3912.527          11.000                                                                  
G25  23908491.096   125640024.585       -3913.424          32.000    23908499.790    93822089.670       -2923.125          31.000  
G26  20387140.576   107135124.4221        947.603          36.000    20387147.471    80003548.180         707.853          32.000  
> 2021 09 30 11 29 33.9998659  0  7                     
C07  36565815.013   190407814.620         436.775          29.000  
C16  36893312.191   192113142.8051        217.140          25.000  
C36  22638434.138   117884239.8341      -1525.620          29.000  
G25  23909178.220   125643623.113       -3913.624          30.000    23909184.216    93824776.899       -2921.102          31.000  
G26  20386901.342   107133861.770         945.932          35.000    20386906.139    80002605.636         708.705          32.000  
G29  23716860.159   124632900.9821         92.253          28.000                                                                  
G32  20810141.739   109357994.1751       -805.175          35.000                                                                  
> 2021 09 30 11 29 34.9998656  0 10                     
C06  36516562.410   190151267.5271        171.713          27.000  
C07  36565641.433   190406908.953         436.694          29.000  
C16  36893177.285   192112457.517         216.374          28.000  
C22  22308906.465   116168349.2901        528.844          25.000  
C30  25657427.832   133605084.7401       1208.998          22.000  
C36  22638639.496   117885296.381       -1523.934          32.000  
G10  23288774.217   122383398.7871      -3913.751          20.000                                                                  
G25  23909834.166   125647063.871       -3913.621          30.000    23909839.563    93827346.144       -2922.528          31.000  
G26  20386630.030                         945.129          32.000    20386637.225    80001545.730         705.424          29.000  
G29  23716761.827   124632336.330          91.516          24.000                                                                  
> 2021 09 30 11 29 35.9998653  0  6                     
C01  37486499.237   195201883.0881       -368.564          28.000  
C07  36565466.654   190406003.838         436.484          32.000  
C16  36893048.674   192111771.913         217.421          18.000  
C22  22308715.797   116167352.638         527.213          28.000  
G25  23910487.414   125650504.794       -3913.823          28.000    23910494.309    93829916.269       -2921.859          31.000  
G26  20386360.216   107131046.5541        944.416          35.000    20386367.412    80000486.761         704.399          33.000  
> 2021 09 30 11 29 36.9998651  0  9                     
C06  36516361.849   190150144.3501        171.675          23.000  
C07  36565322.154   190405255.608         435.329          31.000  
C22  22308554.509   116166513.764         526.002          29.000  
C30  25656816.256   133601887.9001       1208.171          24.000  
C36  22639081.390   117887566.5111      -1527.352          24.000  
G10  23290124.782   122390440.0561      -3915.809          21.000                                                                  
G25  23911171.540   125654103.961       -3914.732          28.000    23911179.335    93832604.513       -2923.641          32.000  
G26  20386120.083   107129787.251         943.357          34.000    20386126.978    79999546.410         704.196          32.000  
G29  23716581.652   124631367.2901         89.593          28.000                                                                  
> 2021 09 30 11 29 37.9998648  0  5                     
C07  36565144.977   190404351.534         435.629          31.000  
C22  22308358.445   116165518.699         527.225          27.000  
C36  22639282.851   117888626.102       -1528.313          27.000  
G25  23911827.187   125657546.366       -3915.380          29.000    23911834.981    93835175.112       -2924.056          32.000  
G26  20385849.070   107128370.790         942.678          36.000    20385858.364    79998488.602         702.335          32.000  
> 2021 09 30 11 29 38.9998646  0  7                     
C07  36564999.278                         438.895          31.000  
C10  37330873.674   194391748.6181        482.431          20.000  
C22  22308198.655   116164679.658         526.884          26.000  
G10  23291478.345   122397483.7151      -3915.914          22.000                                                                  
G25  23912511.912   125661146.810       -3916.003          29.000    23912519.707    93837863.678       -2922.775          32.000  
G26  20385612.234   107127112.741         942.769          37.000    20385618.830    79997549.165         703.075          32.000  
G29  23716397.580   124630402.6171         87.987          30.000                                                                  
> 2021 09 30 11 29 39.9998643  0  8                     
C06  36516032.976   190148380.1301        172.427          21.000  
C07  36564825.098   190402643.3251        436.285          31.000  
C16  36892584.595   192109350.2581        215.676          19.000  
C22  22308008.587   116163684.597         525.891          28.000  
C36  22639721.447   117890901.2571      -1527.940          27.000  
G25  23913168.758   125664590.427       -3916.542          28.000    23913175.353    93840434.661       -2923.265          32.000  
G26  20385343.620   107125697.813         942.310          37.000    20385349.916    79996492.607         702.776          33.000  
G32  20810593.526   109360407.3581       -812.229          35.000                                                                  
> 2021 09 30 11 29 40.9998641  0  7                     
C06  36515943.039   190147895.164         172.771          23.000  
C07  36564681.498   190401895.591         433.462          32.000  
C22  22307849.997   116162846.932         524.369          28.000  
G10  23292816.019   122404527.9541      -3915.944          24.000                                                                  
G25  23913853.484   125668191.664       -3916.147          30.000    23913859.779    93843123.281       -2925.125          33.000  
G26  20385103.786   107124440.779         941.769          36.000    20385110.082    79995553.936         703.044          32.000  
G32  20810686.462   109360903.423        -811.652          34.000                                                                  
> 2021 09 30 11 29 41.9998638  0  9                     
C06  36515821.623   190147254.187         173.220          22.000  
C07  36564507.918   190400991.895         436.128          31.000  
C22  22307660.828   116161854.752         523.457          28.000  
C30  25655266.329   133593823.9471       1207.153          24.000  
C36  22640164.540   117893176.5781      -1527.299          28.000  
G10  23293472.265   122407971.296       -3916.534          25.000                                                                  
G25                                                                  23914515.126    93845694.419       -2923.840          32.000  
G26  20384832.774   107123026.825         940.089          38.000    20384841.168    79994498.023         702.116          32.000  
G29  23716096.888   124628880.3151         86.299          31.000                                                                  
> 2021 09 30 11 29 42.9998636  0  8                     
C07  36564362.818   190400244.510         433.005          30.000  
C10  37330205.736   194388254.1971        480.385          21.000  
C22  22307501.638   116161019.672         522.052          28.000  
C30  25654977.928   133592305.789        1205.657          25.000  
C36  22640400.177   117894392.004       -1527.689          28.000  
G10  23294156.091   122411572.776       -3916.555          24.000                                                                  
G25                                                                  23915201.051    93848383.285       -2924.991          32.000  
G26  20384593.839   107121771.133         940.779          38.000    20384602.234    79993560.362         701.433          32.000  
> 2021 09 30 11 29 43.9998633  0  9                     
C06  36515605.173   190146128.2391        171.803          23.000  
C07  36564189.838   190399341.234         433.232          31.000  
C16  36892114.820   192106922.1311        216.302          24.000  
C22  22307311.570   116160028.523         522.609          27.000  
C30  25654663.146   133590631.410        1206.168          26.000  
C36  22640602.537   117895452.089       -1528.730          27.000  
G25  23915848.902   125678679.3121      -3916.591          24.000    23915856.097    93850954.664       -2924.126          33.000  
G26  20384324.926   107120358.476         939.254          38.000    20384333.020    79992505.485         702.219          32.000  
G29  23715909.517   124627920.8521         85.193          29.000                                                                  
> 2021 09 30 11 29 44.9998630  0 12                     
C04  38370076.948   199803059.7941       -351.150          31.000  
C07  36564015.958   190398438.311         433.766          32.000  
C16  36891983.511   192106237.506         215.699          24.000  
C22  22307123.300   116159038.098         521.328          27.000  
C30  25654347.465   133588956.241        1207.616          25.000  
C36  22640801.299   117896512.446       -1527.733          27.000  
G03  24296018.117   127676437.3221       2167.014          21.000                                                                  
G10  23295462.287   122418460.1931      -3916.708          25.000                                                                  
G25  23916504.249   125682123.102       -3916.564          25.000    23916512.343    93853526.256       -2922.991          32.000  
G26  20384057.211   107118946.639         938.987          38.000    20384064.706    79991451.160         701.956          32.000  
G29  23715801.892   124627363.324          84.487          28.000                                                                  
G32  20810984.455   109362420.3241       -813.841          37.000                                                                  
> 2021 09 30 11 29 45.9998628  0 11                     
C04  38370086.842   199803098.629        -351.104          32.000  
C06  36515392.020   190145005.7941        171.493          21.000  
C07  36563875.656   190397691.661         433.462          32.000  
C10  37329691.292   194385568.3211        477.849          23.000  
C22  22306964.710   116158204.455         521.213          29.000  
C30  25654059.964   133587436.787        1206.837          26.000  
C36  22641034.538   117897728.423       -1527.825          27.000  
G25  23917189.574   125685724.438       -3916.466          26.000    23917197.369    93856215.694       -2925.008          32.000  
G26  20383817.377   107117692.966         937.724          39.000    20383826.071    79990515.044         701.065          32.000  
G29  23715724.546   124626964.044          83.914          31.000                                                                  
G32  20811077.391   109362919.077        -814.690          40.000                                                                  
> 2021 09 30 11 29 46.9998628  0 10                     
C06  36515360.842   190144835.993         167.840          20.000  
C07  36563797.110   190397258.240         431.251          32.000  
C10  37329601.055   194385091.236         475.957          23.000  
C16  36891834.215   192105492.6091        215.554          21.000  
C22  22306865.778   116157683.627         520.773          29.000  
C30  25653833.321   133586229.909        1207.194          25.000  
G25  23917934.259   125689641.332       -3917.310          25.000    23917941.753    93859141.216       -2924.813          32.000  
G26  20383640.200   107116755.775         937.249          39.000    20383648.294    79989815.268         701.091          33.000  
G29  23715708.657   124626880.892          82.627          30.000                                                                  
G32  20811231.484   109363734.548        -815.944          40.000                                                                  
> 2021 09 30 11 29 47.9998625  0  9                     
C07  36563626.228   190396356.583         433.983          29.000  
C10  37329420.580   194384146.621         476.672          24.000  
C16  36891703.505   192104808.844         214.997          25.000  
C19  22246563.425                       -2489.045          32.000  
C22  22306676.010   116156695.065         519.825          31.000  
G10  23297529.056   122429425.7831      -3920.209          16.000                                                                  
G25  23918588.706   125693086.350       -3917.762          25.000    23918596.500    93861713.669       -2924.496          31.000  
G26  20383374.284   107115346.542         936.830          40.000    20383380.879    79988762.837         699.006          33.000  
G29  23715607.027   124626326.369          80.847          26.000                                                                  
> 2021 09 30 11 29 48.9998623  0  9                     
C07  36563476.932   190395610.480         434.685          30.000  
C10  37329267.986   194383356.812         476.259          22.000  
C19  22246981.335   115845870.0431      -2490.008          33.000  
C22  22306515.021   116155862.846         519.887          29.000  
C30  25653220.245   133583036.4071       1204.831          26.000  
C36  22641771.428   117901536.2231      -1530.068          26.000  
G25  23919272.832   125696689.289       -3918.472          25.000    23919283.625    93864403.481       -2925.997          30.000  
G26                                                                  20383140.745    79987828.087         699.699          32.000  
G29  23715529.980   124625930.597          81.051          26.000                                                                  
> 2021 09 30 11 29 49.9998620  0  8                     
C07  36563304.551   190394708.957         432.673          27.000  
C19  22247365.070   115847890.822       -2489.993          32.000  
C22  22306322.254   116154874.871         519.085          31.000  
C30  25652901.566   133581363.005        1205.045          28.000  
C36  22641971.989   117902598.305       -1530.605          31.000  
G10  23298868.229   122436475.5121      -3918.684          24.000                                                                  
G25  23919928.778   125700134.367       -3916.816          30.000    23919938.971    93866976.316       -2926.380          34.000  
G26  20382867.335   107112685.7261        936.056          29.000    20382873.031    79986776.687         698.118          31.000  
> 2021 09 30 11 29 50.9998618  0  8                     
C07  36563164.848   190393964.292         432.170          28.000  
C16  36891369.836   192103072.3861        214.986          29.000  
C19  22247776.385   115850068.130       -2484.890          32.000  
C36  22642205.527   117903817.017       -1530.837          30.000  
G10  23299552.056   122440078.688       -3917.814          24.000                                                                  
G25                                                                  23920624.296    93869666.837       -2925.011          33.000  
G26  20382630.798   107111434.791         935.031          39.000    20382634.995    79985843.366         699.785          32.000  
G32  20811563.654   109365421.8071       -816.230          34.000                                                                  
> 2021 09 30 11 29 51.9998618  0  8                     
C07  36563083.004   190393531.821         431.119          26.000  
C16  36891328.765   192102857.552         213.924          31.000  
C22  22306056.039   116153525.3231        516.766          29.000  
C36  22642498.425   117905348.053       -1531.521          33.000  
G10  23300297.939   122443997.132       -3919.364          18.000                                                                  
G25  23921359.387   125707654.5131      -3919.619          24.000    23921370.180    93872593.510       -2925.226          32.000  
G26  20382453.321   107110500.285         932.838          34.000    20382457.218    79985146.518         696.464          28.000  
G32  20811712.351   109366239.155        -818.457          31.000                                                                  
> 2021 09 30 11 29 52.9998615  0 10                     
C01  37486560.994   195202150.0291       -367.871          29.000  
C07  36562909.425   190392632.769         430.774          29.000  
C10  37328659.707   194380203.3041        476.644          21.000  
C16  36891196.856   192102174.956         214.570          27.000  
C19  22248634.691   115854583.9751      -2492.815          30.000  
C22  22305866.870   116152540.420         516.094          29.000  
C36  22642700.185   117906411.603       -1532.519          32.000  
G10  23300952.686   122447444.104       -3919.954          23.000                                                                  
G25  23922016.233   125711101.817       -3920.936          27.000    23922027.625    93875166.839       -2925.735          32.000  
G26  20382185.906   107109092.863         933.869          35.000    20382188.604    79984096.982         695.165          30.000  
> 2021 09 30 11 29 53.9998612  0  9                     
C01  37486539.709   195202050.123        -369.102          33.000  
C06  36514625.151   190141146.5231        170.794          27.000  
C07  36562735.545   190391733.347         431.575          25.000  
C16  36891067.346   192101491.835         215.567          29.000  
C22  22305675.302   116151555.679         516.222          30.000  
G25  23922672.478   125714549.800       -3920.344          31.000    23922681.772    93877740.459       -2927.452          34.000  
G26  20381919.391   107107686.946         932.478          24.000    20381920.890    79983047.171         696.785          25.000  
G29  23715130.057   124623802.1221         77.829          25.000                                                                  
G32  20811827.472                        -821.949          38.000                                                                  
> 2021 09 30 11 29 54.9998610  0 11                     
C01  37486549.902   195202107.279        -369.790          30.000  
C06  36514529.217   190140663.399         170.807          28.000  
C07  36562591.345   190390989.870         432.659          24.000  
C16  36890966.915   192100963.950         216.010          27.000  
C22  22305514.614   116150727.383         515.153          32.000  
C30  25651433.782   133573779.2011       1201.406          20.000  
C36  22643125.890   117908695.3151      -1531.039          28.000  
G10  23302283.165   122454495.7911      -3919.228          13.000                                                                  
G25  23923359.003   125718153.613       -3918.632          30.000    23923367.397    93880431.805       -2927.662          32.000  
G26  20381681.655   107106440.257         930.913          26.000    20381683.154    79982115.180         697.163          27.000  
G29  23715056.008   124623409.940          77.043          21.000                                                                  
> 2021 09 30 11 29 55.9998607  0  9                     
C01  37486531.614   195202009.340        -370.997          32.000  
C07  36562419.863   190390088.823         432.903          28.000  
C16  36890835.606   192100280.422         214.338          25.000  
C19  22249830.863   115860811.2321      -2492.176          28.000  
C22  22305320.948   116149744.015         514.807          24.000  
C36  22643328.250   117909757.780       -1530.431          34.000  
G25  23924016.748   125721599.647       -3919.033          33.000    23924023.343    93883005.718       -2927.360          34.000  
G26                                                                  20381415.440    79981065.322         697.830          27.000  
G29  23714947.783   124622860.244          78.527          23.000                                                                  
> 2021 09 30 11 29 56.9998605  0 11                     
C06  36514305.272   190139542.3471        168.773          27.000  
C07  36562277.462   190389344.200         431.437          29.000  
C10  37327996.866   194376746.2661        474.687          15.000  
C16  36890733.976   192099754.081         212.444          23.000  
C22  22305162.657   116148917.995         513.042          28.000  
C30  25650812.312   133570601.6271       1197.611          15.000  
C36  22643561.788   117910976.798       -1531.555          32.000  
G10  23303623.237   122461545.5711      -3919.155          17.000                                                                  
G25                                                                  23924710.168    93885698.101       -2927.502          35.000  
G26                                                                  20381176.505    79980134.213         694.946          26.000  
G29  23714874.334   124622468.082          76.409          18.000                                                                  
> 2021 09 30 11 29 57.9998602  0 11                     
C04  38370117.420   199803250.2231       -358.315          30.000  
C06  36514182.657   190138905.395         167.500          26.000  
C07  36562104.482   190388444.692         429.846          28.000  
C10  37327814.292   194375802.981         474.534          15.000  
C16  36890604.766   192099072.772         213.283          24.000  
C19  22250638.803   115865016.8591      -2494.101          33.000  
C22  22304975.287   116147937.142         511.740          31.000  
C36  22643765.048   117912039.411       -1531.205          28.000  
G25  23925357.420   125728653.6721      -3920.598          31.000    23925366.114    93888272.827       -2926.437          35.000  
G26  20380898.298   107102391.3691        927.547          28.000    20380911.189    79979086.620         694.332          25.000  
G29  23714773.604   124621920.354          73.780          18.000                                                                  
> 2021 09 30 11 29 58.9998600  0 12                     
C04  38370125.815   199803296.750        -359.484          32.000  
C06  36514090.921   190138424.793         168.673          27.000  
C07  36561959.982   190387702.451         430.435          27.000  
C10  37327663.496   194375017.836         470.122          13.000  
C16  36890505.235   192098546.861         213.147          24.000  
C19  22251065.408   115867197.565       -2496.169          33.000  
C22  22304819.395   116147112.753         512.967          33.000  
C36  22643999.186   117913259.424       -1532.254          27.000  
G10  23304968.406   122468599.4761      -3921.855          18.000                                                                  
G25  23926043.345   125732258.884       -3919.896          29.000    23926052.638    93890965.011       -2928.586          34.000  
G26  20380660.262   107101147.940         928.172          31.000    20380675.252    79978157.868         691.284          28.000  
G29  23714698.656   124621531.244          74.278          18.000                                                                  
> 2021 09 30 11 29 59.9998597  0  8                     
C07  36561786.702   190386804.320         429.405          20.000  
C16  36890376.923   192097866.959         210.819          23.000  
C19  22251465.631                       -2494.627          32.000  
C22  22304632.025   116146132.354         512.052          33.000  
C36  22644203.044   117914323.762       -1533.219          29.000  
G25                                                                  23926708.584    93893539.780       -2925.939          35.000  
G26  20380395.246   107099747.108         927.451          29.000    20380410.236    79977112.634         692.772          28.000  
G29  23714593.429   124620983.533          75.256          18.000                                                                  
> 2021 09 30 11 30 00.9998595  0  8                     
C06  36513878.968   190137308.2091        168.747          28.000  
C16  36890279.191   192097342.887         212.837          26.000  
C19  22251889.837   115871404.1711      -2495.191          32.000  
C22  22304474.034   116145307.775         512.646          31.000  
C36  22644438.681   117915544.740       -1533.333          31.000  
G25                                                                  23927394.809    93896232.143       -2926.564          35.000  
G26                                                                  20380174.599    79976183.890         693.385          29.000  
G29  23714519.680   124620590.632          79.073          18.000                                                                  
> 2021 09 30 11 30 01.9998595  0  9                     
C06  36513846.890   190137140.246         168.793          28.000  
C07  36561560.059   190385632.5541        430.235          25.000  
C16  36890239.019   192097129.012         216.181          23.000  
C19  22252360.811   115873899.076       -2492.036          32.000  
C22  22304375.702   116144795.610         511.733          30.000  
C36  22644734.576   117917077.492       -1532.216          31.000  
G25  23928133.498   125743231.4571      -3921.506          29.000    23928140.393    93899159.718       -2927.645          34.000  
G26                                                                  20379998.920    79975491.696         691.603          30.000  
G29  23714494.497   124620512.316          75.971          17.000                                                                  
> 2021 09 30 11 30 02.9998592  0  9                     
C06  36513722.776   190136502.276         169.113          25.000  
C07  36561388.278   190384733.185         429.698          27.000  
C16  36890107.410   192096444.943         214.483          23.000  
C19  22252749.342   115875925.173       -2495.205          31.000  
C22  22304189.831   116143815.774         510.942          32.000  
C36  22644937.836   117918141.639       -1532.590          31.000  
G25  23928790.043   125746680.165       -3921.474          29.000    23928797.238    93901734.967       -2929.167          32.000  
G26  20379718.015   107096177.7221        926.032          27.000    20379733.304    79974447.495         690.980          26.000  
G29  23714381.475   124619965.166          73.474          16.000                                                                  
> 2021 09 30 11 30 03.9998589  0 10                     
C06  36513596.863   190135865.686         167.622          27.000  
C07  36561216.197   190383835.508         429.383          23.000  
C16  36889974.602   192095762.613         213.090          30.000  
C19  22253136.974   115877952.541       -2496.473          29.000  
C22  22304001.861   116142837.128         509.288          30.000  
C36  22645141.695   117919206.118       -1533.239          32.000  
G10  23308384.541   122486459.5161      -3919.234          23.000                                                                  
G25  23929447.188   125750128.992       -3921.816          29.000    23929454.383    93904310.755       -2928.590          34.000  
G26  20379452.698   107094779.472         924.903          31.000    20379466.489    79973404.073         689.566          28.000  
G29  23714277.447   124619420.207          71.214          17.000                                                                  
> 2021 09 30 11 30 04.9998587  0 10                     
C06  36513506.026   190135385.206         168.345          26.000  
C07  36561074.695   190383093.954         429.374          26.000  
C16  36889873.272   192095237.458         212.687          29.000  
C22  22303845.069   116142016.086         508.708          28.000  
C36  22645374.633   117920427.888       -1534.936          32.000  
G10  23309073.164   122490064.707       -3920.917          23.000                                                                  
G25  23930134.313   125753735.964       -3922.243          31.000    23930140.309    93907004.127       -2927.866          34.000  
G26                                                                  20379230.252    79972479.112         689.629          27.000  
G29  23714211.493   124619034.281          70.630          17.000                                                                  
G32  20812799.099   109372000.8751       -825.523          32.000                                                                  
> 2021 09 30 11 30 05.9998584  0  8                     
C06  36513383.411   190134748.337         169.316          27.000  
C07  36560903.813   190382197.281         426.942          25.000  
C16  36889741.363   192094556.000         212.879          28.000  
C19  22253938.019   115882165.2921      -2497.445          28.000  
C22  22303655.001   116141039.390         507.839          29.000  
G10  23309733.008   122493513.483       -3923.014          24.000                                                                  
G25  23930790.858   125757185.202       -3921.841          30.000    23930797.154    93909579.716       -2928.442          34.000  
G26                                                                  20378964.037    79971436.352         689.594          30.000  
> 2021 09 30 11 30 06.9998582  0  9                     
C06  36513290.775   190134266.919         168.404          27.000  
C07  36560764.709   190381457.553         427.904          28.000  
C16  36889639.134   192094029.619         214.237          29.000  
C22  22303498.809   116140219.190         507.679          33.000  
C36  22645810.232   117922716.1951      -1534.798          31.000  
G25  23931478.882   125760792.103       -3922.400          29.000    23931483.079    93912273.681       -2929.701          35.000  
G26  20378725.702   107090903.2691        922.130          31.000    20378728.100    79970511.078         690.190          29.000  
G29  23714047.507   124618104.8461         70.609          27.000                                                                  
G32  20812954.092   109372865.0541       -826.929          39.000                                                                  
> 2021 09 30 11 30 07.9998579  0 10                     
C06  36513169.659   190133630.479         167.537          25.000  
C07  36560594.727   190380562.360         426.955          23.000  
C16  36889505.127   192093346.178         215.171          25.000  
C19  22254749.258   115886381.0011      -2498.760          29.000  
C22  22303313.837   116139243.750         507.403          33.000  
C36  22646019.787   117923782.913       -1534.198          32.000  
G10  23311085.371   122500572.2501      -3923.526          19.000                                                                  
G25                                                                  23932138.725    93914849.679       -2926.993          35.000  
G26  20378459.786   107089508.614         921.569          33.000    20378462.484    79969468.382         688.040          28.000  
G29  23713950.074   124617561.913          69.284          26.000                                                                  
> 2021 09 30 11 30 08.9998577  0  8                     
C07  36560451.126   190379823.048         427.352          28.000  
C16  36889397.801   192092819.469         214.131          16.000  
C19  22255170.466   115888567.918       -2499.821          31.000  
C22  22303159.444   116138424.925         506.711          33.000  
C36  22646258.422   117925004.648       -1535.662          31.000  
G25  23932823.451   125767849.5701      -3922.857          26.000    23932825.550    93917543.453       -2930.115          34.000  
G26  20378224.749   107088271.911         921.440          31.000    20378227.147    79968544.836         687.672          27.000  
G29  23713888.017   124617177.718          68.912          26.000                                                                  
> 2021 09 30 11 30 09.9998574  0  8                     
C07  36560279.645   190378927.064         427.904          27.000  
C16  36889267.092   192092136.842         213.492          25.000  
C19  22255559.896   115890599.508       -2501.241          34.000  
C36  22646460.781   117926072.206       -1537.483          27.000  
G25                                                                  23933481.795    93920119.855       -2928.712          33.000  
G26  20377960.032   107086877.758         921.270          31.000    20377961.531    79967504.624         686.862          26.000  
G29  23713792.983   124616636.343          68.490          29.000                                                                  
G32  20813181.934   109374010.1441       -827.393          29.000                                                                  
> 2021 09 30 11 30 10.9998572  0  5                     
C07  36560135.745   190378186.258         427.794          24.000  
C16  36889168.760   192091611.916         212.186          25.000  
C36  22646694.620   117927298.104       -1537.982          26.000  
G25  23934172.217   125774907.4971      -3922.760          30.000    23934169.219    93922813.712       -2930.234          33.000  
G26                                                                  20377726.494    79966582.454         686.702          27.000  
> 2021 09 30 11 30 11.9998569  0 11                     
C01  37486525.319   195201980.9141       -370.964          30.000  
C04  38370079.647   199803081.0851       -365.620          24.000  
C06  36512738.557   190131401.2091        167.385          24.000  
C07  36559964.263   190377290.160         428.140          22.000  
C16  36889038.950   192090930.976         212.528          24.000  
C19  22256363.640   115894822.5761      -2501.908          28.000  
C36  22646898.778   117928367.806       -1538.006          27.000  
G10  23313771.212   122514692.5571      -3922.127          20.000                                                                  
G25  23934826.964   125778357.667       -3922.992          32.000    23934826.365    93925390.436       -2929.225          34.000  
G26  20377463.276   107084248.1701        919.504          36.000    20377461.777    79965542.111         687.874          28.000  
G29  23713639.189   124616015.4511         68.227          21.000                                                                  
> 2021 09 30 11 30 12.9998566  0  9                     
C06  36512616.242   190130764.831         167.819          24.000  
C07  36559790.983   190376393.460         428.868          26.000  
C19  22256754.270   115896855.862       -2501.330          32.000  
C22  22302430.948   116134687.7681        502.416          20.000  
C36  22647103.536   117929437.619       -1537.375          26.000  
G25  23935485.308   125781808.176       -3924.567          31.000    23935482.610    93927967.107       -2930.052          34.000  
G26  20377194.362                         918.705          36.000    20377196.460    79964501.807         687.167          29.000  
G29  23713533.362   124615474.813          67.359          27.000                                                                  
G32  20813416.971   109375236.7691       -829.670          29.000                                                                  
> 2021 09 30 11 30 13.9998564  0 10                     
C01  37486519.922   195201942.1681       -371.083          30.000  
C06  36512524.805   190130284.909         167.357          25.000  
C07  36559649.781   190375653.489         427.056          22.000  
C16  36888810.208   192089722.4791        213.604          25.000  
C19  22257174.579   115899045.331       -2501.980          29.000  
C22  22302273.857   116133872.737         503.187          30.000  
C36  22647338.874   117930661.683       -1535.957          30.000  
G25  23936170.634   125785417.524       -3924.170          32.000    23936168.535    93930661.876       -2931.524          33.000  
G26  20376955.727   107081646.2591        917.999          35.000    20376961.723    79963581.423         683.186          27.000  
G29  23713475.802   124615092.364          66.957          30.000                                                                  
> 2021 09 30 11 30 14.9998561  0 10                     
C01  37486503.434   195201844.719        -370.972          31.000  
C06  36512403.089   190129649.301         166.737          34.000  
C07  36559479.199   190374758.157         427.730          23.000  
C16  36888680.398   192089041.014         213.442          34.000  
C19  22257566.108   115901078.182       -2501.203          27.000  
C22  22302088.286   116132901.509         503.116          30.000  
C36  22647544.531   117931729.864       -1536.854          38.000  
G10  23315775.624   122525197.7691      -3923.029          20.000                                                                  
G25  23936828.379   125788868.317       -3923.020          23.000    23936823.882    93933239.436       -2930.028          29.000  
G26  20376694.008   107080255.535         918.353          37.000    20376697.306    79962544.183         684.462          26.000  
> 2021 09 30 11 30 15.9998559  0  9                     
C01  37486515.725   195201903.181        -370.751          30.000  
C06  36512313.152   190129170.060         167.374          33.000  
C07  36559337.997   190374019.216         425.484          26.000  
C16  36888580.867   192088515.251         213.148          30.000  
C19  22257987.916   115903268.115       -2503.320          30.000  
C36  22647781.367   117932954.134       -1537.479          38.000  
G25                                                                  23937509.507    93935933.398       -2927.186          30.000  
G26  20376456.573   107079023.061         917.594          36.000    20376462.568    79961624.614         685.111          28.000  
G29  23713321.409   124614171.1501         65.662          24.000                                                                  
> 2021 09 30 11 30 16.9998559  0  8                     
C01  37486585.877   195202274.035        -371.035          31.000  
C07  36559256.753   190373594.535         424.605          19.000  
C16  36888539.496   192088302.124         212.994          32.000  
C19  22258468.483   115905771.689       -2503.623          35.000  
C22  22301840.357   116131584.5211        501.587          32.000  
C36  22648082.059                       -1540.456          39.000  
G25  23938264.384   125796401.2501      -3924.450          17.000    23938255.391    93938861.032       -2931.109          24.000  
G26  20376278.196   107078106.441         915.607          37.000    20376288.389    79960939.764         683.877          27.000  
> 2021 09 30 11 30 17.9998556  0  8                     
C01  37486566.690   195202176.675        -371.226          35.000  
C06  36512164.754   190128363.7631        168.527          30.000  
C16  36888407.587   192087621.061         212.637          28.000  
C19  22258857.014   115907807.032       -2503.298          34.000  
C22  22301657.484   116130614.747         500.202          33.000  
C36  22648285.019                       -1537.266          38.000  
G25                                                                  23938912.536    93941440.613       -2933.947          26.000  
G26                                                                  20376024.572    79959903.325         683.372          28.000  
> 2021 09 30 11 30 18.9998554  0  9                     
C01  37486578.981   195202235.575        -371.337          32.000  
C06  36512072.418   190127883.265         167.786          36.000  
C07  36558950.965   190371965.1241        423.958          23.000  
C16  36888305.358   192087095.954         213.129          34.000  
C22  22301503.390   116129801.430         500.935          32.000  
C36  22648521.855   117936800.7141      -1537.678          38.000  
G25  23939605.356   125803463.0831      -3926.322          17.000    23939599.960    93944139.455       -2933.752          22.000  
G26  20375785.637   107075487.7011        915.317          37.000    20375790.734    79958984.468         683.463          26.000  
G29  23713145.731   124613189.4461         64.413          23.000                                                                  
> 2021 09 30 11 30 19.9998551  0 10                     
C01  37486559.195   195202138.149        -370.749          30.000  
C06  36511949.803   190127247.187         167.336          35.000  
C16  36888174.648   192086414.498         213.493          31.000  
C19  22259664.955   115912033.6821      -2505.221          31.000  
C22  22301323.815                         498.696          32.000  
C36  22648726.913   117937869.647       -1537.680          38.000  
G25                                                                  23940257.704    93946718.246       -2929.479          25.000  
G26  20375519.721   107074100.513         913.872          38.000    20375526.916    79957949.428         682.121          28.000  
G31  21262694.043   111736211.4861       -925.892          25.000                                                                  
G32  20814084.909   109378694.6341       -835.415          26.000                                                                  
> 2021 09 30 11 30 20.9998548  0  8                     
C01  37486539.709   195202040.327        -370.890          31.000  
C06  36511826.888                         167.150          36.000  
C07  36558611.300   190370181.2211        425.201          19.000  
C16  36888044.238   192085733.039         212.896          33.000  
C22  22301130.748   116127878.5101        498.862          31.000  
C36  22648930.472                       -1540.296          40.000  
G25  23940924.143   125810365.2471      -3924.705          17.000    23940915.449    93949295.113       -2930.968          23.000  
G26  20375254.405   107072713.984         915.487          36.000    20375262.199    79956914.115         682.842          27.000  
> 2021 09 30 11 30 21.9998546  0 11                     
C01  37486551.101   195202099.078        -371.603          32.000  
C06  36511734.252                         164.378          38.000  
C07  36558470.398   190369443.517         426.577          25.000  
C16  36887941.709                         210.290          38.000  
C22  22300975.456   116127068.670         497.183          29.000  
C36  22649165.809   117940173.7441      -1541.888          33.000  
G10  23320606.780   122550616.6991      -3926.778          19.000                                                                  
G25  23941606.471   125813975.440       -3926.897          26.000    23941601.974    93951991.664       -2932.681          25.000  
G26  20375020.867   107071485.011         909.666          34.000    20375028.661    79955996.171         682.721          28.000  
G29  23712890.907   124612083.6801         58.715          21.000                                                                  
G31  21262880.214   111737273.4771       -924.791          19.000                                                                  
> 2021 09 30 11 30 22.9998543  0 11                     
C01  37486531.914   195202002.388        -372.190          31.000  
C06  36511611.637   190125552.2341        162.388          37.000  
C07  36558299.516   190368550.437         423.100          22.000  
C16  36887812.499   192084513.5581        212.015          34.000  
C19  22260874.617   115918308.2801      -2510.533          27.000  
C22  22300790.184   116126103.646         496.124          33.000  
C36  22649368.468   117941245.151       -1539.431          34.000  
G10  23321261.527   122554070.675       -3926.442          20.000                                                                  
G25                                                                  23942259.119    93954570.442       -2931.191          23.000  
G26  20374760.347   107070101.615         910.365          35.000    20374764.544    79954961.125         680.903          29.000  
G29  23712797.072   124611551.447          61.431          21.000                                                                  
> 2021 09 30 11 30 23.9998541  0  9                     
C06  36511520.500   190125075.758         165.464          33.000  
C07  36558158.014   190367815.183         423.011          22.000  
C16  36887712.368   192083989.456         210.757          32.000  
C19  22261297.924   115920506.747       -2510.116          25.000  
C22  22300635.491   116125295.562         495.464          37.000  
C36  22649602.307   117942471.025       -1537.920          35.000  
G25                                                                  23942945.344    93957266.934       -2930.888          18.000  
G26  20374528.607   107068875.486         911.371          37.000    20374531.905    79954045.420         680.820          30.000  
G29  23712730.518   124611174.370          61.288          21.000                                                                  
> 2021 09 30 11 30 24.9998538  0 10                     
C01  37486525.618   195201965.0861       -372.268          30.000  
C06  36511399.084   190124441.214         166.244          33.000  
C07  36557988.331   190366925.960         421.025          19.000  
C16  36887581.059   192083310.642         210.987          26.000  
C22  22300449.620   116124332.983         493.967          39.000  
C36  22649808.264   117943541.438       -1539.505          34.000  
G25  23943605.787   125824499.2861      -3928.646          25.000    23943604.587    93959847.519       -2934.089          20.000  
G26  20374260.293   107067492.887         909.183          38.000    20374268.088    79953012.493         679.205          31.000  
G29  23712626.490   124610641.186          60.193          24.000                                                                  
G32  20814489.029   109380814.5561       -834.450          31.000                                                                  
> 2021 09 30 11 30 25.9998536  0 10                     
C01  37486537.010   195202025.524        -373.288          30.000  
C06  36511307.048   190123962.320         166.640          30.000  
C07  36557848.628   190366191.651         422.522          21.000  
C16  36887480.329   192082787.337         211.042          30.000  
C19  22262117.257   115924748.4491      -2510.720          25.000  
C22  22300294.327   116123526.618         494.150          38.000  
C36  22650048.398   117944768.620       -1539.954          39.000  
G25                                                                  23944292.911    93962548.170       -2936.348          20.000  
G26                                                                  20374034.849    79952097.541         679.245          31.000  
G29  23712541.949   124610266.400          59.085          23.000                                                                  
> 2021 09 30 11 30 26.9998533  0 10                     
C01  37486518.723   195201931.143        -374.587          30.000  
C06  36511184.733   190123327.639         165.995          31.000  
C07  36557675.348   190365301.465         420.631          21.000  
C16  36887349.020   192082108.071         210.366          29.000  
C19  22262506.687   115926791.672       -2511.133          23.000  
C22  22300109.056   116122565.458         492.836          37.000  
C36  22650257.653   117945842.711       -1542.956          38.000  
G25  23944950.056   125831567.1671      -3928.998          24.000    23944951.255    93965132.214       -2938.059          19.000  
G26                                                                  20373773.730    79951066.724         676.852          21.000  
G29  23712424.430   124609735.373          57.716          21.000                                                                  
> 2021 09 30 11 30 27.9998533  0  9                     
C06  36511153.854   190123162.163         161.642          31.000  
C07  36557593.205   190364882.311         419.435          21.000  
C16  36887309.747   192081897.406         210.923          30.000  
C22  22300015.520                         493.361          39.000  
C36  22650552.649   117947384.916       -1541.347          33.000  
G10  23324688.754   122572131.0371      -3931.190          12.000                                                                  
G25                                                                  23945705.533    93968067.724       -2934.491          19.000  
G26  20373593.555   107063976.1601        907.319          23.000    20373603.748    79950391.026         675.758          22.000  
G32  20814813.105   109382537.0701       -837.828          34.000                                                                  
> 2021 09 30 11 30 28.9998531  0 10                     
C06  36511063.017   190122687.014         164.405          31.000  
C07  36557452.302   190364152.207         416.364          21.000  
C16  36887209.616   192081373.620         211.719          33.000  
C19  22263409.063   115931501.7831      -2511.796          25.000  
C22  22299859.329   116121229.2551        490.933          38.000  
C36  22650787.686   117948612.628       -1539.529          34.000  
G10  23325379.176   122575746.092       -3929.459          15.000                                                                  
G25  23946386.062   125839107.7741      -3927.956          26.000                                                                  
G26                                                                  20373376.205    79949480.798         673.650          19.000  
G32  20814910.837   109383059.310        -837.136          31.000                                                                  
> 2021 09 30 11 30 29.9998528  0  7                     
C06  36510940.102   190122051.993         167.383          29.000  
C16  36887079.806   192080693.202         211.955          32.000  
C19  22263800.891   115933544.518       -2510.799          26.000  
C22  22299675.556   116120269.479         491.845          35.000  
C36  22650993.344   117949684.541       -1540.746          33.000  
G25  23947047.104   125842563.086       -3928.753          23.000                                                                  
G26  20373107.291   107061377.3261        905.133          22.000    20373117.484    79948454.881         672.935          21.000  
> 2021 09 30 11 30 30.9998525  0  7                     
C06  36510817.787   190121415.900         167.850          33.000  
C16  36886946.698   192080013.471         211.055          33.000  
C22  22299490.884   116119309.066         490.572          38.000  
C36  22651197.802   117950756.273       -1540.973          33.000  
G25  23947706.348   125846020.483       -3929.977          20.000                                                                  
G26                                                                  20372858.763    79947429.259         670.482          21.000  
G32  20815047.243   109383789.2651       -837.198          35.000                                                                  
> 2021 09 30 11 30 31.9998525  0  6                     
C06  36510786.608   190121249.385         165.277          33.000  
C16  36886905.627   192079802.032         211.599          35.000  
C22  22299399.747                         493.413          36.000  
C36  22651493.997   117952297.514       -1541.942          31.000  
G10  23327440.249   122586582.9131      -3928.601          17.000                                                                  
G26  20372682.785   107059096.2161        904.278          23.000                                                                  
> 2021 09 30 11 30 32.9998523  0  8                     
C06  36510695.471   190120771.085         166.128          30.000  
C16  36886804.896   192079277.993         213.070          37.000  
C19  22265101.091   115940300.3491      -2511.833          22.000  
C22  22299244.754   116118022.0951        491.049          34.000  
C36  22651729.634   117953527.649       -1542.692          34.000  
G10  23328122.577   122590197.153       -3929.292          17.000                                                                  
G26  20372456.142   107057877.518         903.071          24.000                                                                  
G32  20815310.460   109385148.7491       -838.364          34.000                                                                  
> 2021 09 30 11 30 33.9998520  0  6                     
C06  36510573.756   190120136.441         166.324          33.000  
C16  36886676.285                         210.788          38.000  
C22  22299059.183   116117063.124         490.914          32.000  
C36  22651936.491   117954601.974       -1542.782          34.000  
G26  20372191.126   107056501.463         903.707          23.000                                                                  
G32  20815378.813   109385513.490        -837.627          36.000                                                                  
> 2021 09 30 11 30 34.9998518  0  8                     
C04  38370168.985   199803459.2881       -357.032          34.000  
C06  36510482.319   190119658.038         165.939          34.000  
C16  36886577.054   192078078.9561        212.334          35.000  
C22  22298905.089   116116261.247         488.930          35.000  
C36  22652175.425   117955830.949       -1541.966          33.000  
G25  23950508.508   125860650.9041      -3939.313          17.000                                                                  
G29  23711805.659   124606380.1861         49.289          27.000                                                                  
G32  20815476.545   109386036.540        -838.651          32.000                                                                  
> 2021 09 30 11 30 35.9998515  0 11                     
C04  38370145.301   199803348.029        -357.099          34.000  
C06  36510361.203   190119023.574         166.003          35.000  
C16  36886446.345   192077398.581         211.792          37.000  
C19  22266311.953   115946590.5971      -2516.865          20.000  
C22  22298721.017   116115304.108         488.088          35.000  
C36  22652380.184                       -1545.784          39.000  
G10  23330144.677   122600728.4291      -3926.756          14.000                                                                  
G25  23951164.454   125864115.215       -3936.988          17.000                                                                  
G26  20371702.164   107053910.4131        898.944          21.000                                                                  
G29  23711701.031   124605858.865          48.293          28.000                                                                  
G32  20815545.198   109386403.693        -840.176          31.000                                                                  
> 2021 09 30 11 30 36.9998513  0  7                     
C04  38370152.196   199803392.935        -357.367          30.000  
C06  36510269.466   190118545.149         166.720          33.000  
C16  36886345.914   192076875.234         210.715          34.000  
C19  22266734.660   115948796.040       -2517.972          16.000  
C22  22298567.523   116114504.252         487.692          38.000  
C36  22652618.519   117958119.1551      -1543.156          37.000  
G29  23711629.680   124605495.521          48.426          26.000                                                                  
> 2021 09 30 11 30 37.9998510  0  9                     
C04  38370130.312   199803282.957        -358.961          28.000  
C06  36510143.554   190117910.504         166.347          35.000  
C16  36886214.005   192076195.862         211.270          34.000  
C19  22267125.290   115950844.979       -2515.511          18.000  
C22  22298384.350   116113547.768         487.857          34.000  
C36  22652825.975   117959193.525       -1541.398          39.000  
G25  23952502.727   125871203.6191      -3944.557          15.000                                                                  
G26  20371222.496   107051325.5491        899.381          17.000                                                                  
G29  23711524.753   124604974.738          47.954          24.000                                                                  
> 2021 09 30 11 30 38.9998508  0  6                     
C06  36510051.517   190117431.829         166.338          34.000  
C16  36886111.177   192075672.012         211.557          37.000  
C22  22298229.957   116112747.895         486.182          36.000  
C36  22653061.312                       -1540.644          40.000  
G25  23953196.747   125874829.644       -3936.747          12.000                                                                  
G32  20815811.414   109387821.7671       -839.025          32.000                                                                  
> 2021 09 30 11 30 39.9998505  0  9                     
C06  36509930.401   190116796.899         165.242          35.000  
C16  36885978.668                         209.073          36.000  
C19  22267936.828   115955096.9271      -2515.770          19.000  
C22  22298047.083   116111792.779         486.911          36.000  
C36  22653265.770   117961498.7621      -1543.440          41.000  
G10  23332836.513   122614861.5561      -3926.971          15.000                                                                  
G25  23953853.592   125878291.466       -3935.361          11.000                                                                  
G29  23711349.974   124604089.5891         48.677          18.000                                                                  
G32  20815879.467   109388189.011        -840.908          30.000                                                                  
> 2021 09 30 11 30 40.9998502  0  5                     
C06  36509808.386                         164.074          37.000  
C16  36885849.458   192074291.5441        210.015          34.000  
C22  22297863.910   116110838.403         485.220          35.000  
C36  22653472.627   117962574.090       -1545.972          42.000  
G32  20815949.018   109388558.340        -842.787          31.000                                                                  
> 2021 09 30 11 30 41.9998500  0  8                     
C06  36509718.448   190115677.0811        162.184          34.000  
C16  36885750.826   192073768.357         212.004          35.000  
C19  22268752.563   115959347.4111      -2515.770          18.000  
C22  22297711.915   116110040.835         485.078          34.000  
C36  22653707.665   117963805.903       -1542.972          40.000  
G10  23334182.582   122621926.9721      -3932.082          14.000                                                                  
G26  20370235.280   107046156.4461        896.695          17.000                                                                  
G32  20816050.648   109389087.097        -844.355          31.000                                                                  
> 2021 09 30 11 30 42.9998497  0  8                     
C06  36509595.833   190115045.223         164.087          31.000  
C16  36885620.117   192073088.989         210.606          37.000  
C19  22269144.692   115961396.087       -2517.893          17.000  
C22  22297529.641   116109087.872         483.551          36.000  
C36  22653916.920   117964881.820       -1544.157          38.000  
G10  23334846.322   122625385.348       -3929.384          14.000                                                                  
G29  23711082.259   124602689.3691         44.948          19.000                                                                  
G32  20816122.898   109389459.182        -844.723          30.000                                                                  
> 2021 09 30 11 30 43.9998495  0  8                     
C06  36509505.595   190114567.604         165.968          31.000  
C16  36885520.585   192072565.686         211.041          37.000  
C19  22269560.204   115963600.351       -2515.215          16.000  
C22  22297375.548   116108292.353         483.172          35.000  
C36  22654154.055   117966113.914       -1545.223          38.000  
G10  23335541.241   122629003.448       -3936.302          14.000                                                                  
G26  20369738.523   107043577.2961        895.143          17.000                                                                  
G32  20816224.528   109389989.155        -844.939          31.000                                                                  
> 2021 09 30 11 30 44.9998492  0  5                     
C06  36509383.280   190113933.841         165.866          34.000  
C16  36885388.377   192071885.904         210.894          37.000  
C22  22297192.975   116107341.242         482.607          35.000  
C36  22654356.715   117967189.719       -1545.044          38.000  
G29  23710915.275   124601817.8611         42.575          18.000                                                                  
> 2021 09 30 11 30 45.9998490  0  7                     
C06  36509291.244   190113455.686         166.119          35.000  
C16  36885287.647   192071362.117         213.948          37.000  
C19  22270376.239   115967852.3381      -2517.969          16.000  
C22  22297041.579   116106545.795         483.790          35.000  
C36  22654594.750   117968421.871       -1540.842          38.000  
G26  20369245.065   107040993.4681        898.373          17.000                                                                  
G32  20816397.808                        -845.301          33.000                                                                  
> 2021 09 30 11 30 46.9998490  0  8                     
C06  36509258.566   190113289.189         166.194          35.000  
C16  36885246.275   192071150.588         211.692          36.000  
C19  22270860.104   115970371.473       -2520.862          18.000  
C22  22296948.344   116106062.499         482.468          34.000  
C36  22654891.545   117969966.082       -1543.316          38.000  
G10  23337648.482   122640007.0731      -3930.753          15.000                                                                  
G26  20369072.984   107040095.574         897.840          17.000                                                                  
G32  20816562.993                        -846.127          35.000                                                                  
> 2021 09 30 11 30 47.9998487  0  9                     
C06  36509134.752                         165.322          35.000  
C16  36885116.465   192070470.413         211.277          36.000  
C19  22271254.631   115972422.696       -2519.105          19.000  
C22  22296768.169   116105112.654         481.663          34.000  
C36  22655097.203   117971042.313       -1543.577          37.000  
G10  23338314.621   122643464.693       -3928.606          15.000                                                                  
G26  20368807.968   107038725.936         896.679          18.000                                                                  
G29  23710743.194   124600893.6891         46.298          17.000                                                                  
G32  20816633.145   109392129.4421       -850.848          34.000                                                                  
> 2021 09 30 11 30 48.9998484  0  6                     
C06  36509014.235   190112011.8271        166.320          37.000  
C16  36884985.156                         213.874          36.000  
C19  22271649.158   115974474.645       -2519.942          20.000  
C22  22296586.195   116104162.873         481.058          35.000  
C36  22655304.959   117972118.960       -1544.099          38.000  
G32  20816703.296   109392505.042        -846.777          34.000                                                                  
> 2021 09 30 11 30 49.9998482  0  6                     
C06  36508923.998                         163.339          35.000  
C16  36884883.826                         209.072          37.000  
C19  22272073.364   115976682.531       -2521.628          21.000  
C22  22296433.300   116103370.290         479.840          34.000  
C36  22655543.294   117973351.597       -1546.485          40.000  
G32  20816801.928   109393036.442        -848.038          32.000                                                                  
> 2021 09 30 11 30 50.9998479  0  8                     
C06  36508801.383                         166.175          36.000  
C16  36884754.916   192068595.3671        215.528          36.000  
C19  22272468.791   115978737.004       -2524.015          21.000  
C22  22296251.926   116102423.149         478.635          33.000  
C36  22655750.151   117974429.144       -1546.090          41.000  
G10  23340329.826   122654261.5871      -3929.073          17.000                                                                  
G29  23710473.681   124599497.3811         42.021          18.000                                                                  
G32  20816872.079   109393411.519        -847.636          32.000                                                                  
> 2021 09 30 11 30 51.9998477  0  6                     
C06  36508710.546   190110437.5041        164.165          36.000  
C16  36884652.087   192068072.261         210.539          34.000  
C22  22296100.231   116101631.944         477.559          32.000  
C36  22655986.987   117975662.756       -1547.219          42.000  
G10  23341018.449   122657875.647       -3926.759          16.000                                                                  
G32  20816972.810   109393944.175        -848.362          30.000                                                                  
> 2021 09 30 11 30 52.9998474  0  6                     
C06  36508592.427   190109804.605         162.116          34.000  
C16  36884522.876   192067391.795         211.474          34.000  
C22  22295918.857   116100686.111         476.811          29.000  
C36  22656192.045   117976740.037       -1547.877          39.000  
G29  23710308.495   124598629.2701         41.003          19.000                                                                  
G32  20817042.961   109394320.330        -849.517          29.000                                                                  
> 2021 09 30 11 30 53.9998472  0  6                     
C06  36508500.991   190109328.933         164.385          35.000  
C16  36884423.045   192066868.132         210.844          34.000  
C22  22295765.962   116099896.248         477.646          27.000  
C36  22656430.979   117977973.148       -1542.489          39.000  
G10  23342372.612   122664936.4741      -3921.070          15.000                                                                  
G26  20367328.492   107031004.9171        889.430          16.000                                                                  
> 2021 09 30 11 30 54.9998469  0  6                     
C06  36508377.176   190108696.142         165.075          33.000  
C16  36884291.736   192066188.680         211.667          34.000  
C22  22295583.689   116098950.388         477.372          33.000  
C36  22656637.836   117979054.002       -1547.820          37.000  
G10  23343032.455   122668385.375       -3923.305          16.000                                                                  
G32  20817216.841   109395233.0121       -852.434          28.000                                                                  
> 2021 09 30 11 30 55.9998467  0  5                     
C06  36508283.341                         166.764          37.000  
C16  36884192.505                         211.951          35.000  
C22  22295431.994   116098160.824         476.446          34.000  
C36  22656873.473                       -1544.013          38.000  
G32  20817320.569   109395770.228        -851.941          28.000                                                                  
> 2021 09 30 11 30 56.9998464  0  4                     
C06  36508158.328   190107578.1341        167.675          35.000  
C16  36884062.695                         211.036          38.000  
C22  22295250.919   116097216.734         475.536          35.000  
C36  22657081.829                       -1545.409          39.000  
> 2021 09 30 11 30 57.9998461  0  7                     
C06  36508037.811   190106942.070         166.187          32.000  
C16  36883933.484   192064313.0891        210.768          38.000  
C22  22295070.444   116096272.648         473.223          33.000  
C36  22657287.786                       -1546.141          36.000  
G10  23345038.366   122678897.2671      -3928.801          15.000                                                                  
G29  23709899.578   124596403.8371         32.379          17.000                                                                  
G32  20817465.968   109396531.0491       -854.544          27.000                                                                  
> 2021 09 30 11 30 58.9998459  0  5                     
C06  36507947.274   190106464.131         165.476          33.000  
C16  36883829.756   192063789.720         209.815          36.000  
C22  22294919.349   116095486.411         474.537          33.000  
C36  22657524.322   117983678.4561      -1550.419          38.000  
G32  20817567.598   109397069.466        -853.297          24.000                                                                  
> 2021 09 30 11 30 59.9998456  0  6                     
C06  36507830.355                         163.390          36.000  
C16  36883699.646   192063109.874         210.218          35.000  
C22  22294737.075   116094543.877         473.015          35.000  
C36  22657733.278   117984757.353       -1546.582          41.000  
G10  23346382.336   122685978.1591      -3939.980          15.000                                                                  
G32  20817638.349   109397449.554        -852.521          28.000                                                                  
> 2021 09 30 11 31 00.9998456  0  6                     
C06  36507795.279   190105691.0121        161.720          34.000  
C16  36883660.973   192062898.378         211.869          37.000  
C22  22294646.238   116094071.241         472.261          34.000  
C36  22658030.672   117986304.676       -1548.013          40.000  
G10  23347137.213   122689919.968       -3943.266          15.000                                                                  
G32  20817799.637   109398302.158        -853.291          28.000                                                                  
> 2021 09 30 11 31 01.9998454  0  6                     
C06  36507704.142   190105215.626         163.953          34.000  
C16  36883559.643                         208.973          37.000  
C22  22294495.742   116093286.359         472.504          36.000  
C36  22658268.107   117987539.998       -1549.911          39.000  
G10  23347829.434   122693548.386       -3943.449          15.000                                                                  
G32  20817902.766   109398841.571        -854.844          25.000                                                                  
> 2021 09 30 11 31 02.9998451  0  7                     
C06  36507583.326   190104582.373         164.360          35.000  
C16  36883430.133                         208.710          35.000  
C22  22294315.866                         472.931          37.000  
C36  22658475.564   117988619.299       -1549.902          41.000  
G10  23348488.678   122697016.812       -3938.546          15.000                                                                  
G26  20365182.577   107019701.2181        885.263          19.000                                                                  
G32  20817977.714   109399224.209        -857.132          22.000                                                                  
> 2021 09 30 11 31 03.9998449  0  7                     
C06  36507490.091                         167.158          35.000  
C16  36883332.700   192061171.2891        213.650          36.000  
C22  22294165.071                         472.198          38.000  
C36  22658713.599   117989855.543       -1547.371          40.000  
G26  20364950.838   107018501.101         884.764          25.000                                                                  
G29  23709489.162   124594306.9681         36.133          19.000                                                                  
G32  20818082.641   109399766.485        -857.216          22.000                                                                  
> 2021 09 30 11 31 04.9998446  0  5                     
C06  36507368.974   190103448.9631        164.102          34.000  
C16  36883199.892                         212.049          37.000  
C22  22293985.495   116090629.6421        471.413          37.000  
C36  22658920.456   117990935.690       -1547.507          38.000  
G26  20364691.517   107017143.852         883.619          24.000                                                                  
> 2021 09 30 11 31 05.9998444  0  5                     
C06  36507276.338                         165.195          36.000  
C16  36883098.862   192059978.5561        211.287          37.000  
C22  22293834.699   116089845.990         471.402          36.000  
C36  22659158.491   117992172.002       -1547.687          40.000  
G26  20364463.375   107015945.161         883.093          25.000                                                                  
> 2021 09 30 11 31 06.9998441  0  6                     
C06  36507154.623   190102334.7341        168.417          36.000  
C16  36882968.752   192059299.371         207.029          36.000  
C22  22293653.325   116088906.827         470.771          36.000  
C36  22659367.446   117993251.897       -1550.695          40.000  
G10  23351227.582   122711529.5601      -3936.937          13.000                                                                  
G26  20364205.254   107014589.037         883.278          26.000                                                                  
> 2021 09 30 11 31 07.9998438  0  6                     
C06  36507032.307   190101698.974         165.817          33.000  
C16  36882837.743   192058620.606         209.957          34.000  
C22  22293473.449                         470.100          38.000  
C36  22659576.102   117994332.390       -1546.842          40.000  
G10  23351891.322   122714992.448       -3935.956          13.000                                                                  
G26  20363947.433   107013233.564         881.900          25.000                                                                  
> 2021 09 30 11 31 08.9998436  0  5                     
C06  36506942.969   190101221.441         164.596          34.000  
C16  36882737.612   192058095.417         212.769          38.000  
C22  22293321.455   116087186.0331        465.737          38.000  
C36  22659810.240   117995569.338       -1551.248          40.000  
G26  20363718.991   107012036.971         881.425          24.000                                                                  
> 2021 09 30 11 31 09.9998433  0  6                     
C06  36506823.652                         162.213          36.000  
C16  36882606.903   192057416.151         209.522          37.000  
C22  22293141.879   116086250.958         466.941          37.000  
C36  22660016.497   117996650.147       -1551.291          39.000  
G26  20363460.570   107010682.642         882.062          26.000                                                                  
G29  23708954.033   124591581.5331         33.535          19.000                                                                  
> 2021 09 30 11 31 10.9998431  0  7                     
C06  36506730.416                         162.553          34.000  
C16  36882504.973                         207.474          38.000  
C22  22292992.582   116085471.476         467.239          36.000  
C36  22660255.731   117997887.331       -1551.834          39.000  
G10  23353954.794   122725698.7491      -3935.217          16.000                                                                  
G26  20363232.727   107009485.931         881.719          24.000                                                                  
G32  20818698.415   109402948.2641       -862.460          21.000                                                                  
> 2021 09 30 11 31 11.9998428  0  7                     
C06  36506609.900   190099501.9021        165.797          36.000  
C16  36882375.763   192056204.3801        212.714          36.000  
C22  22292813.306                         467.242          37.000  
C36  22660463.188   117998969.130       -1549.063          42.000  
G10  23354612.838   122729162.449       -3938.648          16.000                                                                  
G26  20362977.304   107008132.168         880.515          22.000                                                                  
G32  20818770.065   109403338.547        -863.696          21.000                                                                  
> 2021 09 30 11 31 12.9998426  0  7                     
C06  36506516.664   190099024.902         164.302          37.000  
C16  36882274.133   192055680.756         213.352          35.000  
C22  22292664.909                         470.259          39.000  
C36  22660700.623   118000206.563       -1547.438          42.000  
G26  20362751.560   107006937.246         879.840          25.000                                                                  
G29  23708711.800   124590381.7121         28.226          19.000                                                                  
G32  20818875.892   109403886.197        -863.642          21.000                                                                  
> 2021 09 30 11 31 13.9998423  0  8                     
C06  36506396.448   190098392.060         164.252          34.000  
C16  36882143.723                         209.676          37.000  
C22  22292484.734   116082816.9611        464.249          38.000  
C36  22660909.879   118001288.342       -1551.969          40.000  
G10  23355964.302   122736251.3321      -3938.912          16.000                                                                  
G26  20362495.837   107005584.918         878.510          25.000                                                                  
G31  21268366.716                        -937.419          34.000                                                                  
G32  20818951.140   109404275.900        -861.548          16.000                                                                  
> 2021 09 30 11 31 14.9998420  0  9                     
C06  36506276.830   190097759.110         164.551          36.000  
C16  36882015.112   192054323.0471        209.293          36.000  
C22  22292305.758   116081882.363         467.202          39.000  
C36  22661114.037   118002370.359       -1551.034          40.000  
G10  23356626.244   122739719.301       -3942.143          15.000                                                                  
G26  20362240.414   107004234.305         877.230          25.000                                                                  
G29  23708528.327   124589382.5561         26.923          18.000                                                                  
G31  21268454.855   111766482.6151       -933.965          34.000                                                                  
G32  20819021.291   109404665.153        -863.004          17.000                                                                  
> 2021 09 30 11 31 15.9998420  0  8                     
C06  36506245.352   190097593.815         165.024          34.000  
C16  36881975.540   192054113.152         210.420          33.000  
C22  22292215.820                         465.009          40.000  
C36  22661415.628   118003920.561       -1551.086          35.000  
G10  23357381.122   122743658.393       -3937.983          15.000                                                                  
G26  20362075.528   107003357.906         876.193          23.000                                                                  
G31  21268630.833   111767418.224        -936.656          35.000                                                                  
G32  20819190.974   109405530.226        -867.150          19.000                                                                  
> 2021 09 30 11 31 16.9998418  0  9                     
C06  36506153.916   190097116.582         164.892          35.000  
C16  36881874.210   192053590.581         210.774          34.000  
C22  22292066.523                         465.344          39.000  
C36  22661650.366   118005158.408       -1550.245          41.000  
G10  23358080.537   122747279.685       -3934.392          15.000                                                                  
G26  20361850.384   107002166.435         876.248          24.000                                                                  
G29  23708473.465   124589017.1501         25.480          17.000                                                                  
G31  21268749.851   111768039.334        -936.081          33.000                                                                  
G32  20819296.201   109406082.797        -868.222          19.000                                                                  
> 2021 09 30 11 31 17.9998415  0  8                     
C06  36506029.502   190096483.319         163.830          36.000  
C16  36881744.699   192052911.271         210.191          33.000  
C22  22291887.547   116079709.3891        464.156          38.000  
C36  22661859.621   118006240.848       -1550.795          40.000  
G10  23358738.282   122750740.497       -3932.880          14.000                                                                  
G29  23708389.823   124588520.115          25.480          16.000                                                                  
G31  21268835.891   111768502.793        -936.326          34.000                                                                  
G32  20819363.055   109406475.969        -865.565          19.000                                                                  
> 2021 09 30 11 31 18.9998413  0  9                     
C06  36505935.966                         162.456          37.000  
C16  36881642.470   192052389.916         208.124          27.000  
C22  22291739.750   116078933.134         463.513          38.000  
C36  22662097.057   118007479.061       -1553.521          40.000  
G10  23359429.304   122754630.488       -3929.766          12.000                                                                  
G26  20361365.020   106999627.7641        876.192          17.000                                                                  
G29  23708329.565   124588179.155          25.874          16.000                                                                  
G31  21268955.808   111769123.483        -935.177          33.000                                                                  
G32  20819472.779   109407025.991        -864.765          23.000                                                                  
> 2021 09 30 11 31 19.9998410  0  7                     
C06  36505813.651   190095355.5791        162.185          38.000  
C22  22291561.073   116078001.322         463.278          36.000  
C36  22662302.714   118008561.417       -1550.691          40.000  
G10  23360086.748   122758085.841       -3927.555          12.000                                                                  
G26  20361109.897   106998279.338         874.894          23.000                                                                  
G31  21269042.448   111769587.401        -937.303          32.000                                                                  
G32  20819545.928   109407417.365        -863.922          20.000                                                                  
> 2021 09 30 11 31 20.9998408  0  7                     
C06  36505719.816   190094880.537         162.629          33.000  
C16  36881415.827   192051194.3231        203.364          20.000  
C22  22291412.676   116077226.432         461.695          35.000  
C36  22662540.150   118009800.989       -1549.906          38.000  
G26  20360884.153   106997089.098         873.503          23.000                                                                  
G31  21269162.065   111770210.381        -937.853          36.000                                                                  
G32  20819649.057   109407965.764        -862.759          16.000                                                                  
> 2021 09 30 11 31 21.9998405  0  8                     
C06  36505599.000   190094247.890         164.678          30.000  
C09  37385219.751   194674649.9361        181.976          31.000  
C22  22291234.300   116076294.829         462.696          35.000  
C36  22662750.904   118010884.645       -1550.306          39.000  
G10  23361436.114   122765152.5071      -3928.958          11.000                                                                  
G26  20360627.531   106995743.593         872.204          26.000                                                                  
G31  21269252.603                        -937.026          36.000                                                                  
G32  20819719.208   109408356.948        -864.627          19.000                                                                  
> 2021 09 30 11 31 22.9998403  0  9                     
C06  36505510.561   190093771.415         162.911          24.000  
C09  37385124.717   194674155.200         182.583          30.000  
C16  36881188.285   192050006.2161        205.372          18.000  
C22  22291086.802   116075520.268         462.705          37.000  
C36  22662989.239   118012125.043       -1554.439          36.000  
G10  23362125.337   122768766.949       -3930.735          10.000                                                                  
G26  20360399.089   106994556.178         872.339          24.000                                                                  
G31  21269374.019   111771300.9831       -937.352          37.000                                                                  
G32  20819820.838   109408906.112        -864.817          23.000                                                                  
> 2021 09 30 11 31 23.9998400  0  9                     
C06  36505391.843   190093141.317         159.909          24.000  
C09  37384998.804   194673504.193         182.988          30.000  
C22  22290912.023                         459.063          39.000  
C36  22663199.993   118013209.239       -1551.365          36.000  
G10  23362783.082   122772225.063       -3930.781          12.000                                                                  
G26  20360141.567   106993211.438         871.939          29.000                                                                  
G29  23707923.946   124585993.3521         28.616          17.000                                                                  
G31  21269459.160   111771766.109        -935.538          36.000                                                                  
G32  20819891.889   109409298.465        -865.344          25.000                                                                  
> 2021 09 30 11 31 24.9998397  0  7                     
C09  37384873.491   194672852.447         184.224          32.000  
C22  22290731.548   116073701.0341        459.063          37.000  
C36  22663406.250   118014292.324       -1551.618          30.000  
G10  23363442.325   122775683.733       -3935.232          12.000                                                                  
G29  23707829.511   124585491.605          30.258          17.000                                                                  
G31  21269545.800   111772229.960        -937.380          34.000                                                                  
G32  20819964.738   109409691.689        -867.258          28.000                                                                  
> 2021 09 30 11 31 25.9998395  0  8                     
C09  37384778.157   194672356.424         184.543          28.000  
C16  36880834.829   192048144.5621        207.164          16.000  
C22  22290582.851   116072929.165         460.054          36.000  
C36  22663645.485   118015531.869       -1552.217          30.000  
G10  23364135.146   122779307.788       -3945.641          11.000                                                                  
G29  23707763.257   124585145.934          31.720          16.000                                                                  
G31  21269665.717   111772852.892        -938.489          40.000                                                                  
G32  20820070.865   109410244.594        -868.647          27.000                                                                  
> 2021 09 30 11 31 26.9998392  0  8                     
C06  36505066.868   190091400.8851        165.506          19.000  
C09  37384652.244   194671703.026         185.338          27.000  
C22  22290403.875   116072000.080         460.955          36.000  
C36  22663856.239   118016616.272       -1552.757          25.000  
G10  23364796.488   122782780.580       -3944.682          12.000                                                                  
G26  20359403.778   106989339.5331        867.052          30.000                                                                  
G29  23707667.923   124584641.939          31.851          16.000                                                                  
G31  21269764.049   111773317.963        -936.227          36.000                                                                  
> 2021 09 30 11 31 27.9998390  0  7                     
C09  37384557.509   194671205.874         185.313          27.000  
C22  22290255.477   116071228.183         458.644          34.000  
C36  22664096.972   118017856.473       -1552.117          25.000  
G10  23365486.011   122786412.443       -3950.451          14.000                                                                  
G26  20359178.634   106988155.816         869.223          24.000                                                                  
G31  21269879.769   111773939.904        -938.119          29.000                                                                  
G32  20820244.145   109411192.5481       -866.847          26.000                                                                  
> 2021 09 30 11 31 28.9998387  0  7                     
C09  37384430.997   194670552.305         184.516          27.000  
C22  22290075.902   116070301.259         458.787          35.000  
C36  22664308.626   118018942.759       -1555.881          21.000  
G10  23366149.152   122789887.192       -3944.122          13.000                                                                  
G29  23707512.031   124583784.5791         33.814          16.000                                                                  
G31  21269964.010   111774405.393        -938.030          28.000                                                                  
G32  20820316.994   109411586.770        -867.318          29.000                                                                  
> 2021 09 30 11 31 29.9998385  0  9                     
C06  36504770.673   190089806.4971        163.905          18.000  
C09  37384335.363   194670056.078         182.636          28.000  
C16  36880377.046   192045741.7431        211.117          14.000  
C22  22289929.303                         455.250          37.000  
C36  22664546.661   118020186.533       -1555.421          22.000  
G10  23366836.576   122793515.863       -3944.025          15.000                                                                  
G26  20358696.568   106985629.8861        868.427          31.000                                                                  
G31  21270081.229   111775029.194        -938.821          29.000                                                                  
G32  20820421.622   109412139.362        -868.157          31.000                                                                  
> 2021 09 30 11 31 30.9998385  0  7                     
C06  36504741.293   190089642.441         164.366          17.000  
C09  37384301.786   194669873.060         183.433          27.000  
C22  22289840.564   116069053.7201        458.092          37.000  
G10  23367592.352   122797461.902       -3948.859          15.000                                                                  
G29  23707449.374   124583410.2921         27.120          15.000                                                                  
G31  21270263.203   111775968.790        -940.262          26.000                                                                  
G32  20820586.208   109413007.490        -867.918          30.000                                                                  
> 2021 09 30 11 31 31.9998382  0  7                     
C09  37384177.073   194669220.830         183.320          22.000  
C22  22289661.588                         457.433          36.000  
G10  23368252.196   122800936.853       -3947.469          14.000                                                                  
G26  20358276.858   106983423.1281        865.426          34.000                                                                  
G29  23707362.135   124582908.853          27.306          13.000                                                                  
G31  21270353.741   111776438.096        -942.048          23.000                                                                  
G32  20820660.856   109413403.156        -868.627          33.000                                                                  
> 2021 09 30 11 31 32.9998380  0  7                     
C06  36504527.242   190088530.3891        168.540          16.000  
C09  37384081.139   194668723.923         184.793          23.000  
C22  22289516.789   116067349.4601        455.596          36.000  
G26  20358048.716   106982242.494         865.048          34.000                                                                  
G29  23707298.579   124582569.008          20.258          13.000                                                                  
G31  21270472.159   111777065.252        -942.573          21.000                                                                  
G32  20820764.585   109413956.554        -868.899          33.000                                                                  
> 2021 09 30 11 31 33.9998377  0  4                     
C22  22289339.012   116066426.087         453.830          39.000  
G26  20357793.893   106980904.554         865.494          31.000                                                                  
G29  23707218.534   124582076.850          19.969          14.000                                                                  
G32  20820839.233   109414352.603        -868.489          33.000                                                                  
> 2021 09 30 11 31 34.9998374  0  5                     
C06  36504285.009   190087249.4531        171.213          13.000  
C22  22289161.834   116065503.304         452.924          39.000  
G26  20357538.469   106979566.884         864.818          29.000                                                                  
G29  23707133.993   124581587.512          15.855          13.000                                                                  
G32  20820917.779   109414748.971        -869.343          33.000                                                                  
> 2021 09 30 11 31 35.9998372  0  5                     
C22  22289012.538   116064737.699         453.861          36.000  
G10  23370940.734   122815139.6121      -3941.224          16.000                                                                  
G26  20357315.424   106978387.381         863.916          28.000                                                                  
G29  23707075.233   124581521.978          19.007          15.000                                                                  
G32  20821026.004                        -870.213          36.000                                                                  
> 2021 09 30 11 31 36.9998369  0  5                     
C06  36504071.857   190086123.5901        173.836          12.000  
C09  37383620.958   194666272.6301        181.828          19.000  
C22  22288837.159   116063816.585         449.273          38.000  
G26  20357061.200   106977050.986         863.462          28.000                                                                  
G32  20821098.853   109415628.9081       -873.868          35.000                                                                  
> 2021 09 30 11 31 37.9998367  0  5                     
C06  36503980.120   190085640.958         168.852          12.000  
C22  22288692.060   116063052.416         452.031          35.000  
G26  20356836.955   106975872.321         863.434          32.000                                                                  
G29  23706919.341   124580702.4611         16.648          15.000                                                                  
G32  20821202.282   109416185.799        -871.034          34.000                                                                  
> 2021 09 30 11 31 38.9998364  0  5                     
C06  36503859.004   190085007.240         163.765          12.000  
C22  22288515.182   116062131.635         452.329          36.000  
G10  23372943.048   122825700.1751      -3940.175          17.000                                                                  
G26  20356581.832   106974536.507         862.963          31.000                                                                  
G32  20821276.930   109416584.024        -871.057          33.000                                                                  
> 2021 09 30 11 31 39.9998362  0  3                     
C22  22288364.386   116061367.164         452.033          37.000  
G26  20356356.987   106973358.677         862.282          25.000                                                                  
G32  20821380.958   109417139.489        -870.699          34.000                                                                  
> 2021 09 30 11 31 40.9998359  0  3                     
C22  22288188.408   116060447.403         451.320          36.000  
G10  23374288.817   122832790.7231      -3938.221          16.000                                                                  
G26  20356103.962   106972024.164         861.547          34.000                                                                  
> 2021 09 30 11 31 41.9998356  0  3                     
C22  22288012.430   116059527.721         451.243          37.000  
G10  23374944.163   122836256.548       -3938.571          16.000                                                                  
G29  23706608.756   124578905.3031         15.855          15.000                                                                  
> 2021 09 30 11 31 42.9998354  0  3                     
C22  22287867.930   116058765.027         449.824          35.000  
G26  20355621.896   106969512.4661        861.877          31.000                                                                  
G32  20821638.779   109418493.4741       -872.956          34.000                                                                  
> 2021 09 30 11 31 43.9998351  0  5                     
C22  22287690.153                         448.130          39.000  
G10  23376285.135   122843344.9721      -3938.262          16.000                                                                  
G26  20355369.771   106968178.484         860.142          27.000                                                                  
G29  23706484.342   124578416.3601          7.785          15.000                                                                  
G31  21271594.582   111782859.7181       -939.483          16.000                                                                  
> 2021 09 30 11 31 44.9998351  0  3                     
C22  22287601.714   116057402.5381        448.790          38.000  
G26  20355205.484   106967318.965         858.535          26.000                                                                  
G32  20821884.309   109419768.4181       -874.269          36.000                                                                  
> 2021 09 30 11 31 45.9998349  0  4                     
C22  22287455.116   116056641.595         447.264          38.000  
G10  23377720.241   122850908.4971      -3940.264          15.000                                                                  
G26  20354982.439   106966146.080         856.923          28.000                                                                  
G32  20821988.937   109420329.285        -875.907          32.000                                                                  
> 2021 09 30 11 31 46.9998346  0  3                     
C22  22287281.536   116055724.490         448.814          41.000  
G10  23378378.885   122854376.191       -3940.900          14.000                                                                  
G26  20354731.812   106964816.245         857.548          24.000                                                                  
> 2021 09 30 11 31 47.9998344  0  4                     
C22  22287132.539   116054963.866         446.663          35.000  
G10  23379066.009   122858002.026       -3940.400          14.000                                                                  
G26  20354509.067   106963643.930         856.831          32.000                                                                  
G32  20822173.909   109421295.9291       -878.334          32.000                                                                  
> 2021 09 30 11 31 48.9998341  0  5                     
C22  22286957.460   116054048.642         447.611          35.000  
G10  23379723.154   122861468.868       -3938.469          12.000                                                                  
G26  20354255.442   106962315.002         856.061          30.000                                                                  
G29  23706237.313   124577118.3821         11.011          16.000                                                                  
G32  20822249.157   109421700.208        -876.009          35.000                                                                  
> 2021 09 30 11 31 49.9998339  0  3                     
C22  22286814.160   116053288.959         446.946          39.000  
G10  23380408.780   122865090.928       -3938.322          10.000                                                                  
G26  20354032.097   106961144.342         856.097          27.000                                                                  
> 2021 09 30 11 31 50.9998336  0  2                     
C22  22286640.880   116052374.598         446.183          42.000  
G26  20353777.273   106959815.703         854.797          31.000                                                                  
> 2021 09 30 11 31 51.9998333  0  8                     
C07  36544872.111   190298925.7331        408.205          29.000  
C10  37309575.219   194280749.2261        455.394          25.000  
C22  22286463.702   116051460.327         446.413          42.000  
G10  23381727.867   122872020.6141      -3938.207          12.000                                                                  
G26  20353524.548   106958488.144         855.141          28.000                                                                  
G29  23706008.872   124575832.3561          7.062          19.000                                                                  
G31  21272470.875   111787535.6581       -945.663          17.000                                                                  
G32  20822509.677   109423072.0481       -879.042          36.000                                                                  
> 2021 09 30 11 31 52.9998331  0  5                     
C03  36478542.730   189953344.8591       -389.785          28.000  
C07  36544732.108   190298205.364         408.496          30.000  
C10  37309427.121   194279981.004         454.771          25.000  
C22  22286318.902   116050702.913         444.130          42.000  
G29  23705950.412   124575509.884           7.151          20.000                                                                  
> 2021 09 30 11 31 53.9998331  0  5                     
C07  36544652.963   190297797.298         407.840          32.000  
C10  37309337.783   194279526.474         454.498          26.000  
C22  22286232.862   116050258.742         442.726          39.000  
G26  20353135.118   106956464.4401        853.198          36.000                                                                  
G32  20822785.186   109424517.0981       -880.482          31.000                                                                  
> 2021 09 30 11 31 54.9998328  0  7                     
C07  36544484.780   190296921.512         406.987          32.000  
C10  37309159.406   194278604.058         453.414          29.000  
C22  22286058.383   116049346.569         442.698          40.000  
G10  23383827.613   122883051.2901      -3940.622          14.000                                                                  
G26  20352879.994   106955139.255         852.111          38.000                                                                  
G31  21272862.704   111789580.8811       -942.232          16.000                                                                  
G32  20822861.033   109424923.720        -878.722          30.000                                                                  
> 2021 09 30 11 31 55.9998326  0  8                     
C07  36544346.575   190296202.891         405.772          28.000  
C10  37309011.009   194277839.030         451.757          27.000  
C22  22285911.784   116048593.236         441.492          38.000  
G10  23384518.635   122886676.212       -3939.587          14.000                                                                  
G26  20352654.850                         854.056          38.000                                                                  
G29  23705808.310   124574707.7991          5.316          19.000                                                                  
G31  21272982.621   111790209.552        -943.576          16.000                                                                  
G32  20822965.661   109425486.757        -878.243          32.000                                                                  
> 2021 09 30 11 31 56.9998323  0  5                     
C07  36544181.390   190295328.632         406.251          29.000  
C22  22285737.005                         439.886          37.000  
G26  20352404.524   106952600.5721        851.519          37.000                                                                  
G29  23705716.874   124574228.601           8.093          19.000                                                                  
G31  21273070.160   111790680.926        -939.516          17.000                                                                  
> 2021 09 30 11 31 57.9998321  0  8                     
C07  36544047.382   190294610.277         405.966          23.000  
C10  37308686.634   194276155.3701        451.314          21.000  
C16  36877305.972                         208.343          36.000  
C22  22285592.206   116046927.2091        439.440          37.000  
G10  23385867.101   122893768.8041      -3937.229          13.000                                                                  
G26  20352181.478   106951434.460         850.130          37.000                                                                  
G29  23705650.919   124573905.574           8.106          19.000                                                                  
G31  21273187.978   111791303.901        -933.728          16.000                                                                  
> 2021 09 30 11 31 58.9998318  0  7                     
C07  36543882.796   190293736.656         405.194          23.000  
C16  36877179.760   192029131.1561        210.459          37.000  
C22  22285414.129   116046017.295         442.068          37.000  
G10  23386526.045   122897232.712       -3936.253          12.000                                                                  
G26  20351929.652   106950110.944         849.823          39.000                                                                  
G29  23705552.887   124573425.171           6.528          24.000                                                                  
G31  21273277.916   111791764.718        -936.278          16.000                                                                  
> 2021 09 30 11 31 59.9998316  0  5                     
C07  36543746.691   190293018.733         405.373          21.000  
C10  37308363.457   194274474.2521        449.843          14.000  
C16  36877076.931   192028608.984         212.742          37.000  
C22  22285270.228   116045266.952         438.514          35.000  
G31  21273395.135   111792385.385        -935.738          15.000                                                                  
> 2021 09 30 11 32 00.9998316  0  5                     
C07  36543670.543   190292613.680         406.265          18.000  
C10  37308277.117   194274022.260         452.382          15.000  
C16  36877036.459   192028397.640         209.534          29.000  
C22  22285186.886   116044827.358         440.192          34.000  
G32  20823514.281   109428316.6571       -884.042          34.000                                                                  
> 2021 09 30 11 32 01.9998313  0  4                     
C16  36876906.949   192027719.225         210.682          27.000  
C22  22285016.604   116043919.138         439.541          35.000  
G26  20351299.788   106946776.6851        846.727          22.000                                                                  
G32  20823588.030   109428726.875        -886.541          36.000                                                                  
> 2021 09 30 11 32 02.9998310  0  6                     
C07  36543333.876   190290864.0931        406.973          19.000  
C16  36876776.239   192027040.948         209.164          23.000  
C22  22284842.724   116043011.272         439.453          35.000  
G26  20351050.361   106945457.109         848.152          19.000                                                                  
G29  23705314.552   124572145.3251          1.734          17.000                                                                  
G32  20823662.379   109429139.697        -884.780          35.000                                                                  
> 2021 09 30 11 32 03.9998308  0  4                     
C07  36543196.871   190290143.897         406.763          19.000  
C16  36876677.008   192026519.372         208.952          25.000  
C22  22284696.426   116042260.174         438.615          33.000  
G31  21273870.606   111794879.1381       -946.319          17.000                                                                  
> 2021 09 30 11 32 04.9998305  0  5                     
C16  36876546.598   192025841.266         208.698          24.000  
C22  22284521.946   116041353.601         437.857          32.000  
G29  23705159.859   124571358.2501         -2.799          18.000                                                                  
G31  21273964.141   111795352.760        -945.049          17.000                                                                  
G32  20823851.548   109430119.7081       -881.263          35.000                                                                  
> 2021 09 30 11 32 05.9998303  0  6                     
C07  36542894.680   190288553.7781        403.166          19.000  
C10  37307458.084   194269714.3161        456.815          18.000  
C16  36876447.966   192025320.025         209.563          24.000  
C22  22284378.646   116040604.158         437.635          30.000  
G26  20350365.035   106941813.7681        847.189          22.000                                                                  
G32  20823963.070   109430687.165        -882.327          36.000                                                                  
> 2021 09 30 11 32 06.9998300  0  4                     
C10  37307280.907   194268788.523         456.662          18.000  
C16  36876318.156   192024641.570         209.899          19.000  
C22  22284205.066   116039697.988         437.125          31.000  
G32  20824041.316   109431097.489        -883.757          34.000                                                                  
> 2021 09 30 11 32 07.9998298  0  5                     
C07  36542589.192   190286966.5921        404.836          24.000  
C10  37307135.208   194268020.483         455.344          23.000  
C16  36876218.325   192024119.882         209.889          21.000  
C22  22284061.165   116038948.138         437.596          31.000  
G26  20349890.764   106939334.3351        843.485          21.000                                                                  
> 2021 09 30 11 32 08.9998295  0  6                     
C07  36542418.310   190286092.791         405.416          18.000  
C16  36876089.415   192023441.298         210.172          23.000  
C22  22283888.485   116038042.856         436.891          29.000  
G26  20349645.534   106938018.358         842.635          20.000                                                                  
G31  21274389.247   111797575.5461       -953.145          13.000                                                                  
G32  20824228.087   109432080.8131       -885.636          35.000                                                                  
> 2021 09 30 11 32 09.9998292  0  5                     
C16  36875962.303   192022763.145         209.188          19.000  
C22  22283715.205   116037138.385         435.346          30.000  
G26  20349394.307   106936704.105         840.511          21.000                                                                  
G31  21274483.082   111798055.521        -952.496          15.000                                                                  
G32  20824306.932   109432494.239        -885.059          36.000                                                                  
> 2021 09 30 11 32 10.9998290  0  5                     
C22  22283571.305   116036390.933         435.006          29.000  
G26  20349175.159   106935547.219         842.090          21.000                                                                  
G29  23704698.179   124569013.8711         -3.704          19.000                                                                  
G31  21274604.198   111798689.851        -946.900          16.000                                                                  
G32  20824413.958   109433064.850        -886.408          36.000                                                                  
> 2021 09 30 11 32 11.9998287  0  5                     
C16  36875732.062   192021559.2411        210.421          20.000  
C22  22283399.224   116035487.602         434.955          23.000  
G26  20348922.734   106934232.297         842.094          25.000                                                                  
G29  23704601.946   124568546.976          -6.373          19.000                                                                  
G31  21274695.035   111799159.820        -940.691          16.000                                                                  
> 2021 09 30 11 32 12.9998285  0  3                     
C22  22283257.422   116034740.799         433.762          25.000  
G29  23704545.285   124568237.659          -4.789          20.000                                                                  
G32  20824604.326   109434055.4521       -889.797          32.000                                                                  
> 2021 09 30 11 32 13.9998282  0  3                     
C16  36875502.121   192020357.7141        209.032          21.000  
C22  22283084.442   116033840.670         430.476          24.000  
G32  20824684.371   109434471.404        -888.330          32.000                                                                  
> 2021 09 30 11 32 14.9998282  0  4                     
C16  36875464.047   192020150.379         206.730          21.000  
C22  22283003.498   116033408.885         433.265          25.000  
G29  23704457.446   124567775.7101         -4.342          21.000                                                                  
G32  20824850.156   109435361.482        -893.697          34.000                                                                  
> 2021 09 30 11 32 15.9998280  0  4                     
G26  20348072.223   106929765.9651        839.624          23.000                                                                  
G29  23704399.885   124567465.183          -4.722          21.000                                                                  
G31  21275190.892   111801799.0741       -934.405          18.000                                                                  
G32  20824959.580   109435938.277        -890.609          33.000                                                                  
> 2021 09 30 11 32 16.9998277  0  2                     
G26  20347821.596   106928453.380         840.198          24.000                                                                  
G32  20825037.826   109436355.570        -889.253          32.000                                                                  
> 2021 09 30 11 32 17.9998275  0  3                     
G26  20347600.649   106927297.353         841.024          21.000                                                                  
G29  23704239.496   124566684.9531         -6.042          20.000                                                                  
G32  20825148.150                        -887.375          35.000                                                                  
> 2021 09 30 11 32 18.9998272  0  2                     
G26  20347350.322   106925984.109         840.307          21.000                                                                  
G32  20825224.897   109437309.0971       -886.648          35.000                                                                  
> 2021 09 30 11 32 19.9998269  0  2                     
G26  20347099.996   106924673.095         838.541          20.000                                                                  
G32  20825304.342   109437724.844        -889.312          34.000                                                                  
> 2021 09 30 11 32 20.9998267  0  4                     
G26  20346879.648   106923520.534         836.252          23.000                                                                  
G29  23704006.258   124565446.6721         -9.363          20.000                                                                  
G31  21275689.746   111804434.7951       -940.356          18.000                                                                  
G32  20825412.867   109438300.944        -891.853          33.000                                                                  
> 2021 09 30 11 32 21.9998264  0  1                     
G32  20825494.410   109438720.024        -890.604          35.000                                                                  
> 2021 09 30 11 32 22.9998262  0  2                     
G26  20346411.972   106921063.7291        833.938          25.000                                                                  
G32  20825605.633   109439295.922        -892.947          34.000                                                                  
> 2021 09 30 11 32 23.9998259  0  3                     
G26  20346162.245   106919756.048         833.650          24.000                                                                  
G31  21275990.438   111806004.5131       -945.075          19.000                                                                  
G32  20825687.177                        -891.359          34.000                                                                  
> 2021 09 30 11 32 24.9998257  0  4                     
G26  20345940.998   106918607.280         833.667          26.000                                                                  
G29  23703712.461   124563901.2401         -6.468          18.000                                                                  
G31  21276110.355   111806634.362        -943.511          19.000                                                                  
G32  20825799.299   109440305.9321       -900.722          35.000                                                                  
> 2021 09 30 11 32 25.9998254  0  2                     
G26  20345691.571   106917300.461         834.166          23.000                                                                  
G32  20825880.543                        -898.342          33.000                                                                  
> 2021 09 30 11 32 26.9998252  0  1                     
G32  20825989.967   109441321.0901       -898.614          35.000                                                                  
> 2021 09 30 11 32 27.9998249  0  4                     
C22  22280942.724   116022679.8631        425.263          28.000  
G26  20345227.492   106914849.0411        832.766          26.000                                                                  
G31  21276418.242   111808213.2241       -949.943          20.000                                                                  
G32  20826069.412   109441745.579        -895.978          33.000                                                                  
> 2021 09 30 11 32 28.9998246  0  3                     
C22  22280770.344   116021787.593         423.473          27.000  
G26  20344980.163   106913545.376         830.023          27.000                                                                  
G32  20826146.459   109442168.954        -897.571          33.000                                                                  
> 2021 09 30 11 32 29.9998246  0  3                     
C22  22280688.500   116021365.840         420.856          26.000  
G26  20344821.273   106912715.604         829.295          22.000                                                                  
G32  20826316.741   109443068.203        -898.630          32.000                                                                  
> 2021 09 30 11 32 30.9998244  0  4                     
C22  22280546.998   116020633.421         420.108          23.000  
G29  23703332.624   124561872.8181         -9.214          16.000                                                                  
G31  21276813.069   111810272.0911       -949.201          20.000                                                                  
G32  20826426.765   109443651.429        -899.722          36.000                                                                  
> 2021 09 30 11 32 31.9998241  0  4                     
C22  22280376.716   116019743.905         421.497          24.000  
G26  20344352.098   106910275.0371        826.309          22.000                                                                  
G31  21276902.107   111810749.010        -950.194          20.000                                                                  
G32  20826505.910   109444078.747        -899.630          33.000                                                                  
> 2021 09 30 11 32 32.9998239  0  5                     
C22  22280234.015   116019009.837         421.718          25.000  
G26  20344139.245   106909133.575         825.750          21.000                                                                  
G29  23703189.623   124561112.9341        -18.869          16.000                                                                  
G31  21277027.420   111811385.301        -952.264          20.000                                                                  
G32  20826615.334   109444663.056        -899.301          31.000                                                                  
> 2021 09 30 11 32 33.9998236  0  2                     
C22  22280064.033   116018118.586         422.781          23.000  
G26  20343894.615   106907835.930         824.502          22.000                                                                  
> 2021 09 30 11 32 34.9998234  0  4                     
C22  22279924.030   116017384.804         420.507          23.000  
G26  20343678.165   106906696.335         824.460          23.000                                                                  
G31  21277241.172   111812500.1601       -951.115          24.000                                                                  
G32  20826806.602   109445677.6381       -903.016          30.000                                                                  
> 2021 09 30 11 32 35.9998231  0  3                     
C22  22279752.848   116016496.530         419.059          25.000  
G26  20343433.534   106905399.598         824.072          24.000                                                                  
G29  23702974.372   124559917.8701        -21.586          18.000                                                                  
> 2021 09 30 11 32 36.9998228  0  5                     
C22  22279583.166   116015609.922         417.982          24.000  
G26  20343186.505   106904103.334         823.276          25.000                                                                  
G29  23702889.531   124559467.393         -22.227          18.000                                                                  
G31  21277425.545   111813457.7371       -951.235          19.000                                                                  
G32  20826972.687   109446539.0931       -903.924          32.000                                                                  
> 2021 09 30 11 32 37.9998226  0  4                     
C22  22279442.863   116014880.773         415.009          23.000  
G26  20342970.055   106902965.446         822.273          24.000                                                                  
G29  23702836.768   124559174.715         -22.621          19.000                                                                  
G32  20827087.507   109447127.371        -903.903          31.000                                                                  
> 2021 09 30 11 32 38.9998223  0  4                     
C22  22279276.778   116013998.197         413.001          25.000  
G26  20342720.927   106901671.692         820.165          23.000                                                                  
G31  21277637.198   111814572.1241       -952.769          20.000                                                                  
G32  20827169.051   109447560.339        -909.806          32.000                                                                  
> 2021 09 30 11 32 39.9998221  0  5                     
C22  22279137.374   116013273.249         412.211          27.000  
G26  20342503.878   106900536.090         819.920          21.000                                                                  
G29  23702698.563   124558435.3181        -25.785          17.000                                                                  
G31  21277761.013   111815210.614        -954.508          20.000                                                                  
G32  20827280.574   109448153.866        -908.324          31.000                                                                  
> 2021 09 30 11 32 40.9998218  0  3                     
C22  22278967.392   116012392.309         412.895          27.000  
G26  20342260.446   106899243.340         819.681          21.000                                                                  
G32  20827362.717   109448589.072        -908.088          32.000                                                                  
> 2021 09 30 11 32 41.9998216  0  5                     
C22  22278829.487   116011668.251         411.307          27.000  
G26  20342046.394   106898108.832         818.967          23.000                                                                  
G29  23702563.657   124557698.4161        -25.716          19.000                                                                  
G31  21277977.763   111816329.5321       -950.969          20.000                                                                  
G32  20827476.038   109449181.654        -910.815          33.000                                                                  
> 2021 09 30 11 32 42.9998213  0  4                     
C22  22278660.704   116010788.327         410.994          28.000  
G26  20341793.969   106896818.072         817.304          22.000                                                                  
G29  23702480.314   124557249.949         -24.122          18.000                                                                  
G31  21278066.501   111816807.418        -950.563          20.000                                                                  
> 2021 09 30 11 32 43.9998213  0  3                     
C22  22278580.959   116010377.043         411.249          25.000  
G26  20341639.576   106896000.692         817.614          24.000                                                                  
G32  20827729.663   109450528.3881       -909.432          31.000                                                                  
> 2021 09 30 11 32 44.9998211  0  2                     
C22  22278442.755   116009653.208         411.548          25.000  
G26  20341425.524   106894868.573         816.454          21.000                                                                  
> 2021 09 30 11 32 45.9998208  0  3                     
G26  20341181.793   106893579.774         815.455          21.000                                                                  
G31  21278453.833   111818875.4361       -953.696          19.000                                                                  
G32  20827926.327   109451559.5451       -906.554          31.000                                                                  
> 2021 09 30 11 32 46.9998205  0  4                     
G26  20340933.565   106892291.909         814.794          24.000                                                                  
G29  23702249.474   124556103.5141        -27.715          17.000                                                                  
G31  21278541.672   111819358.150        -955.889          23.000                                                                  
G32  20828007.870   109451994.672        -910.106          31.000                                                                  
> 2021 09 30 11 32 47.9998203  0  3                     
G26  20340721.312   106891162.296         814.416          25.000                                                                  
G29  23702192.514   124555814.735         -26.596          16.000                                                                  
G31  21278661.589   111819998.876        -956.692          22.000                                                                  
> 2021 09 30 11 32 48.9998200  0  2                     
G26  20340475.782   106889876.502         811.954          22.000                                                                  
G31  21278752.426   111820483.307        -957.360          23.000                                                                  
> 2021 09 30 11 32 49.9998198  0  3                     
G26  20340261.730   106888749.585         810.495          26.000                                                                  
G31  21278873.842   111821124.959        -956.817          24.000                                                                  
G32  20828316.357   109453624.7901       -910.653          32.000                                                                  
> 2021 09 30 11 32 50.9998195  0  3                     
G26  20340019.498   106887467.106         809.191          24.000                                                                  
G29  23701963.172   124554642.7831        -30.352          17.000                                                                  
G31  21278964.679   111821607.069        -953.850          22.000                                                                  
> 2021 09 30 11 32 51.9998193  0  5                     
C06  36496414.258   190046425.2951        157.195          26.000  
G26  20339803.047   106886342.739         810.086          22.000                                                                  
G29  23701905.612   124554357.108         -30.407          18.000                                                                  
G31  21279086.695   111822245.681        -953.873          25.000                                                                  
G32  20828514.519   109454659.4671       -910.470          32.000                                                                  
> 2021 09 30 11 32 52.9998190  0  4                     
C06  36496294.341   190045799.609         157.734          25.000  
G26  20339555.119   106885060.166         808.912          21.000                                                                  
G31  21279178.431   111822728.183        -956.477          21.000                                                                  
G32  20828598.162                        -913.701          35.000                                                                  
> 2021 09 30 11 32 53.9998188  0  4                     
C06  36496203.804   190045327.089         160.685          22.000  
G26  20339341.667   106883937.240         808.502          18.000                                                                  
G31  21279299.248   111823368.947        -956.195          22.000                                                                  
G32  20828713.582   109455621.8371       -916.705          33.000                                                                  
> 2021 09 30 11 32 54.9998182  0  2                     
G26  20339007.698   106882181.555         811.864          19.000                                                                  
G32  20828707.586   109455592.440        -914.850          31.000                                                                  
> 2021 09 30 11 32 55.9998180  0  5                     
C06  36495903.112   190043757.9101        158.016          21.000  
G26  20338796.344   106881054.126         812.306          23.000                                                                  
G29  23701541.964   124552432.4061        -32.566          17.000                                                                  
G31  21279421.863   111824016.3241       -952.717          21.000                                                                  
G32  20828822.706   109456192.839        -915.525          31.000                                                                  
> 2021 09 30 11 32 56.9998177  0  4                     
C06  36495784.994   190043131.405         158.733          22.000  
G26  20338552.613   106879769.567         810.656          21.000                                                                  
G29  23701459.221   124551990.988         -29.466          16.000                                                                  
G32  20828906.648   109456636.347        -916.484          31.000                                                                  
> 2021 09 30 11 32 57.9998177  0  7                     
C06  36495754.415   190042972.162         159.024          25.000  
C10  37299224.284   194226836.3381        440.076          25.000  
C22  22276406.265   115999051.2261        402.315          28.000  
G26  20338400.318   106878959.847         807.176          20.000                                                                  
G29  23701463.718   124552019.306         -28.227          15.000                                                                  
G31  21279699.471   111825451.3941       -954.888          23.000                                                                  
G32  20829080.827   109457553.048        -916.163          31.000                                                                  
> 2021 09 30 11 32 58.9998175  0  3                     
C10  37299078.285   194226083.818         440.708          22.000  
C22  22276267.461   115998336.844         401.909          26.000  
G32  20829193.849   109458154.563        -917.772          32.000                                                                  
> 2021 09 30 11 32 59.9998175  0  4                     
C06  36495634.498   190042340.5021        159.342          23.000  
C10  37298992.545   194225643.715         439.350          26.000  
C22  22276189.515   115997934.879         401.164          26.000  
G26  20338032.173   106877034.6791        804.997          20.000                                                                  
> 2021 09 30 11 33 00.9998172  0  7                     
C06  36495513.682   190041711.483         161.073          23.000  
C10  37298815.367   194224737.978         436.717          25.000  
C22  22276021.032   115997065.976         400.645          24.000  
G26  20337785.744   106875756.331         805.836          28.000                                                                  
G29  23701339.604   124551331.4681        -38.566          15.000                                                                  
G31  21280098.794   111827531.5131       -955.123          22.000                                                                  
G32  20829451.671   109459516.8981       -913.995          33.000                                                                  
> 2021 09 30 11 33 01.9998170  0  4                     
C06  36495420.146   190041238.388         160.704          24.000  
C22  22275883.727   115996353.405         400.034          27.000  
G26  20337570.493   106874635.813         804.588          30.000                                                                  
G31  21280225.906   111828170.979        -954.406          20.000                                                                  
> 2021 09 30 11 33 02.9998167  0  5                     
C06  36495297.231   190040609.095         160.985          24.000  
C10  37298497.288   194223085.3641        435.625          22.000  
C22  22275716.143   115995484.407         400.736          28.000  
G26  20337327.361   106873358.496         804.860          24.000                                                                  
G32  20829650.133   109460562.4571       -917.691          33.000                                                                  
> 2021 09 30 11 33 03.9998164  0  7                     
C06  36495175.216   190039979.512         161.599          26.000  
C10  37298324.607   194222179.970         437.720          24.000  
C16  36869969.451   191991585.6001        206.002          37.000  
C22  22275549.758   115994615.858         399.808          28.000  
G26  20337085.429   106872081.078         802.752          25.000                                                                  
G29  23701137.244   124550198.6531        -45.790          16.000                                                                  
G32  20829734.675   109461007.133        -916.607          33.000                                                                  
> 2021 09 30 11 33 04.9998162  0  7                     
C06  36495083.779   190039505.710         161.582          31.000  
C10  37298180.107   194221430.160         438.515          24.000  
C16  36869870.220   191991066.456         207.305          32.000  
C22  22275412.153   115993903.355         400.505          31.000  
G26  20336874.675   106870963.531         802.963          22.000                                                                  
G29  23701092.875   124549926.076         -37.880          15.000                                                                  
G32  20829848.896   109461608.877        -916.564          34.000                                                                  
> 2021 09 30 11 33 05.9998159  0  6                     
C06  36494962.963   190038876.044         161.279          34.000  
C16  36869742.209   191990391.911         205.457          25.000  
C22  22275245.169   115993034.565         400.550          30.000  
G26  20336630.943   106869687.632         803.059          25.000                                                                  
G31  21280622.831   111830261.9111       -956.276          19.000                                                                  
G32  20829936.435   109462052.404        -916.745          33.000                                                                  
> 2021 09 30 11 33 06.9998154  0  7                     
C06  36494782.488   190037934.458         160.549          29.000  
C10  37297773.289   194219304.6091        437.012          21.000  
C16  36869552.140   191989406.520         203.696          26.000  
C22  22275017.926   115991853.832         399.805          32.000  
G26  20336326.354   106868096.449         804.938          27.000                                                                  
G31  21280650.712   111830429.939        -955.397          24.000                                                                  
G32  20829961.917   109462183.984        -923.254          34.000                                                                  
> 2021 09 30 11 33 07.9998152  0  8                     
C06  36494692.550   190037462.103         160.994          29.000  
C10  37297627.590   194218554.189         437.701          22.000  
C16  36869454.408   191988890.358         202.034          21.000  
C22  22274881.221   115991141.807         399.614          35.000  
G26  20336111.703   106866976.716         804.182          22.000                                                                  
G29  23700817.066   124548463.1201        -39.697          15.000                                                                  
G31  21280771.528   111831070.204        -956.550          26.000                                                                  
G32  20830076.138                        -918.021          34.000                                                                  
> 2021 09 30 11 33 08.9998149  0  6                     
C06  36494569.635   190036831.420         161.196          25.000  
C10  37297453.410   194217647.527         438.374          23.000  
C16  36869324.598   191988217.927         204.978          24.000  
C22  22274714.536   115990273.491         400.122          36.000  
G31  21280862.066   111831552.968        -955.348          25.000                                                                  
G32  20830157.382   109463235.8241       -920.240          35.000                                                                  
> 2021 09 30 11 33 09.9998147  0  6                     
C10  37297308.011   194216896.583         438.585          22.000  
C16  36869226.566   191987700.622         205.548          23.000  
C22  22274579.330   115989561.392         398.295          36.000  
G26  20335660.515   106864576.6281        803.295          21.000                                                                  
G31  21280982.283   111832193.673        -955.959          24.000                                                                  
G32  20830270.404   109463839.990        -919.231          33.000                                                                  
> 2021 09 30 11 33 10.9998144  0  6                     
C16  36869096.456   191987025.422         207.957          21.000  
C22  22274415.643   115988693.933         401.927          36.000  
G26  20335417.683   106863300.742         804.216          20.000                                                                  
G29  23700588.624   124547311.8361        -37.787          14.000                                                                  
G31  21281072.520   111832677.286        -955.503          23.000                                                                  
G32  20830357.943   109464286.717        -918.690          34.000                                                                  
> 2021 09 30 11 33 11.9998141  0  5                     
C16  36868965.446   191986347.829         210.801          23.000  
C22  22274248.359   115987823.751         400.770          38.000  
G26  20335172.753   106862024.433         803.742          24.000                                                                  
G29  23700503.483   124546874.775         -33.067          14.000                                                                  
G32  20830443.384                        -920.428          34.000                                                                  
> 2021 09 30 11 33 12.9998141  0  5                     
C10  37296877.209   194214646.0531        436.457          20.000  
C22  22274172.211   115987425.635         398.375          35.000  
G26  20335015.662   106861221.034         801.324          21.000                                                                  
G29  23700506.781   124546908.165         -33.343          13.000                                                                  
G32  20830621.761   109465637.9381       -915.975          34.000                                                                  
> 2021 09 30 11 33 13.9998139  0  5                     
C10  37296733.908   194213896.378         438.236          20.000  
C16  36868825.143   191985618.0361        207.543          25.000  
C22  22274035.506   115986714.382         399.053          35.000  
G26  20334804.008   106860104.720         800.656          21.000                                                                  
G32  20830738.979                        -916.339          36.000                                                                  
> 2021 09 30 11 33 14.9998136  0  4                     
C22  22273870.320   115985848.045         392.735          36.000  
G29  23700364.379   124546195.3791        -39.244          13.000                                                                  
G31  21281566.578   111835229.5231       -954.897          21.000                                                                  
G32  20830819.324   109466724.6341       -928.952          34.000                                                                  
> 2021 09 30 11 33 15.9998134  0  5                     
C16  36868594.603   191984423.5781        206.390          20.000  
C22  22273734.215   115985139.320         397.026          35.000  
G26  20334351.921   106857715.8951        799.271          23.000                                                                  
G31  21281687.394   111835868.697        -954.102          21.000                                                                  
G32  20830933.545   109467335.798        -924.874          29.000                                                                  
> 2021 09 30 11 33 16.9998131  0  3                     
C22  22273565.731   115984274.506         395.963          33.000  
G26  20334109.989   106856443.423         799.497          20.000                                                                  
G32  20831018.086   109467785.678        -921.749          32.000                                                                  
> 2021 09 30 11 33 17.9998129  0  6                     
C16  36868365.861   191983229.5561        207.362          22.000  
C22  22273429.326                         398.088          36.000  
G26  20333897.436   106855329.365         798.243          24.000                                                                  
G29  23700180.307   124545215.6081        -44.515          13.000                                                                  
G31  21281906.543   111836993.7521       -956.819          19.000                                                                  
G32  20831132.007   109468391.732        -921.073          32.000                                                                  
> 2021 09 30 11 33 18.9998126  0  6                     
C16  36868235.452   191982553.807         206.098          26.000  
C22  22273264.440   115982728.2101        391.820          36.000  
G26  20333658.501   106854058.975         796.826          24.000                                                                  
G29  23700096.065   124544787.455         -43.778          14.000                                                                  
G31  21281996.780   111837478.692        -958.580          21.000                                                                  
G32  20831217.148   109468841.819        -924.516          34.000                                                                  
> 2021 09 30 11 33 19.9998124  0  5                     
C16  36868136.820   191982035.691         204.253          19.000  
C22  22273128.334   115982020.444         395.716          33.000  
G26  20333444.449   106852947.082         794.624          24.000                                                                  
G31  21282117.597   111838121.413        -957.592          21.000                                                                  
G32  20831331.070   109469451.438        -924.801          32.000                                                                  
> 2021 09 30 11 33 20.9998121  0  4                     
C16  36868006.710   191981362.681         205.493          22.000  
C22  22272962.849   115981158.512         391.748          33.000  
G26  20333203.416   106851681.030         792.117          22.000                                                                  
G29  23699966.255   124544088.9721        -48.875          14.000                                                                  
> 2021 09 30 11 33 21.9998118  0  4                     
C22  22272798.263   115980297.835         392.621          34.000  
G26  20332962.683   106850416.179         791.855          22.000                                                                  
G31  21282302.569   111839093.0571       -957.781          21.000                                                                  
G32  20831510.345   109470354.5851       -925.853          32.000                                                                  
> 2021 09 30 11 33 22.9998116  0  5                     
C22  22272660.958   115979592.945         391.901          39.000  
G26  20332749.530   106849308.555         792.479          23.000                                                                  
G29  23699828.950   124543397.3361        -46.992          14.000                                                                  
G31  21282423.085   111839734.453        -956.254          26.000                                                                  
G32  20831626.665   109470965.925        -927.156          33.000                                                                  
> 2021 09 30 11 33 23.9998113  0  4                     
C22  22272497.271                         389.920          38.000  
G26  20332505.499   106848043.235         792.472          28.000                                                                  
G31  21282516.620   111840217.952        -956.357          25.000                                                                  
G32  20831715.703   109471420.433        -927.741          31.000                                                                  
> 2021 09 30 11 33 24.9998111  0  3                     
C22  22272362.364   115978034.5311        389.120          42.000  
G31  21282639.235   111840860.217        -957.527          20.000                                                                  
G32  20831829.025   109472033.144        -930.219          31.000                                                                  
> 2021 09 30 11 33 25.9998108  0  5                     
C22  22272196.579   115977175.671         390.615          39.000  
G26  20332051.913   106845669.5221        792.272          37.000                                                                  
G29  23699611.600   124542290.4761        -53.036          15.000                                                                  
G31  21282731.871   111841343.905        -956.934          19.000                                                                  
G32  20831915.065   109472490.991        -930.101          31.000                                                                  
> 2021 09 30 11 33 26.9998108  0  5                     
C22  22272119.832   115976785.735         390.206          42.000  
G26  20331900.218   106844877.410         790.900          34.000                                                                  
G29  23699619.395   124542346.129         -59.562          14.000                                                                  
G31  21282917.743   111842300.574        -957.031          21.000                                                                  
G32  20832091.643   109473421.457        -931.271          36.000                                                                  
> 2021 09 30 11 33 27.9998106  0  6                     
C07  36530730.601   190225100.8931        384.134          31.000  
C10  37294552.019   194202620.7061        433.033          30.000  
C22  22271987.624   115976084.288         389.552          36.000  
G26  20331687.066                         790.809          39.000                                                                  
G29  23699563.634   124542089.915         -57.133          14.000                                                                  
G32  20832209.162   109474037.849        -932.567          41.000                                                                  
