     3.03           OBSERVATION DATA    M: Mixed            RINEX VERSION / TYPE
Geo++ RINEX Logger  Geo++               20210930 111604 UTC PGM / RUN BY / DATE
************************************************************COMMENT
This file was generated by the Geo++ RINEX Logger App       COMMENT
for Android devices (Version 2.1.6). If you encounter       COMMENT
any issues, please send an email to android@geopp.de        COMMENT
Filtering Mode: BEST                                        COMMENT
************************************************************COMMENT
Geo++                                                       MARKER NAME
GEODETIC                                                    MARKER TYPE
Geo++               Geo++                                   OBSERVER / AGENCY
unknown             HUAWEI              ELS-AN00            REC # / TYPE / VERS
unknown             ELS-AN00                                ANT # / TYPE
 -2418823.9076  5385593.4840  2405545.9922                  APPROX POSITION XYZ
        0.0000        0.0000        0.0000                  ANTENNA: DELTA H/E/N
G    8 C1C L1C D1C S1C C5Q L5Q D5Q S5Q                      SYS / # / OBS TYPES
R    4 C1C L1C D1C S1C                                      SYS / # / OBS TYPES
E   12 C1B L1B D1B S1B C1C L1C D1C S1C C5Q L5Q D5Q S5Q      SYS / # / OBS TYPES
C    4 C2I L2I D2I S2I                                      SYS / # / OBS TYPES
J    8 C1C L1C D1C S1C C5Q L5Q D5Q S5Q                      SYS / # / OBS TYPES
  2021     9    30    11    16   22.8682691     GPS         TIME OF FIRST OBS
 24 R01  1 R02 -4 R03  5 R04  6 R05  1 R06 -4 R07  5 R08  6 GLONASS SLOT / FRQ #
    R09 -2 R10 -5 R11  0 R12 -1 R13 -2 R14 -7 R15  0 R16 -1 GLONASS SLOT / FRQ #
    R17  4 R18 -3 R19  3 R20  2 R21  4 R22 -3 R23  3 R24  2 GLONASS SLOT / FRQ #
G L1C                                                       SYS / PHASE SHIFT
G L5Q -0.25000                                              SYS / PHASE SHIFT
R L1C                                                       SYS / PHASE SHIFT
E L1B                                                       SYS / PHASE SHIFT
E L1C +0.50000                                              SYS / PHASE SHIFT
E L5Q -0.25000                                              SYS / PHASE SHIFT
C L2I                                                       SYS / PHASE SHIFT
J L1C                                                       SYS / PHASE SHIFT
J L5Q -0.25000                                              SYS / PHASE SHIFT
 C1C    0.000 C1P    0.000 C2C    0.000 C2P    0.000        GLONASS COD/PHS/BIS
                                                            END OF HEADER
> 2021  9 30 11 16 22.8682691  3  1
Geo++                                                       MARKER NAME
> 2021  9 30 11 16 22.8682691  0  4
C06  36675482.092                           0.000          38.000  
C19  22222817.763                           0.000          34.000  
C36  22241979.298                           0.000          35.000  
J020498977533.030                           0.000          39.000  
> 2021  9 30 11 17 10.6329705  0  4
C06  37793486.114                         237.956          37.000  
C19  23164047.364                       -2057.451          35.000  
C36  23683250.427                       -1307.450          36.000  
J02  40084122.340                       -1083.954          40.000  
> 2021  9 30 11 17 11.6329705  0  4
C06  37793440.546                         237.892          38.000  
C19  23164446.088                       -2060.403          34.000  
C36  23683498.655                       -1308.184          36.000  
J02  40084328.597                       -1084.515          41.000  
> 2021  9 30 11 17 12.6329705  0  3
C06  37793392.579                         237.667          39.000  
C36  23683751.980                       -1309.224          39.000  
J02  40084535.454                       -1084.558          40.000  
> 2021  9 30 11 17 13.6329705  0  6
C06  37793344.612                         237.846          38.000  
C19  23165233.942                       -2059.291          32.000  
C36  23684004.105                       -1308.371          39.000  
E08  23002729.342                        -379.762          39.000  
G26  21805005.709                        1473.852          39.000  
J02  40084739.612                       -1083.379          40.000    40084751.004                        -810.479          31.000  
> 2021  9 30 11 17 14.6329705  0  7
C06  37793299.343                         236.436          38.000  
C19  23165629.968                       -2060.649          33.000  
C36  23684259.528                       -1308.099          40.000  
E08  23002801.892                        -379.632          39.000  
G10  23999204.996                       -3702.519          36.000  
G26  21804715.210                        1473.195          37.000  
J02  40084947.668                       -1085.156          38.000    40084956.662                        -810.669          32.000  
> 2021  9 30 11 17 15.6329705  0  8
C06  37793253.775                         237.088          38.000  
C164056449099.279                           0.000          38.000  
C19  23166029.292                       -2062.174          33.000  
C36  23684512.253                       -1310.754          40.000  
E08  23002875.641                        -381.088          41.000  
G10  23999909.209                       -3704.561          36.000  
G26  21804436.703                        1470.694          36.000  
J02  40085153.026                       -1086.354          41.000    40085162.919                        -811.227          35.000  
> 2021  9 30 11 21  0.9999706  0 13
C01  37485770.441   195198243.7071       -280.714          41.000  
C04  38370738.890   199806507.2681       -260.355          33.000  
C07  36647401.132   190832635.2801        588.773          31.000  
C16  36948773.496   192401960.5011        279.283          36.000  
C19  22042217.690   114779611.8441      -2179.719          30.000  
C22  22409041.643   116689760.4551        868.319          26.000  
C36  22526851.685   117303228.8971      -1367.248          34.000  
G10  22944244.630   120572819.7741      -3763.879          23.000  
G25  23565569.596   123837904.4051      -3758.231          30.000  
G26  20528872.557   107879953.9181       1325.999          38.000    20528876.754    80559721.9541        989.613          33.000  
G31  21206544.715   111441144.6781       -772.494          17.000  
G32  20777363.930   109185784.6121       -501.430          31.000  
J02  38916409.430   204507112.5021      -1102.372          21.000    38916428.317   152716423.9231       -820.492          36.000  
> 2021  9 30 11 21  1.9999703  0 16
C01  37485732.068   195198055.659        -280.396          40.000  
C04  38370700.817   199806300.066        -261.994          32.000  
C07  36647197.873   190831578.137         588.293          31.000  
C16  36948627.497   192401214.020         278.235          37.000  
C19  22042545.363   114781323.578       -2180.486          29.000  
C36  22527022.867   117304127.975       -1368.191          33.000  
G10  22944890.383   120576110.181       -3762.720          24.000  
G25  23566194.363   123841189.313       -3757.456          30.000  
G26  20528530.794   107878156.663        1323.850          38.000    20528534.092    80558379.941         989.572          34.000  
G29  23772794.237   124926877.4651        420.270          27.000  
G31  21206610.069   111441442.555        -769.441          18.000  
G32  20777381.918   109185813.324        -501.643          27.000  
J02  38916544.637   204507740.209       -1099.445          22.000    38916547.635   152716892.865        -822.101          35.000  
R04  19500644.685   104425067.4601      -1598.573          27.000  
R14  22482975.560   119846912.1621      -3598.522          30.000  
R15  19888864.526   106280062.0871      -1674.178          30.000  
> 2021  9 30 11 21  2.9999700  0 13
C01  37485695.193   195197867.711        -280.290          39.000  
C04  38370662.443   199806094.685        -264.516          30.000  
C07  36646991.616                         587.052          32.000  
C16  36948490.492   192400467.175         279.754          35.000  
C19  22042872.437   114783036.887       -2182.240          30.000  
C30  25813711.439   134418769.8581       1339.352          13.000  
C36  22527193.448   117305027.207       -1367.104          36.000  
G10  22945519.647   120579400.101       -3762.558          25.000  
G26  20528186.632   107876360.381        1324.288          38.000    20528192.928    80557038.554         987.919          34.000  
G32  20777385.515   109185842.930        -502.732          39.000  
J01  36567844.608   192165320.6801        553.678          32.000  
J02  38916664.254   204508368.073       -1101.050          30.000    38916668.451   152717362.106        -819.215          37.000  
R14  22483560.155   119850027.831       -3599.263          22.000  
> 2021  9 30 11 21  3.9999698  0 11
C01  37485694.893   195197836.275        -281.554          39.000  
C07  36646821.933   190829602.6741        587.538          30.000  
C16  36948375.372   192399876.804         276.724          21.000  
C19  22043230.389   114784907.270       -2183.067          30.000  
C36  22527396.708   117306082.644       -1367.550          33.000  
G10  22946175.893   120582847.762       -3763.511          22.000  
G26  20527872.749   107874722.568        1321.671          39.000    20527882.643    80555815.426         987.983          36.000  
G31  21206755.469   111442198.7781       -774.605          20.000  
J01  36567666.531   192164452.907         551.739          38.000  
J02                                                                  38916818.647   152717949.141        -821.958          33.000  
R04  19501091.975   104427462.4651      -1599.959          28.000  
> 2021  9 30 11 21  4.9999698  0 13
C01  37485748.256   195198118.070        -281.785          37.000  
C07  36646713.108   190829015.080         590.991          30.000  
C16  36948316.013   192399600.003         276.616          24.000  
C19  22043647.400   114787090.562       -2183.240          31.000  
C36  22527662.024   117307450.992       -1369.323          31.000  
G10  22946898.093   120586612.594       -3765.907          22.000  
G25  23568196.977   123851675.5481      -3758.926          28.000  
G26  20527626.620   107873400.033        1326.212          39.000    20527631.416    80554828.086         989.255          36.000  
G32  20777504.233                        -507.148          38.000  
J02                                                                  38917028.202   152718772.032        -822.949          34.000  
J03  37317006.774   196102194.6431       -185.055          17.000  
R04  19501395.065   104429085.498       -1601.018          27.000  
R14  22484840.569   119856852.9431      -3600.016          29.000  
> 2021  9 30 11 21  5.9999695  0 12
C01  37485709.883   195197931.468        -281.690          40.000  
C07  36646511.048   190827958.913         587.111          23.000  
C16  36948171.513   192398855.090         276.322          31.000  
C36  22527834.405   117308352.053       -1369.631          34.000  
G10  22947520.762   120589905.728       -3765.888          24.000  
G25  23568824.442   123854961.957       -3759.520          31.000  
G26  20527286.655   107871605.110        1320.731          33.000    20527286.955    80553488.757         986.533          30.000  
G32  20777521.921   109186555.1031       -502.497          42.000  
J02  38917141.823   204510884.9211      -1101.952          36.000    38917146.320   152719241.965        -822.411          33.000  
J03  37316953.111   196101908.022        -186.561          17.000  
R04  19501605.519   104430212.682       -1602.415          32.000  
R14  22485422.166   119859953.218       -3602.018          25.000  
> 2021  9 30 11 21  6.9999693  0 15
C01  37485702.688   195197900.722        -280.861          37.000  
C07  36646337.768   190827060.150         585.298          24.000  
C16  36948057.592   192398266.524         275.934          34.000  
C22  22407647.608   116682540.9891        862.071          27.000  
C30  25812482.590   134412325.3501       1337.905          24.000  
C36  22528034.067   117309408.949       -1369.566          36.000  
G10  22948176.408   120593356.081       -3765.401          24.000  
G25  23569484.286   123858406.612       -3759.884          24.000  
G26  20526974.871   107869969.726        1319.536          35.000    20526975.171    80552267.427         984.079          30.000  
G31  21207062.456   111443723.2561       -770.559          20.000  
G32  20777549.802   109186747.162        -505.739          37.000  
J01  36567185.664   192162011.0141        550.364          31.000  
J02  38917290.820                       -1102.374          35.000    38917295.017   152719831.155        -823.658          33.000  
R04  19501846.553   104431502.837       -1604.348          34.000  
R14  22486040.638   119863250.372       -3603.366          26.000  
> 2021  9 30 11 21  7.9999693  0 15
C01  37485756.950   195198181.487        -280.581          31.000  
C07  36646225.346   190826474.485         586.042          21.000  
C16  36948003.929   192397990.492         278.853          31.000  
C19  22044757.232   114792863.4031      -2184.569          25.000  
C22  22407483.622   116681678.721         861.600          25.000  
C36  22528296.085                       -1372.388          36.000  
G10  22948893.811   120597122.016       -3766.304          26.000  
G26  20526725.144   107868649.981        1319.182          31.000    20526725.144    80551283.788         983.418          26.000  
G31  21207213.851   111444493.934        -770.582          20.000  
G32  20777644.236   109187254.377        -507.261          36.000  
J01  36567083.135   192161459.662         551.811          29.000  
J02  38917499.476   204512845.4391      -1102.245          33.000    38917504.272   152720654.552        -822.042          32.000  
R04  19502141.249   104433081.715       -1605.401          32.000  
R14  22486714.272   119866841.698       -3604.836          28.000  
R15  19890432.140   106288438.7691      -1677.965          25.000  
> 2021  9 30 11 21  8.9999690  0 15
C01  37485722.774   195197994.135        -281.145          27.000  
C07  36646022.087   190825421.118         584.855          23.000  
C16  36947861.828   192397244.333         275.808          30.000  
C19  22045085.805   114794578.204       -2182.389          24.000  
C22  22407229.398   116680348.744         860.682          23.000  
C36  22528467.866   117311650.0551      -1370.971          39.000  
G10  22949544.661   120600415.880       -3766.538          23.000  
G25  23570823.159   123865455.7481      -3761.510          30.000  
G26  20526385.479   107866858.152        1318.556          28.000    20526386.378    80549948.111         982.987          24.000  
G32  20777650.232   109187289.137        -507.538          35.000  
J01  36566890.668   192160435.999         549.448          26.000  
J02  38917618.194   204513475.285       -1103.915          37.000    38917623.890   152721124.250        -823.330          31.000  
R04  19502351.703   104434208.383       -1607.305          30.000  
R14  22487302.165   119869974.961       -3602.571          30.000  
R15  19890655.486   106289632.616       -1681.397          25.000  
> 2021  9 30 11 21  9.9999688  0 12
C01  37485718.877   195197963.495        -282.403          33.000  
C07  36645847.907   190824524.540         583.031          22.000  
C16  36947748.806   192396656.906         273.759          33.000  
C36  22528671.425   117312709.518       -1372.804          31.000  
G10  22950207.202   120604153.695       -3768.188          25.000  
G25  23571479.404   123868902.644       -3763.078          26.000  
G26                                                                  20526076.093    80548729.255         984.729          20.000  
G31  21207358.651   111445247.5411       -771.908          20.000  
J01  36566728.481   192159572.193         547.996          27.000  
J02  38917769.889                       -1105.589          38.000    38917773.186   152721712.664        -824.259          31.000  
R14  22487917.639   119873255.547       -3603.769          33.000  
R15  19890902.815   106290953.986       -1686.772          24.000  
> 2021  9 30 11 21 10.9999685  0 11
C16  36947606.404   192395914.994         272.761          31.000  
C19  22045783.722   114798172.8901      -2190.917          25.000  
C36  22528845.905   117313615.019       -1374.562          35.000  
G10  22950857.452   120607449.640       -3768.966          28.000  
G25  23571894.917   123871144.511       -3763.168          30.000  
G26  20525738.227   107863437.4231       1314.738          30.000    20525737.028    80547393.529         980.928          26.000  
G29  23771497.635   124920313.2821        408.962          29.000  
G31  21207416.811   111445549.106        -776.718          19.000  
J02  38917893.703                       -1104.804          35.000    38917891.604   152722184.366        -825.338          28.000  
R04  19502810.685   104436665.9521      -1612.796          26.000  
R15  19891127.959   106292157.559       -1683.631          15.000  
> 2021  9 30 11 21 11.9999685  0 11
C16  36947553.041   192395643.080         270.820          28.000  
C30  25810968.938   134404401.9921       1329.500          14.000  
C36  22529113.319   117314990.088       -1374.685          34.000  
G25  23572615.018   123874908.053       -3764.839          29.000  
G26  20525486.102   107862123.383        1313.333          28.000    20525488.200    80546413.119         980.618          27.000  
G32  20777789.935   109188028.6481       -510.951          27.000  
J01  36566440.080   192158007.7571        542.598          23.000  
J02  38918108.654                       -1104.415          33.000    38918099.660   152723010.657        -828.695          24.000  
R04  19503111.377   104438276.367       -1613.360          26.000  
R14  22489176.767   119879967.5991      -3604.178          31.000  
R15  19891443.640   106293844.260       -1682.995          19.000  
> 2021  9 30 11 21 12.9999683  0 10
C19  22046559.285   114802249.5261      -2194.698          19.000  
C30  25810658.353   134402758.213        1328.254          15.000  
C36  22529319.277   117316051.640       -1373.758          35.000  
G10  22952255.084   120614674.2251      -3770.585          31.000  
G25  23573275.161   123878358.147       -3765.751          30.000  
G26  20525172.819   107860495.926        1311.260          26.000    20525178.814    80545197.033         981.487          26.000  
J02  38918254.053   204516791.2321      -1105.497          33.000    38918249.556   152723606.295        -832.702          21.000  
R04  19503354.209   104439576.225       -1615.754          24.000  
R14  22489794.040   119883258.644       -3604.696          31.000  
R15  19891699.963   106295213.831       -1684.717          26.000  
> 2021  9 30 11 21 13.9999680  0 11
C01  37485705.986   195197852.2171       -286.811          32.000  
C16  36947293.721   192394319.6881        271.746          27.000  
C19  22046887.557   114803977.100       -2197.742          18.000  
C30  25810315.990   134400961.603        1330.722          14.000  
C36  22529496.154                       -1376.264          35.000  
G10  22952901.137   120618310.255       -3770.931          28.000  
G25  23573904.426   123881651.255       -3765.994          31.000  
G26                                                                  20524840.049    80543862.935         980.556          26.000  
J01  36566102.514   192156133.3101        544.828          21.000  
J02                                                                  38918371.572   152724084.686        -829.904          22.000  
R14  22490383.132   119886398.014       -3605.304          31.000  
> 2021  9 30 11 21 14.9999677  0 13
C01  37485673.308   195197671.086        -287.773          36.000  
C07  36644980.908   190819899.2881        579.029          23.000  
C16  36947151.619   192393579.675         271.416          28.000  
C30  25809979.023   134399161.624        1330.385          15.000  
C36  22529666.436                       -1376.994          35.000  
G10  22953556.184   120621608.291       -3770.465          23.000  
G25  23574535.189   123884944.794       -3766.472          29.000  
G26  20524496.487   107856928.9551       1309.850          25.000    20524503.082    80542529.493         980.170          24.000  
G32  20777847.196   109188307.7251       -513.717          34.000  
J02  38918494.187   204518059.3911      -1107.560          35.000    38918493.887   152724560.234        -826.812          21.000  
R04  19503775.117   104441830.8551      -1615.443          23.000  
R14  22490970.125   119889527.582       -3604.787          25.000  
R15  19892149.052   106297613.8131      -1684.819          25.000  
> 2021  9 30 11 21 15.9999677  0 13
C01  37485731.168   195197959.082        -288.371          37.000  
C07  36644869.085   190819320.433         578.273          23.000  
C22  22405717.844   116672321.3251        855.579          23.000  
C36  22529929.055   117319283.1231      -1374.417          35.000  
G10  22954305.065   120625687.371       -3771.590          22.000  
G25  23575252.292   123888711.237       -3766.530          28.000  
G26  20524250.057   107855619.271        1309.414          31.000    20524253.955    80541550.420         977.279          24.000  
G29  23770846.785   124916643.2641        403.606          29.000  
G32  20777940.731                        -514.338          37.000  
J02  38918707.040   204519166.278       -1107.245          37.000    38918706.440   152725386.644        -826.097          25.000  
R04  19504075.809   104443440.447       -1616.618          23.000  
R14  22491640.761   119893102.553       -3606.915          23.000  
R15  19892463.534   106299294.291       -1685.992          26.000  
> 2021  9 30 11 21 16.9999675  0 15
C01  37485726.372   195197934.723        -287.734          35.000  
C16  36946987.033   192392722.3971        272.079          28.000  
C22  22405490.002   116671154.235         854.647          25.000  
C36  22530141.907   117320347.205       -1377.837          33.000  
G10  22954978.999   120629144.029       -3771.946          24.000  
G25  23575910.936   123892162.885       -3766.912          26.000  
G26                                                                  20523945.468    80540339.774         973.989          26.000  
G29  23770705.883   124915924.506         403.084          28.000  
G31  21208028.687   111448943.8581       -779.148          20.000  
G32  20777979.404   109189015.7711       -515.267          37.000  
J01  36565635.737   192153710.1271        545.692          29.000  
J02  38918855.737   204519958.317       -1107.694          38.000    38918857.236   152725978.254        -826.441          28.000  
R04  19504318.941   104444743.163       -1617.400          25.000  
R14  22492255.935   119896381.393       -3606.589          24.000  
R15  19892716.559   106300646.316       -1686.398          27.000  
> 2021  9 30 11 21 17.9999672  0 14
C01  37485691.896   195197754.006        -287.841          36.000  
C07  36644500.640   190817382.1331        578.010          18.000  
C16  36946843.433   192391982.886         271.050          26.000  
C36  22530317.286   117321256.069       -1377.298          30.000  
G10  22955609.762   120632443.641       -3772.489          24.000  
G25  23576534.205   123895457.107       -3767.035          20.000  
G26  20523610.000   107852213.5921       1308.088          31.000    20523605.504    80539012.184         975.191          27.000  
G29  23770530.204   124915048.162         403.538          25.000  
G31  21208088.946   111449251.546        -781.554          21.000  
J01  36565442.971   192152691.690         545.937          25.000  
J02  38918977.153   204520593.316       -1108.413          38.000    38918978.952   152726451.758        -825.679          26.000  
R04  19504531.194   104445879.837       -1618.433          22.000  
R14  22492841.130   119899501.164       -3605.215          22.000  
R15  19892942.303   106301853.198       -1686.249          26.000  
> 2021  9 30 11 21 18.9999670  0 11
C01  37485687.099   195197729.541        -287.901          35.000  
C16  36946731.310   192391399.193         271.338          22.000  
C19  22048708.197   114813388.9691      -2195.298          29.000  
C22  22405003.139   116668670.3381        848.850          25.000  
C36  22530519.346   117322321.120       -1377.591          34.000  
G26  20523299.415   107850590.817        1307.739          31.000  
G29  23770387.803   124914330.083         402.604          24.000  
G31  21208184.280   111449717.580        -780.731          22.000  
J02  38919128.548   204521386.088       -1109.493          35.000    38919129.148   152727042.286        -825.846          25.000  
R14  22493459.302   119902796.452       -3603.096          25.000  
R15  19893193.828   106303196.843       -1688.292          25.000  
> 2021  9 30 11 21 19.9999670  0 14
C01  37485741.961   195198017.312        -287.901          38.000  
C07  36644213.739   190815908.4191        584.114          17.000  
C16  36946676.448   192391127.702         271.210          23.000  
C19  22049131.804   114815585.039       -2197.514          29.000  
C30  25808501.946   134391410.8041       1333.312          20.000  
C36  22530781.065   117323699.076       -1379.057          33.000  
G25  23577904.856   123902678.0971      -3769.392          21.000  
G26  20523043.992                        1306.671          33.000  
G29  23770303.261   124913927.527         401.690          24.000  
G31  21208339.272   111450497.586        -780.416          21.000  
J02  38919334.805   204522494.492       -1108.902          37.000    38919340.501   152727868.708        -826.852          27.000  
R04  19505089.408   104448869.0061      -1621.120          26.000  
R14  22494134.135   119906393.491       -3602.387          25.000  
R15  19893514.307   106304909.307       -1689.883          25.000  
> 2021  9 30 11 21 20.9999670  0 14
C01  37485797.123   195198305.177        -288.144          38.000  
C07  36644100.417   190815325.205         583.720          18.000  
C16  36946625.483   192390857.593         269.506          25.000  
C19  22049554.211   114817782.992       -2198.945          31.000  
C22  22404663.174   116666974.4571        847.123          25.000  
C36  22531044.882   117325078.181       -1379.063          29.000  
G10  22957705.911   120643449.7301      -3775.097          25.000  
G25  23578621.660   123906448.264       -3771.305          18.000  
G26  20522795.165   107848019.8621       1304.595          36.000  
J01  36565062.534   192150742.3681        544.058          26.000  
J02  38919549.157   204523603.433       -1109.930          38.000    38919552.454   152728696.530        -828.819          30.000  
R04  19505396.095   104450510.521       -1622.805          30.000  
R14  22494801.173   119909949.417       -3603.626          21.000  
R15  19893830.887   106306601.479       -1690.599          26.000  
> 2021  9 30 11 21 21.9999667  0 15
C01  37485765.345   195198125.636        -290.888          37.000  
C06  36565444.170   190405863.9591        221.863          27.000  
C07  36643896.858   190814274.508         580.405          18.000  
C16  36946484.281   192390119.048         269.923          25.000  
C19  22049883.983   114819513.867       -2198.996          30.000  
C22  22404407.152   116665658.643         847.473          26.000  
C36  22531219.062   117325988.707       -1378.705          29.000  
G10  22958332.777   120646752.331       -3775.564          28.000  
G26  20522461.196   107846243.003        1302.085          32.000  
G32  20778232.129   109190345.1681       -520.812          36.000  
J01  36564866.470   192149727.186         541.384          27.000  
J02  38919672.072   204524240.132       -1109.429          38.000    38919673.571   152729172.501        -829.176          27.000  
R04  19505609.547   104451654.272       -1624.000          28.000  
R14  22495391.165   119913093.926       -3605.641          27.000  
R15  19894059.929   106307824.661       -1694.528          26.000  
> 2021  9 30 11 21 22.9999665  0 15
C01  37485756.351   195198104.146        -290.581          36.000  
C06  36565341.041   190405328.763         222.286          21.000  
C07  36643722.978   190813383.010         579.141          20.000  
C16  36946374.257   192389536.665         270.529          25.000  
C19  22050244.333   114821400.883       -2199.598          29.000  
C22  22404182.907   116664499.004         847.472          25.000  
C36  22531423.220   117327055.499       -1379.514          30.000  
G26  20522160.504   107844625.029        1301.976          32.000  
G29  23769916.229   124911937.3501        400.784          25.000  
G32  20778271.402   109190551.116        -523.355          34.000  
J01  36564703.083   192148871.674         539.809          28.000  
J02  38919822.567   204525035.193       -1110.874          38.000    38919824.666   152729767.323        -831.004          23.000  
R04  19505852.679   104452955.657       -1625.204          29.000  
R14  22496012.934   119916408.698       -3608.192          25.000  
R15  19894324.945   106309240.837       -1694.007          25.000  
> 2021  9 30 11 21 23.9999662  0 14
C01  37485720.676   195197926.184        -290.502          35.000  
C06  36565208.533   190404638.854         220.815          21.000  
C16  36946232.755   192388799.282         268.834          23.000  
C19  22050577.703   114823132.708       -2200.930          29.000  
C36  22531597.699   117327967.292       -1380.678          35.000  
G10  22959632.077   120653515.0131      -3775.133          17.000  
G25  23580539.432   123916499.5071      -3771.155          21.000  
G26  20521821.439   107842850.521        1300.073          33.000  
G31  21208688.530   111452368.1321       -787.778          18.000  
G32  20778273.501   109190600.269        -524.832          34.000  
J02  38919944.283   204525673.030       -1111.876          39.000    38919946.382   152730245.508        -830.346          24.000  
R04  19506065.832   104454097.142       -1626.961          26.000  
R14  22496602.926   119919553.473       -3609.578          31.000  
R15  19894553.987   106310464.764       -1695.086          24.000  
> 2021  9 30 11 21 24.9999662  0 11
C01  37485775.538   195198216.702        -290.745          37.000  
C06  36565166.562   190404417.506         220.239          23.000  
C19  22051003.108   114825334.133       -2202.358          31.000  
C36  22531861.217   117329348.098       -1381.329          29.000  
G25  23581257.135   123920270.510       -3770.532          20.000  
G26  20521581.605   107841549.696        1297.761          32.000  
G31  21208833.030   111453158.566        -793.531          17.000  
J02  38920156.536   204526783.883       -1111.713          37.000  
R04  19506369.521   104455723.563       -1628.117          28.000  
R14  22497285.553   119923192.515       -3608.560          28.000  
R15  19894871.467   106312161.743       -1694.651          25.000  
> 2021  9 30 11 21 25.9999660  0 14
C01  37485770.741   195198195.155        -290.856          36.000  
C16  36946068.169   192387948.4231        268.387          20.000  
C19  22051366.457   114827224.624       -2202.572          30.000  
C22  22403545.548   116661177.8361        845.611          25.000  
C36  22532064.177   117330418.053       -1382.187          29.000  
G10  22960791.974   120659776.5961      -3778.938          19.000  
G25  23581920.276   123923727.675       -3772.253          21.000  
G29  23769537.292   124909954.7481        396.900          26.000  
G32  20778411.405   109191322.7451       -521.944          31.000  
J01  36564238.404   192146461.1691        541.355          28.000  
J02  38920307.931   204527579.420       -1111.384          37.000  
R04  19506614.752   104457037.103       -1629.051          32.000  
R14  22497906.723   119926503.679       -3608.605          28.000  
R15  19895129.588   106313540.556       -1694.676          30.000  
> 2021  9 30 11 21 26.9999657  0 10
C01  37485737.464   195198017.411        -290.513          36.000  
C06  36564930.925   190403195.9051        218.780          23.000  
C19  22051702.824   114828958.309       -2201.734          27.000  
C36  22532239.555   117331332.303       -1383.356          31.000  
G10  22961420.639   120663082.824       -3776.582          20.000  
G25  23582550.740   123927027.457       -3775.666          22.000  
G26  20520924.759   107838161.6171       1300.060          30.000  
J02  38920429.647   204528217.784       -1110.745          37.000  
R04  19506828.803   104458182.924       -1629.824          31.000  
R14  22498493.117   119929628.848       -3608.420          28.000  
> 2021  9 30 11 21 27.9999654  0 14
C01  37485703.288   195197839.963        -290.884          37.000  
C07  36642819.404   190808786.1851        575.156          19.000  
C19  22052037.392   114830692.622       -2203.354          28.000  
C22  22403043.096   116658553.4521        841.731          22.000  
C36  22532414.634   117332247.109       -1383.244          31.000  
G10  22962048.704   120666386.560       -3775.883          25.000  
G25  23583181.503   123930329.671       -3775.095          20.000  
G26  20520584.795   107836389.663        1301.558          30.000  
G29  23769209.319   124908218.0551        396.042          22.000  
G32  20778434.789                        -522.441          35.000  
J02  38920550.164   204528855.751       -1109.301          37.000  
R04  19507041.056   104459319.271       -1630.441          30.000  
R14  22499078.012   119932747.038       -3609.923          30.000  
R15  19895584.374   106315971.0991      -1698.038          23.000  
> 2021  9 30 11 21 28.9999654  0 13
C01  37485762.047   195198130.554        -291.639          37.000  
C06  36564751.349   190402284.2161        220.163          16.000  
C19  22052460.100   114832895.774       -2202.935          29.000  
C36  22532680.550   117333630.270       -1383.238          28.000  
G10  22962765.508   120670162.475       -3776.831          25.000  
G25  23583901.605   123934105.162       -3776.801          19.000  
G26  20520340.164   107835090.734        1298.974          31.000  
G29  23769127.775   124907821.191         397.281          23.000  
J01  36563753.340   192143895.4351        539.897          27.000  
J02  38920760.618   204529966.303       -1109.650          36.000  
R04  19507340.249   104460922.205       -1631.081          27.000  
R14  22499754.044   119936350.718       -3607.807          30.000  
R15  19895900.355   106317659.555       -1697.706          22.000  
> 2021  9 30 11 21 29.9999652  0 11
C01  37485758.449   195198108.590        -287.151          35.000  
C19  22052822.848   114834786.952       -2203.495          27.000  
C22  22402663.259   116656558.7391        841.324          22.000  
C36  22532885.308   117334700.756       -1383.027          32.000  
G10  22963424.152   120673623.763       -3775.542          26.000  
G25  23584563.247   123937565.479       -3773.679          21.000  
G26  20520037.374   107833477.281        1297.444          30.000  
J01  36563592.652   192143040.323         539.893          26.000  
J02  38920909.315   204530761.731       -1109.864          35.000  
R04  19507581.282   104462212.775       -1630.802          29.000  
R15  19896159.076   106319042.341       -1696.612          25.000  
> 2021  9 30 11 21 30.9999649  0 14
C01  37485723.074   195197929.480        -290.908          35.000  
C06  36564520.509   190401064.1461        219.115          17.000  
C19  22053155.318   114836522.400       -2204.332          27.000  
C22  22402413.532   116655248.813         842.030          28.000  
C36  22533060.986   117335615.794       -1384.004          31.000  
G10  22964052.217   120676926.960       -3776.576          27.000  
G25  23585195.809   123940866.931       -3774.298          23.000  
G26  20519711.200   107831707.493        1296.272          30.000  
G31  21209351.971   111455807.2401       -772.903          17.000  
J01  36563400.485   192142027.712         540.268          27.000    36563405.281   143482656.6541        399.758          26.000  
J02  38921030.132   204531400.128       -1112.067          37.000  
R04  19507793.835   104463350.898       -1631.769          30.000  
R14  22500955.912   119942757.1201      -3608.461          29.000  
R15  19896386.918   106320259.986       -1695.643          27.000  
> 2021  9 30 11 21 31.9999647  0 14
C01  37485718.277   195197908.041        -290.908          34.000  
C06  36564419.779   190400532.879         219.072          19.000  
C19  22053518.667   114838414.015       -2203.675          28.000  
C22  22402193.184   116654094.259         841.588          28.000  
C36  22533268.143   117336687.958       -1384.252          28.000  
G10  22964710.562   120680388.915       -3777.552          26.000  
G25  23585856.251   123944325.448       -3773.901          23.000  
G29  23768710.164   124905532.8341        392.214          25.000  
G32  20778620.061   109192409.3551       -526.553          32.000  
J01  36563240.695   192141172.228         540.456          28.000    36563242.794   143482020.683         400.263          28.000  
J02  38921182.726   204532195.914       -1110.958          38.000  
R04  19508036.967   104464652.635       -1633.552          30.000  
R14  22501574.084   119946052.740       -3608.083          30.000  
R15  19896643.540   106321631.409       -1696.389          28.000  
> 2021  9 30 11 21 32.9999647  0 14
C01  37485772.240   195198198.709        -290.866          32.000  
C06  36564377.808   190400312.211         220.976          20.000  
C07  36642053.434   190804822.6941        574.842          17.000  
C19  22053945.571   114840618.383       -2205.371          27.000  
C22  22402033.095   116653253.017         841.292          26.000  
C36  22533535.258   117338071.301       -1382.416          29.000  
G10  22965430.064   120684166.757       -3778.083          25.000  
G25  23586577.852   123948098.338       -3773.112          22.000  
G31  21209597.201   111457044.1821       -777.709          17.000  
J01  36563139.665   192140631.920         540.324          27.000    36563139.665   143481618.355         403.817          25.000  
J02  38921394.080   204533306.703       -1111.702          35.000  
R04  19508341.256   104466281.766       -1635.779          33.000  
R14  22502255.213   119949682.947       -3610.952          25.000  
R15  19896964.018   106323343.259       -1699.213          26.000  
> 2021  9 30 11 21 33.9999644  0 10
C01  37485734.766   195198021.138        -290.973          32.000  
C06  36564246.199   190399621.835         222.143          30.000  
C16  36945181.983   192383291.9701        268.412          28.000  
C19  22054277.142   114842355.965       -2206.285          22.000  
G10  22966064.724   120687472.976       -3778.910          17.000  
G25  23587208.915   123951398.825       -3773.406          22.000  
G32  20778736.080   109192989.7461       -527.052          26.000  
J01                                                                  36562945.400   143480861.186         404.552          20.000  
J02  38921515.496   204533945.360       -1111.508          29.000  
R14  22502845.204   119952828.500       -3609.123          26.000  
> 2021  9 30 11 21 34.9999642  0 10
C01  37485728.770   195198000.081        -291.313          34.000  
C06  36564144.270   190399087.774         221.344          32.000  
C16  36945068.361   192382710.777         269.010          28.000  
C19  22054639.291   114844250.818       -2207.568          25.000  
C22  22401564.520   116650791.2211        840.251          22.000  
C36  22533917.494   117340056.1831      -1383.560          31.000  
G10  22966724.268   120690936.584       -3778.768          23.000  
G25  23587867.859   123954857.441       -3774.309          27.000  
J01  36562786.809   192138765.3631        537.957          25.000    36562782.912   143480223.024         402.337          21.000  
J02  38921666.591   204534741.595       -1111.777          31.000  
> 2021  9 30 11 21 35.9999639  0 13
C01  37485693.994   195197823.276        -291.723          33.000  
C06  36564010.262   190398398.091         221.552          28.000  
C16  36944924.761   192381973.224         268.762          25.000  
C19  22054972.660   114845989.907       -2207.988          27.000  
C22  22401315.692   116649482.940         838.739          27.000  
C36  22534095.870   117340972.112       -1383.754          32.000  
G10  22967355.031   120694242.881       -3779.355          25.000  
G25  23588498.023   123958159.397       -3775.035          26.000  
G26  20518156.176   107823653.8531       1293.547          24.000  
J01  36562592.844   192137754.846         538.178          29.000    36562590.146   143479468.513         401.648          22.000  
J02  38921786.808   204535380.355       -1111.219          33.000  
R04  19509039.473   104470020.5831      -1637.495          32.000  
R15  19897667.631   106327103.1411      -1701.045          26.000  
> 2021  9 30 11 21 36.9999639  0 13
C06  36563968.591   190398176.770         220.535          30.000  
C22  22401155.003   116648644.987         837.334          27.000  
C36  22534360.287   117342355.791       -1384.267          30.000  
G10  22968066.738   120698023.449       -3782.052          17.000  
G25  23589218.724   123961934.542       -3775.564          28.000  
G26  20517905.849   107822360.824        1292.496          26.000  
G31  21209989.630   111459248.2311       -790.421          18.000  
G32  20778895.270                        -529.547          41.000  
J01  36562489.415   192137217.796         536.542          27.000  
J02  38921997.262   204536491.825       -1111.652          36.000    38922006.556   152738324.4841       -829.475          34.000  
R04  19509344.662   104471654.870       -1639.489          33.000  
R14  22504742.591   119962942.5371      -3608.436          21.000  
R15  19897983.613   106328791.720       -1700.775          25.000  
> 2021  9 30 11 21 37.9999636  0 13
C06  36563837.282   190397488.126         219.726          34.000  
C22  22400903.477   116647339.589         837.140          27.000  
C30  25802833.770   134362202.4381       1324.843          25.000  
C36  22534535.066   117343272.441       -1384.832          30.000  
G10  22968693.604   120701332.529       -3781.607          20.000  
G25  23589850.087   123965237.591       -3776.092          24.000  
G26  20517564.985   107820596.386        1291.362          30.000  
G29  23767971.476   124901449.3911        390.489          23.000  
G31  21210051.387   111459570.915        -801.796          17.000  
G32  20778908.761   109193888.7761       -530.037          42.000  
J02  38922121.376   204537130.715       -1111.848          37.000    38922128.871   152738801.513        -830.269          31.000  
R04  19509562.611   104472822.481       -1637.332          25.000  
R15  19898211.455   106330009.462       -1701.328          27.000  
> 2021  9 30 11 21 38.9999636  0 10
C06  36563795.311   190397268.169         219.562          33.000  
C22  22400742.489   116646502.422         837.472          26.000  
C36  22534800.382   117344657.719       -1386.178          26.000  
G10  22969408.010   120705113.728       -3780.666          20.000  
G25  23590579.482   123969332.477       -3775.896          22.000  
G26  20517318.256   107819305.457        1290.561          27.000  
G29  23767900.725   124901059.890         388.523          23.000  
G31  21210204.281   111460373.878        -800.854          16.000  
G32  20779008.592   109194418.690        -530.043          41.000  
J02  38922332.730                       -1112.655          36.000    38922341.124                        -830.243          31.000  
> 2021  9 30 11 21 39.9999634  0 12
C06  36563693.981   190396737.202         218.624          32.000  
C22  22400520.342   116645352.803         836.793          25.000  
C36  22535006.040   117345731.591       -1385.986          27.000  
G10  22970066.354   120708579.453       -3780.850          21.000  
G25  23591239.025   123972793.470       -3776.466          25.000  
G26  20517013.967   107817699.955        1290.150          28.000  
G31  21210293.020   111460860.685        -799.585          13.000  
G32  20779050.563   109194634.224        -530.380          42.000  
J01  36562037.928   192134820.9681        536.637          22.000  
J02  38922482.626   204539036.7241      -1112.971          36.000    38922491.920   152740222.2471       -830.368          31.000  
R04  19510114.829   104475779.0631      -1640.530          20.000  
R14  22506625.887   119972981.6231      -3607.817          25.000  
> 2021  9 30 11 21 40.9999634  0 10
C06  36563652.910   190396518.090         219.667          30.000  
C22  22400359.354   116644516.816         835.290          25.000  
C36  22535273.455   117347117.875       -1387.236          31.000  
G10  22970790.353   120712360.679       -3781.813          25.000  
G25  23591959.726   123976569.745       -3776.156          21.000  
G26  20516767.537   107816410.126        1289.423          30.000  
G29  23767695.367   124899967.1481        387.549          24.000  
G32  20779153.092   109195165.764        -531.434          41.000  
J02  38922694.879   204540149.518       -1112.388          35.000    38922703.573   152741053.114        -831.104          33.000  
R15  19899103.937   106334778.2481      -1706.261          20.000  
> 2021  9 30 11 21 41.9999631  0  9
C06  36563520.701   190395829.326         220.747          29.000  
C22  22400106.329   116643212.718         835.636          20.000  
G10  22971421.416   120715669.873       -3782.132          24.000  
G25  23592587.791   123979876.869       -3780.229          19.000  
G26  20516429.971   107814648.447        1288.624          27.000  
G32  20779163.584   109195225.472        -531.814          41.000  
J01  36561750.727   192133279.9301        535.258          24.000  
J02  38922817.494   204540789.847       -1111.819          36.000    38922824.989   152741531.363        -830.559          32.000  
R04  19510644.862   104478617.9011      -1643.305          25.000  
> 2021  9 30 11 21 42.9999629  0 12
C06  36563418.172   190395296.655         219.804          32.000  
C16  36944295.796   192378529.2641        269.234          27.000  
C22  22399885.982   116642068.646         829.610          19.000  
C36  22535663.485   117349113.1071      -1388.323          26.000  
G10  22972083.957   120719137.046       -3782.864          26.000  
G25  23593253.031   123983341.483       -3779.276          20.000  
G26  20516121.784   107813045.038        1288.092          26.000  
G29  23767396.474   124898405.7121        386.632          21.000  
G32  20779203.757   109195443.561        -534.410          42.000  
J01  36561589.738   192132429.376         535.254          27.000  
J02  38922973.086   204541588.444       -1110.252          35.000    38922976.384   152742127.623        -830.281          31.000  
R15  19899584.504   106337346.8421      -1705.258          23.000  
> 2021  9 30 11 21 43.9999626  0 12
C06  36563287.163   190394609.404         218.154          33.000  
C16  36944153.994   192377792.594         267.156          29.000  
C22  22399638.353   116640770.863         830.475          24.000  
C36  22535839.463   117350033.107       -1387.821          29.000  
G10  22972713.821   120722447.479       -3782.922          25.000  
G25  23593881.096   123986647.864       -3778.892          25.000  
G26  20515783.019   107811285.530        1285.958          25.000  
G32  20779212.750   109195504.604        -533.467          39.000  
J02                                                                  38923098.100   152742606.254        -832.703          32.000  
R04  19511118.234   104481152.2861      -1647.989          25.000  
R14  22509102.772   119986184.2201      -3612.079          23.000  
R15  19899807.550   106338538.735       -1703.756          18.000  
> 2021  9 30 11 21 44.9999624  0 10
C06  36563186.133                         217.877          34.000  
C36  22536046.620   117351108.633       -1387.918          30.000  
G10  22973380.260   120725915.359       -3783.193          20.000  
G25  23594552.931   123990111.375       -3778.318          27.000  
G32  20779261.317   109195723.562        -534.673          37.000  
J01  36561234.184   192130570.1431        535.654          28.000  
J02                                                                  38923250.694   152743202.460        -833.753          32.000  
R04  19511369.160   104482496.263       -1647.425          21.000  
R14  22509726.940   119989511.554       -3611.109          20.000  
R15  19900066.870   106339924.656       -1705.094          21.000  
> 2021  9 30 11 21 45.9999624  0  9
C06  36563145.061   190393887.1951        217.460          32.000  
C07  36639954.587   190793811.4041        569.548          28.000  
C36  22536312.835   117352496.598       -1387.915          33.000  
G10  22974104.858   120729698.528       -3783.438          20.000  
G25  23595299.414   123993889.729       -3778.787          27.000  
J01  36561131.955   192130034.578         535.673          28.000  
J02  38923453.654   204544139.1831      -1114.124          29.000    38923462.947   152744034.062        -829.923          30.000  
R04  19511674.049   104484128.908       -1648.381          27.000  
R15  19900388.248   106341641.358       -1707.082          25.000  
> 2021  9 30 11 21 46.9999621  0 12
C06  36563010.455   190393200.016         217.977          32.000  
C07  36639755.225   190792773.423         569.771          28.000  
C16  36943836.814   192376212.3831        266.149          28.000  
C36  22536489.113   117353415.951       -1388.643          33.000  
G10  22974737.720   120733009.098       -3783.267          15.000  
G25  23595955.360   123997582.736       -3778.747          29.000  
G26  20514909.424   107806641.2311       1284.653          30.000  
G29  23766852.650   124895612.0461        379.863          14.000  
J01  36560940.687   192129025.929         535.738          26.000  
J02                                                                  38923584.963   152744512.642        -830.745          29.000  
R04  19511890.799   104485290.069       -1647.488          30.000  
R15  19900622.086   106342891.574       -1706.574          25.000  
> 2021  9 30 11 21 47.9999619  0 15
C06  36562907.926   190392669.181         219.125          34.000  
C07  36639586.442   190791891.957         568.784          28.000  
C16  36943724.392   192375633.391         266.647          30.000  
C19  22059445.564   114869397.7451      -2211.236          20.000  
C30  25799759.998   134346308.1751       1322.297          24.000  
C36  22536695.670   117354492.319       -1389.662          35.000  
G10  22975381.974   120736478.095       -3786.929          15.000  
G26  20514606.633   107805041.576        1284.359          30.000  
G29  23766728.836   124894917.676         378.809          18.000  
G32  20779402.819   109196538.2551       -535.260          30.000  
J01  36560776.401   192128175.112         535.730          31.000  
J02                                                                  38923736.958   152745109.041        -832.404          31.000  
R04  19512141.126   104486629.793       -1647.658          31.000  
R14  22511603.042   119999512.3941      -3609.330          26.000  
R15  19900887.402   106344308.498       -1706.431          25.000  
> 2021  9 30 11 21 48.9999616  0 12
C06  36562783.811   190391982.917         218.923          33.000  
C07  36639386.181   190790855.030         568.571          26.000  
C16  36943581.990   192374898.947         265.137          31.000  
C19  22059787.927   114871141.843       -2213.899          21.000  
C36  22536871.648                       -1390.114          34.000  
G10  22976001.045   120739791.502       -3785.742          17.000  
G25  23597278.044   124004353.2981      -3780.706          25.000  
J01  36560581.836   192127167.178         534.688          32.000  
J02  38923853.577   204546220.5381      -1114.545          32.000    38923858.374   152745588.343        -831.995          29.000  
R04  19512359.974   104487801.675       -1650.430          28.000  
R14  22512186.438   120002622.399       -3613.629          25.000  
R15  19901114.645   106345523.608       -1710.013          26.000  
> 2021  9 30 11 21 49.9999616  0 11
C06  36562741.541   190391765.027         217.033          29.000  
C07  36639277.056   190790286.534         568.039          25.000  
C16  36943530.126   192374633.869         264.659          29.000  
C22  22398379.824   116634223.1151        829.381          25.000  
C30  25799163.711   134343194.8941       1321.442          22.000  
C36  22537138.763   117356794.4301      -1387.993          31.000  
G10  22976731.640   120743577.438       -3785.120          26.000  
G25  23598017.932   124008421.554       -3778.765          18.000  
G32  20779512.843   109197138.2161       -537.461          27.000  
J02  38924069.727   204547334.987       -1113.724          31.000    38924070.627   152746420.647        -831.284          29.000  
R15  19901435.723   106347238.810       -1710.276          26.000  
> 2021  9 30 11 21 50.9999613  0 13
C06  36562608.433   190391079.381         217.885          30.000  
C07  36639075.896   190789250.397         568.389          26.000  
C16  36943386.825   192373900.801         264.923          32.000  
C19  22060549.999   114875106.4231      -2217.581          21.000  
C36  22537309.945   117357715.504       -1388.490          34.000  
G10  22977378.592   120746889.832       -3785.088          28.000  
G25  23598661.587   124011727.103       -3778.530          26.000  
G26  20513700.061   107800247.5891       1280.208          26.000  
G29  23766349.599   124892829.8831        381.942          29.000  
J01  36560277.846   192125627.1581        534.732          33.000  
J02  38924189.944   204547976.490       -1114.320          33.000    38924193.542   152746899.786        -832.514          32.000  
R14  22513437.771   120009292.6941      -3612.873          34.000  
R15  19901661.167   106348443.659       -1710.210          25.000  
> 2021  9 30 11 21 51.9999611  0 11
C06  36562504.705   190390549.292         217.587          33.000  
C16  36943273.204   192373323.209         265.474          34.000  
C22  22397919.343   116631785.0081        827.825          25.000  
C36  22537515.303   117358794.482       -1390.834          31.000  
G10  22978053.724   120750359.855       -3785.513          27.000  
G25  23599330.424   124015190.462       -3778.808          26.000  
G29  23766220.088   124892133.277         380.493          28.000  
J02  38924339.540   204548775.903       -1115.480          35.000    38924345.836   152747496.952        -832.559          32.000  
R04  19513127.743   104491913.6061      -1654.183          34.000  
R14  22514049.948   120012555.853       -3612.676          32.000  
R15  19901927.382   106349866.577       -1710.361          22.000  
> 2021  9 30 11 21 52.9999608  0 13
C06  36562370.398   190389863.232         217.333          32.000  
C07  36638701.755   190787337.9791        563.877          24.000  
C16  36943130.203   192372589.651         264.562          33.000  
C19  22061259.908   114878761.1581      -2218.823          21.000  
C22  22397670.815   116630489.106         826.994          27.000  
C30  25798174.096   134337983.9161       1320.739          23.000  
C36  22537692.180   117359716.791       -1390.752          28.000  
G25  23599970.480   124018496.791       -3780.537          29.000  
G32  20779590.789                        -540.147          37.000  
J02  38924462.156                       -1116.996          35.000    38924467.852   152747976.593        -831.278          32.000  
R04  19513341.495   104493058.288       -1654.711          31.000  
R14  22514633.643   120015667.110       -3612.651          33.000  
R15  19902161.220   106351115.681       -1711.111          23.000  
> 2021  9 30 11 21 53.9999608  0 12
C06  36562322.131                         218.506          32.000  
C07  36638592.630   190786773.930         564.892          25.000  
C16  36943076.540                         266.172          33.000  
C19  22061684.414   114880980.026       -2219.822          22.000  
C36  22537958.396   117361107.313       -1390.505          31.000  
G10  22979408.187   120757458.9371      -3790.457          10.000  
G29  23765987.449   124890901.0091        378.243          20.000  
G32  20779695.116   109198026.3071       -541.624          31.000  
J01  36559825.160   192123178.3781        534.090          29.000  
J02  38924672.310   204550545.4341      -1115.036          29.000    38924679.205   152748809.082        -833.084          30.000  
R14  22515308.776   120019265.807       -3612.671          29.000  
R15  19902485.596   106352849.128       -1711.607          25.000  
> 2021  9 30 11 21 54.9999606  0 16
C06  36562223.799   190389077.4411        216.369          32.000  
C07  36638425.046   190785896.223         566.067          27.000  
C16  36942967.116   192371717.2871        264.215          31.000  
C19  22062048.362   114882886.546       -2218.552          22.000  
C22  22397296.075   116628522.2571        827.392          23.000  
C30  25797608.687   134335032.2181       1318.983          23.000  
C36  22538165.553   117362185.505       -1390.544          32.000  
G10  22980063.233   120760933.357       -3787.940          18.000  
G26  20512528.472   107794037.0171       1274.417          20.000  
G29  23765855.840   124890208.315         376.102          17.000  
G32  20779738.287   109198252.935        -541.165          31.000  
J01  36559660.873   192122331.092         534.069          30.000  
J02  38924822.806   204551345.979       -1116.509          31.000    38924831.200   152749407.035        -833.325          32.000  
R04  19513894.012   104496017.2061      -1656.143          30.000  
R14  22515922.451   120022537.141       -3612.931          30.000  
R15  19902749.413   106354259.434       -1711.952          26.000  
> 2021  9 30 11 21 55.9999603  0 13
C06  36562089.492   190388392.022         217.710          31.000  
C07  36638228.082   190784862.062         565.697          26.000  
C16  36942826.513   192370984.688         264.515          30.000  
C19  22062384.729   114884638.098       -2221.289          22.000  
C22  22397049.046   116627228.402         824.006          21.000  
C30  25797265.725   134333244.026        1320.132          24.000  
C36  22538344.229   117363107.844       -1390.466          32.000  
G25  23601992.581   124029055.7581      -3783.769          25.000  
G29  23765700.548   124889358.760         376.212          18.000  
G32  20779751.178   109198321.407        -541.281          33.000  
J02  38924945.421   204551989.634       -1116.079          35.000    38924954.415   152749887.162        -833.125          32.000  
R14  22516510.344   120025670.975       -3613.196          30.000  
R15  19902988.947   106355539.432       -1713.089          25.000  
> 2021  9 30 11 21 56.9999601  0 13
C06  36561989.062   190387862.637         217.411          31.000  
C07  36638058.700   190783983.853         566.130          27.000  
C16  36942714.991   192370407.685         264.616          33.000  
C19  22062752.274   114886546.974       -2221.103          25.000  
C22  22396830.197   116626091.608         824.824          22.000  
C36  22538554.383   117364187.110       -1392.142          33.000  
G25  23602654.522   124032787.625       -3782.659          27.000  
G26  20511901.006   107790698.5061       1277.854          25.000  
G29  23765573.736   124888932.952         376.754          19.000  
G32  20779789.251   109198547.771        -540.826          33.000  
J02  38925097.416   204552790.538       -1116.117          34.000    38925107.309   152750484.881        -834.103          33.000  
R14  22517127.017   120028958.358       -3612.787          31.000  
R15  19903250.067   106356934.224       -1713.570          25.000  
> 2021  9 30 11 21 57.9999601  0 13
C06  36561947.391   190387645.661         216.703          33.000  
C07  36637949.875   190783417.727         566.463          27.000  
C16  36942664.026   192370142.963         264.100          31.000  
C22  22396672.506   116625267.439         823.035          25.000  
C36  22538822.098                       -1392.587          34.000  
G10  22982073.641   120771507.9391      -3786.057          24.000  
G25  23603378.521   124036570.536       -3783.746          24.000  
G26  20511659.673   107789420.285        1278.969          23.000  
G29  23765502.685   124888556.053         377.035          19.000  
G32  20779890.281   109199088.864        -541.973          31.000  
J02  38925312.367   204553906.710       -1116.082          34.000    38925319.562   152751318.040        -834.673          34.000  
R14  22517802.150   120032557.174       -3612.884          31.000  
R15  19903574.442   106358667.475       -1714.489          24.000  
> 2021  9 30 11 21 58.9999601  0 12
C06  36561905.719   190387428.840         216.608          33.000  
C07  36637842.250   190782852.184         564.947          28.000  
C16  36942609.464                         263.479          31.000  
C36  22539091.012   117366954.8651      -1392.707          35.000  
G10  22982796.141   120775293.584       -3785.710          27.000  
G25  23604094.425   124040354.998       -3785.855          23.000  
G26  20511418.041   107788141.150        1277.916          22.000  
G29  23765433.433   124888179.020         377.699          19.000  
G32  20779991.911   109199631.090        -543.034          32.000  
J02  38925526.419                       -1115.049          33.000    38925531.515   152752151.419        -832.357          33.000  
R14  22518479.081   120036165.314       -3613.616          31.000  
R15  19903897.618   106360394.873       -1714.308          22.000  
> 2021  9 30 11 21 59.9999598  0 13
C06  36561773.811   190386743.816         217.811          33.000  
C07  36637644.087   190781818.504         565.591          27.000  
C16  36942468.861   192369129.7221        264.005          33.000  
C22  22396268.386   116623151.1711        824.393          19.000  
C30  25796089.039   134327181.8541       1318.561          18.000  
C36  22539268.189   117367879.414       -1392.833          36.000  
G10  22983426.605   120778607.574       -3788.168          28.000  
G25  23604725.489   124043667.851       -3784.910          20.000  
G29  23765271.845   124887328.541         377.045          19.000  
G32  20780006.601   109199701.750        -543.860          36.000  
J01  36558912.292   192118411.7631        531.425          31.000  
J02  38925647.835   204555666.0771      -1115.146          35.000    38925653.231   152752631.940        -833.268          34.000  
R15  19904129.058   106361630.992       -1716.044          24.000  
> 2021  9 30 11 22  0.9999596  0 13
C06  36561675.479   190386214.846         216.583          33.000  
C07  36637474.404   190780941.318         565.223          25.000  
C16  36942360.936   192368552.968         265.886          34.000  
C22  22396049.837   116622016.115         821.456          21.000  
C30  25795769.460   134325549.761        1319.393          18.000  
C36  22539470.849   117368960.264       -1392.657          34.000  
G25  23605175.777   124046036.574       -3786.517          19.000  
G26  20510784.879   107784798.3721       1276.771          20.000    20510760.596    80488626.2801        952.281          25.000  
G32  20780055.467                        -541.484          36.000  
J01  36558747.106   192117565.548         528.206          30.000  
J02  38925799.830   204556467.128       -1115.676          36.000    38925804.926   152753230.067        -834.533          33.000  
R04  19515449.635   104504346.9381      -1662.485          32.000  
R14  22519683.947   120042587.8441      -3613.003          33.000  
> 2021  9 30 11 22  1.9999593  0 14
C04  38370611.778                        -282.035          34.000  
C06  36561544.469   190385529.569         216.411          34.000  
C07  36637274.143   190779907.961         564.695          26.000  
C16  36942221.232   192367819.957         264.426          33.000  
C22  22395804.307   116620726.546         820.969          24.000  
C36  22539646.228   117369885.047       -1393.447          34.000  
G25  23605803.542   124049349.589       -3785.146          22.000  
G26  20510450.011   107783050.035        1275.372          26.000    20510428.426    80487321.679         952.199          26.000  
G29  23764996.036   124885782.2431        377.919          19.000  
G32  20780071.656                        -545.848          34.000  
J01  36558554.040   192116561.656         533.175          29.000  
J02  38925922.744   204557110.363       -1116.822          36.000    38925928.440   152753710.424        -834.595          33.000  
R04  19515668.184   104505517.551       -1662.895          28.000  
R15  19904636.907   106364345.1241      -1714.461          20.000  
> 2021  9 30 11 22  2.9999593  0 15
C04  38370667.540   199806128.0011       -282.753          35.000  
C06  36561497.102   190385313.551         215.369          33.000  
C07  36637165.918   190779343.803         563.779          27.000  
C16  36942169.368   192367556.193         264.080          33.000  
C22  22395648.415   116619905.659         820.783          25.000  
C36  22539915.141   117371279.254       -1394.811          33.000  
G10  22985437.912   120789186.9951      -3789.839          27.000  
G26  20510209.877   107781776.187        1272.154          23.000    20510186.493    80486372.101         947.556          23.000  
G29  23764945.970   124885405.292         375.428          24.000  
G32  20780172.386   109200546.1791       -544.596          33.000  
J01  36558447.014   192116031.513         530.558          29.000  
J02  38926139.195   204558227.210       -1117.271          36.000    38926141.293   152754544.450        -833.593          33.000  
R04  19515974.872   104507159.403       -1664.826          26.000  
R14  22520951.770   120049346.7191      -3614.204          32.000  
R15  19904960.083   106366071.865       -1717.354          20.000  
> 2021  9 30 11 22  3.9999590  0 14
C04  38370633.663   199805942.643        -283.409          35.000  
C06  36561364.294   190384627.882         215.164          32.000  
C07  36636967.455   190778312.321         562.584          27.000  
C16  36942029.365   192366824.727         263.401          31.000  
C22  22395403.785   116618617.387         819.578          21.000  
C30  25794834.108   134320658.2271       1317.859          15.000  
C36  22540090.820   117372205.510       -1394.714          33.000  
G10  22986066.877   120792504.215       -3790.164          25.000  
G26  20509880.405   107780032.081        1270.481          23.000    20509854.623    80485070.013         949.658          26.000  
G29  23764784.682   124884558.157         372.871          20.000  
G32  20780187.675   109200619.426        -547.151          36.000  
J01  36558261.442   192115028.564         529.688          28.000  
J02  38926261.810   204558871.529       -1117.013          38.000    38926264.508   152755025.614        -834.433          33.000  
R04  19516192.521   104508325.021       -1665.867          27.000  
> 2021  9 30 11 22  4.9999588  0 15
C04  38370630.365   199805913.967        -283.827          34.000  
C06  36561263.264   190384100.348         215.142          31.000  
C07  36636796.574   190777437.425         562.376          26.000  
C16  36941919.042   192366248.993         263.637          33.000  
C22  22395187.334   116617484.170         821.475          20.000  
C30  25794519.626   134319028.547        1317.144          16.000  
C36  22540298.276   117373287.954       -1394.998          31.000  
G10  22986726.720   120795979.169       -3790.253          25.000  
G26  20509582.711   107778446.698        1269.808          22.000    20509553.032    80483884.969         949.074          24.000  
G29  23764663.566   124884150.816         368.281          21.000  
G32  20780235.342   109200850.583        -547.276          35.000  
J01  36558100.454   192114183.838         530.032          28.000  
J02  38926412.006   204559673.402       -1116.889          37.000    38926416.802   152755624.460        -832.676          33.000  
R04  19516444.946   104509676.787       -1666.556          27.000  
R14  22522161.132   120055793.1311      -3614.760          33.000  
> 2021  9 30 11 22  5.9999585  0 14
C04  38370595.589   199805729.572        -284.031          34.000  
C06  36561131.655   190383414.780         217.613          32.000  
C07  36636598.111   190776406.417         562.513          26.000  
C16  36941778.139   192365517.186         263.728          32.000  
C22  22394941.205   116616194.801         820.463          21.000  
C30  25794176.063   134317242.860        1318.191          15.000  
C36  22540479.051   117374214.222       -1393.646          32.000  
G25  23608450.110   124063228.3241      -3784.932          23.000  
G26                                                                  20509221.761    80482582.372         949.583          25.000  
G29  23764492.084   124883308.944         369.154          21.000  
J01  36557908.587   192113181.734         528.358          24.000  
J02  38926534.921   204560317.334       -1119.916          35.000    38926539.717   152756105.342        -832.875          33.000  
R04  19516663.495   104510846.967       -1667.090          27.000  
R14  22522752.323   120058944.801       -3613.437          33.000  
> 2021  9 30 11 22  6.9999585  0 13
C04  38370651.051   199806013.911        -284.528          34.000  
C06  36561089.984   190383197.490         216.685          32.000  
C07  36636488.687   190775843.817         563.052          25.000  
C16  36941730.472   192365253.330         264.887          34.000  
C22  22394783.814   116615375.550         817.373          19.000  
C36  22540749.764                       -1394.964          33.000  
G10  22988079.684   120803091.5941      -3794.261          18.000  
G25  23609164.216   124067014.610       -3788.255          20.000  
G29  23764428.828   124882937.875         373.679          20.000  
G32  20780351.662   109201469.1841       -546.123          31.000  
J01  36557809.355   192112653.533         528.200          24.000  
J02  38926744.775   204561432.911       -1113.911          32.000    38926751.671   152756939.167        -832.306          32.000  
R14  22523430.454   120062559.434       -3613.630          33.000  
> 2021  9 30 11 22  7.9999583  0 13
C04  38370645.955   199805986.379        -284.904          34.000  
C06  36560988.954   190382669.165         215.533          30.000  
C07  36636322.602   190774969.018         562.709          26.000  
C16  36941619.549   192364676.060         265.084          30.000  
C22  22394567.364   116614246.249         816.325          22.000  
C36  22540951.224   117376682.9491      -1395.462          33.000  
G25  23609819.262   124070486.521       -3783.096          19.000  
G29  23764294.521   124882249.572         373.422          19.000  
G32  20780394.532   109201700.666        -547.004          33.000  
J01  36557648.666   192111809.487         529.028          27.000  
J02  38926895.871   204562233.674       -1117.138          33.000    38926903.665   152757537.634        -833.977          31.000  
R14  22524047.726   120065849.088       -3614.565          29.000  
R15  19906274.373   106373094.8711      -1718.067          17.000  
> 2021  9 30 11 22  8.9999580  0 11
C04  38370609.979   199805803.014        -285.257          34.000  
C06  36560858.544   190381985.187         215.507          31.000  
C07  36636125.638   190773938.663         562.317          27.000  
C16  36941478.347   192363942.917         263.719          33.000  
C36  22541131.399                       -1394.331          32.000  
G25  23610443.430   124073797.585       -3784.707          18.000  
G29  23764140.128   124881404.602         371.738          18.000  
J01  36557459.198   192110808.545         527.768          26.000  
J02                                                                  38927026.580   152758019.069        -835.417          32.000  
R04  19517464.540   104515137.3101      -1669.841          26.000  
R14  22524637.418   120068992.936       -3614.367          32.000  
> 2021  9 30 11 22  9.9999578  0 14
C04  38370605.183   199805776.019        -285.349          34.000  
C06  36560757.514   190381457.406         215.095          32.000  
C07  36635956.855   190773064.364         562.921          27.000  
C16  36941367.723   192363367.029         263.083          33.000  
C19  22067615.807   114911890.0251      -2227.032          24.000  
C22  22394103.585   116611837.5891        813.655          19.000  
C36  22541343.952   117378694.4211      -1396.181          33.000  
G10  22990026.836   120813365.4231      -3791.706          18.000  
G29  23764025.008   124880718.475         368.905          17.000  
G32  20780452.092                        -549.408          35.000  
J01  36557300.607   192109965.294         528.582          27.000  
J02  38927176.476   204563680.5321      -1117.274          36.000    38927179.474   152758618.237        -834.779          33.000  
R04  19517720.263   104516506.466       -1671.460          28.000  
R14  22525257.689   120072299.793       -3614.114          32.000  
> 2021  9 30 11 22 10.9999575  0 11
C04  38370570.707   199805593.007        -285.264          35.000  
C06  36560625.306   190380773.652         216.205          33.000  
C07  36635758.392   190772034.504         560.738          26.000  
C16  36941224.123   192362635.135         264.166          34.000  
C22  22393856.855   116610555.230         814.604          23.000  
C36  22541521.729   117379622.072       -1397.123          34.000  
G32  20780464.983                        -549.752          34.000  
J01  36557111.738   192108964.129         528.672          28.000  
J02  38927299.391                       -1116.520          36.000    38927302.090   152759099.502        -834.545          33.000  
R04  19517940.911   104517687.661       -1672.910          28.000  
R14  22525846.181   120075436.753       -3614.923          31.000  
> 2021  9 30 11 22 11.9999575  0 15
C04  38370625.868   199805878.257        -285.389          35.000  
C06  36560586.633                         215.617          32.000  
C07  36635650.767   190771474.694         559.818          26.000  
C16  36941176.156                         262.852          33.000  
C19  22068382.976   114915877.5061      -2229.443          23.000  
C22  22393699.764   116609740.240         815.073          24.000  
C36  22541793.341   117381018.212       -1394.515          33.000  
G10  22991382.497   120820475.1141      -3792.236          17.000  
G25  23612451.740   124084369.1761      -3786.916          20.000  
G29  23763814.554   124879508.8541        366.093          17.000  
J01  36557011.907   192108435.592         527.976          29.000  
J02  38927514.343   204565456.6511      -1116.859          37.000    38927514.642   152759933.800        -834.853          33.000  
R04  19518256.892   104519380.020       -1673.908          25.000  
R14  22526524.312   120079050.886       -3613.707          31.000  
R15  19907300.263   106378577.4991      -1719.839          18.000  
> 2021  9 30 11 22 12.9999572  0 14
C04  38370589.893   199805695.318        -285.493          35.000  
C06  36560456.822   190379884.1561        218.284          33.000  
C07  36635453.803   190770445.299         561.480          26.000  
C16  36941033.155   192361666.5101        264.338          35.000  
C36  22541970.219   117381945.843       -1395.027          34.000  
G10  22992015.059   120823787.676       -3784.453          16.000  
G25  23613085.501   124087683.502       -3787.041          21.000  
G26  20507172.380   107765776.0911       1264.656          20.000  
G29  23763657.462   124878670.921         365.077          18.000  
G32  20780591.796   109202716.5461       -549.102          35.000  
J01  36556823.937   192107434.786         528.435          25.000  
J02  38927632.461   204566100.844       -1116.223          34.000    38927636.958   152760414.844        -833.511          34.000  
R14  22527111.006   120082179.027       -3613.468          31.000  
R15  19907529.004   106379799.781       -1720.870          18.000  
> 2021  9 30 11 22 13.9999570  0 12
C04  38370584.197   199805668.479        -285.372          34.000  
C06  36560354.593   190379355.644         217.257          33.000  
C07  36635287.418   190769571.498         561.187          25.000  
C16  36940921.033   192361091.144         265.067          31.000  
C36  22542173.478   117383029.762       -1394.484          36.000  
G10  22992673.403   120827265.307       -3796.482          15.000  
G25  23613746.244   124091155.801       -3787.366          21.000  
G29  23763540.843   124877989.592         366.347          18.000  
G32  20780634.966   109202952.358        -551.178          31.000  
J01  36556664.148   192106591.468         528.140          27.000  
J02  38927793.449                       -1117.026          32.000    38927789.552   152761013.656        -831.154          34.000  
R14  22527726.180   120085457.678       -3612.594          30.000  
> 2021  9 30 11 22 14.9999567  0 15
C06  36560223.284   190378671.464         215.907          30.000  
C07  36635088.956   190768541.601         564.395          24.000  
C16  36940781.029   192360357.854         264.712          33.000  
C19  22069435.548   114921317.8621      -2230.147          27.000  
C22  22392984.160   116606047.9011        816.284          21.000  
C36  22542357.251   117383958.145       -1397.286          32.000  
G10  22993312.261   120830587.376       -3792.552          14.000  
G25  23614379.405   124094470.667       -3787.291          21.000  
G26  20506529.925   107762451.6271       1267.305          20.000  
G29  23763386.450   124877439.314         366.413          19.000  
G32  20780647.857   109203030.560        -550.956          35.000  
J01  36556471.981   192105589.383         529.379          27.000  
J02  38927910.968   204567547.5801      -1117.906          33.000    38927911.268   152761495.093        -834.929          33.000  
R14  22528311.075   120088576.084       -3614.299          27.000  
R15  19908013.169   106382386.6631      -1725.388          16.000  
> 2021  9 30 11 22 15.9999567  0 14
C06  36560180.414   190378455.789         215.398          30.000  
C07  36634985.827   190767978.477         563.232          20.000  
C16  36940732.763   192360092.942         264.876          30.000  
C19  22069860.354   114923547.983       -2230.803          25.000  
C36  22542620.169                       -1395.048          37.000  
G10  22994046.453   120834379.310       -3792.816          12.000  
G25  23615100.706   124098257.527       -3782.063          22.000  
G26  20506288.292   107761185.324        1265.331          26.000  
G29  23763312.401   124877073.104         365.516          27.000  
G32  20780752.484   109203581.471        -550.488          40.000  
J02  38928115.127   204568664.549       -1116.869          35.000    38928124.720   152762330.449        -838.604          31.000  
R04  19519272.289   104524816.9061      -1676.131          32.000  
R14  22528994.901   120092221.116       -3613.508          29.000  
R15  19908333.048   106384096.529       -1727.052          16.000  
> 2021  9 30 11 22 16.9999565  0 15
C01  37485802.819   195198413.0821       -294.694          27.000  
C04  38370598.887   199805753.5601       -291.620          29.000  
C06  36560078.484   190377926.745         216.998          26.000  
C16  36940622.139   192359515.262         265.022          27.000  
C19  22070229.398   114925466.656       -2230.538          29.000  
C36  22542837.818   117386440.0501      -1396.434          29.000  
G10  22994718.887   120837857.649       -3793.337          12.000  
G25  23615762.048   124101723.827       -3780.715          21.000  
G26  20505983.703   107759606.379        1261.916          25.000  
G29  23763179.293   124876392.242         365.297          26.000  
G32  20780793.856   109203816.985        -550.480          36.000  
J02                                                                  38928277.614   152762930.169        -834.222          23.000  
R04  19519521.117   104526149.862       -1676.389          35.000  
R14  22529616.071   120095531.854       -3614.258          33.000  
R15  19908590.869   106385474.066       -1721.951          28.000  
> 2021  9 30 11 22 17.9999565  0 13
C06  36560038.012   190377709.667         217.544          29.000  
C07  36634719.312   190766541.0521        562.967          21.000  
C16  36940571.175   192359251.084         263.793          29.000  
C36  22543107.032   117387836.148       -1396.000          30.000  
G25  23616484.548   124105507.313       -3786.361          21.000  
G26  20505740.871   107758344.501        1261.512          29.000  
G29  23763089.056   124876026.263         364.233          26.000  
G32  20780898.783   109204367.938        -552.046          31.000  
J01  36556103.836   192103687.7711        527.526          33.000  
J02  38928482.372   204570583.7701      -1117.261          32.000    38928488.668   152763764.424        -834.212          23.000  
R04  19519833.500   104527822.350       -1676.462          38.000  
R14  22530295.401   120099152.731       -3613.529          29.000  
R15  19908911.048   106387184.656       -1724.324          26.000  
> 2021  9 30 11 22 18.9999562  0 10
C06  36559905.504   190377023.510         218.161          23.000  
C07  36634524.147   190765510.982         561.376          22.000  
C16  36940428.474   192358519.381         262.958          28.000  
C19  22070994.169   114929456.6031      -2229.392          16.000  
C36  22543283.909   117388764.527       -1397.469          32.000  
G10  22996085.042   120845243.3971      -3793.340          14.000  
G25  23617112.014   124108820.422       -3786.816          21.000  
G29  23762900.486   124874885.156         364.306          21.000  
J02  38928601.990   204571228.931       -1118.009          29.000    38928610.384   152764245.406        -833.909          26.000  
R15  19909143.387   106388426.262       -1722.442          24.000  
> 2021  9 30 11 22 19.9999560  0 13
C06  36559803.275   190376493.214         217.115          26.000  
C07  36634355.963   190764638.432         559.465          23.000  
C16  36940317.850   192357943.187         265.059          24.000  
C19  22071362.314   114931374.080       -2230.337          20.000  
C36  22543491.066   117389850.481       -1399.159          33.000  
G10  22996751.780   120848720.820       -3791.150          14.000  
G25  23617773.656   124112292.873       -3787.960          21.000  
G26  20505098.416   107755032.9781       1262.812          25.000  
G29  23762768.578   124874205.416         364.832          23.000  
J02                                                                  38928763.878   152764843.625        -833.421          25.000  
R04  19520324.860   104530454.2451      -1680.707          19.000  
R14  22531492.772   120105536.3561      -3613.984          29.000  
R15  19909406.005   106389829.754       -1724.552          18.000  
> 2021  9 30 11 22 20.9999560  0 12
C06  36559761.004   190376276.904         215.399          26.000  
C16  36940268.984   192357676.554         267.367          21.000  
C36  22543758.781   117391249.125       -1398.019          29.000  
E08                                                                                                                                  21808743.521    85582193.8081       -386.180          24.000  
G10  22997482.674   120852511.879       -3791.438          16.000  
G25  23618492.258   124116081.642       -3788.764          21.000  
G26  20504856.183   107753770.622        1261.580          25.000  
G29  23762696.627   124873840.249         365.097          27.000  
G32  20781069.065   109205240.6661       -554.474          40.000  
J02                                                                  38928974.931   152765677.590        -834.782          29.000  
R04  19520639.043   104532135.916       -1680.614          25.000  
R14  22532173.901   120109166.462       -3614.035          28.000  
> 2021  9 30 11 22 21.9999557  0 14
C06  36559627.297   190375593.595         215.337          23.000  
C07  36634056.171   190763055.5461        557.048          18.000  
C16  36940127.482   192356940.369         266.544          19.000  
C19  22072130.682   114935369.9441      -2233.138          27.000  
C36  22543936.557   117392178.638       -1398.025          31.000  
E08                                                                                                                                  21808750.116    85582226.051        -385.763          30.000  
G10  22998126.029   120855830.478       -3792.151          17.000  
G25  23619123.921   124119398.313       -3790.945          23.000  
G26  20504524.313   107752036.184        1260.554          23.000  
G32  20781090.650   109205322.672        -554.901          40.000  
J01  36555475.171   192100315.7361        528.615          28.000  
J02                                                                  38929098.446   152766159.886        -835.761          31.000  
R04  19520862.088   104533330.159       -1681.243          28.000  
R14  22532760.594   120112294.103       -3614.172          27.000  
> 2021  9 30 11 22 22.9999555  0  9
C06  36559525.967   190375066.225         215.028          27.000  
C16  36940015.360   192356362.434         264.218          24.000  
C36  22544144.314   117393264.566       -1398.597          33.000  
G10  22998799.662   120859307.410       -3792.933          18.000  
G25  23619782.865   124122873.706       -3793.335          19.000  
G32  20781140.416                        -556.587          40.000  
J02  38929241.147   204574596.5151      -1116.929          25.000    38929251.940   152766761.016        -836.210          26.000  
R04  19521112.115   104534669.577       -1682.039          29.000  
R14  22533378.167   120115585.735       -3614.284          28.000  
> 2021  9 30 11 22 23.9999552  0 10
C06  36559395.857   190374382.926         215.434          28.000  
C16  36939874.157   192355631.034         261.388          27.000  
C19  22072830.397   114939057.6221      -2236.037          26.000  
C30  25788688.662   134288377.8981       1316.375          31.000  
C36  22544324.189   117394194.996       -1398.410          34.000  
G10  22999446.914   120862909.607       -3795.022          18.000  
G26  20503888.453   107748726.4641       1258.449          18.000  
G32  20781156.605   109205714.1221       -556.498          40.000  
J02  38929362.263   204575241.795       -1118.143          27.000    38929375.154   152767243.777        -834.659          19.000  
R14  22533966.360   120118721.775       -3614.704          26.000  
> 2021  9 30 11 22 24.9999549  0  9
C06  36559265.147   190373699.190         215.921          26.000  
C16  36939733.854   192354901.572         260.997          22.000  
C19  22073168.863   114940825.157       -2235.254          25.000  
C30  25788348.698   134286593.531        1315.035          29.000  
C36  22544499.568                       -1400.096          32.000  
G32  20781168.297   109205797.683        -556.117          41.000  
J01  36554947.536   192097469.3351        527.075          28.000  
J02  38929483.979   204575886.848       -1117.279          31.000    38929497.170   152767725.125        -834.097          29.000  
R14  22534552.154   120121844.101       -3614.655          31.000  
> 2021  9 30 11 22 25.9999549  0 12
C04  38370605.183   199805756.7061       -287.530          32.000  
C06  36559222.877   190373483.131         216.346          28.000  
C07  36633390.032   190759587.3471        558.731          19.000  
C16  36939681.990   192354640.847         261.311          24.000  
C19  22073596.967   114943060.949       -2236.202          27.000  
C30  25788100.769   134285278.395        1315.659          28.000  
C36  22544770.880   117396525.6571      -1397.718          33.000  
G29  23762005.306   124870300.2781        358.574          30.000  
J01  36554848.905   192096943.031         525.753          31.000  
J02  38929695.333   204577003.903       -1117.284          32.000    38929709.423   152768559.617        -836.102          30.000  
R04  19521877.785   104538770.0521      -1684.101          25.000  
R14  22535232.383   120125469.887       -3614.759          33.000  
> 2021  9 30 11 22 26.9999547  0 11
C04  38370603.084   199805733.452        -290.106          33.000  
C06  36559120.947   190372955.181         215.438          28.000  
C19  22073965.412   114944985.178       -2236.610          27.000  
C30  25787791.384   134283651.048        1314.289          28.000  
C36  22544976.538                       -1396.952          32.000  
G10  23001501.392   120873506.8721      -3796.852          19.000  
G32  20781309.799   109206597.1511       -558.864          37.000  
J01  36554690.914   192096102.411         524.746          30.000  
J02  38929846.428   204577806.318       -1118.524          28.000    38929862.617   152769160.112        -835.523          31.000  
R04  19522128.412   104540111.788       -1685.581          26.000  
R14  22535850.256   120128764.081       -3614.865          32.000  
> 2021  9 30 11 22 27.9999544  0 10
C04  38370571.306   199805556.467        -292.109          32.000  
C06  36558988.739   190372271.217         214.839          29.000  
C07  36633022.786   190757687.3941        559.741          21.000  
C19  22074306.276   114946753.449       -2236.421          27.000  
C30  25787450.819   134281868.615        1314.011          28.000  
C36  22545153.115   117398546.1701      -1400.713          32.000  
G10  23002140.250   120876830.956       -3796.230          19.000  
G32  20781327.187   109206682.886        -557.523          38.000  
J02  38929968.444   204578452.414       -1118.684          30.000    38929985.232   152769642.186        -834.461          31.000  
R14  22536436.650   120131889.572       -3614.957          33.000  
> 2021  9 30 11 22 28.9999542  0 10
C04  38370569.208   199805536.830        -292.885          34.000  
C06  36558887.709   190371744.118         214.783          29.000  
C07  36632854.902   190756815.960         558.626          22.000  
C19  22074675.920   114948678.700       -2238.969          27.000  
C30  25787139.935   134280242.564        1313.468          28.000  
C36  22545361.171   117399634.439       -1399.806          32.000  
G10  23002818.980   120880630.434       -3796.095          18.000  
J02  38930121.638   204579256.450       -1119.801          29.000    38930138.126   152770241.526        -834.787          30.000  
R04  19522596.987   104542621.2191      -1688.141          24.000  
R14  22537056.321   120135192.590       -3615.037          32.000  
> 2021  9 30 11 22 29.9999542  0 13
C04  38370626.768   199805829.477        -291.735          34.000  
C06  36558846.337   190371529.792         214.014          29.000  
C07  36632747.876   190756257.273         558.927          22.000  
C19  22075105.223   114950917.054       -2238.449          27.000  
C30  25786888.409   134278928.996        1313.676          28.000  
C36  22545632.783   117401035.052       -1401.365          33.000  
G10  23003557.668   120884424.360       -3792.545          17.000  
G29  23761510.648   124867765.1641        357.601          31.000  
G32  20781476.183   109207485.2241       -558.977          35.000  
J01  36554236.129   192093744.3341        523.274          28.000  
J02  38930334.790   204580375.496       -1118.578          30.000    38930350.679   152771076.550        -836.034          29.000  
R04  19522905.774   104544274.722       -1687.632          26.000  
R14  22537732.952   120138799.311       -3614.482          32.000  
> 2021  9 30 11 22 30.9999539  0 14
C04  38370593.191   199805652.127        -290.073          31.000  
C06  36558715.028   190370846.787         214.681          30.000  
C07  36632550.613   190755230.467         556.827          22.000  
C16  36939120.179   192351778.9031        262.773          23.000  
C19  22075448.485   114952687.095       -2239.011          27.000  
C30  25786545.746   134277146.995        1313.536          28.000  
C36  22545814.757   117401967.686       -1401.134          33.000  
G10  23004210.916   120887744.019       -3793.415          16.000  
G29  23761367.048   124866934.874         357.195          29.000  
G32  20781498.068   109207572.124        -559.572          39.000  
J01                                                                  36554033.769   143445904.7311        392.567          26.000  
J02                                                                  38930472.994   152771559.499        -836.019          30.000  
R04  19523127.320   104545460.521       -1689.010          26.000  
R14  22538316.948   120141912.965       -3614.582          31.000  
> 2021  9 30 11 22 31.9999537  0 14
C01  37485838.194   195198524.5191       -302.042          31.000  
C04  38370588.694   199805629.600        -289.421          33.000  
C06  36558614.298   190370319.622         214.830          31.000  
C07  36632382.729   190754361.480         555.568          22.000  
C16  36939010.455   192351203.333         263.285          26.000  
C19  22075820.827   114954613.595       -2239.539          27.000  
C30  25786233.362   134275521.236        1313.816          29.000  
C36  22546019.515   117403056.471       -1401.273          35.000  
G29  23761254.026   124866261.977         357.590          29.000  
G31  21215230.302   111486932.6331       -799.616          24.000  
G32  20781540.939   109207816.746        -560.037          41.000  
J01                                                                  36553873.980   143445276.341         393.270          26.000  
J02                                                                  38930626.188   152772159.223        -834.637          31.000  
R14  22538935.719   120145210.766       -3614.536          31.000  
> 2021  9 30 11 22 32.9999534  0 16
C01  37485805.217   195198358.047        -301.903          35.000  
C04  38370553.319   199805450.228        -288.475          33.000  
C06  36558482.989   190369636.296         214.817          32.000  
C07  36632184.267   190753337.499         555.911          22.000  
C16  36938870.452   192350471.608         263.071          30.000  
C19  22076164.389   114956385.246       -2240.324          26.000  
C22  22389238.553   116586641.4991        802.819          20.000  
C30  25785890.699   134273740.259        1312.622          29.000  
C36  22546200.290   117403989.483       -1401.145          36.000  
G10  23005540.196   120894929.9261      -3794.978          17.000  
G26  20501190.921   107734576.5951       1251.748          19.000  
G32  20781550.532   109207904.597        -559.820          40.000  
J01                                                                  36553684.511   143444530.099         394.093          27.000  
J02                                                                  38930748.803   152772640.813        -833.680          31.000  
R04  19523606.688   104548028.1491      -1689.145          31.000  
R14  22539524.212   120148347.573       -3616.043          31.000  
> 2021  9 30 11 22 33.9999532  0 11
C01  37485802.819   195198347.675        -302.014          30.000  
C04  38370548.222   199805426.031        -287.707          33.000  
C06  36558381.359   190369109.363         213.964          34.000  
C07  36632018.481   190752469.123         555.555          23.000  
C16  36938761.627   192349896.049         263.185          32.000  
C19  22076537.331   114958312.825       -2239.674          24.000  
C36  22546407.147                       -1401.513          38.000  
G32  20781596.400   109208150.685        -560.849          36.000  
J01                                                                  36553524.422   143443901.906         392.835          26.000  
J02  38930898.700                       -1118.734          38.000    38930901.098   152773240.132        -835.491          30.000  
R14  22540145.382   120151658.657       -3614.823          31.000  
> 2021  9 30 11 22 34.9999532  0 12
C04  38370603.084   199805713.236        -287.028          35.000  
C06  36558339.088   190368894.992         214.680          30.000  
C07  36631912.954   190751912.931         556.171          24.000  
C16  36938713.361   192349633.048         262.687          32.000  
C36  22546673.962   117406481.2461      -1400.181          30.000  
G10  23006944.724   120902206.8161      -3797.657          19.000  
G26  20500657.290   107731759.1221       1250.735          27.000  
G31  21215534.891   111488541.4401       -798.604          18.000  
G32  20781707.024   109208712.259        -562.222          37.000  
J01                                                                  36553424.891   143443510.034         391.580          27.000  
J02  38931112.751   204584373.3291      -1119.998          39.000    38931115.150   152774075.716        -835.219          30.000  
R04  19524184.388   104551121.1751      -1693.886          20.000  
> 2021  9 30 11 22 35.9999532  0 11
C04  38370657.047   199806000.012        -286.699          32.000  
C06  36558297.118   190368679.161         216.275          26.000  
C16  36938671.390   192349371.002         261.807          32.000  
C19  22077392.939   114962796.3501      -2242.655          26.000  
C30  25785083.058   134269486.7431       1314.198          27.000  
C36  22546941.677   117407880.391       -1399.535          23.000  
G32  20781811.052   109209272.631        -555.917          36.000  
J01                                                                  36553325.659   143443119.797         388.708          27.000  
J02  38931324.705   204585492.596       -1119.149          35.000    38931328.902   152774911.104        -834.604          33.000  
R04  19524503.967   104552832.603       -1695.122          24.000  
R14  22541505.241   120158907.5161      -3614.731          32.000  
> 2021  9 30 11 22 36.9999529  0  9
C06  36558167.008   190367994.770         215.700          26.000  
C16  36938531.387   192348638.999         263.209          32.000  
C36  22547120.054   117408811.995       -1400.625          29.000  
G10  23008291.391   120909327.7471      -3796.992          20.000  
G26  20500101.175   107728789.1001       1246.549          21.000  
G32  20781826.341   109209363.113        -563.746          32.000  
J01  36553130.794   192088024.1111        523.589          29.000    36553136.490   143442377.530         389.045          26.000  
J02  38931448.219   204586138.928       -1119.767          34.000    38931451.517   152775392.781        -835.439          29.000  
R14  22542094.932   120162051.584       -3613.668          33.000  
> 2021  9 30 11 22 37.9999526  0 11
C01  37485852.584   195198597.1311       -296.469          33.000  
C06  36558038.097   190367311.211         214.531          25.000  
C16  36938391.084   192347908.120         262.675          30.000  
C30  25784400.731   134265921.6441       1313.133          26.000  
C36  22547298.430   117409744.987       -1401.811          31.000  
G25  23629831.908   124175605.5581      -3793.914          28.000  
G26  20499782.796   107727069.858        1246.857          23.000  
J01  36552940.126   192087028.280         522.629          27.000    36552947.021   143441634.732         391.146          27.000  
J02  38931573.832   204586785.283       -1117.871          37.000    38931573.832   152775875.220        -835.317          28.000  
R04  19524970.744   104555332.7281      -1696.079          21.000  
R14  22542681.626   120165179.107       -3613.849          31.000  
> 2021  9 30 11 22 38.9999526  0 11
C01  37485911.344   195198893.947        -297.345          35.000  
C06  36557993.128   190367095.687         215.334          25.000  
C30  25784148.306   134264609.326        1311.558          23.000  
C36  22547570.342   117411146.876       -1402.205          33.000  
G10  23009642.556   120916449.9871      -3798.236          19.000  
G26  20499548.058   107725822.284        1247.939          25.000  
G29  23760422.402   124862047.4251        352.969          24.000  
J01  36552839.995   192086505.731         522.828          32.000    36552847.490   143441244.664         388.784          27.000  
J02  38931786.685   204587904.429       -1120.425          40.000    38931785.786   152776710.339        -835.720          28.000  
R04  19525284.927   104557014.568       -1696.975          21.000  
R14  22543362.755   120168809.352       -3612.109          27.000  
> 2021  9 30 11 22 39.9999524  0 14
C01  37485909.545   195198879.283        -298.169          35.000  
C04  38370636.661   199805886.2641       -282.331          30.000  
C06  36557892.098   190366567.806         216.343          33.000  
C07  36631146.385   190747884.5331        554.341          24.000  
C16  36938223.500   192347070.6161        262.358          26.000  
C30  25783836.521   134262986.183        1310.395          25.000  
C36  22547778.698   117412237.861       -1403.752          38.000  
G10  23010088.048   120918828.893       -3797.771          18.000  
G29  23760293.191   124861379.850         352.082          22.000  
G31  21216075.716   111491286.9131       -801.752          23.000  
J01  36552681.705   192085667.771         522.715          28.000    36552688.001   143440619.480         391.423          26.000  
J02  38931938.080   204588708.834       -1118.606          39.000    38931938.979   152777310.420        -835.139          30.000  
R04  19525539.750   104558378.963       -1697.488          23.000  
R14  22543986.923   120172137.160       -3614.604          28.000  
> 2021  9 30 11 22 40.9999521  0 15
C01  37485877.467   195198709.490        -299.160          30.000  
C07  36630951.820   190746862.204         553.931          24.000  
C16  36938084.696   192346339.788         262.283          30.000  
C19  22079215.077   114972294.0771      -2243.752          22.000  
C22  22387630.166   116578197.8941        795.576          20.000  
C36  22547967.567   117413172.400       -1402.272          32.000  
G10  23010717.911   120922154.230       -3798.327          18.000  
G25  23631867.499   124186199.5551      -3793.934          29.000  
G26  20498918.194   107722537.9221       1248.279          23.000  
G29  23760127.106   124860555.142         352.033          30.000  
G31  21216136.274   111491621.007        -807.536          14.000  
G32  20782016.409                        -562.733          35.000  
J01  36552494.035   192084672.918         522.145          27.000    36552497.632   143439874.263         390.256          27.000  
J02  38932059.196   204589355.409       -1119.519          36.000    38932063.393   152777793.339        -837.357          32.000  
R04  19525769.391   104559609.126       -1697.957          29.000  
> 2021  9 30 11 22 41.9999519  0 12
C06  36557664.256   190365356.4281        213.764          27.000  
C16  36937976.171   192345765.141         261.956          32.000  
C22  22387421.511   116577088.369         800.110          10.000  
C36  22548180.420                       -1402.252          35.000  
G10  23011379.553   120925637.900       -3799.437          18.000  
G25  23632535.436   124189678.544       -3794.547          29.000  
G26  20498618.402   107720974.974        1247.283          26.000  
G31  21216225.912   111492112.310        -803.245          14.000  
G32  20782061.978   109210483.9531       -564.196          32.000  
J01  36552334.545   192083834.993         524.168          28.000    36552338.443   143439248.069         389.449          28.000  
J02  38932205.495   204590159.591       -1119.247          34.000    38932218.086   152778394.803        -836.107          34.000  
R14  22545189.690   120178547.7941      -3615.494          30.000  
> 2021  9 30 11 22 42.9999516  0 10
C06  36557534.146   190364674.065         213.757          27.000  
C07  36630595.367   190744973.2371        555.242          24.000  
C16  36937837.667   192345035.150         261.120          32.000  
C22  22387179.878   116575818.138         802.899          11.000  
C36  22548360.295   117415229.1361      -1403.416          35.000  
G10  23012006.120   120928964.116       -3795.909          16.000  
G26  20498285.632   107719255.234        1246.157          21.000  
J01  36552145.376   192082837.650         524.469          28.000    36552148.974   143438505.604         389.210          29.000  
J02  38932333.506   204590807.070       -1119.302          36.000    38932341.301   152778878.259        -837.091          34.000  
R14  22545778.183   120181685.029       -3616.328          30.000  
> 2021  9 30 11 22 43.9999516  0 13
C06  36557493.974   190364459.928         213.570          26.000  
C07  36630490.739   190744417.680         555.425          22.000  
C16  36937788.201   192344774.442         260.917          30.000  
C22  22387026.684   116575015.557         801.324          13.000  
C36  22548624.712   117416633.894       -1404.171          33.000  
G10  23012725.322   120932761.465       -3801.016          17.000  
G26  20498045.798   107718008.705        1245.977          25.000  
G31  21216441.763   111493247.7531       -805.681          14.000  
G32  20782189.989   109211144.6611       -567.199          34.000  
J01  36552045.845   192082313.944         523.210          28.000    36552050.042   143438116.065         390.716          29.000  
J02  38932547.858   204591927.389       -1119.106          36.000    38932554.453   152779715.110        -837.997          34.000  
R04  19526575.233   104563924.6651      -1704.418          21.000  
R14  22546456.613   120185301.443       -3615.925          30.000  
> 2021  9 30 11 22 44.9999514  0 11
C06  36557395.342   190363934.846         212.261          25.000  
C07  36630325.553   190743550.132         554.750          21.000  
C16  36937679.077   192344201.087         261.312          31.000  
C22  22386809.035   116573903.459         798.002          14.000  
C30  25782241.026   134254870.7441       1310.420          24.000  
C36  22548826.772   117417726.536       -1404.765          32.000  
G10  23013395.358   120936246.675       -3797.533          17.000  
J01  36551887.255   192081476.006         522.611          30.000    36551891.752   143437491.028         389.500          29.000  
J02  38932701.651   204592732.396       -1120.789          36.000    38932707.647                        -836.446          34.000  
R04  19526833.055   104565304.360       -1701.192          26.000  
R14  22547075.085   120188597.977       -3616.658          31.000  
> 2021  9 30 11 22 45.9999511  0 12
C06  36557267.630   190363253.701         213.072          27.000  
C07  36630131.288   190742528.551         551.954          19.000  
C16  36937538.774   192343471.875         260.342          29.000  
C30  25781897.164   134253091.499        1311.154          26.000  
C36  22549006.947   117418663.117       -1406.144          31.000  
G10  23014030.618   120939576.033       -3802.057          16.000  
G25  23635221.577   124203928.2101      -3796.627          24.000  
G26  20497421.630   107714731.9231       1241.569          22.000  
G32  20782269.734   109211491.9851       -568.174          33.000  
J01  36551698.086   192080481.243         521.499          30.000    36551701.983   143436748.629         388.881          28.000  
J02  38932823.067   204593379.822       -1120.370          35.000    38932830.562   152780790.9661       -835.111          34.000  
R04  19527065.094   104566547.432       -1703.345          25.000  
> 2021  9 30 11 22 46.9999508  0 10
C06  36557139.319   190362572.140         213.324          26.000  
C07  36629935.523   190741508.940         550.978          20.000  
C16  36937396.373   192342742.025         263.249          24.000  
C36  22549190.420   117419599.936       -1405.117          33.000  
G25  23635876.923   124207248.395       -3790.055          17.000  
G26  20497096.955   107713018.011        1241.854          20.000  
G29  23759307.174   124856002.3831        347.719          23.000  
J01  36551508.317   192079487.114         521.169          29.000    36551512.814   143436006.168         388.714          27.000  
J02  38932946.282   204594027.151       -1119.357          35.000    38932953.477   152781274.391        -837.576          34.000  
R14  22548255.667   120194891.3341      -3614.661          31.000  
> 2021  9 30 11 22 47.9999506  0 10
C06  36557039.788   190362046.377         213.663          25.000  
C07  36629767.640   190740644.577         554.044          24.000  
C16  36937285.150   192342166.650         263.213          24.000  
C36  22549402.374   117420693.150       -1405.280          33.000  
G26  20496798.062   107711459.918        1242.754          20.000  
G29  23759176.464   124855339.867         347.284          22.000  
J01  36551346.429   192078651.551         519.424          28.000    36551354.224   143435381.883         388.971          28.000  
J02  38933101.275   204594832.184       -1120.562          34.000    38933106.671   152781875.551        -837.760          33.000  
R04  19527548.959   104569138.2101      -1706.426          30.000  
R14  22548871.741   120198175.935       -3615.999          31.000  
> 2021  9 30 11 22 48.9999506  0  9
C06  36557000.215   190361832.545         212.043          26.000  
C07  36629659.414   190740090.172         554.125          21.000  
C16  36937235.084   192341903.312         263.454          26.000  
C36  22549675.185   117422098.587       -1405.487          33.000  
G10  23016038.028   120950194.4621      -3803.657          16.000  
G25  23637052.109   124213548.0041      -3795.522          17.000  
G26  20496560.926   107710215.912        1244.054          21.000  
J01  36551245.399   192078132.220         519.908          29.000    36551255.293   143434992.928         388.439          28.000  
J02  38933311.729   204595952.133       -1119.403          35.000    38933320.123   152782711.871        -837.728          34.000  
> 2021  9 30 11 22 49.9999503  0 11
C06  36556871.005   190361151.400         213.342          25.000  
C07  36629462.751   190739066.732         555.318          22.000  
C16  36937094.482   192341171.355         263.538          25.000  
C36  22549856.559   117423035.991       -1404.786          32.000  
G10  23016666.094   120953526.980       -3810.133          17.000  
G25  23637682.273   124216871.839       -3797.269          18.000  
G26  20496234.152   107708500.908        1241.081          19.000  
G29  23758951.620   124854175.9021        344.518          27.000  
J01  36551054.731   192077137.924         522.679          28.000    36551066.123   143434251.239         389.152          27.000  
J02  38933436.143   204596599.633       -1120.568          35.000    38933443.938   152783195.428        -836.893          34.000  
R14  22550137.465   120204922.7891      -3616.006          32.000  
> 2021  9 30 11 22 50.9999501  0 13
C06  36556770.874   190360624.249         215.393          26.000  
C16  36936984.458   192340596.434         261.554          25.000  
C30  25780327.451   134244983.8241       1309.861          24.000  
C36  22550064.615   117424129.875       -1406.167          33.000  
E08                                                                                                                                  21809965.175    85586988.3931       -396.315          30.000  
G10  23017328.635   120957022.142       -3810.748          17.000  
G25  23638344.515   124220355.002       -3798.933          19.000  
G26  20495936.159   107706944.603        1240.875          21.000  
G32  20782485.285   109212761.4041       -570.126          29.000  
J01  36550894.642   192076300.917         521.518          28.000    36550906.934   143433627.401         388.666          29.000  
J02  38933589.037   204597404.784       -1119.222          35.000    38933596.832   152783796.644        -835.497          34.000  
R05  19965900.095   106729178.6011       2206.468          21.000  
R15  19917710.556   106434207.2481      -1741.420          26.000  
> 2021  9 30 11 22 51.9999498  0 14
C06  36556641.664   190359940.408         214.352          25.000  
C16  36936846.553   192339866.716         261.500          25.000  
C19  22083267.972   114993427.1361      -2250.825          25.000  
C36  22550245.990   117425067.932       -1406.842          31.000  
E08                                                                                                                                  21809976.867    85587031.553        -395.012          31.000  
G10  23017965.394   120960360.153       -3809.300          17.000  
G25  23638977.976   124223681.637       -3800.645          19.000  
G26  20495609.385   107705231.763        1238.847          21.000  
G29  23758669.216   124852699.3051        344.532          29.000  
J01  36550705.173   192075307.369         520.807          27.000    36550717.465   143432885.979         388.683          28.000  
J02  38933713.751   204598052.580       -1121.058          35.000    38933720.346   152784280.429        -835.973          34.000  
R04  19528543.671   104574465.1931      -1708.154          25.000  
R05  19965403.039   106726522.475        2205.708          23.000  
R15  19917948.591   106435478.445       -1742.471          27.000  
> 2021  9 30 11 22 52.9999496  0 15
C07  36628933.917   190736311.4711        556.139          18.000  
C16  36936737.729   192339294.002         259.915          29.000  
C19  22083639.115   114995365.973       -2251.003          25.000  
C36  22550460.341   117426161.610       -1408.291          29.000  
E08                                                                                                                                  21810018.239    85587192.672        -398.511          29.000  
G10  23018627.336   120963851.976       -3805.555          17.000  
G25  23639644.715   124227166.954       -3799.795          20.000  
G26  20495311.691   107703678.406        1238.450          18.000  
G31  21217204.735   111497348.8291       -809.264          16.000  
G32  20782549.740   109213116.6241       -571.898          28.000  
J01  36550544.485   192074471.094         520.636          27.000    36550557.675   143432262.767         386.875          27.000  
J02  38933860.949   204598857.956       -1120.997          34.000    38933873.840   152784881.858        -837.732          35.000  
R04  19528800.293   104575839.782       -1709.399          29.000  
R05  19964930.566   106723996.215        2204.139          23.000  
R15  19918215.406   106436904.819       -1742.911          25.000  
> 2021  9 30 11 22 53.9999496  0 11
C06  36556507.357   190359200.1921        213.871          23.000  
C16  36936689.162   192339033.125         261.078          29.000  
C36  22550728.655   117427569.655       -1407.823          28.000  
E08                                                                                                                                  21810119.868    85587589.515        -396.586          31.000  
G10  23019351.634   120967655.357       -3801.108          18.000  
G25  23640373.210   124230966.922       -3799.443          20.000  
G31  21217359.428   111498159.462        -812.116          14.000  
J01  36550446.452   192073949.848         521.841          27.000    36550457.545   143431874.685         388.865          28.000  
J02  38934076.799   204599978.595       -1121.321          34.000    38934086.992   152785718.673        -836.040          36.000  
R05  19964516.253   106721781.612        2204.562          24.000  
R15  19918541.281   106438645.987       -1743.611          26.000  
> 2021  9 30 11 22 54.9999496  0 17
C06  36556467.184   190358986.754         213.476          23.000  
C07  36628724.362   190735198.3961        553.397          17.000  
C16  36936639.097   192338772.181         260.793          27.000  
C19  22084498.620   114999867.7381      -2252.509          26.000  
C30  25779177.147   134238961.1051       1308.917          28.000  
C36  22550996.370   117428978.071       -1409.022          28.000  
E08                                                                                                                                  21810221.498    85587986.699        -397.514          30.000  
G10  23020079.531   120971455.841       -3799.537          19.000  
G25  23641109.500   124234765.019       -3796.248          20.000  
G26                                                                  20494857.505    80426226.7951        924.968          26.000  
G29  23758410.794   124851350.0141        344.118          29.000  
G31  21217512.022   111498969.987        -808.678          13.000  
G32  20782771.287   109214260.9961       -573.014          31.000  
J01  36550345.722   192073428.505         521.675          26.000    36550358.014   143431486.223         389.138          27.000  
J02  38934290.851   204601099.390       -1120.811          33.000    38934300.145   152786555.646        -837.972          35.000  
R05  19964105.537   106719585.866        2202.560          23.000  
R15  19918871.952   106440412.720       -1743.446          27.000  
> 2021  9 30 11 22 55.9999493  0 18
C06  36556336.475   190358304.483         214.338          23.000  
C07  36628530.996   190734176.941         550.822          17.000  
C16  36936498.794   192338043.003         260.687          27.000  
C19  22084840.983   115001652.404       -2254.280          26.000  
C30  25778835.683   134237184.942        1307.228          26.000  
C36  22551173.547   117429917.948       -1407.981          28.000  
E08                                                                                                                                  21810232.890    85588031.238        -397.169          30.000  
G10  23020722.286   120974782.826       -3800.054          20.000  
G25  23641755.853   124238088.140       -3795.713          24.000  
G26                                                                  20494530.732    80424948.287         924.925          25.000  
G29  23758254.902   124850533.953         342.092          28.000  
G31  21217575.278   111499307.161        -811.672          13.000  
J01  36550153.255   192072434.289         520.891          26.000    36550169.444   143430746.203         385.422          28.000  
J02  38934415.265   204601747.684       -1120.922          34.000    38934423.959   152787039.739        -837.692          35.000  
R04  19529673.289   104580513.8381      -1712.779          32.000  
R05  19963607.582   106716924.396        2200.777          22.000  
R14  22553910.353   120225034.1751      -3615.734          32.000  
R15  19919107.889   106441674.097       -1744.509          26.000  
> 2021  9 30 11 22 56.9999491  0 17
C07  36628365.210   190733315.287         550.410          15.000  
C16  36936389.969   192337470.050         260.822          27.000  
C19  22085216.023   115003594.450       -2254.184          26.000  
C30  25778525.998   134235564.728        1308.038          24.000  
C36  22551384.002   117431013.920       -1408.528          29.000  
E08                                                                                                                                  21810273.662    85588194.242        -399.070          30.000  
G10  23021396.519   120978268.363       -3801.553          24.000  
G25  23642432.185   124241569.298       -3796.400          26.000  
G26  20494236.335   107697948.0531       1232.623          18.000    20494235.136    80423789.348         923.446          25.000  
G29  23758127.191   124849877.206         341.161          28.000  
G31  21217668.514   111499801.076        -807.920          11.000  
J01  36549994.066   192071598.412         520.679          27.000    36550011.154   143430124.125         387.734          28.000  
J02  38934568.159   204602554.093       -1122.152          34.000    38934576.853   152787641.951        -838.071          35.000  
R04  19529929.311   104581884.677       -1713.709          29.000  
R05  19963142.604   106714438.275        2201.747          23.000  
R14  22554530.024   120228337.632       -3616.444          32.000  
R15  19919373.505   106443093.349       -1745.084          24.000  
> 2021  9 30 11 22 57.9999488  0 12
C06  36556102.937   190357097.7351        212.112          22.000  
C16  36936250.566   192336741.383         259.870          27.000  
C19  22085558.686   115005380.752       -2254.743          24.000  
C36  22551563.278   117431953.657       -1407.998          29.000  
E08                                                                                                                                  21810285.354    85588239.656        -399.373          30.000  
G10  23022046.769   120981598.904       -3804.266          23.000  
G26                                                                  20493910.161    80422513.177         923.482          24.000  
G32  20782842.637   109214720.7121       -573.249          24.000  
J01  36549805.196   192070608.125         517.139          25.000    36549822.884   143429383.573         387.380          27.000  
J02  38934692.573   204603202.863       -1121.720          34.000    38934700.068   152788126.403        -838.042          35.000  
R14  22555123.613   120231502.001       -3616.874          31.000  
R15  19919607.643   106444343.806       -1746.277          25.000  
> 2021  9 30 11 22 58.9999488  0 17
C06  36556060.966   190356885.517         212.060          23.000  
C16  36936200.800   192336480.832         260.424          27.000  
C19  22085991.886   115007636.327       -2256.287          24.000  
C30  25777931.809   134232481.4181       1308.465          21.000  
C36  22551834.890   117433361.545       -1407.894          29.000  
E08                                                                                                                                  21810386.983    85588638.323        -398.061          29.000  
G10  23022785.757   120985403.551       -3804.327          24.000  
G25  23643801.637   124249017.1451      -3798.608          26.000  
G26                                                                  20493674.824    80421589.177         922.489          24.000  
G29  23757901.747   124848721.3291        341.822          26.000  
G32  20782947.865   109215293.791        -574.131          22.000  
J01  36549707.464   192070091.529         516.099          26.000    36549724.252   143428996.017         388.962          27.000  
J02  38934903.927   204604324.256       -1121.715          34.000    38934913.820   152788963.823        -837.479          35.000  
R04  19530475.833   104584811.9901      -1715.357          26.000  
R05  19962253.719   106709686.7471       2200.249          19.000  
R14  22555805.641   120235136.976       -3616.986          31.000  
R15  19919932.917   106446082.251       -1748.153          24.000  
> 2021  9 30 11 22 59.9999485  0 14
C16  36936061.697   192335751.985         259.800          27.000  
C19  22086335.148   115009424.837       -2257.081          25.000  
C30  25777587.647   134230705.669        1306.004          22.000  
C36  22552015.365   117434301.757       -1408.487          27.000  
E08                                                                                                                                  21810399.874    85588684.391        -397.874          29.000  
G26  20493357.644   107693309.5841       1229.458          19.000    20493349.849    80420314.050         922.408          24.000  
G29  23757747.654   124847907.256         340.090          26.000  
G31  21217937.428   111501261.9171       -803.297          13.000  
J01  36549520.993   192069102.264         517.807          23.000    36549535.683   143428255.220         386.657          25.000  
J02  38935029.540   204604973.153       -1121.432          32.000    38935037.934   152789448.404        -838.238          35.000  
R04  19530714.768   104586091.168       -1716.891          28.000  
R05  19961761.760   106707057.724        2202.575          21.000  
R14  22556395.332   120238280.635       -3617.328          31.000  
R15  19920171.252   106447356.431       -1747.919          26.000  
> 2021  9 30 11 23  0.9999483  0 13
C06  36555826.228   190355678.4041        213.049          20.000  
C16  36935952.872   192335180.144         259.406          30.000  
C19  22086710.788   115011368.319       -2254.902          24.000  
C36  22552225.819   117435398.612       -1409.452          25.000  
E08                                                                                                                                  21810441.546    85588848.494        -399.134          30.000  
G10  23024106.942   120992499.6101      -3806.740          24.000  
G25  23645101.837   124255830.3601      -3799.937          27.000  
G29  23757621.441   124847252.445         339.275          27.000  
G32  20783015.018   109215655.2531       -577.394          27.000  
J01  36549362.103   192068268.851         518.165          27.000    36549377.692   143427633.358         386.576          26.000  
J02                                                                  38935191.428   152790050.814        -838.403          35.000  
R14  22557013.504   120241576.065       -3615.999          30.000  
R15  19920439.267   106448788.410       -1747.175          26.000  
> 2021  9 30 11 23  1.9999480  0 13
C06  36555692.820   190354996.983         213.219          29.000  
C16  36935813.468   192334452.129         259.553          29.000  
C19  22087055.550   115013154.583       -2254.295          24.000  
C36  22552405.694   117436339.765       -1409.415          33.000  
E08                                                                                                                                  21810453.537    85588895.605        -402.740          29.000  
G10  23024753.895   120995833.413       -3806.169          23.000  
G29  23757455.955   124846439.935         340.044          24.000  
J01  36549175.033   192067277.857         517.724          30.000    36549189.722   143426894.825         385.742          28.000  
J02  38935301.452   204606429.0251      -1122.032          30.000    38935314.043   152790535.501        -838.800          33.000  
R04  19531220.218   104588797.5811      -1717.032          29.000  
R05  19960804.223   106701938.7261       2198.503          21.000  
R14  22557597.200   120244687.641       -3615.840          29.000  
R15  19920673.405   106450039.022       -1746.378          25.000  
> 2021  9 30 11 23  2.9999478  0 13
C06  36555586.994   190354472.044         212.379          27.000  
C16  36935704.044   192333879.998         259.910          28.000  
C19  22087428.791   115015096.978       -2255.333          25.000  
C36  22552617.348   117437437.278       -1409.915          34.000  
E08                                                                                                                                  21810495.508    85589061.230        -400.855          28.000  
G10  23025427.528   120999323.994       -3805.352          19.000  
G25  23646395.741   124262640.6961      -3800.037          22.000  
G26  20492440.279   107688513.4291       1232.314          26.000  
G29  23757324.047   124845785.465         338.798          22.000  
J01  36549018.541   192066445.101         517.709          29.000    36549030.832   143426272.703         386.886          27.000  
J02  38935451.348   204607235.676       -1119.516          31.000    38935467.837   152791137.949        -837.154          33.000  
R05  19960334.748   106699429.346        2199.199          21.000  
R15  19920941.419   106451471.047       -1747.855          27.000  
> 2021  9 30 11 23  3.9999478  0 12
C06  36555541.425   190354259.523         212.552          25.000  
C16  36935653.679   192333619.946         259.938          31.000  
C36  22552886.861   117438847.349       -1410.160          33.000  
E08                                                                                                                                  21810597.138    85589462.312        -400.646          30.000  
G10  23026153.626   121003127.599       -3802.844          16.000  
G25  23647118.840   124266441.219       -3801.155          21.000  
G26  20492206.441   107687281.258        1232.004          27.000  
G29  23757254.495   124845446.966         337.991          24.000  
J01  36548922.907   192065927.917         517.003          30.000    36548932.201   143425885.054         388.546          27.000  
J02  38935668.098   204608357.691       -1121.925          32.000    38935681.589   152791975.778        -839.280          34.000  
R04  19531794.920   104591875.6751      -1720.248          26.000  
R14  22558888.706   120251571.6101      -3616.278          30.000  
> 2021  9 30 11 23  4.9999475  0 14
C04  38370575.204   199805439.4221       -291.031          31.000  
C06  36555404.720   190353577.858         214.005          26.000  
C16  36935513.676   192332891.062         260.775          31.000  
C36  22553072.133                       -1412.238          33.000  
E08                                                                                                                                  21810608.830    85589510.334        -400.636          31.000  
G10  23026780.192   121006456.520       -3796.769          14.000  
G25  23647767.891   124269769.889       -3801.870          23.000  
G26  20491880.566   107685577.074        1231.213          28.000  
G29  23757100.402   124844636.606         337.459          27.000  
J01  36548735.837   192064937.644         518.033          29.000    36548744.531   143425144.901         385.329          28.000  
J02  38935791.612   204609006.997       -1122.724          33.000    38935804.803   152792460.737        -837.971          34.000  
R04  19532030.257   104593135.288       -1720.823          25.000  
R14  22559476.000   120254701.824       -3617.151          31.000  
R15  19921498.733   106454449.4641      -1747.652          25.000  
> 2021  9 30 11 23  5.9999473  0 14
C04  38370570.107   199805418.289        -291.365          30.000  
C06  36555294.996   190353051.740         213.138          24.000  
C16  36935407.549                         260.559          32.000  
C19  22088578.795   115021088.4761      -2258.098          27.000  
C36  22553285.285   117440863.5881      -1411.062          33.000  
E08                                                                                                                                  21810650.501    85589675.542        -400.707          31.000  
G10  23027445.431   121009940.517       -3802.132          14.000  
G25  23648455.015   124273256.705       -3802.021          23.000  
G26  20491582.273   107684031.171        1230.414          26.000  
G29  23756978.386   124843984.692         336.100          28.000  
J01  36548579.045   192064104.606         517.116          30.000    36548586.240   143424524.082         385.181          28.000  
J02  38935947.804   204609814.145       -1121.294          33.000    38935958.297   152793063.471        -838.586          34.000  
R04  19532298.271   104594570.998       -1721.221          27.000  
R05  19958944.310   106691996.8541       2194.029          25.000  
> 2021  9 30 11 23  6.9999470  0 12
C06  36555163.087   190352370.643         211.483          25.000  
C16  36935264.249                         260.611          32.000  
C36  22553466.960   117441806.169       -1412.906          32.000  
E08                                                                                                                                  21810663.092    85589723.415        -401.144          31.000  
G10  23028080.392   121013272.214       -3805.864          18.000  
G25  23649113.659   124276931.904       -3801.944          24.000  
G26  20491258.797   107682328.945        1228.739          27.000  
G31  21218524.121   111504097.5581       -810.646          18.000  
J01                                                                  36548396.771   143423786.749         385.556          25.000  
J02                                                                  38936080.912   152793548.581        -839.465          34.000  
R04  19532538.105   104595854.790       -1722.453          30.000  
R15  19921999.687   106457126.4861      -1750.036          24.000  
> 2021  9 30 11 23  7.9999470  0 16
C04  38370589.294   199805533.2711       -292.105          31.000  
C06  36555120.517   190352159.605         210.888          26.000  
C16  36935211.485   192331372.5551        262.689          32.000  
C19  22089362.153   115025138.7371      -2260.121          27.000  
C30  25775111.062   134217921.0081       1307.624          25.000  
C36  22553740.970   117443217.469       -1409.646          33.000  
E08                                                                                                                                  21810765.321    85590125.040        -402.304          32.000  
G25  23649862.241   124280733.864       -3802.203          24.000  
G26  20491023.160   107681100.736        1227.614          28.000  
G29  23756770.630   124842840.3651        335.152          29.000  
G32  20783438.325                        -577.814          34.000  
J01  36548292.144   192062597.7071        517.026          30.000    36548298.439   143423401.496         385.493          28.000  
J02  38936286.869   204611586.3181      -1121.238          32.000    38936295.863   152794386.811        -836.771          33.000  
R04  19532864.879   104597605.486       -1724.145          28.000  
R14  22561359.296   120264740.9201      -3617.053          31.000  
R15  19922329.458   106458888.632       -1752.297          24.000  
> 2021  9 30 11 23  8.9999468  0 11
C16  36935103.860   192330800.819         257.302          33.000  
C36  22553953.223   117444316.725       -1412.684          31.000  
E08                                                                                                                                  21810807.892    85590291.997        -402.415          30.000  
G10  23029459.737   121020570.5891      -3807.704          19.000  
G25  23650539.472   124284220.960       -3802.715          26.000  
G26  20490729.063   107679558.298        1226.844          27.000  
G32  20783491.089   109217971.6681       -581.911          37.000  
J01  36548135.652   192061765.949         516.781          31.000    36548139.549   143422781.923         384.115          26.000  
J02  38936441.562   204612394.077       -1125.457          32.000    38936449.957   152794990.015        -838.634          35.000  
R04  19533124.499   104598995.693       -1723.921          30.000  
R14  22561978.967   120268044.164       -3617.734          30.000  
> 2021  9 30 11 23  9.9999465  0 15
C06  36554875.586   190350956.9201        211.592          18.000  
C16  36934965.655   192330073.010         258.980          34.000  
C22  22381502.708   116546545.1971        781.321          23.000  
C36  22554132.799   117445261.042       -1413.272          27.000  
E08                                                                                                                                  21810821.383    85590341.036        -401.625          32.000  
G10  23030084.804   121023905.857       -3808.081          20.000  
G25  23651195.418   124287871.721       -3803.831          19.000  
G26  20490406.787   107677858.974        1226.183          28.000  
G31  21218818.817   111505739.5421       -809.491          17.000  
G32  20783512.074   109218080.172        -581.260          39.000  
J01  36547947.982   192060776.436         516.923          31.000    36547950.081   143422042.971         386.729          25.000  
J02                                                                  38936573.771   152795475.591        -839.134          35.000  
R04  19533354.140   104600225.051       -1724.605          24.000  
R14  22562568.959   120271189.132       -3616.838          31.000  
R15  19922830.412   106461565.5891      -1752.269          24.000  
> 2021  9 30 11 23 10.9999462  0 16
C16  36934825.652   192329345.558         259.880          33.000  
C19  22090438.408   115030676.7811      -2262.959          28.000  
C22  22381255.379   116545296.997         779.278          26.000  
C30  25774125.944   134212752.9241       1305.293          27.000  
C36  22554312.674   117446205.743       -1412.889          31.000  
E08                                                                                                                                  21810833.674    85590389.836        -402.071          31.000  
G10  23030701.477   121027241.521       -3809.408          21.000  
G25  23651856.760   124291205.468       -3809.710          20.000  
G26  20490086.009   107676160.490        1225.186          25.000  
G29  23756335.931   124840577.8541        333.023          25.000  
G31  21218878.176   111506076.871        -811.140          18.000  
G32  20783536.357   109218189.553        -582.858          40.000  
J01  36547762.111   192059787.475         515.736          31.000    36547762.411   143421305.454         385.156          26.000  
J02  38936685.294   204613695.0021      -1122.417          33.000    38936697.585   152795961.520        -839.068          36.000  
R04  19533585.880   104601465.450       -1725.712          24.000  
R15  19923068.747   106462838.988       -1751.735          21.000  
> 2021  9 30 11 23 11.9999462  0 12
C16  36934774.688   192329086.365         260.492          32.000  
C19  22090872.807   115032938.745       -2261.200          28.000  
C22  22381101.886   116544518.021         778.062          27.000  
C36  22554583.087   117447617.716       -1411.898          29.000  
E08                                                                                                                                  21810936.203    85590793.493        -404.761          29.000  
G25  23652606.241   124295285.538       -3805.319          16.000  
G29  23756267.878   124840245.174         332.360          23.000  
G32  20783649.979   109218771.988        -582.686          39.000  
J01  36547663.779   192059270.958         516.881          31.000    36547664.978   143420919.801         386.306          23.000  
J02  38936901.444   204614818.283       -1122.375          33.000    38936911.337   152796800.275        -839.802          36.000  
R04  19533906.958   104603185.091       -1726.831          24.000  
R15  19923398.518   106464601.829       -1752.911          22.000  
> 2021  9 30 11 23 12.9999460  0 13
C16  36934662.565   192328515.120         260.424          32.000  
C19  22091247.548   115034888.357       -2262.813          28.000  
C22  22380889.633   116543166.229         776.783          27.000  
C30  25773572.527   134209831.4591       1304.850          25.000  
C36  22554793.541   117448717.767       -1412.111          31.000  
E08                                                                                                                                  21810979.373    85590962.738        -404.304          29.000  
G26  20489563.770   107673394.7081       1224.773          21.000  
G29  23756141.366   124839598.245         331.457          21.000  
G32  20783705.740   109219039.951        -582.868          41.000  
J01  36547507.287   192058439.907         515.273          32.000    36547506.688   143420297.875         386.423          24.000  
J02  38937059.435   204615626.609       -1123.470          34.000    38937065.131   152797403.931        -838.715          36.000  
R04  19534168.377   104604585.256       -1729.588          28.000  
R15  19923664.434   106466022.668       -1754.551          26.000  
> 2021  9 30 11 23 13.9999460  0 12
C06  36554562.003   190349321.8261        211.991          19.000  
C16  36934610.101   192328256.120         257.995          31.000  
C30  25773324.898   134208526.737        1304.347          29.000  
C36  22555066.352   117450129.947       -1412.959          30.000  
E08                                                                                                                                  21811081.902    85591366.715        -405.016          29.000  
G26  20489332.930   107672170.075        1224.183          23.000  
G31  21219276.600   111508197.7761       -813.562          19.000  
G32  20783815.164   109219623.439        -584.298          41.000  
J01  36547410.154   192057924.996         515.390          31.000    36547406.857   143419912.031         385.458          25.000  
J02  38937271.988   204616749.921       -1122.008          33.000    38937279.183   152798242.855        -838.429          36.000  
R04  19534486.157   104606287.087       -1729.847          27.000  
R15  19923996.904   106467799.321       -1752.947          23.000  
> 2021  9 30 11 23 14.9999457  0 15
C16  36934469.799   192327529.373         258.558          36.000  
C22  22380507.397   116541142.8021        777.674          25.000  
C36  22555249.526   117451074.743       -1412.981          31.000  
E08                                                                                                                                  21811094.194    85591418.029        -404.920          30.000  
G10  23033411.601   121041395.7271      -3808.661          23.000  
G25  23654637.935   124305909.2721      -3803.756          24.000  
G26  20489014.550   107670473.734        1223.360          30.000  
G29  23755930.312   124838462.7031        330.667          26.000  
G31  21219337.758   111508539.366        -815.007          19.000  
G32  20783825.357   109219735.469        -583.672          41.000  
J01  36547222.484   192056937.579         514.608          28.000    36547216.189   143419173.872         384.957          22.000  
J02  38937399.699   204617401.352       -1122.822          32.000    38937402.697   152798729.265        -839.305          37.000  
R04  19534722.993   104607555.085       -1729.969          26.000  
R14  22565736.865   120288076.0951      -3619.695          25.000  
R15  19924243.933   106469119.168       -1755.918          24.000  
> 2021  9 30 11 23 15.9999455  0 15
C10  37394139.176   194721095.6721        579.689          24.000  
C16  36934358.576   192326958.608         258.653          36.000  
C19  22092402.648   115040896.0721      -2263.642          21.000  
C22  22380301.740   116540053.134         776.528          25.000  
C30  25772679.145   134205136.7541       1304.745          29.000  
E08                                                                                                                                  21811137.064    85591587.750        -405.362          31.000  
G10  23034090.031   121044890.006       -3809.787          21.000  
G25  23655087.923   124308326.923       -3804.983          25.000  
G26  20488730.347   107668936.192        1221.146          22.000  
G29  23755810.095   124837817.429         329.598          27.000  
G31  21219431.593   111509039.526        -815.653          18.000  
G32  20783875.722   109220005.433        -585.770          40.000  
J01  36547065.093   192056107.698         514.597          26.000    36547057.898   143418555.468         382.316          23.000  
J02  38937555.291   204618210.433       -1125.177          31.000    38937556.491   152799333.407        -839.028          36.000  
R15  19924522.740   106470609.464       -1754.883          22.000  
> 2021  9 30 11 23 16.9999452  0 16
C10  37393938.015   194720048.291         578.330          24.000  
C16  36934223.369   192326231.745         257.331          32.000  
C22  22380064.004   116538808.441         776.544          24.000  
C30  25772340.380   134203364.591        1303.471          29.000  
C36  22555650.948   117453120.7061      -1413.921          26.000  
E08                                                                                                                                  21811151.154    85591640.437        -406.177          31.000  
G10  23034728.589   121048227.074       -3809.944          23.000  
G25  23655720.186   124311659.595       -3805.668          24.000  
G26  20488410.469   107667242.921        1219.536          25.000  
G29  23755661.098   124837015.959         328.298          28.000  
G32  20783897.307   109220118.624        -586.043          41.000  
J01  36546877.423   192055121.054         514.015          28.000    36546871.727   143417819.619         382.145          25.000  
J02  38937672.810   204618862.007       -1123.184          33.000    38937678.806   152799819.959        -838.753          36.000  
R04  19535223.346   104610234.3921      -1733.167          31.000  
R14  22566945.029   120294516.3851      -3616.899          26.000  
R15  19924764.373   106471900.238       -1756.626          20.000  
> 2021  9 30 11 23 17.9999450  0 13
C06  36554123.407   190346917.0511        210.080          29.000  
C10  37393765.935   194719156.515         581.731          15.000  
C16  36934113.945   192325661.751         257.653          28.000  
C30  25772033.692   134201748.904        1303.577          32.000  
C36  22555861.702   117454222.796       -1415.071          33.000  
E08                                                                                                                                  21811193.125    85591811.655        -405.845          26.000  
G10  23035397.126   121051721.542       -3809.759          19.000  
G25  23656389.322   124315149.743       -3805.319          21.000  
G29  23755544.479   124836372.694         327.822          29.000  
G31  21219593.181   111509879.7391       -813.212          18.000  
G32  20783947.073   109220389.516        -585.975          35.000  
J02  38937825.704   204619670.214       -1123.171          28.000    38937833.199   152800423.835        -840.887          31.000  
R15  19925034.785   106473345.012       -1760.212          25.000  
> 2021  9 30 11 23 18.9999450  0 14
C06  36554087.732   190346706.730         210.687          31.000  
C16  36934063.580   192325403.485         258.089          33.000  
C19  22093546.056   115046908.8161      -2265.137          29.000  
C22  22379712.348   116536945.1621        774.727          20.000  
C30  25771789.062   134200445.828        1303.181          27.000  
C36  22556132.414   117455637.959       -1414.789          33.000  
E08                                                                                                                                  21811297.153    85592217.353        -405.554          26.000  
G10  23036120.825   121055531.594       -3811.024          21.000  
G25  23657125.613   124318955.156       -3805.662          25.000  
G29  23755488.418   124836044.790         328.496          26.000  
G31  21219754.470   111510692.638        -812.492          18.000  
J02  38938041.255   204620791.832       -1122.333          22.000    38938047.251   152801263.362        -839.562          30.000  
R04  19535810.640   104613379.1601      -1735.295          24.000  
R14  22568232.038   120301376.4921      -3616.252          20.000  
> 2021  9 30 11 23 19.9999447  0 14
C06  36553958.821   190346027.750         209.796          31.000  
C10  37393458.647   194717523.5361        581.632          19.000  
C16  36933923.277   192324676.950         258.029          35.000  
C19  22093889.618   115048706.317       -2267.523          33.000  
C22  22379472.813   116535701.477         775.588          19.000  
C36  22556313.789                       -1417.043          36.000  
E08                                                                                                                                  21811311.543    85592270.992        -407.332          31.000  
G10  23036753.687   121058870.544       -3812.918          22.000  
G25  23657771.066   124322288.061       -3805.795          27.000  
G29  23755352.612   124835244.000         327.575          29.000  
J02  38938163.870   204621442.321       -1124.325          29.000    38938172.264   152801750.474        -839.131          32.000  
R04  19536044.478   104614631.166       -1735.124          23.000  
R14  22568819.331   120304507.267       -3617.349          26.000  
R15  19925592.399   106476325.3971      -1761.988          12.000  
> 2021  9 30 11 23 20.9999444  0 16
C06  36553828.411   190345348.532         210.891          28.000  
C10  37393259.585   194716476.295         578.105          18.000  
C16  36933783.873   192323952.075         256.844          31.000  
C19  22094235.279   115050505.596       -2268.074          32.000  
C22  22379234.778   116534458.009         772.572          21.000  
C30  25771114.828   134196903.2311       1301.934          24.000  
C36  22556495.163   117457593.8741      -1418.903          32.000  
E08                                                                                                                                  21811324.434    85592325.874        -407.076          30.000  
G10  23037384.750   121062211.133       -3813.945          21.000  
G26  20487232.284   107661104.9571       1218.629          24.000  
G29  23755213.508   124834444.000         326.919          28.000  
J01  36546239.465   192051810.1071        512.551          23.000  
J02  38938286.785   204622094.358       -1125.258          35.000    38938297.278   152802237.518        -839.534          35.000  
R04  19536273.519   104615858.004       -1736.277          27.000  
R14  22569404.526   120307626.627       -3619.430          27.000  
R15  19925829.235   106477590.622       -1759.937          16.000  
> 2021  9 30 11 23 21.9999442  0 18
C01  37485900.551   195198921.1801       -303.091          33.000  
C06  36553727.981   190344826.006         210.012          31.000  
C07  36624249.360   190712014.1581        543.952          26.000  
C10  37393091.701   194715582.229         582.305          17.000  
C16  36933674.749   192323382.533         257.774          35.000  
C19  22094613.617                       -2269.190          29.000  
C22  22379025.523   116533373.066         772.469          23.000  
C30  25770806.642   134195289.375        1301.044          29.000  
C36  22556703.819   117458697.658       -1415.670          30.000  
E08                                                                                                                                  21811368.204    85592497.857        -407.539          29.000  
G10  23038050.290   121065710.000       -3813.418          22.000  
G25  23659064.071   124329112.4961      -3806.910          28.000  
G26  20486939.987   107659571.092        1218.556          29.000  
G29  23755099.887   124833803.300         325.309          27.000  
J01  36546082.074   192050982.569         513.236          29.000  
J02  38938439.379   204622904.612       -1125.457          34.000    38938451.371   152802842.280        -840.145          36.000  
R14  22570017.902   120310896.972       -3619.821          24.000  
R15  19926093.053   106479000.005       -1759.552          26.000  
> 2021  9 30 11 23 22.9999439  0 17
C01  37485869.073   195198755.892        -303.837          33.000  
C06  36553597.271   190344147.548         209.505          32.000  
C07  36624051.497   190711001.980         543.791          25.000  
C10  37392892.939   194714535.382         577.359          17.000  
C16  36933537.144   192322656.208         257.551          35.000  
C19  22094959.578                       -2269.867          34.000  
C22  22378786.588   116532132.249         771.277          24.000  
C36  22556885.493   117459646.495       -1418.187          29.000  
E08                                                                                                                                  21811382.594    85592552.913        -407.897          29.000  
G10  23038685.550   121069049.397       -3811.451          27.000  
G26  20486616.511   107657880.520        1216.445          30.000  
G29  23754960.783   124833005.375         324.194          27.000  
J01  36545895.603   192049996.806         512.973          32.000  
J02  38938562.894   204623557.505       -1126.993          34.000    38938575.485   152803329.972        -840.543          36.000  
R04  19536760.382   104618465.5141      -1738.758          30.000  
R14  22570605.195   120314026.761       -3620.532          26.000  
R15  19926329.889   106480266.249       -1760.121          25.000  
> 2021  9 30 11 23 23.9999439  0 16
C01  37485928.432   195199059.762        -304.245          32.000  
C06  36553555.600                         209.088          33.000  
C07  36623942.672   190710458.364         543.190          26.000  
C10  37392784.714   194713962.284         571.987          15.000  
C16  36933489.777   192322399.444         257.270          35.000  
C19  22095395.476   115056522.6281      -2269.601          33.000  
C22  22378636.692   116531361.159         769.498          23.000  
C36  22557156.505   117461063.984       -1419.908          31.000  
E08                                                                                                                                  21811487.222    85592961.207        -407.604          30.000  
G10  23039411.048   121072861.025       -3811.929          26.000  
G26  20486382.672   107656664.315        1215.439          31.000  
G29  23754916.713   124832681.856         322.474          26.000  
J02  38938780.543                       -1126.796          35.000    38938790.137   152804170.707        -840.203          36.000  
R04  19537084.158   104620198.815       -1740.076          31.000  
R14  22571280.328   120317625.579       -3620.789          21.000  
R15  19926663.858   106482050.568       -1760.776          24.000  
> 2021  9 30 11 23 24.9999437  0 15
C01  37485928.732   195199052.228        -305.404          33.000  
C06  36553455.769   190343435.1701        207.483          31.000  
C07  36623776.887   190709604.062         540.623          22.000  
C16  36933379.453                         257.673          35.000  
C19  22095770.816   115058480.567       -2272.260          33.000  
C22  22378425.638   116530280.601         767.186          23.000  
C36  22557366.360   117462168.563       -1415.908          25.000  
E08                                                                                                                                  21811530.692    85593133.277        -407.728          30.000  
G10  23040077.486   121076358.140       -3812.477          26.000  
G26  20486090.075   107655134.206        1214.541          30.000  
G31  21220304.589   111513548.8321       -818.365          17.000  
J01  36545642.278   192048657.1171        512.291          32.000  
J02  38938934.337                       -1124.374          34.000    38938943.630   152804776.041        -840.859          37.000  
R04  19537344.678   104621594.186       -1741.041          32.000  
R14  22571894.303   120320898.681       -3619.256          21.000  
> 2021  9 30 11 23 25.9999434  0 14
C01  37485898.752   195198889.366        -306.089          35.000  
C06  36553322.961   190342757.075         210.009          31.000  
C07  36623580.223   190708593.745         541.456          18.000  
C16  36933237.052   192321073.5431        255.375          35.000  
C19  22096118.575   115060282.634       -2272.362          33.000  
C30  25769579.291   134188834.1881       1302.603          29.000  
C36  22557548.334   117463116.743       -1417.399          20.000  
E08                                                                                                                                  21811544.782    85593189.181        -410.480          29.000  
G10  23040715.145   121079697.638       -3812.058          19.000  
G26  20485768.098   107653447.732        1213.360          28.000  
G31  21220369.944   111513892.470        -815.988          16.000  
J01  36545456.107   192047674.014         510.509          30.000  
J02  38939058.451                       -1126.035          35.000    38939068.044   152805263.811        -840.449          36.000  
R04  19537577.017   104622837.888       -1741.565          32.000  
> 2021  9 30 11 23 26.9999432  0 11
C06  36553222.531   190342235.584         207.785          22.000  
C16  36933122.232   192320504.248         253.332          30.000  
C19  22096499.312   115062241.155       -2271.981          30.000  
C22  22377976.549   116527962.4411        767.232          27.000  
E08                                                                                                                                  21811589.751    85593365.264        -411.776          25.000  
G25  23662374.979   124346577.8441      -3810.300          25.000  
G26  20485478.199   107651919.092        1213.417          28.000  
G31  21220465.577   111514395.274        -818.648          15.000  
J01  36545298.117   192046848.040         511.393          29.000  
J02  38939210.146   204626948.7761      -1127.321          36.000    38939221.838   152805869.238        -841.066          37.000  
R14  22573096.171   120327305.2231      -3617.860          20.000  
> 2021  9 30 11 23 27.9999429  0 10
C16  36932981.629   192319779.261         256.243          29.000  
C19  22096845.572   115064043.799       -2271.253          27.000  
C36  22557947.958   117465172.3931      -1418.742          33.000  
E08                                                                                                                                  21811604.740    85593423.304        -410.275          27.000  
G25  23663012.337   124349915.161       -3811.465          16.000  
G26  20485156.221   107650233.708        1212.476          27.000  
G31  21220536.328   111514738.012        -815.358          13.000  
J01  36545109.547   192045863.840         511.147          27.000  
J02  38939333.660   204627601.800       -1125.456          36.000    38939346.252   152806356.926        -841.570          36.000  
R04  19538063.880   104625445.4711      -1742.304          21.000  
> 2021  9 30 11 23 28.9999429  0 11
C01  37485926.933   195199035.9901       -311.232          28.000  
C06  36553056.146   190341351.2981        207.814          18.000  
C16  36932933.662   192319522.100         256.620          26.000  
C22  22377595.213   116525958.8441        767.325          30.000  
C36  22558224.066   117466590.851       -1416.927          33.000  
E08                                                                                                                                  21811709.068    85593833.461        -410.594          29.000  
G25  23663739.934   124353726.538       -3811.518          19.000  
G26  20484927.180   107649020.993        1212.745          23.000  
G31  21220693.120   111515548.652        -810.686          11.000  
G32  20784558.949   109223595.0461       -592.667          36.000  
J02  38939548.312   204628727.331       -1125.548          36.000    38939560.603   152807197.527        -840.610          37.000  
> 2021  9 30 11 23 29.9999427  0 10
C06  36552956.914   190340830.557         208.969          24.000  
C07  36622970.445   190705333.3621        540.919          26.000  
C16  36932825.737   192318951.650         258.049          23.000  
C36  22558432.122   117467696.121       -1418.174          33.000  
E08                                                                                                                                  21811754.936    85594009.138        -411.645          29.000  
G25  23664406.372   124357222.483       -3809.564          25.000  
G26  20484639.379   107647493.160        1212.283          27.000  
J01  36544851.726   192044527.1021        510.455          27.000  
J02  38939707.202   204629538.250       -1125.926          35.000    38939713.198   152807803.060        -840.826          34.000  
R04  19538675.756   104628722.4021      -1745.604          17.000  
> 2021  9 30 11 23 30.9999427  0 15
C06  36552918.241   190340621.264         208.808          29.000  
C07  36622867.317   190704792.721         540.321          29.000  
C16  36932776.571   192318693.853         257.810          26.000  
C22  22377245.355   116524114.0951        765.422          23.000  
C30  25768090.222   134181236.7831       1299.579          28.000  
C36  22558700.736   117469114.715       -1418.627          38.000  
E08                                                                                                                                  21811860.163    85594421.124        -411.751          30.000  
G10  23044098.902   121097661.4871      -3813.463          20.000  
G25  23665148.658   124361032.255       -3810.149          28.000  
G26  20484408.839   107646280.793        1211.490          26.000  
G31  21220956.038   111516858.2221       -816.017          17.000  
J01  36544755.492   192044017.178         509.196          29.000  
J02  38939925.750   204630664.447       -1126.638          35.000    38939927.249   152808644.086        -838.961          33.000  
R04  19539002.530   104630472.182       -1746.546          25.000  
R14  22575680.981   120341083.3931      -3620.909          20.000  
> 2021  9 30 11 23 31.9999424  0 16
C06  36552789.031   190339943.388         209.774          28.000  
C07  36622673.950   190703784.549         538.996          29.000  
C16  36932638.666   192317967.536         257.734          26.000  
C19  22098432.374   115072352.1041      -2272.782          25.000  
C22  22377012.117   116522880.047         764.894          21.000  
C30  25767746.660   134179468.873        1299.291          27.000  
C36  22558882.411                       -1420.016          37.000  
E08                                                                                                                                  21811875.453    85594480.032        -411.485          30.000  
G10  23044727.267   121101002.631       -3814.160          20.000  
G25  23665800.707   124364369.829       -3810.342          27.000  
G26  20484090.459   107644597.151        1210.107          24.000  
G31  21221026.189   111517202.590        -817.865          24.000  
G32  20784740.324   109224589.2261       -594.570          33.000  
J01  36544567.522   192043035.349         508.832          28.000  
J02  38940047.166   204631318.260       -1125.954          37.000    38940051.663   152809132.243        -840.065          34.000  
R14  22576268.874   120344217.724       -3620.781          18.000  
> 2021  9 30 11 23 32.9999421  0 14
C06  36552660.120   190339265.806         207.567          28.000  
C07  36622481.484   190702777.504         539.727          27.000  
C16  36932501.961   192317240.652         258.677          24.000  
C19  22098778.034   115074156.893       -2273.497          27.000  
C22  22376780.377   116521649.429         760.373          17.000  
C30  25767403.997   134177701.369        1299.457          27.000  
C36  22559068.882   117470972.0151      -1418.913          38.000  
E08                                                                                                                                  21811890.742    85594539.064        -413.057          31.000  
G10  23045349.636   121104344.496       -3814.764          19.000  
G25  23666433.569   124367707.753       -3811.085          27.000  
G26  20483769.382   107642914.669        1209.369          23.000  
G29  23753826.668   124826949.1211        319.641          26.000  
G31  21221096.041   111517548.610        -819.198          24.000  
J02  38940171.580   204631971.921       -1126.320          36.000    38940175.777   152809620.403        -840.079          34.000  
> 2021  9 30 11 23 33.9999421  0 12
C04  38370575.503                        -295.418          33.000  
C07  36622378.355   190702236.394         542.064          24.000  
C19  22099216.031   115076431.910       -2277.015          25.000  
C30  25767153.371   134176402.394        1299.307          26.000  
C36  22559336.596   117472391.667       -1418.356          34.000  
E08                                                                                                                                  21811996.569    85594951.876        -412.634          30.000  
G10  23046059.545   121107861.230       -3814.625          19.000  
G25  23667170.459   124371820.401       -3810.661          24.000  
G26  20483538.841   107641705.645        1208.471          26.000  
G32  20784880.926   109225307.1131       -595.198          37.000  
J01  36544277.623   192041542.8521        510.554          25.000  
J02  38940381.435   204633098.581       -1125.829          34.000    38940390.728   152810461.682        -841.552          33.000  
> 2021  9 30 11 23 34.9999419  0 15
C04  38370571.906   199805639.4901       -295.185          34.000  
C07  36622216.467   190701382.202         540.961          22.000  
C16  36932339.473   192316413.4911        256.925          23.000  
C19  22099591.671   115078396.592       -2277.041          28.000  
C30  25766840.987   134174791.162        1298.545          25.000  
C36  22559549.749   117473498.137       -1417.757          26.000  
E08                                                                                                                                  21812041.238    85595128.453        -411.309          31.000  
G10  23046725.084   121111360.176       -3813.680          18.000  
G25  23667844.092   124375316.190       -3810.955          24.000  
G26  20483247.143   107640182.348        1207.727          29.000  
G31  21221360.758   111518874.1271       -818.781          21.000  
J01  36544120.532   192040717.404         509.896          28.000  
J02  38940539.126   204633910.109       -1126.996          36.000    38940545.721   152811067.662        -841.722          33.000  
R04  19540080.584   104636244.9811      -1750.591          19.000  
R14  22578150.372   120354246.8341      -3616.441          18.000  
> 2021  9 30 11 23 35.9999416  0 13
C04  38370538.029   199805466.537        -295.857          32.000  
C07  36622023.101   190700372.121         540.392          24.000  
C19  22099937.032   115080204.165       -2274.731          27.000  
C22  22376196.681   116518583.9581        761.290          18.000  
C30  25766500.723   134173024.014        1298.500          29.000  
C36  22559732.922   117474447.503       -1418.059          24.000  
E08                                                                                                                                  21812055.628    85595187.713        -411.810          31.000  
G10  23047362.443   121114701.373       -3815.550          17.000  
G25  23668505.435   124378654.518       -3811.889          24.000  
G26  20482925.466   107638502.118        1207.224          31.000  
G29  23753493.299   124825206.0901        317.302          28.000  
J01  36543931.063   192039734.726         509.918          26.000  
J02  38940660.242   204634564.108       -1126.872          35.000    38940670.135   152811556.090        -840.675          33.000  
> 2021  9 30 11 23 36.9999414  0 13
C04  38370534.732   199805450.268        -296.191          34.000  
C06  36552285.379   190337337.4771        211.949          20.000  
C07  36621864.211   190699520.204         539.091          24.000  
C19  22100312.372   115082167.213       -2275.920          25.000  
C22  22375992.223   116517508.610         764.715          19.000  
C36  22559943.076   117475554.290       -1419.250          28.000  
E08                                                                                                                                  21812099.398    85595364.262        -412.779          30.000  
G10  23048034.578   121118200.899       -3814.924          16.000  
G25  23669194.658   124382458.028       -3811.326          26.000  
G26  20482634.067   107636980.121        1206.517          30.000  
G32  20785009.537   109225963.0241       -596.370          35.000  
J01  36543773.372   192038909.529         510.253          27.000  
J02  38940817.333   204635375.753       -1127.755          35.000    38940824.828   152812162.156        -841.880          33.000  
> 2021  9 30 11 23 37.9999411  0 16
C04  38370501.455   199805278.152        -296.442          33.000  
C06  36552155.569   190336656.388         212.334          20.000  
C07  36621672.344   190698513.493         537.899          25.000  
C30  25765852.871   134169644.1531       1298.547          27.000  
C36  22560122.952   117476505.918       -1419.525          27.000  
E08                                                                                                                                  21812114.387    85595424.290        -413.352          32.000  
G10  23048685.727   121121544.759       -3816.866          16.000  
G25  23669844.907   124385796.392       -3811.125          24.000  
G26  20482312.690   107635301.319        1205.913          30.000  
G29  23753225.284   124823784.7301        315.774          27.000  
G31  21221593.696   111520082.8891       -826.486          16.000  
G32  20785036.219   109226088.092        -597.997          37.000  
J01  36543585.702   192037927.722         508.099          26.000  
J02  38940943.546   204636029.964       -1126.607          36.000    38940949.242   152812650.756        -839.398          32.000  
R04  19540798.287   104640087.6761      -1751.473          25.000  
R14  22579936.535   120363768.4311      -3618.579          18.000  
> 2021  9 30 11 23 38.9999409  0 14
C04  38370497.557   199805262.406        -296.693          30.000  
C06  36552054.539   190336132.857         210.576          25.000  
C07  36621508.657   190697663.036         538.040          22.000  
C19  22101035.172   115085938.8011      -2276.746          24.000  
C36  22560333.706   117477614.863       -1421.433          26.000  
E08                                                                                                                                  21812159.656    85595602.526        -412.951          31.000  
G10  23049369.553   121125046.347       -3816.091          17.000  
G26  20482020.392   107633780.721        1205.196          30.000  
G31  21221689.930   111520592.645        -822.944          14.000  
G32  20785091.381   109226371.314        -600.051          36.000  
J01  36543429.510   192037104.638         508.423          29.000  
J02  38941097.639   204636841.917       -1127.868          35.000    38941103.335   152813257.051        -842.357          33.000  
R04  19541063.303   104641506.995       -1753.514          24.000  
R14  22580550.210   120367039.306       -3622.992          19.000  
> 2021  9 30 11 23 39.9999409  0 11
C04  38370553.918   199805559.178        -296.958          31.000  
C07  36621407.327   190697127.493         535.584          23.000  
C19  22101467.772   115088216.614       -2278.925          23.000  
E08                                                                                                                                  21812264.284    85596015.405        -412.875          32.000  
G10  23050113.938   121129166.449       -3816.355          18.000  
G26  20481788.953   107632575.813        1204.376          31.000  
G32  20785204.702   109226970.466        -600.002          38.000  
J01  36543332.377   192036596.693         507.490          26.000  
J02  38941311.091   204637969.294       -1127.796          36.000    38941317.687   152814098.943        -840.881          33.000  
R04  19541395.473   104643286.249       -1753.145          27.000  
R14  22581224.144   120370631.785       -3619.452          19.000  
> 2021  9 30 11 23 40.9999406  0 16
C04  38370521.541   199805387.840        -297.102          32.000  
C06  36551877.362   190335246.8021        205.911          23.000  
C07  36621214.861   190696123.152         536.378          23.000  
C16  36931657.745   192312844.7641        256.332          23.000  
C19  22101812.234   115090028.370       -2281.061          22.000  
C22  22375159.999   116513192.4851        764.867          21.000  
C30  25764960.689   134164968.8691       1297.651          30.000  
C36  22560788.191   117479990.2061      -1421.497          23.000  
E08                                                                                                                                  21812279.873    85596076.671        -414.918          30.000  
G10  23050768.685   121132510.216       -3816.703          19.000  
G26  20481468.474   107630899.057        1203.756          31.000  
G32  20785225.987   109227097.135        -599.060          38.000  
J01  36543144.408   192035616.128         508.164          27.000  
J02  38941434.306   204638623.803       -1127.056          35.000    38941442.400   152814587.702        -841.572          33.000  
R04  19541638.006   104644584.359       -1755.248          25.000  
R14  22581810.838   120373759.194       -3622.049          20.000  
> 2021  9 30 11 23 41.9999404  0 13
C04  38370518.243   199805372.762        -297.311          32.000  
C07  36621052.673   190695272.724         541.261          23.000  
C16  36931547.422   192312276.861         255.831          24.000  
C30  25764652.202   134163359.238        1296.977          24.000  
E08                                                                                                                                  21812325.741    85596255.893        -414.416          31.000  
G10  23051454.910   121136011.938       -3816.716          20.000  
G25  23672602.998   124400368.6331      -3813.575          26.000  
G26  20481178.575   107629380.442        1203.159          30.000  
G31  21222014.905   111522277.4121       -824.651          12.000  
G32  20785282.648   109227381.942        -601.272          36.000  
J01  36542988.216   192034792.726         508.203          29.000  
J02  38941588.999   204639435.865       -1126.182          36.000    38941597.393   152815194.109        -843.515          33.000  
R04  19541904.521   104646012.112       -1755.325          27.000  
> 2021  9 30 11 23 42.9999401  0 15
C04  38370485.566   199805201.685        -297.385          32.000  
C07  36620860.806   190694264.887         537.672          23.000  
C16  36931408.318   192311553.484         254.009          27.000  
C19  22102545.526   115093810.9521      -2283.493          23.000  
C22  22374718.405   116510887.8951        759.074          21.000  
C30  25764313.737   134161593.806        1296.878          29.000  
C36  22561186.016   117482052.7091      -1424.639          24.000  
E08                                                                                                                                  21812341.630    85596318.384        -415.811          29.000  
G10  23052107.558   121139643.265       -3817.384          21.000  
G25  23673247.852   124403709.472       -3813.728          25.000  
G26  20480858.996   107627704.944        1202.473          29.000  
G29  23752632.295   124820925.7881        312.876          28.000  
G32  20785308.131   109227509.985        -601.998          36.000  
J02  38941713.713   204640090.911       -1127.814          36.000    38941721.507   152815683.279        -841.735          33.000  
R04  19542141.357   104647280.158       -1755.719          25.000  
> 2021  9 30 11 23 43.9999398  0 13
C04  38370453.188   199805030.704        -297.431          33.000  
C16  36931269.814   192310830.252         255.534          26.000  
C22  22374483.667   116509660.429         758.575          23.000  
C30  25763974.971   134159828.200        1297.195          30.000  
E08                                                                                                                                  21812357.819    85596381.579        -417.064          29.000  
G25  23673890.307   124407050.351       -3813.494          25.000  
G26  20480540.317   107626030.025        1202.057          29.000  
G29  23752485.097   124820140.313         312.659          29.000  
G31  21222153.709   111522978.0191       -819.547          13.000  
G32  20785332.714   109227638.422        -603.013          38.000  
J02  38941833.630   204640745.768       -1129.923          32.000    38941845.921   152816172.371        -841.073          32.000  
R04  19542379.392   104648554.369       -1758.864          27.000  
R14  22583605.395   120383325.9201      -3620.541          19.000  
> 2021  9 30 11 23 44.9999398  0 12
C04  38370510.149   199805328.294        -297.761          32.000  
C07  36620558.015   190692721.8191        538.838          24.000  
C16  36931220.048   192310574.553         255.745          26.000  
C22  22374338.568   116508901.844         757.723          23.000  
C30  25763726.144   134158531.773        1296.630          29.000  
E08                                                                                                                                  21812463.046    85596797.788        -415.308          28.000  
G26  20480313.374   107624828.377        1201.250          31.000  
G31  21222309.601   111523800.123        -823.751          13.000  
G32  20785444.536   109228240.151        -602.946          37.000  
J01  36542521.739   192032324.6951        507.972          25.000  
J02  38942053.377   204641873.526       -1128.594          33.000    38942060.872   152817014.493        -840.311          31.000  
R04  19542706.766   104650307.744       -1758.755          27.000  
> 2021  9 30 11 23 45.9999396  0 13
C04  38370507.151   199805313.820        -297.821          32.000  
C06  36551373.711   190332651.4951        207.889          19.000  
C07  36620397.027   190691870.868         538.519          24.000  
C16  36931111.823   192310007.558         254.633          27.000  
C30  25763417.957   134156923.458        1295.700          30.000  
E08                                                                                                                                  21812508.615    85596977.170        -415.236          28.000  
G26  20480024.974   107623312.658        1200.220          30.000  
G31  21222411.230   111524312.369        -830.693          12.000  
G32  20785501.497   109228527.512        -602.388          36.000  
J01  36542363.748   192031502.024         506.997          25.000  
J02  38942207.471   204642686.527       -1127.663          33.000    38942214.966   152817621.591        -842.280          30.000  
R04  19542974.480   104651741.149       -1758.717          24.000  
R14  22584919.086   120390328.1441      -3620.967          23.000  
> 2021  9 30 11 23 46.9999393  0 12
C04  38370475.672   199805143.209        -297.812          32.000  
C06  36551244.200   190331975.302         207.598          24.000  
C07  36620204.260   190690862.717         540.602          21.000  
C16  36930974.219   192309283.516         255.768          26.000  
C19  22104073.568   115101688.2071      -2282.123          25.000  
C30  25763076.493   134155159.617        1295.901          28.000  
E08                                                                                                                                  21812525.103    85597040.557        -416.633          31.000  
G26  20479707.494   107621640.261        1199.418          30.000  
G32  20785528.478   109228657.716        -603.177          38.000  
J01  36542175.478   192030523.254         505.373          23.000  
J02  38942336.082   204643341.860       -1128.389          33.000    38942339.080   152818110.945        -842.221          30.000  
R04  19543208.318   104652993.472       -1760.211          29.000  
> 2021  9 30 11 23 47.9999393  0 13
C04  38370533.233   199805440.943        -298.082          32.000  
C06  36551206.426   190331768.148         207.501          23.000  
C07  36620102.630   190690324.129         537.236          21.000  
C19  22104511.265   115103970.446       -2282.122          25.000  
C30  25762826.466   134153863.981        1295.691          27.000  
C36  22562324.028   117487922.6821      -1425.008          30.000  
E08                                                                                                                                  21812631.230    85597456.322        -415.386          31.000  
G26  20479479.951   107620440.992        1198.800          29.000  
G32  20785647.496   109229261.335        -602.884          39.000  
J01  36542076.547   192030017.618         506.204          23.000  
J02  38942548.035   204644470.117       -1126.336          33.000    38942554.031   152818953.493        -841.861          30.000  
R04  19543532.694   104654730.498       -1760.858          28.000  
R14  22586201.598   120397164.8821      -3619.751          20.000  
> 2021  9 30 11 23 48.9999391  0 14
C04  38370531.734   199805426.875        -298.170          31.000  
C06  36551106.595   190331248.368         207.928          23.000  
C07  36619939.543   190689476.500         534.048          25.000  
C16  36930817.427   192308462.0351        253.999          22.000  
C19  22104891.702   115105941.807       -2285.326          22.000  
C30  25762517.980   134152255.954        1295.751          30.000  
C36  22562537.480   117489035.636       -1425.593          30.000  
E08                                                                                                                                  21812678.297    85597637.440        -416.548          31.000  
G26  20479192.450   107618927.112        1198.273          28.000  
G32  20785703.857   109229550.518        -604.388          40.000  
J01  36541920.955   192029195.940         507.681          23.000  
J02  38942703.927   204645283.557       -1127.905          35.000    38942709.323   152819560.846        -844.151          31.000  
R04  19543801.608   104656170.769       -1761.446          28.000  
R14  22586833.561   120400533.167       -3625.721          21.000  
> 2021  9 30 11 23 49.9999388  0 14
C04  38370499.356   199805256.771        -298.417          30.000  
C06  36550973.488   190330571.955         207.142          22.000  
C07  36619746.777   190688474.911         533.405          24.000  
C19  22105241.560   115107757.905       -2284.270          25.000  
C30  25762179.514   134150491.667        1295.598          29.000  
C36  22562721.553   117489992.720       -1424.822          30.000  
E08                                                                                                                                  21812694.786    85597701.447        -416.876          32.000  
G10  23056851.774   121164324.2961      -3817.518          18.000  
G26  20478875.569   107617256.721        1197.539          27.000  
G29  23751857.931   124816696.4921        306.816          16.000  
G32  20785726.341   109229682.596        -603.675          41.000  
J02  38942828.941   204645939.375       -1127.799          34.000    38942834.936   152820050.669        -842.974          32.000  
J03  37314121.871   196087034.4201       -214.259          22.000  
R04  19544038.444   104657438.890       -1763.432          27.000  
> 2021  9 30 11 23 50.9999388  0 13
C04  38370556.317   199805555.016        -298.515          30.000  
C06  36550934.515   190330365.037         205.978          24.000  
C07  36619644.548   190687941.131         532.151          24.000  
C16  36930631.556   192307484.2101        251.713          21.000  
C19  22105681.355   115110042.674       -2285.484          23.000  
C30  25761931.886   134149196.114        1295.681          29.000  
C36  22562996.463   117491417.724       -1425.046          31.000  
E08                                                                                                                                  21812801.512    85598118.359        -417.008          31.000  
G26  20478647.128   107616060.110        1195.673          29.000  
J01  36541642.447   192027709.5201        505.076          24.000  
J02  38943041.194   204647068.162       -1128.660          33.000    38943049.588   152820893.656        -841.389          31.000  
R04  19544369.415   104659210.962       -1764.425          27.000  
R14  22588108.878   120407331.7261      -3623.700          21.000  
> 2021  9 30 11 23 51.9999386  0 16
C04  38370554.218   199805541.583        -299.153          31.000  
C06  36550834.684   190329846.899         205.604          24.000  
C07  36619484.458   190687096.202         532.162          22.000  
C16  36930524.530   192306918.682         253.048          21.000  
C19  22106062.092   115112016.605       -2286.441          24.000  
C30  25761622.200   134147588.666        1295.060          28.000  
C36  22563210.814   117492530.381       -1424.435          32.000  
E08                                                                                                                                  21812847.680    85598300.799        -418.422          31.000  
G10  23058233.217   121171640.8361      -3813.317          18.000  
G26  20478359.627   107614549.901        1194.806          28.000  
G29  23751697.542   124815771.4991        303.897          21.000  
G32  20785896.623   109230578.8221       -606.512          41.000  
J01  36541484.757   192026889.708         504.640          25.000  
J02  38943198.285   204647881.880       -1128.204          33.000    38943203.981   152821501.247        -844.059          31.000  
R04  19544644.024   104660681.902       -1765.488          26.000  
R14  22588729.448   120410639.292       -3622.661          23.000  
> 2021  9 30 11 23 52.9999383  0 16
C04  38370523.339   199805372.011        -299.082          33.000  
C06  36550706.972   190329172.864         204.845          23.000  
C16  36930388.424   192306195.839         255.099          24.000  
C19  22106413.149   115113834.981       -2286.891          30.000  
C30  25761281.036   134145827.120        1292.530          25.000  
C36  22563401.482   117493486.868       -1424.926          30.000  
E08                                                                                                                                  21812864.168    85598367.004        -419.051          30.000  
G10  23058856.186   121174981.624       -3813.101          17.000  
G25  23679957.806   124439029.9671      -3818.159          20.000  
G26  20478042.746   107612881.491        1195.514          29.000  
G29  23751565.633   124815320.270         305.062          26.000  
J01  36541299.185   192025913.061         502.942          26.000  
J02  38943326.596   204648538.047       -1129.124          33.000    38943328.395   152821991.312        -842.958          30.000  
J03  37314094.590   196086888.2111       -213.951          24.000  
R04  19544880.261   104661946.891       -1766.285          24.000  
R14  22589317.941   120413776.201       -3622.055          25.000  
> 2021  9 30 11 23 53.9999380  0 13
C04  38370492.461   199805202.688        -299.049          33.000  
C06  36550576.562   190328498.487         206.730          24.000  
C16  36930252.019   192305473.146         253.275          25.000  
C19  22106763.006   115115653.968       -2287.428          30.000  
C30  25760942.271   134144066.433        1292.819          25.000  
E08                                                                                                                                  21812880.657    85598433.153        -419.409          29.000  
G10  23059478.255   121178321.252       -3813.011          17.000  
G25  23680590.069   124442375.704       -3817.594          20.000  
G26  20477724.666   107611213.330        1195.322          32.000  
J01  36541115.412   192024937.996         502.760          23.000  
J02  38943451.609   204649194.297       -1129.744          32.000    38943452.809   152822481.323        -842.227          29.000  
R04  19545116.797   104663212.989       -1767.624          26.000  
R14  22589907.632   120416919.575       -3621.704          24.000  
> 2021  9 30 11 23 54.9999378  0 15
C04  38370491.561   199805189.490        -299.067          33.000  
C06  36550478.230   190327978.497         208.033          24.000  
C07  36618946.631   190684245.1531        534.552          22.000  
C16  36930144.993   192304907.424         253.879          24.000  
C19  22107141.944   115117629.241       -2287.803          31.000  
C30  25760630.786   134142460.609        1293.426          23.000  
E08                                                                                                                                  21812927.125    85598618.217        -420.711          29.000  
G10  23060124.308   121181820.147       -3816.321          16.000  
G26  20477434.767   107609703.015        1195.767          32.000  
G32  20786003.050   109231139.4441       -608.257          42.000  
J01  36540963.417   192024118.664         505.128          23.000  
J02  38943603.604   204650008.417       -1129.152          32.000    38943607.801   152823089.297        -843.147          30.000  
J03  37314024.139   196086527.7531       -212.936          24.000  
R04  19545384.512   104664646.728       -1767.622          26.000  
R14  22590521.607   120420192.807       -3621.994          24.000  
> 2021  9 30 11 23 55.9999378  0 17
C04  38370550.021   199805488.539        -299.258          32.000  
C06  36550438.058   190327770.900         208.890          24.000  
C07  36618845.001   190683711.350         534.317          24.000  
C16  36930097.625   192304653.495         254.432          25.000  
C19  22107581.740   115119916.536       -2287.200          30.000  
C30  25760381.659   134141167.030        1293.629          25.000  
C36  22564077.514   117496984.0451      -1426.813          31.000  
E08                                                                                                                                  21813033.851    85599038.497        -419.635          30.000  
G10  23060839.613   121185637.827       -3818.598          16.000  
G26  20477208.124   107608507.820        1194.457          30.000  
G31  21223467.999   111530077.4671       -819.421          21.000  
G32  20786118.470   109231747.482        -608.489          42.000  
J01  36540867.484   192023613.551         504.971          26.000  
J02  38943817.956   204651137.509       -1130.287          32.000    38943822.753   152823932.402        -846.400          30.000  
J03  37314065.510   196086740.532        -212.378          24.000  
R04  19545708.887   104666383.666       -1768.864          25.000  
R14  22591208.132   120423852.824       -3621.992          24.000  
> 2021  9 30 11 23 56.9999375  0 16
C04  38370518.843   199805319.459        -299.384          33.000  
C06  36550309.747   190327094.643         207.837          23.000  
C07  36618653.734   190682709.329         533.220          25.000  
C16  36929955.224   192303929.779         255.596          26.000  
C19  22107929.799   115121736.098       -2288.291          28.000  
C30  25760042.893   134139405.014        1293.599          28.000  
E08                                                                                                                                  21813051.239    85599105.066        -419.510          29.000  
G10  23061472.775   121188983.384       -3818.492          15.000  
G25  23682605.573   124453032.6471      -3815.197          25.000  
G26  20476891.243   107606841.739        1192.252          31.000  
G29  23751127.037   124812838.0261        304.445          26.000  
G32  20786146.051   109231883.238        -608.620          41.000  
J01  36540682.512   192022636.436         504.694          29.000  
J02  38943943.569   204651793.893       -1129.738          33.000    38943946.867   152824421.249        -843.705          28.000  
J03  37314014.545   196086481.967        -214.569          25.000  
R04  19545960.413   104667731.170       -1769.896          19.000  
> 2021  9 30 11 23 57.9999373  0 13
C06  36550210.516   190326574.601         207.243          27.000  
C16  36929844.301   192303362.047         255.363          32.000  
C19  22108306.938   115123712.403       -2289.587          31.000  
E08                                                                                                                                  21813099.206    85599289.480        -419.153          29.000  
G10  23062136.815   121192486.169       -3814.385          14.000  
G25  23683271.113   124456533.747       -3816.404          28.000  
G26  20476602.843   107605334.787        1191.759          26.000  
G29  23751017.912   124812217.879         304.643          23.000  
G32  20786195.216   109232176.885        -608.438          38.000  
J02  38944095.863   204652607.881       -1127.851          35.000    38944102.459   152825028.877        -842.379          29.000  
J03  37313994.759   196086381.793        -216.221          25.000  
R04  19546237.122   104669212.437       -1770.870          22.000  
R14  22592421.992   120430323.3021      -3622.426          29.000  
> 2021  9 30 11 23 58.9999370  0 14
C06  36550082.804   190325899.119         206.293          29.000  
C16  36929703.099   192302639.331         253.924          30.000  
C19  22108651.999   115125533.712       -2290.307          29.000  
C30  25759396.541   134136036.4661       1295.481          17.000  
C36  22564643.822   117500015.6601      -1426.884          35.000  
E08                                                                                                                                  21813116.893    85599356.188        -419.581          26.000  
G25  23683903.675   124459878.126       -3817.215          28.000  
G26  20476287.461   107603670.939        1190.797          28.000  
G31  21223692.244   111531281.5751       -823.203          20.000  
J01  36540346.744   192020840.7121        503.505          37.000  
J02                                                                  38944227.772   152825518.485        -842.793          30.000  
J03  37313945.893   196086125.458        -215.180          20.000  
R04  19546482.951   104670529.183       -1771.963          29.000  
R14  22593006.887   120433440.545       -3622.861          28.000  
> 2021  9 30 11 23 59.9999368  0 12
C01  37485957.811   195199073.8331       -320.261          25.000  
C06  36549983.873   190325380.518         206.740          28.000  
C16  36929591.576   192302073.379         253.111          29.000  
C19  22109032.136   115127512.029       -2291.871          26.000  
C36  22564854.876   117501130.620       -1427.102          37.000  
E08                                                                                                                                  21813162.462    85599541.290        -422.410          24.000  
G10  23063440.313   121199327.9571      -3816.060          17.000  
G26  20476004.457   107602165.408        1190.040          26.000  
G29  23750753.495   124810822.4501        303.984          25.000  
J01  36540196.548   192020022.533         502.601          36.000  
J02  38944380.966   204654079.1951      -1130.106          33.000    38944383.664   152826127.716        -844.828          27.000  
R14  22593628.357   120436753.452       -3621.815          28.000  
> 2021  9 30 11 24  0.9999365  0 11
C06  36549853.763   190324705.565         206.374          29.000  
C16  36929451.573   192301351.883         253.369          33.000  
C19  22109379.595   115129335.006       -2291.300          26.000  
C36  22565040.148   117502089.572       -1428.023          37.000  
E08                                                                                                                                  21813177.751    85599611.505        -421.658          23.000  
G10  23064077.371   121202671.324       -3815.104          17.000  
G26  20475686.977   107600502.344        1190.249          26.000  
J01  36540011.277                         502.586          35.000  
J02  38944507.478   204654736.068       -1131.513          32.000    38944509.277   152826619.984        -844.589          28.000  
R04  19547011.186   104673357.6211      -1772.601          22.000  
R14  22594217.449   120439893.475       -3623.659          31.000  
> 2021  9 30 11 24  1.9999365  0 10
C06  36549813.591   190324498.843         206.204          29.000  
C16  36929403.306   192301098.509         253.786          33.000  
C19  22109818.491   115131625.446       -2290.126          26.000  
C36  22565313.558                       -1427.191          37.000  
E08                                                                                                                                  21813285.077    85600033.126        -421.557          25.000  
G10  23064811.563   121206486.787       -3817.027          17.000  
J01  36539915.043   192018553.0091        503.040          35.000  
J02  38944723.329   204655865.782       -1129.039          35.000    38944723.629   152827464.513        -844.446          27.000  
R04  19547341.557   104675127.138       -1773.210          20.000  
R14  22594896.179   120443511.491       -3622.426          28.000  
> 2021  9 30 11 24  2.9999363  0 12
C06  36549713.160   190323981.111         205.553          28.000  
C16  36929296.880   192300532.888         252.600          32.000  
C19  22110198.628   115133604.478       -2291.740          27.000  
C36  22565528.510   117504626.0931      -1430.156          37.000  
E08                                                                                                                                  21813331.845    85600219.298        -422.158          25.000  
G10  23065488.195   121209991.731       -3822.288          17.000  
G25  23686604.505   124474047.8411      -3819.457          31.000  
J01  36539757.952   192017735.759         502.182          36.000  
J02  38944876.523   204656681.152       -1131.153          36.000    38944878.622   152828073.291        -843.872          27.000  
J03  37313892.830   196085885.3711       -216.818          23.000  
R04  19547617.966   104676607.498       -1774.302          24.000  
R14  22595515.850   120446814.835       -3623.539          29.000  
> 2021  9 30 11 24  3.9999360  0 13
C06  36549583.050   190323306.728         206.444          28.000  
C16  36929157.776                         254.634          33.000  
C19  22110548.786   115135428.759       -2293.309          29.000  
C30  25757866.700   134128010.0081       1292.217          24.000  
C36  22565714.081   117505587.034       -1427.047          36.000  
E08                                                                                                                                  21813348.633    85600288.558        -422.733          23.000  
G25  23687245.461   124477395.014       -3820.159          30.000  
G26  20474873.040   107596149.9701       1186.147          20.000  
G29  23750293.614   124808635.8101        299.682          24.000  
J01  36539574.179   192016761.521         501.540          35.000  
J02  38945002.436   204657339.331       -1129.442          35.000    38945003.935   152828564.649        -843.612          28.000  
J03  37313841.565   196085629.446        -217.403          23.000  
R14  22596105.542   120449958.789       -3624.741          30.000  
> 2021  9 30 11 24  4.9999357  0 13
C06  36549454.439   190322631.884         207.135          29.000  
C16  36929020.771   192299094.6431        253.706          33.000  
C19  22110897.744   115137252.719       -2291.456          27.000  
C36  22565899.653   117506548.147       -1428.256          37.000  
E08                                                                                                                                  21813366.321    85600358.754        -425.094          23.000  
G25  23687885.218   124480742.640       -3820.453          27.000  
G26  20474556.460   107594491.062        1186.211          21.000  
G32  20786535.481   109233937.8241       -614.071          36.000  
J01  36539388.008   192015787.239         501.580          33.000  
J02  38945130.147   204657997.523       -1130.905          34.000    38945129.248   152829055.612        -843.405          28.000  
J03  37313790.301   196085373.367        -216.231          22.000  
R04  19548115.921   104679273.7301      -1778.906          25.000  
R14  22596692.535   120453087.554       -3624.086          29.000  
> 2021  9 30 11 24  5.9999357  0 12
C06  36549415.166   190322424.852         207.224          29.000  
C16  36928974.903   192298841.610         253.293          33.000  
C19  22111338.139   115139545.043       -2293.417          29.000  
C36  22566175.762   117507977.616       -1429.681          36.000  
E08                                                                                                                                  21813474.246    85600782.490        -425.838          22.000  
G25  23688615.513   124484562.895       -3820.351          29.000  
G26  20474325.919   107593305.397        1185.205          23.000  
G32  20786652.100   109234551.946        -614.663          38.000  
J01  36539289.376   192015285.660         502.894          35.000  
J02  38945345.099   204659128.189       -1130.916          36.000    38945343.899   152829898.385        -841.451          27.000  
J03  37313829.274   196085589.782        -215.664          22.000  
R04  19548458.284   104681107.402       -1779.076          24.000  
> 2021  9 30 11 24  6.9999357  0 11
C06  36549375.894   190322217.887         206.866          29.000  
C16  36928925.437   192298588.543         253.851          34.000  
C19  22111779.434   115141838.678       -2294.855          30.000  
C36  22566450.072   117509407.263       -1428.437          36.000  
E08                                                                                                                                  21813581.572    85601206.559        -422.970          22.000  
G25  23689341.910   124488383.368       -3820.465          31.000  
G26  20474098.077   107592120.564        1184.316          24.000    20474093.280    80344746.6761        887.103          27.000  
G32  20786769.019   109235166.467        -613.801          39.000  
J01  36539194.642   192014784.309         500.634          36.000  
J02  38945560.350   204660258.931       -1130.181          36.000    38945558.551   152830741.733        -843.775          25.000  
R04  19548796.150   104682916.493       -1779.963          17.000  
> 2021  9 30 11 24  7.9999355  0 13
C06  36549276.662   190321699.358         205.394          28.000  
C16  36928815.113   192298023.409         252.802          33.000  
C19  22112161.369   115143821.552       -2295.605          31.000  
C36  22566664.124   117510525.018       -1429.135          36.000  
E08                                                                                                                                  21813628.639    85601393.594        -421.996          24.000  
G25  23690004.751   124491888.672       -3820.348          31.000  
G26  20473807.878   107590621.307        1184.114          25.000    20473808.477    80343625.273         885.448          27.000  
G29  23749919.473   124806652.4251        297.868          25.000  
G32  20786824.781   109235466.654        -614.172          39.000  
J01  36539040.549   192013968.095         501.079          36.000  
J02  38945716.242   204661074.745       -1130.016          36.000    38945713.544   152831350.134        -844.417          26.000  
J03  37313850.559   196085706.8391       -217.526          23.000  
R04  19549074.657   104684407.473       -1781.675          18.000  
> 2021  9 30 11 24  8.9999352  0 13
C06  36549147.452   190321025.596         205.002          28.000  
C16  36928674.810   192297302.141         249.634          33.000  
C19  22112512.726   115145648.560       -2295.602          30.000  
C30  25756368.937   134120302.4121       1292.111          21.000  
C36  22566842.500   117511486.823       -1431.489          36.000  
E08                                                                                                                                  21813646.627    85601462.762        -424.809          23.000  
G26  20473496.094   107588965.507        1182.554          21.000    20473490.997    80342387.239         886.062          27.000  
G29  23749754.287   124805882.602         296.854          25.000  
G32  20786845.766   109235609.638        -618.917          35.000  
J01  36538855.577   192012994.438         499.266          36.000  
J02  38945840.656   204661732.952       -1131.273          36.000    38945837.658   152831840.249        -842.919          24.000  
R04  19549315.990   104685700.013       -1780.695          19.000  
R14  22599269.851   120466826.1881      -3620.843          25.000  
> 2021  9 30 11 24  9.9999350  0 13
C06  36549047.921   190320508.272         204.455          29.000  
C07  36616558.184   190671889.6721        530.777          26.000  
C16  36928568.384   192296737.029         252.188          33.000  
C19  22112893.762   115147631.951       -2295.735          32.000  
C36  22567056.252   117512605.106       -1435.554          35.000  
G26  20473211.291   107587467.704        1182.404          24.000    20473206.194    80341267.184         886.132          24.000  
G29  23749621.779   124805270.666         296.787          26.000  
G32  20786906.624   109235910.878        -617.056          33.000  
J01  36538701.184   192012178.568         500.151          36.000  
J02  38945989.353   204662548.917       -1132.111          37.000    38945992.051   152832448.670        -844.620          27.000  
J03  37313785.504   196085354.0361       -217.154          22.000  
R04  19549588.202   104687157.571       -1782.150          27.000  
R14  22599890.421   120470134.276       -3623.078          24.000  
> 2021  9 30 11 24 10.9999347  0 12
C06  36548919.010   190319835.060         204.994          31.000  
C07  36616366.617   190670891.593         529.469          28.000  
C16  36928429.580   192296016.375         252.538          36.000  
C19  22113244.819   115149460.015       -2296.462          33.000  
C36  22567243.323   117513567.924       -1431.392          32.000  
G26  20472895.310   107585813.034        1181.729          24.000    20472890.813    80340029.513         883.186          26.000  
G29  23749467.686   124804501.760         295.779          21.000  
G32  20786935.404   109236055.450        -618.172          35.000  
J01  36538512.314   192011205.885         500.816          37.000  
J02                                                                  38946118.563   152832940.097        -844.575          25.000  
J03  37313736.338   196085098.451        -216.532          19.000  
R04  19549830.434   104688454.982       -1784.693          24.000  
> 2021  9 30 11 24 11.9999345  0 10
C06  36548819.779   190319317.534         205.143          36.000  
C07  36616204.729   190670051.011         527.710          28.000  
C16  36928319.556   192295452.061         253.062          39.000  
C19  22113624.356                       -2297.120          35.000  
C36  22567457.075   117514687.295       -1431.479          37.000  
G26  20472609.907   107584316.505        1180.822          26.000    20472607.209    80338911.276         882.461          27.000  
G29  23749345.370   124803891.221         294.906          20.000  
J01  36538355.523   192010391.067         501.015          36.000  
J02                                                                  38946276.254   152833549.135        -844.813          27.000  
R04  19550103.245   104689915.649       -1783.090          24.000  
> 2021  9 30 11 24 12.9999345  0 11
C06  36548781.105   190319112.547         204.044          36.000  
C07  36616103.699   190669523.300         527.967          29.000  
C16  36928273.988   192295199.681         253.489          37.000  
C19  22114069.548   115153742.8271      -2297.767          33.000  
C30  25755173.664   134114043.8921       1290.457          22.000  
C36  22567731.984   117516118.819       -1431.438          36.000  
G25  23693343.240   124509360.0531      -3823.446          31.000  
G26  20472382.664   107583135.797        1180.516          27.000    20472383.264    80338029.492         879.370          27.000  
J01  36538260.189   192009891.205         498.585          35.000  
J02  38946490.606   204665156.0261      -1130.920          33.000    38946492.105   152834394.668        -847.182          28.000  
R04  19550433.916   104691686.765       -1785.230          24.000  
> 2021  9 30 11 24 13.9999342  0 11
C06  36548652.195   190318439.842         204.381          30.000  
C07  36615912.132   190668526.910         528.182          30.000  
C16  36928133.085   192294479.307         252.141          34.000  
C19  22114420.006   115155572.723       -2299.630          34.000  
C36  22567916.357   117517082.482       -1431.399          33.000  
G25  23693978.800   124512710.347       -3822.747          31.000  
G26  20472064.585   107581482.857        1179.970          24.000    20472067.583    80336796.791         880.152          27.000  
G32  20787130.269   109237122.3921       -620.218          34.000  
J01  36538079.114   192008919.100         498.221          36.000  
J02  38946613.221   204665815.117       -1133.937          38.000    38946617.118   152834888.370        -847.000          26.000  
R14  22602358.013   120483287.0101      -3623.592          20.000  
> 2021  9 30 11 24 14.9999340  0 13
C06  36548553.563   190317923.044         204.488          28.000  
C07  36615752.342   190667687.059         526.956          27.000  
C16  36928027.858   192293915.508         253.662          33.000  
C19  22114801.042   115157559.615       -2298.064          33.000  
C36  22568134.606   117518202.867       -1430.723          33.000  
G25  23694643.739   124516218.650       -3823.173          29.000  
G26  20471774.385   107579988.129        1179.855          25.000    20471780.981    80335682.034         877.447          25.000  
G32  20787190.827   109237427.073        -618.882          34.000  
J01  36537921.423   192008105.176         499.967          34.000  
J02  38946771.511   204666632.346       -1131.935          35.000    38946773.010   152835500.006        -846.963          27.000  
J03  37313692.868   196084857.9551       -214.350          20.000  
R04  19550935.469   104694372.5411      -1787.480          26.000  
R14  22602977.085   120486587.558       -3626.215          19.000  
> 2021  9 30 11 24 15.9999337  0 13
C06  36548424.652   190317249.990         204.432          30.000  
C07  36615561.674   190666691.712         527.198          28.000  
C16  36927889.954   192293195.261         253.212          33.000  
C19  22115155.696   115159390.708       -2298.892          35.000  
C36  22568317.779   117519167.121       -1432.897          34.000  
G10  23074243.933   121255970.8501      -3826.563          20.000  
G25  23695282.897   124519569.776       -3823.708          27.000  
G26  20471459.603   107578336.529        1178.503          24.000    20471466.199    80334451.340         877.681          21.000  
G32  20787215.410   109237574.412        -619.631          36.000  
J01  36537737.950   192007133.611         500.148          34.000  
J02                                                                  38946898.923   152835992.958        -847.218          28.000  
R04  19551166.309   104695608.079       -1789.059          25.000  
R14  22603574.271   120489770.693       -3624.743          21.000  
> 2021  9 30 11 24 16.9999334  0 11
C06  36548295.741   190316577.234         204.385          32.000  
C07  36615371.006   190665695.880         527.401          28.000  
C16  36927747.852   192292475.138         251.017          33.000  
C19  22115507.952   115161222.413       -2300.758          35.000  
C36  22568505.149   117520131.684       -1432.963          36.000  
G10  23074878.294   121259324.706       -3826.904          20.000  
G26  20471148.119   107576685.657        1177.859          26.000    20471152.316    80333220.224         879.565          18.000  
J01  36537555.677   192006162.359         498.389          36.000  
J02  38947023.337   204667951.4561      -1131.740          35.000    38947022.737   152836485.200        -843.735          26.000  
R04  19551404.644   104696884.368       -1789.351          26.000  
R14  22604161.265   120492900.050       -3625.948          27.000  
> 2021  9 30 11 24 17.9999332  0 11
C06  36548196.810   190316060.250         204.863          33.000  
C07  36615210.018   190664856.570         526.709          31.000  
C16  36927638.128   192291911.278         250.113          35.000  
C19  22115890.787   115163210.714       -2301.399          34.000  
C30  25753561.380   134105557.8461       1291.066          24.000  
C36  22568720.700   117521252.711       -1433.011          39.000  
G25  23696588.493   124526429.7191      -3824.113          31.000  
G26  20470863.916   107575192.610        1177.041          25.000    20470870.511    80332106.684         876.451          26.000  
G29  23748528.436   124799360.0481        291.348          30.000  
J01  36537400.984   192005348.848         497.234          37.000  
J02                                                                  38947177.730   152837094.914        -846.312          25.000  
> 2021  9 30 11 24 18.9999332  0 12
C06  36548153.940   190315855.791         204.429          35.000  
C07  36615110.187   190664330.021         526.027          29.000  
C16  36927584.465   192291659.460         251.335          38.000  
C19  22116329.684   115165511.882       -2300.081          33.000  
C36  22568995.609   117522685.905       -1434.295          39.000  
G25  23697317.289   124530253.853       -3824.791          29.000  
G26  20470640.870   107574015.494        1175.828          23.000    20470646.566    80331230.352         877.189          24.000  
J01  36537305.650   192004850.505         495.078          36.000  
J02  38947391.782   204669901.0131      -1133.939          34.000    38947392.381   152837941.672        -847.057          23.000  
J03  37313618.819   196084463.3731       -217.284          20.000  
R04  19552002.430   104700085.4751      -1792.523          23.000  
R14  22605457.567   120499809.5151      -3623.952          31.000  
> 2021  9 30 11 24 19.9999329  0 13
C06  36548023.830   190315184.151         201.407          34.000  
C07  36614915.921   190663335.712         526.055          27.000  
C16  36927452.856   192290940.235         248.913          35.000  
C19  22116675.644   115167346.341       -2301.674          31.000  
C36  22569184.778   117523652.124       -1433.961          36.000  
G25  23697960.943   124533606.259       -3824.785          26.000  
G26  20470328.486   107572367.115        1175.069          27.000    20470335.681    80330000.236         877.159          26.000  
G29  23748300.294   124798305.9351        289.484          27.000  
J01  36537117.680   192003879.308         499.009          25.000  
J02  38947512.298   204670561.743       -1133.729          31.000    38947518.894   152838435.949        -847.291          29.000  
J03  37313574.450   196084208.086        -217.233          20.000  
R04  19552246.162   104701390.409       -1793.588          24.000  
R14  22606045.760   120502945.048       -3623.802          36.000  
> 2021  9 30 11 24 20.9999327  0 12
C06  36547923.999   190314667.744         204.156          27.000  
C07  36614750.736   190662498.479         525.280          28.000  
C16  36927348.828   192290376.970         250.667          34.000  
C19  22117052.183   115169336.109       -2302.240          15.000  
C30  25752674.295   134100909.2121       1287.659          32.000  
C36  22569394.633   117524774.407       -1435.587          33.000  
G10  23077588.418   121273536.7531      -3828.901          25.000  
G26  20470046.082   107570877.681        1174.125          29.000    20470054.176    80328887.306         876.383          26.000  
J02  38947662.794   204671379.812       -1133.599          29.000    38947675.086   152839047.285        -846.836          31.000  
J03  37313558.561   196084110.338        -217.386          20.000  
R04  19552523.470   104702876.129       -1794.133          28.000  
R14  22606663.932   120506239.966       -3624.957          37.000  
> 2021  9 30 11 24 21.9999324  0 11
C06  36547794.488   190313995.462         203.239          27.000  
C07  36614555.870   190661504.868         526.120          28.000  
C16  36927212.123   192289658.711         248.567          32.000  
C19  22117403.540   115171170.869       -2303.203          17.000  
C30  25752338.827   134099152.989        1287.217          31.000  
C36  22569581.404   117525741.073       -1434.672          34.000  
G10  23078209.888   121276892.414       -3828.649          28.000  
G26  20469734.598   107569232.232        1171.554          27.000    20469741.493    80327655.948         878.234          25.000  
G32  20787548.779                        -625.161          41.000  
J02  38947790.805   204672040.642       -1133.768          31.000    38947800.998   152839540.172        -845.199          30.000  
R14  22607252.725   120509378.927       -3626.203          36.000  
> 2021  9 30 11 24 22.9999324  0 13
C06  36547755.216   190313791.794         205.579          30.000  
C07  36614454.840   190660978.907         525.408          27.000  
C16  36927163.557   192289408.317         250.624          27.000  
C19  22117848.132   115173475.568       -2305.128          17.000  
C30  25752098.693                        1286.505          31.000  
C36  22569858.412   117527176.381       -1437.006          37.000  
G25  23699791.176   124543243.8051      -3826.330          30.000  
G26  20469511.552   107568060.439        1171.592          26.000    20469519.946    80326777.993         876.800          28.000  
G29  23747993.906                         286.389          32.000  
G32  20787665.399   109239931.0701       -627.833          40.000  
J01  36536684.480   192001597.0301        498.211          23.000  
J02  38948006.656   204673174.393       -1135.833          31.000    38948017.149   152840386.039        -847.063          30.000  
R14  22607931.755   120512998.359       -3627.143          34.000  
> 2021  9 30 11 24 23.9999322  0 12
C06  36547656.884   190313274.773         203.903          28.000  
C07  36614292.353   190660141.270         525.313          28.000  
C16  36927054.132   192288845.096         251.308          27.000  
C19  22118232.166   115175468.686       -2304.955          18.000  
C30  25751793.205   134096337.4711       1287.402          29.000  
C36  22570075.162   117528299.884       -1434.340          35.000  
G26  20469230.047   107566574.309        1171.129          28.000    20469238.141    80325666.636         876.041          29.000  
G32  20787719.661   109240241.404        -625.618          37.000  
J01  36536536.082   192000785.263         496.242          26.000  
J02  38948161.649   204673993.225       -1135.425          30.000    38948173.640   152840997.534        -846.057          29.000  
J03  37313560.659   196083980.6541       -220.463          20.000  
R14  22608549.927   120516293.972       -3625.777          33.000  
> 2021  9 30 11 24 24.9999322  0 10
C06  36547618.810   190313071.152         203.328          30.000  
C07  36614190.124   190659616.157         524.183          28.000  
C16  36927005.866   192288593.935         250.962          30.000  
C19  22118674.660   115177774.329       -2306.612          18.000  
C36  22570350.971   117529735.862       -1434.580          35.000  
G26                                                                  20469015.695    80324792.071         872.413          30.000  
G32  20787842.576   109240867.291        -625.792          37.000  
J02  38948376.600   204675128.073       -1134.478          31.000  
J03  37313611.324   196084201.095        -220.471          20.000  
R14  22609229.556   120519916.735       -3625.832          35.000  
> 2021  9 30 11 24 25.9999319  0 11
C01  37486061.540   195199572.0151       -321.587          33.000  
C06  36547491.398   190312399.676         202.656          30.000  
C07  36613997.657   190658624.032         523.939          27.000  
C16  36926867.062   192287875.167         250.539          29.000  
C19  22119027.816   115179612.653       -2307.011          19.000  
C30  25751217.903   134093295.3541       1286.126          29.000  
C36  22570534.444   117530703.763       -1436.412          36.000  
G26                                                                  20468703.911    80323566.134         874.467          30.000  
G32  20787871.356   109241021.032        -628.944          39.000  
J02  38948501.613   204675789.407       -1133.364          29.000  
R14  22609818.648   120523056.627       -3625.178          36.000  
> 2021  9 30 11 24 26.9999316  0 11
C01  37486031.560   195199424.790        -320.874          34.000  
C06  36547363.087   190311728.144         203.008          30.000  
C07  36613807.888   190657631.909         523.927          27.000  
C16  36926729.457   192287156.927         249.023          29.000  
C19  22119384.569   115181449.213       -2303.958          19.000  
C30  25750881.835   134091540.503        1285.856          32.000  
C36  22570723.313   117531671.660       -1438.459          35.000  
G26  20468387.330   107562114.9211       1170.055          25.000    20468391.228    80322338.155         875.042          29.000  
G32  20787898.937   109241175.315        -627.250          38.000  
J02  38948627.226   204676450.391       -1133.545          31.000  
R14  22610407.441   120526195.541       -3625.394          35.000  
> 2021  9 30 11 24 27.9999314  0 12
C01  37486032.160   195199433.098        -320.409          33.000  
C06  36547265.355   190311212.820         202.644          30.000  
C07  36613647.499   190656795.738         523.631          27.000  
C16  36926621.532   192286595.402         249.197          32.000  
C19  22119766.804   115183441.432       -2305.117          19.000  
C22  22365673.666   116463839.9831        728.030          27.000  
C30  25750575.448   134089942.352        1285.480          28.000  
C36  22570938.864                       -1433.875          36.000  
G26  20468106.125   107560629.860        1169.781          26.000    20468107.924    80321228.330         873.644          29.000  
G32  20787954.998   109241490.489        -632.278          36.000  
R04  19554545.270   104713702.9791      -1799.373          19.000  
R14  22611028.311   120529505.485       -3625.677          34.000  
> 2021  9 30 11 24 28.9999311  0 12
C01  37486004.279   195199284.476        -319.623          32.000  
C06  36547137.044   190310541.990         201.963          33.000  
C07  36613458.030   190655803.859         522.805          25.000  
C16  36926483.328   192285877.451         249.807          35.000  
C22  22365443.126   116462643.826         727.662          28.000  
C30  25750240.579   134088188.317        1285.398          31.000  
C36  22571123.836   117533765.1691      -1438.174          37.000  
G26  20467792.242   107558989.026        1165.996          23.000    20467795.240    80320002.524         871.858          30.000  
J01  36535740.433   191996574.7741        493.658          27.000  
J02  38948916.226   204677930.4211      -1133.614          33.000  
J03  37313462.328   196083341.0201       -218.799          21.000  
R14  22611622.799   120532673.928       -3626.103          35.000  
> 2021  9 30 11 24 29.9999311  0 14
C01  37486065.137   195199603.815        -319.205          33.000  
C06  36547098.070   190310339.345         203.602          33.000  
C07  36613358.799   190655281.301         522.224          26.000  
C16  36926432.063   192285627.452         250.727          35.000  
C19  22120569.648   115187589.2291      -2309.773          21.000  
C30  25749991.752   134086902.544        1285.615          29.000  
C36  22571398.146   117535202.520       -1438.072          36.000  
G25  23704521.002   124567987.9231      -3827.863          31.000  
G26  20467572.195   107557823.407        1165.620          25.000    20467572.794    80319130.743         871.413          31.000  
G29  23747224.938   124792505.3791        282.647          30.000  
G32  20788103.096                        -628.247          39.000  
J01  36535655.892   191996081.250         494.283          26.000  
J03  37313507.296   196083560.862        -220.273          21.000  
R14  22612302.429   120536296.434       -3627.094          34.000  
> 2021  9 30 11 24 30.9999309  0 15
C01  37486065.137   195199610.407        -318.544          33.000  
C06  36546998.240                         207.005          31.000  
C07  36613198.110   190654447.324         521.728          27.000  
C16  36926324.138                         249.484          34.000  
C36  22571616.095   117536327.887       -1437.406          36.000  
G10  23084289.379   121309005.4351      -3831.883          31.000  
G25  23705188.040   124571500.638       -3828.042          32.000  
G26  20467293.088   107556342.225        1166.317          29.000    20467290.689    80318024.339         871.055          30.000  
G29  23747111.017   124791907.356         281.479          33.000  
G32  20788165.453   109242533.8621       -630.754          39.000  
J01  36535511.991   191995271.953         494.019          24.000  
J02                                                                  38949293.965   152845396.9701       -847.370          29.000  
J03  37313489.908   196083467.542        -222.131          21.000  
R04  19555453.042   104718563.8481      -1804.921          21.000  
R14  22612920.601   120539591.559       -3626.726          34.000  
> 2021  9 30 11 24 31.9999306  0 13
C01  37486035.757   195199460.309        -318.364          32.000  
C06  36546870.828                         201.744          31.000  
C07  36613006.543   190653457.095         522.536          28.000  
C16  36926185.334   192284342.1221        250.760          35.000  
C19  22121312.534   115191425.5661      -2308.112          20.000  
C22  22364881.015   116459681.1111        725.677          29.000  
C30  25749339.103   134083551.3611       1285.327          32.000  
C36  22571802.266   117537297.570       -1438.411          36.000  
G25  23705822.700   124574855.212       -3827.358          32.000  
G26  20466983.702   107554703.152        1165.959          30.000    20466978.306    80316799.966         871.265          30.000  
G32  20788196.331   109242691.110        -629.838          40.000  
J02                                                                  38949419.878   152845891.008        -847.237          28.000  
R14  22613508.794   120542727.597       -3625.922          34.000  
> 2021  9 30 11 24 32.9999304  0 17
C01  37486037.256   195199466.138        -317.988          33.000  
C06  36546770.098   190308626.0841        202.280          32.000  
C07  36612847.053   190652622.058         522.856          27.000  
C16  36926080.406   192283780.337         248.456          35.000  
C19  22121699.266   115193421.151       -2308.905          20.000  
C22  22364682.253   116458643.008         725.179          29.000  
C30  25749027.919   134081952.874        1285.180          31.000  
C36  22572020.815                       -1437.372          37.000  
G10  23085607.267   121315880.7631      -3832.059          31.000  
G25  23706491.238                       -3829.129          31.000  
G26  20466704.595   107553222.095        1165.520          29.000    20466696.501    80315693.435         870.738          30.000  
G29  23746844.502   124790555.6971        282.479          31.000  
G32  20788255.690   109243006.409        -630.246          41.000  
J01  36535168.729   191993495.8751        494.115          21.000  
J02                                                                  38949576.369   152846503.424        -847.795          29.000  
J03  37313430.550   196083401.0341       -221.790          21.000  
R14  22614129.064   120546033.988       -3625.535          32.000  
> 2021  9 30 11 24 33.9999301  0 13
C01  37486009.676   195199315.527        -317.733          35.000  
C06  36546642.386   190307955.603         201.571          31.000  
C07  36612658.184   190651630.693         523.088          25.000  
C16  36925946.099   192283062.644         249.852          34.000  
C22  22364452.012   116457448.662         726.410          26.000  
C30  25748690.652   134080199.452        1285.036          31.000  
C36  22572202.789   117539393.3611      -1437.719          37.000  
G10  23086261.114   121319240.668       -3833.574          35.000  
G26                                                                  20466384.417    80314470.146         869.680          30.000  
G32  20788287.468   109243164.779        -631.028          40.000  
J02  38949692.089   204682014.2301      -1136.444          33.000    38949702.282   152846999.323        -849.487          28.000  
J03  37313381.683   196083151.216        -225.226          20.000  
R14  22614722.054   120549194.367       -3626.151          35.000  
> 2021  9 30 11 24 34.9999299  0 11
C06  36546541.955   190307441.211         197.369          32.000  
C07  36612500.194   190650795.358         522.944          20.000  
C16  36925835.476   192282501.349         246.544          35.000  
C22  22364252.350   116456410.443         726.574          26.000  
C36  22572418.340   117540519.516       -1440.679          34.000  
G26  20466105.010   107550105.6191       1163.367          24.000    20466103.212    80313365.316         869.070          30.000  
G29  23746585.181   124789205.7681        281.541          25.000  
G32  20788349.825   109243481.272        -634.778          38.000  
J02                                                                  38949859.074   152847613.356        -848.893          28.000  
J03  37313365.495   196083063.096        -228.353          19.000  
R14  22615344.723   120552514.140       -3626.678          32.000  
> 2021  9 30 11 24 35.9999296  0 10
C01  37485987.791   195199170.8591       -318.471          31.000  
C06  36546413.045   190306770.627         202.071          34.000  
C16  36925696.372   192281783.667         249.107          36.000  
C22  22364021.210   116455216.898         723.954          25.000  
C36  22572611.706   117541490.302       -1438.929          36.000  
G26  20465791.727   107548469.877        1162.846          24.000    20465789.029    80312142.996         868.005          26.000  
G32  20788379.804   109243640.610        -633.450          37.000  
J02  38949983.188   204683496.6651      -1134.752          33.000    38949986.485   152848108.280        -847.145          28.000  
J03  37313324.123   196082818.836        -227.609          18.000  
R14  22615936.213   120555666.794       -3627.531          35.000  
> 2021  9 30 11 24 36.9999296  0 10
C06  36546376.770   190306568.638         202.993          37.000  
C07  36612203.699   190649285.4361        520.380          23.000  
C10  37380480.632   194650194.1381        556.434          15.000  
C16  36925646.607   192281534.638         249.479          37.000  
C22  22363882.107   116454493.505         723.451          24.000  
C36  22572890.513   117542929.685       -1439.466          41.000  
G26  20465569.881   107547307.131        1162.424          28.000    20465564.485    80311274.456         869.515          25.000  
J01  36534533.169   191990258.0841        493.316          27.000  
J02  38950199.338   204684631.995       -1134.448          35.000    38950203.235   152848956.326        -847.284          29.000  
R14  22616614.344   120559281.966       -3626.769          34.000  
> 2021  9 30 11 24 37.9999293  0 11
C01  37486021.068   195199346.5901       -324.533          25.000  
C06  36546247.259   190305898.435         202.352          36.000  
C10  37380286.966   194649168.888         557.261          15.000  
C16  36925506.604   192280817.391         249.178          36.000  
C22  22363650.367   116453302.871         721.731          30.000  
C30  25747470.497   134073805.5361       1285.200          25.000  
C36  22573076.085   117543901.174       -1440.910          40.000  
G26  20465256.598   107545672.623        1161.492          27.000    20465253.000    80310053.261         867.998          23.000  
G32  20788522.206   109244434.3431       -634.566          36.000  
J02  38950326.150   204685293.207       -1136.487          30.000    38950329.748   152849451.104        -847.885          29.000  
R14  22617204.035   120562424.851       -3627.848          29.000  
> 2021  9 30 11 24 38.9999291  0 12
C01  37486023.166   195199358.750        -324.728          32.000  
C06  36546148.028   190305384.548         200.659          36.000  
C10  37380118.782   194648298.643         558.228          16.000  
C16  36925399.578   192280256.522         247.820          36.000  
C22  22363448.007   116452268.772         721.496          27.000  
C30  25747163.210   134072209.731        1282.112          27.000  
C36  22573292.235                       -1440.753          38.000  
G25  23710462.289   124599384.5361      -3831.190          29.000  
G26  20464975.692   107544196.396        1160.944          32.000    20464972.095    80308950.625         866.174          28.000  
G32  20788589.659   109244753.302        -634.054          34.000  
J02  38950481.743   204686114.711       -1136.667          29.000    38950486.239   152850064.447        -849.498          28.000  
R14  22617817.111   120565692.708       -3627.580          24.000  
> 2021  9 30 11 24 39.9999288  0 11
C01  37485994.986   195199215.045        -324.482          31.000  
C06  36546019.417   190304714.501         201.775          36.000  
C07  36611667.370   190646479.9841        519.728          22.000  
C10  37379923.617   194647271.668         558.653          17.000  
C16  36925266.470   192279539.409         248.691          37.000  
C19  22124312.257   115207099.4001      -2313.945          29.000  
C22  22363213.869   116451079.349         720.811          23.000  
C36  22573478.406   117546001.6971      -1440.930          38.000  
G26  20464667.206   107542563.358        1159.955          29.000    20464661.809    80307731.794         865.421          29.000  
G32  20788619.638   109244915.290        -635.178          35.000  
J02  38950607.056   204686779.023       -1137.129          31.000    38950613.052   152850560.689        -848.822          28.000  
> 2021  9 30 11 24 40.9999288  0 14
C01  37486056.743   195199539.150        -324.271          33.000  
C06  36545979.845   190304512.880         202.044          36.000  
C10  37379817.791   194646714.151         556.460          17.000  
C16  36925218.203   192279290.764         246.923          36.000  
C19  22124755.950   115209413.900       -2314.878          30.000  
C22  22363072.067   116450359.574         718.478          26.000  
C36  22573755.115   117547442.345       -1440.816          39.000  
G25  23711827.244   124606574.7671      -3831.798          30.000  
G26  20464444.460   107541403.558        1158.485          29.000    20464442.062    80306866.119         865.810          30.000  
G29  23745931.334   124785799.6921        276.355          20.000  
G32  20788744.052   109245550.415        -634.989          34.000  
J01  36533917.395                         492.628          36.000  
J02                                                                  38950828.902   152851409.589        -849.432          27.000  
R14  22619090.030   120572478.1551      -3626.559          30.000  
> 2021  9 30 11 24 41.9999286  0 10
C06  36545881.513   190303999.209         200.363          36.000  
C10  37379650.806   194645844.509         558.590          17.000  
C16  36925108.479   192278730.040         248.921          37.000  
C19  22125139.385   115211417.092       -2316.499          30.000  
C36  22573971.565   117548571.113       -1440.481          39.000  
G10  23091744.318   121347935.9501      -3834.912          35.000  
G25  23712495.781   124610091.387       -3831.797          30.000  
G26  20464157.559   107539932.074        1155.662          24.000    20464161.756    80305765.804         864.640          30.000  
G32  20788805.809   109245870.963        -634.916          39.000  
J02  38950977.899   204688737.4051      -1136.095          33.000    38950984.495   152852022.682        -848.275          28.000  
> 2021  9 30 11 24 42.9999286  0 13
C06  36545840.141   190303798.336         201.693          37.000  
C07  36611298.625   190644609.3521        517.339          23.000  
C10  37379542.581   194645284.446         561.126          18.000  
C16  36925061.112   192278482.154         247.646          37.000  
C19  22125583.377   115213733.676       -2316.599          30.000  
C22  22362730.004   116448608.4381        719.700          26.000  
C36  22574248.873   117550012.908       -1440.157          39.000  
G25  23713225.176   124613923.586       -3832.763          32.000  
G26                                                                  20463941.108    80304900.603         863.808          29.000  
G29  23745766.448   124784932.6471        275.562          24.000  
G32  20788930.223   109246507.928        -636.956          38.000  
J02  38951193.450   204689873.687       -1136.543          29.000    38951199.746   152852870.976        -849.474          27.000  
R14  22620396.825   120579444.0791      -3628.760          35.000  
> 2021  9 30 11 24 43.9999283  0 11
C06  36545713.029   190303129.362         202.375          36.000  
C10  37379342.919   194644252.903         564.087          17.000  
C16  36924924.107   192277766.202         247.296          36.000  
C19  22125937.732   115215582.788       -2318.435          30.000  
C22  22362497.965   116447420.708         718.945          26.000  
C36  22574436.543   117550986.823       -1442.266          38.000  
G26                                                                  20463630.224    80303684.394         863.557          28.000  
G29  23745629.443   124784185.176         273.103          19.000  
G32  20788962.900   109246672.839        -638.168          38.000  
J02  38951319.363   204690538.300       -1137.443          29.000    38951326.858   152853367.969        -850.436          28.000  
R14  22620986.217   120582586.595       -3628.743          32.000  
> 2021  9 30 11 24 44.9999281  0 14
C01  37486091.519   195199743.4441       -324.262          30.000  
C06  36545615.597   190302616.409         200.956          35.000  
C07  36610950.267   190642793.5691        516.484          20.000  
C10  37379173.237   194643377.362         562.563          16.000  
C16  36924819.479   192277206.211         248.733          37.000  
C19  22126322.066   115217588.770       -2319.231          27.000  
C22  22362299.802   116446390.934         717.628          25.000  
C30  25745362.956   134062960.7381       1276.616          26.000  
C36  22574653.293   117552116.939       -1442.091          37.000  
G26  20463350.217   107535674.8901       1156.391          30.000    20463349.318    80302584.696         865.753          27.000  
G29  23745517.021   124783596.526         272.720          20.000  
G32  20789024.358   109246995.575        -639.113          37.000  
J02  38951475.854   204691360.480       -1137.462          30.000    38951483.649   152853983.704        -852.227          28.000  
R14  22621608.886   120585905.348       -3626.171          28.000  
> 2021  9 30 11 24 45.9999278  0 12
C06  36545486.386   190301947.331         199.504          35.000  
C10  37378974.774   194642349.358         556.165          16.000  
C16  36924680.675   192276490.077         248.091          37.000  
C22  22362073.159   116445205.244         716.931          29.000  
C30  25745027.488   134061214.854        1278.886          27.000  
C36  22574840.363   117553091.099       -1442.131          38.000  
G26  20463038.433   107534045.785        1156.399          29.000    20463038.733    80301366.886         862.645          27.000  
G29  23745371.621   124782851.618         270.984          23.000  
G32  20789057.635   109247161.323        -636.826          40.000  
J01  36533149.627   191983001.4031        490.609          30.000  
J02  38951600.868   204692025.354       -1137.866          31.000    38951609.562   152854481.553        -852.029          26.000  
R14  22622201.576   120589065.153       -3626.941          28.000  
> 2021  9 30 11 24 46.9999276  0 11
C06  36545388.354   190301434.373         200.432          36.000  
C10  37378807.490   194641480.392         556.286          15.000  
C16  36924573.050   192275930.095         246.963          37.000  
C22  22361876.495   116444176.880         714.800          27.000  
C30  25744723.499   134059622.504        1280.825          27.000  
C36  22575059.811   117554221.614       -1442.286          39.000  
G26  20462758.427   107532574.844        1155.386          30.000    20462758.727    80300269.557         860.957          26.000  
G32  20789112.797   109247485.064        -638.960          40.000  
J01  36532994.934   191982195.658         490.298          28.000  
J02  38951755.861   204692847.919       -1138.232          31.000    38951765.154   152855096.120        -848.153          28.000  
R14  22622821.247   120592368.306       -3628.665          35.000  
> 2021  9 30 11 24 47.9999273  0 12
C01  37486036.057   195199465.8231       -323.298          30.000  
C06  36545259.443   190300765.200         202.247          36.000  
C07  36610426.829   190640004.1091        515.687          20.000  
C10  37378609.327   194640457.653         552.884          15.000  
C16  36924435.145   192275213.844         249.178          37.000  
C30  25744390.130   134057872.040        1282.724          26.000  
C36  22575242.685   117555196.175       -1442.722          37.000  
G10  23095725.562   121368907.2301      -3834.770          31.000  
G26  20462448.442   107530947.197        1154.680          32.000    20462451.440    80299056.237         860.190          27.000  
J01  36532810.562   191981233.030         490.100          28.000  
J02  38951880.874   204693512.842       -1137.599          30.000    38951891.067   152855591.792        -848.850          26.000  
R14  22623411.538   120595514.263       -3628.133          33.000  
> 2021  9 30 11 24 48.9999273  0 14
C06  36545226.166   190300564.687         197.263          34.000  
C07  36610328.197   190639488.087         516.672          20.000  
C10  37378503.500   194639901.428         557.249          14.000  
C16  36924386.579   192274965.366         248.166          29.000  
C19  22127860.001   115225618.0771      -2319.493          27.000  
C22  22361511.348   116442277.6521        715.162          22.000  
C30  25744147.298   134056590.192        1280.933          27.000  
C36  22575520.293   117556639.542       -1447.656          37.000  
G25  23717226.506   124634867.3111      -3832.142          34.000  
G26                                                                  20462234.690    80298195.992         859.566          26.000  
G29  23745076.925   124781250.9841        269.719          21.000  
J01  36532718.825   191980743.104         490.360          29.000  
J02  38952095.825   204694649.886       -1136.242          31.000    38952108.117   152856440.050        -848.570          21.000  
R14  22624094.166   120599153.144       -3628.447          35.000  
> 2021  9 30 11 24 49.9999270  0 13
C06  36545099.354   190299895.488         201.755          26.000  
C07  36610138.129   190638502.678         518.499          24.000  
C10  37378309.835   194638875.456         557.601          13.000  
C16  36924249.574   192274249.862         246.554          23.000  
C19  22128210.459   115227469.777       -2320.867          21.000  
C22  22361288.302   116441094.800         713.988          28.000  
C36  22575707.963   117557616.042       -1443.369          28.000  
G10  23097089.618   121376108.6511      -3838.419          29.000  
G26  20461920.207   107528170.4541       1150.139          24.000    20461925.903    80296983.733         858.449          24.000  
G29  23744942.318   124780507.744         270.309          28.000  
J01  36532536.251   191979780.150         489.919          27.000  
J02  38952219.040   204695313.770       -1137.393          28.000    38952234.629   152856937.929        -853.424          20.000  
R14  22624688.054   120602318.967       -3628.440          27.000  
> 2021  9 30 11 24 50.9999268  0 12
C06  36545000.722   190299381.426         201.475          34.000  
C10  37378147.947   194638003.970         558.616          14.000  
C16  36924143.148   192273690.445         247.269          32.000  
C19  22128594.793   115229479.473       -2323.172          25.000  
C22  22361088.041   116440068.671         713.532          26.000  
C30  25743502.144   134053250.1111       1278.962          28.000  
C36  22575924.413   117558747.132       -1443.309          38.000  
G25  23718533.601   124641748.2571      -3834.304          31.000  
G26  20461642.899   107526706.189        1148.348          24.000    20461646.497    80295889.499         859.534          25.000  
G32  20789358.027   109248783.1581       -641.045          28.000  
J02  38952375.232   204696136.105       -1137.374          28.000    38952391.121   152857555.383        -853.825          19.000  
R14  22625309.824   120605633.881       -3628.505          31.000  
> 2021  9 30 11 24 51.9999265  0 12
C06  36544872.711   190298712.028         199.216          34.000  
C07  36609785.873   190636686.6051        517.456          27.000  
C16  36924005.843   192272974.354         248.816          28.000  
C19  22128945.850   115231336.900       -2326.923          21.000  
C22  22360861.997   116438887.341         712.679          27.000  
C30  25743167.576   134051502.544        1279.163          24.000  
C36  22576113.282   117559722.320       -1444.213          37.000  
G10  23098394.914   121382997.1481      -3838.057          29.000  
G26  20461332.314   107525084.430        1149.315          23.000    20461337.111    80294676.612         858.745          25.000  
G29  23744690.493   124779180.4661        270.049          24.000  
J02  38952501.145   204696800.964       -1137.340          27.000    38952517.333   152858052.239        -848.615          20.000  
R14  22625901.314   120608786.894       -3628.477          33.000  
> 2021  9 30 11 24 52.9999263  0 10
C06  36544768.983                         198.642          31.000  
C07  36609627.282   190635857.169         517.420          22.000  
C16  36923900.316   192272413.365         247.928          27.000  
C22  22360666.533   116437863.432         710.922          27.000  
C36  22576329.732                       -1442.976          38.000  
G26  20461053.807   107523620.968        1148.581          26.000    20461058.004    80293581.870         858.843          25.000  
G29  23744590.662   124778595.491         269.025          24.000  
G32  20789455.459   109249278.5151       -642.190          27.000  
J02  38952656.437   204697623.391       -1138.123          27.000    38952674.125   152858665.841        -849.453          20.000  
R14  22626520.985   120612089.961       -3628.767          33.000  
> 2021  9 30 11 24 53.9999260  0 12
C06  36544640.072                         198.337          35.000  
C07  36609435.715   190634871.797         518.197          25.000  
C16  36923762.411   192271697.552         246.918          34.000  
C19  22129688.735   115235207.8231      -2323.474          25.000  
C22  22360440.189   116436685.065         709.038          24.000  
C36  22576518.901   117561850.1361      -1443.748          34.000  
G10  23099705.607   121389887.3241      -3839.375          29.000  
G26  20460745.920   107521998.061        1151.167          30.000    20460748.918    80292369.572         860.460          28.000  
G29  23744455.456   124777853.853         268.303          23.000  
G32  20789486.638   109249448.225        -642.305          35.000  
J02  38952782.050   204698289.122       -1138.511          29.000    38952800.637   152859162.796        -849.914          26.000  
R14  22627109.478   120615226.282       -3628.416          30.000  
> 2021  9 30 11 24 54.9999258  0 11
C06  36544546.237                         202.306          30.000  
C07  36609276.825   190634042.448         515.099          13.000  
C16  36923655.085   192271138.538         246.683          30.000  
C22  22360244.725   116435664.538         708.055          24.000  
C30  25742215.735   134046574.5661       1278.857          24.000  
G10  23100379.240   121393411.948       -3839.570          23.000  
G26                                                                  20460470.411    80291274.919         858.238          28.000  
G29  23744358.623   124777271.011         266.765          23.000  
G32  20789550.494   109249775.933        -643.591          33.000  
J01  36531719.017   191975444.9331        487.761          31.000  
R14  22627743.539   120618606.441       -3627.321          19.000  
> 2021  9 30 11 24 55.9999258  0  8
C06  36544511.461   190296822.7531        202.350          31.000  
C16  36923607.718   192270891.707         246.676          31.000  
C22  22360108.619   116434955.586         708.899          23.000  
C36  22577021.054   117564427.3021      -1445.514          26.000  
G10  23101112.832   121397251.539       -3839.693          23.000  
G26  20460251.263   107519378.9381       1151.168          27.000    20460252.162    80290415.694         858.338          28.000  
G29  23744324.146   124777003.626         267.687          24.000  
G32  20789677.905   109250419.734        -644.905          37.000  
> 2021  9 30 11 24 56.9999255  0 11
C06  36544382.850                         201.822          31.000  
C16  36923470.713   192270176.558         246.821          31.000  
C19  22130883.108   115241396.3121      -2323.743          27.000  
C30  25741635.337   134043546.1981       1277.679          15.000  
C36  22577209.623   117565405.426       -1446.240          22.000  
G25  23722528.635   124662713.7421      -3836.025          29.000  
G26  20459943.676   107517755.192        1150.910          30.000    20459944.275    80289205.393         856.401          25.000  
G29  23744201.531   124776621.356         267.335          27.000  
G32  20789712.082                        -644.421          39.000  
J01  36531432.116                         489.285          35.000  
R14  22629001.168   120625310.7471      -3628.842          29.000  
> 2021  9 30 11 24 57.9999252  0 10
C06  36544255.738   190295486.0631        197.703          31.000  
C07  36608790.262   190631566.1481        512.886          25.000  
C16  36923338.205   192269461.159         246.114          32.000  
C22  22359653.834   116432600.4661        709.198          20.000  
C30  25741299.269   134041800.196        1276.968          19.000  
G26                                                                  20459636.688    80287996.604         856.904          25.000  
G29  23744076.218   124775881.616         266.587          26.000  
G32  20789742.960   109250847.2761       -645.970          39.000  
J01  36531246.844   191973011.5281        488.672          34.000  
R14  22629588.462   120628441.353       -3629.172          28.000  
> 2021  9 30 11 24 58.9999252  0 11
C06  36544219.463   190295286.426         201.285          31.000  
C07  36608688.332   190631053.993         513.302          25.000  
C16  36923289.039                         247.136          32.000  
C22  22359518.028   116431891.455         708.428          22.000  
G10  23103143.027   121407823.3861      -3838.340          21.000  
G25  23723889.393   124669914.8191      -3835.664          27.000  
G26  20459417.540   107514984.3061       1146.638          23.000    20459418.739    80287139.466         856.886          27.000  
G29  23744063.927   124775898.568         265.322          27.000  
G32  20789866.175   109251493.091        -644.655          38.000  
J01  36531157.206   191972524.161         487.139          33.000  
R14  22630262.995   120632036.409       -3628.754          27.000  
> 2021  9 30 11 24 59.9999250  0  9
C06  36544123.830   190294774.776         198.803          31.000  
C16  36923183.812   192268696.7261        246.840          32.000  
C22  22359321.364   116430870.811         707.860          21.000  
C30  25740752.448   134038934.5641       1276.672          25.000  
C36  22577906.341   117568964.0321      -1446.857          25.000  
G26  20459141.131   107513522.961        1145.659          27.000    20459141.731    80286048.210         855.710          27.000  
G32  20789928.232   109251824.362        -647.105          38.000  
J01  36531003.712   191971721.980         488.955          34.000  
R14  22630879.668   120635323.589       -3628.822          29.000  
> 2021  9 30 11 25  0.9999247  0 13
C01  37486053.745   195199612.7181       -326.635          30.000  
C06  36543996.118   190294106.933         199.128          30.000  
C07  36608338.475   190629246.4671        514.308          25.000  
C16  36923048.306   192267982.013         245.134          31.000  
C22  22359096.819   116429695.251         706.263          22.000  
C30  25740416.980   134037188.272        1280.064          26.000  
C36  22578100.606   117569943.582       -1448.945          23.000  
G25  23725199.786   124676801.4111      -3838.066          31.000  
G26  20458833.544   107511905.529        1143.806          30.000  
G32  20789957.612   109251998.600        -648.340          39.000  
J01  36530823.837   191970762.463         487.037          34.000  
J02  38953931.454   204704200.6531      -1138.024          18.000  
R14  22631468.161   120638460.979       -3629.193          28.000  
> 2021  9 30 11 25  1.9999245  0 12
C06  36543896.287   190293595.265         198.426          31.000  
C07  36608180.184   190628419.501         514.194          24.000  
C16  36922943.978   192267423.390         249.748          31.000  
C19  22132832.059   115251463.8021      -2326.710          29.000  
C30  25740111.492   134035595.804        1280.217          25.000  
C36  22578321.853   117571080.168       -1449.591          26.000  
G10  23105152.836   121418241.4471      -3841.938          19.000  
G25  23725868.023   124680324.126       -3837.906          30.000  
G26  20458555.936   107510447.031        1142.936          31.000  
G32  20790020.268   109252330.870        -647.409          39.000  
J01  36530670.943   191969960.549         484.528          33.000  
R14  22632087.832   120641764.026       -3627.839          26.000  
> 2021  9 30 11 25  2.9999245  0 13
C06  36543860.012   190293395.873         199.870          30.000  
C07  36608081.852   190627905.655         515.267          22.000  
C16  36922890.915   192267177.281         247.491          31.000  
C19  22133282.048   115253791.449       -2328.127          30.000  
C22  22358769.746   116427972.5051        704.057          23.000  
C36  22578605.457   117572529.763       -1449.180          27.000  
G10  23105902.616   121422082.752       -3840.932          19.000  
G25  23726599.517   124684162.010       -3838.049          29.000  
G26  20458338.287   107509303.807        1143.468          30.000  
G32  20790147.980   109252978.988        -645.744          38.000  
J01  36530575.909   191969473.943         487.595          32.000  
J02  38954300.199   204706161.4351      -1137.791          24.000  
R14  22632766.262   120645380.472       -3627.087          25.000  
> 2021  9 30 11 25  3.9999242  0 10
C06  36543723.307   190292728.426         197.457          29.000  
C07  36607891.184   190626922.370         514.712          20.000  
C16  36922753.010   192266463.158         245.857          29.000  
C19  22133641.799   115255651.105       -2328.158          30.000  
C22  22358545.801   116426800.732         703.126          25.000  
G10  23106550.468   121425742.460       -3841.792          24.000  
G26  20458031.300   107507688.170        1142.326          29.000  
G32  20790181.257                        -651.396          33.000  
J02  38954425.812   204706828.026       -1139.292          25.000  
R14  22633360.451   120648548.403       -3629.890          27.000  
> 2021  9 30 11 25  4.9999240  0  7
C034054918372.479                          90.563          28.000  
C06  36543623.176   190292216.995         197.768          35.000  
C16  36922643.886   192265904.944         246.300          34.000  
C22  22358350.936   116425784.712         704.379          27.000  
G25  23727908.411   124691050.7901      -3838.641          31.000  
G29  23743459.545   124772722.1041        260.835          21.000  
R14  22633984.019   120651871.536       -3629.896          33.000  
> 2021  9 30 11 25  5.9999237  0  6
C06  36543497.863   190291549.847         199.464          35.000  
C16  36922506.281   192265190.072         246.297          33.000  
C22  22358126.691   116424612.238         704.090          27.000  
G26  20457448.503   107504616.5981       1140.224          31.000  
J01  36530052.471   191966754.1981        486.132          27.000  
R14  22634574.010   120655016.529       -3630.314          33.000  
> 2021  9 30 11 25  6.9999235  0 12
C06  36543399.831                         200.441          33.000  
C07  36607392.629   190624290.6261        509.725          27.000  
C16  36922399.854   192264632.430         244.915          32.000  
C19  22134782.809   115261544.2041      -2330.121          27.000  
C22  22357933.325   116423596.035         702.250          28.000  
C36  22579384.318                       -1448.845          34.000  
G25  23729223.301   124697940.8151      -3839.249          30.000  
G26  20457171.795   107503160.867        1140.765          30.000    20457169.996    80278310.6031        851.145          32.000  
G29  23743210.717   124771413.6541        259.937          28.000  
J01  36529900.776   191965952.878         486.388          28.000  
J02  38954871.304   204709142.3681      -1140.360          24.000  
R14  22635198.478   120658345.143       -3628.276          31.000  
> 2021  9 30 11 25  7.9999232  0 11
C06  36543272.119   190290371.6601        200.066          29.000  
C07  36607205.259   190623312.224         510.026          26.000  
C16  36922263.149   192263918.822         245.399          29.000  
C19  22135139.862   115263405.831       -2330.153          31.000  
C22  22357711.478   116422426.242         700.586          22.000  
C36  22579561.195   117577760.3141      -1446.509          33.000  
G10  23109174.551   121439540.8401      -3848.163          12.000  
G26                                                                  20456863.608    80277104.510         854.423          22.000  
J01  36529718.502   191964993.884         485.763          27.000  
J02  38954996.917   204709809.280       -1139.969          26.000  
R14  22635790.268   120661500.159       -3627.776          32.000  
> 2021  9 30 11 25  8.9999229  0 11
C06  36543144.707   190289704.344         199.581          30.000  
C16  36922126.144   192263204.457         246.305          29.000  
C19  22135496.914   115265268.100       -2330.573          32.000  
C22  22357489.932   116421257.789         700.350          24.000  
C36  22579749.465   117578741.017       -1448.730          29.000  
G10  23109811.910   121442914.953       -3843.900          13.000  
G26  20456557.520   107499934.3521       1140.771          32.000    20456556.021    80275898.529         851.735          21.000  
G32  20790400.106   109254359.5701       -653.557          28.000  
J01  36529535.929   191964035.682         485.329          28.000  
J02  38955122.830   204710477.068       -1140.907          26.000  
R14  22636384.457   120664667.895       -3630.272          35.000  
> 2021  9 30 11 25  9.9999229  0  9
C06  36543109.332   190289505.943         197.895          30.000  
C07  36606922.855   190621824.2181        512.888          24.000  
C16  36922079.376   192262957.968         246.479          28.000  
C19  22135940.907   115267599.377       -2332.233          32.000  
C22  22357357.124   116420556.746         701.115          24.000  
C36  22580029.171   117580190.462       -1449.809          32.000  
G26  20456329.678                        1138.563          33.000    20456338.671    80275048.314         848.453          24.000  
J02  38955338.680   204711617.497       -1140.637          25.000  
R14  22637068.284   120668313.227       -3630.318          32.000  
> 2021  9 30 11 25 10.9999227  0 10
C06  36543008.901   190288995.243         197.432          30.000  
C07  36606764.564   190620999.182         512.047          24.000  
C16  36921970.552   192262399.286         246.727          29.000  
C19  22136321.344   115269618.022       -2331.346          32.000  
C22  22357165.257   116419542.730         700.764          23.000  
C36  22580254.015   117581328.004       -1451.627          31.000  
G10  23111004.784   121449150.3991      -3843.639          21.000  
G26  20456049.671   107497285.4891       1133.838          29.000    20456062.263    80273963.698         849.610          21.000  
J02  38955497.870   204712442.981       -1140.724          27.000  
R14  22637687.055   120671610.856       -3629.715          32.000  
> 2021  9 30 11 25 11.9999224  0 12
C04  38370406.121   199804774.0391       -312.060          28.000  
C06  36542878.192   190288328.328         199.816          30.000  
C07  36606576.894   190620018.645         512.085          25.000  
C16  36921833.547   192261684.547         245.786          29.000  
C19  22136678.696   115271481.601       -2332.487          31.000  
C22  22356942.811   116418373.844         700.292          24.000  
C36  22580446.482   117582309.429       -1451.029          32.000  
G10  23111654.734   121452521.635       -3844.278          21.000  
G25  23732554.594   124715407.3621      -3840.675          28.000  
G26  20455744.783   107495675.476        1138.169          25.000    20455756.175    80272761.192         849.450          21.000  
J02  38955622.883   204713110.980       -1140.315          29.000  
R14  22638277.946   120674761.131       -3629.648          30.000  
> 2021  9 30 11 25 12.9999222  0 11
C06  36542780.759   190287817.611         198.198          30.000  
C07  36606419.503   190619193.993         512.063          24.000  
C16  36921724.122   192261126.815         246.265          28.000  
C22  22356750.943   116417361.673         699.420          27.000  
C36  22580664.731   117583447.291       -1450.122          31.000  
G10  23112337.062   121456049.797       -3842.310          16.000  
G26  20455468.374   107494222.632        1137.303          26.000  
G29  23742550.874   124767947.4581        256.390          33.000  
J01  36528964.224   191960997.1031        482.501          29.000  
J02  38955778.776   204713935.836       -1140.364          30.000  
R14  22638898.816   120678070.667       -3630.098          31.000  
> 2021  9 30 11 25 13.9999219  0 11
C06  36542649.750   190287151.200         196.724          30.000  
C07  36606233.032   190618214.541         509.954          25.000  
C16  36921584.419   192260412.356         245.272          26.000  
C19  22137429.377   115275367.3011      -2334.742          32.000  
C22  22356527.298   116416193.526         700.052          26.000  
C36  22580856.298   117584429.475       -1451.113          32.000  
G10  23112990.610   121459419.088       -3842.725          15.000  
G26  20455159.588   107492613.072        1136.410          25.000  
G29  23742403.676   124767218.777         256.466          33.000  
J02  38955906.787   204714603.905       -1140.908          29.000  
R14  22639493.305   120681239.277       -3629.977          32.000  
> 2021  9 30 11 25 14.9999219  0 12
C06  36542613.175   190286953.011         198.558          29.000  
C07  36606136.199   190617704.304         510.559          25.000  
C16  36921536.752   192260167.122         245.392          29.000  
C19  22137880.264                       -2333.174          34.000  
C22  22356394.190   116415494.152         698.742          27.000  
C36  22581131.808                       -1449.090          32.000  
G10  23113715.508   121463262.120       -3844.197          15.000  
G25  23734597.680   124726143.0751      -3842.045          28.000  
G26  20454936.242   107491477.009        1135.152          22.000  
G29  23742356.908   124766963.477         254.434          32.000  
J02  38956123.537   204715744.986       -1141.275          26.000  
R14  22640177.731   120684888.082       -3629.963          32.000  
> 2021  9 30 11 25 15.9999219  0  9
C06  36542576.001   190286754.301         198.113          29.000  
C07  36606039.366   190617194.029         510.212          24.000  
C16  36921490.284   192259922.095         244.519          29.000  
C19  22138326.356   115280087.1731      -2333.222          33.000  
C22  22356260.483   116414796.472         696.551          24.000  
C30  25735948.574   134013664.1561       1272.709          22.000  
C36  22581410.915   117587331.9221      -1450.128          31.000  
G26  20454722.790   107490342.212        1134.485          27.000  
J02  38956341.786   204716885.697       -1139.987          29.000  
> 2021  9 30 11 25 16.9999217  0 10
C06  36542478.569   190286243.963         198.068          30.000  
C07  36605879.577   190616372.836         508.103          25.000  
C19  22138713.687   115282110.094       -2336.885          33.000  
C22  22356068.316   116413788.667         694.539          26.000  
C30  25735645.184   134012078.702        1272.768          22.000  
C36  22581632.761   117588471.240       -1452.374          31.000  
G10  23115109.842   121470637.0621      -3845.244          18.000  
G26  20454448.180   107488893.479        1133.201          30.000  
G29  23742062.812   124765382.4931        255.111          31.000  
J02  38956498.277   204717711.139       -1140.478          27.000  
> 2021  9 30 11 25 17.9999214  0 11
C06  36542350.257   190285577.217         197.930          30.000  
C07  36605691.907   190615395.029         511.009          24.000  
C16  36921250.450   192258653.6201        243.393          25.000  
C22  22355846.170   116412624.984         695.779          26.000  
C36  22581825.228   117589454.275       -1454.364          31.000  
G10  23115756.495   121474009.828       -3845.611          19.000  
G25  23736632.671   124736882.1691      -3842.190          27.000  
G26  20454142.692   107487287.743        1132.729          31.000  
J01  36528269.006   191957322.0611        483.277          26.000  
J02  38956625.389   204718378.674       -1140.039          27.000  
R14  22642071.820   120694984.1841      -3630.040          34.000  
> 2021  9 30 11 25 18.9999212  0 11
C06  36542253.424   190285067.619         197.145          29.000  
C07  36605532.117   190614571.669         510.487          23.000  
C16  36921144.324   192258097.638         243.970          29.000  
C19  22139449.678   115286001.0521      -2338.332          30.000  
C22  22355650.705   116411616.596         696.792          27.000  
C36  22582044.976   117590593.956       -1452.282          31.000  
G10  23116434.026   121477539.393       -3844.381          20.000  
G25  23737295.512   124740409.760       -3843.964          24.000  
G26  20453867.482   107485840.364        1131.409          30.000  
J01  36528116.411   191956522.926         483.765          26.000  
J02  38956781.881   204719204.314       -1141.774          26.000  
> 2021  9 30 11 25 19.9999209  0 11
C06  36542126.013   190284401.488         198.383          29.000  
C07  36605342.948   190613592.935         510.385          21.000  
C16  36921007.918   192257385.777         243.454          27.000  
C19  22139811.827   115287869.801       -2338.125          30.000  
C22  22355425.561   116410450.029         697.815          24.000  
C36  22582234.744   117591578.245       -1451.306          33.000  
G10  23117083.376   121480911.638       -3845.599          25.000  
G26  20453561.994   107484236.524        1130.701          33.000  
G29  23741618.520   124763048.0461        251.669          27.000  
J01  36527933.238   191955567.732         480.717          25.000  
J02  38956907.794   204719872.582       -1140.955          27.000  
> 2021  9 30 11 25 20.9999206  0 14
C06  36541998.601   190283734.614         198.760          30.000  
C07  36605154.679   190612614.940         506.774          23.000  
C16  36920871.812   192256674.532         243.160          27.000  
C19  22140174.276   115289739.216       -2337.988          31.000  
C22  22355201.316   116409284.964         694.742          25.000  
C36  22582425.712   117592562.761       -1452.748          32.000  
G10  23117735.725   121484285.467       -3846.872          24.000  
G25  23738574.427   124747150.7331      -3843.330          24.000  
G26  20453259.803   107482633.991        1128.706          29.000  
G29  23741484.812   124762323.847         251.442          29.000  
G32  20791225.134   109258626.3091       -657.842          31.000  
J01  36527749.465   191954614.554         480.861          25.000  
J02  38957034.306   204720541.658       -1143.078          27.000  
R14  22643879.568   120704620.2551      -3631.056          31.000  
> 2021  9 30 11 25 21.9999204  0 12
C06  36541900.868   190283223.600         197.787          28.000  
C07  36604997.887   190611795.528         506.914          23.000  
C16  36920765.686   192256119.113         242.873          26.000  
C19  22140566.705   115291765.205       -2337.219          32.000  
C30  25734014.912   134003695.8351       1264.946          19.000  
C36  22582649.057   117593703.715       -1451.466          32.000  
G10  23118422.549   121488131.338       -3846.528          23.000  
G25  23739241.765   124750680.859       -3846.826          20.000  
G26  20452985.493   107481190.992        1127.567          30.000  
J01  36527594.173   191953818.436         480.195          25.000  
J02  38957191.697   204721369.940       -1143.567          26.000  
R14  22644499.239   120707923.843       -3631.327          33.000  
> 2021  9 30 11 25 22.9999201  0 13
C06  36541774.056   190282557.322         196.783          27.000  
C07  36604809.917   190610820.537         505.892          22.000  
C16  36920629.280   192255407.556         244.085          28.000  
C19  22140924.957   115293635.533       -2338.702          31.000  
C30  25733681.843   134001963.326        1263.063          19.000  
C36  22582839.426   117594688.788       -1453.024          32.000  
G10  23119078.795   121491505.460       -3847.726          26.000  
G25  23739884.520   124754053.314       -3844.198          22.000  
G26  20452682.403   107479590.548        1127.632          30.000  
G29  23741243.779   124761033.0881        251.793          27.000  
G32  20791324.066   109259157.5671       -658.800          34.000  
R04  19569867.663   104795753.5321      -1852.377          32.000  
R14  22645091.629   120711081.839       -3631.430          33.000  
> 2021  9 30 11 25 23.9999201  0 13
C06  36541734.484   190282360.186         196.248          28.000  
C07  36604714.284   190610314.429         505.728          23.000  
C16  36920582.812   192255163.671         243.438          27.000  
C19  22141366.851   115295974.333       -2337.513          31.000  
C30  25733433.315   134000699.191        1264.781          17.000  
C36  22583114.035   117596141.972       -1451.560          30.000  
G10  23119824.678   121495352.975       -3847.794          25.000  
G26  20452468.351   107478462.345        1127.968          31.000  
G29  23741200.909   124760781.977         250.609          25.000  
G32  20791445.782   109259817.472        -660.397          35.000  
J01  36527317.464   191952384.8281        481.465          21.000  
J02  38957536.759   204723182.7141      -1142.172          27.000  
R14  22645774.257   120714720.172       -3631.110          34.000  
> 2021  9 30 11 25 24.9999199  0 10
C06  36541635.552   190281850.471         197.399          27.000  
C07  36604556.593   190609496.855         505.408          23.000  
C16  36920475.187   192254608.134         243.730          28.000  
C30  25733119.732   133999121.184        1267.386          17.000  
C36  22583328.987   117597283.427       -1452.679          31.000  
G26  20452193.741   107477018.996        1127.605          32.000  
G29  23741096.581   124760216.809         248.583          26.000  
G32  20791505.141   109260162.958        -660.914          35.000  
J01  36527165.769   191951587.747         481.692          23.000  
J02  38957694.150   204724009.374       -1141.723          27.000  
> 2021  9 30 11 25 25.9999196  0  9
C06  36541507.541   190281185.166         196.428          28.000  
C07  36604371.021   190608522.962         505.181          23.000  
C16  36920337.882   192253895.976         243.487          29.000  
C36  22583508.862   117598269.183       -1451.709          30.000  
G25  23741939.297   124764797.1751      -3843.798          25.000  
G26  20451894.248                        1126.715          32.000  
G31  21232270.505   111576334.6831       -849.090          26.000  
J02  38957820.962   204724677.725       -1140.974          26.000  
R14  22646989.615   120721199.5031      -3630.572          33.000  
> 2021  9 30 11 25 26.9999194  0  9
C06  36541410.108   190280676.080         196.603          29.000  
C07  36604216.029   190607704.962         505.048          24.000  
C16  36920230.856   192253340.538         242.614          29.000  
C36  22583723.813   117599411.207       -1456.702          30.000  
G26  20451617.240   107473988.4481       1128.653          32.000  
G31  21232372.434   111576868.552        -849.576          25.000  
J01  36526824.905   191949838.4561        480.695          23.000  
J02  38957977.753   204725504.243       -1141.803          25.000  
R14  22647608.087   120724495.644       -3630.969          30.000  
> 2021  9 30 11 25 27.9999191  0 12
C06  36541282.696   190280011.564         196.353          28.000  
C07  36604027.459   190606730.751         505.678          22.000  
C16  36920093.551   192252629.034         243.029          27.000  
C22  22353816.575   116402101.2771        688.034          24.000  
C36  22583913.582   117600397.497       -1452.965          30.000  
G25  23743258.984   124771698.9741      -3845.502          23.000  
G26  20451311.751   107472389.926        1125.429          31.000  
G31  21232442.586   111577245.055        -849.642          24.000  
J01  36526638.434   191948884.852         480.717          21.000  
J02  38958104.266   204726173.344       -1142.684          27.000  
R04  19571310.564   104803480.0051      -1857.063          32.000  
R14  22648198.079   120727641.302       -3631.106          31.000  
> 2021  9 30 11 25 28.9999188  0 12
C06  36541154.385   190279347.016         196.781          28.000  
C16  36919956.246   192251917.966         243.810          27.000  
C22  22353590.531   116400945.623         689.845          23.000  
C30  25731806.041   133992317.2071       1273.880          23.000  
C36  22584111.145   117601384.314       -1454.714          30.000  
G25  23743903.538   124775072.142       -3846.463          25.000  
G26  20451008.362   107470792.328        1123.560          30.000  
G31  21232512.737   111577622.327        -850.016          22.000  
J01  36526458.559   191947932.071         479.898          24.000  
J02  38958233.176   204726843.951       -1143.037          24.000  
R04  19571564.488   104804839.707       -1858.213          30.000  
R14  22648787.171   120730781.123       -3631.317          31.000  
> 2021  9 30 11 25 29.9999186  0  9
C06  36541056.953   190278837.546         196.664          26.000  
C16  36919847.721   192251361.864         244.107          27.000  
C22  22353396.566   116399943.124         690.035          23.000  
C36  22584329.094   117602527.722       -1456.398          30.000  
G10  23123790.333   121516076.6191      -3849.646          23.000  
G25  23744568.477   124778602.875       -3844.437          21.000  
G26  20450738.249   107469353.104        1122.935          31.000  
G29  23740460.421   124756936.8331        244.481          25.000  
G32  20791743.775   109261427.7441       -665.325          29.000  
> 2021  9 30 11 25 30.9999186  0 10
C06  36541017.680   190278640.438         196.482          27.000  
C16  36919799.455   192251117.951         243.345          29.000  
C22  22353261.059   116399253.141         689.293          25.000  
C36  22584600.406   117603983.712       -1452.216          28.000  
G10  23124535.617   121520255.258       -3850.772          20.000  
G25  23745296.074   124782447.792       -3845.345          22.000  
G26  20450523.597   107468229.789        1125.575          31.000    20450531.092    80252253.1701        842.762          27.000  
G29  23740401.962   124756692.300         244.104          24.000  
G32  20791868.489   109262090.052        -659.196          32.000  
J02  38958607.617   204728815.4911      -1143.312          27.000  
> 2021  9 30 11 25 31.9999183  0 15
C06  36540889.668   190277974.664         197.561          28.000  
C16  36919660.951   192250406.380         242.811          30.000  
C19  22144420.836   115311894.0051      -2344.815          30.000  
C22  22353037.714   116398096.396         687.249          26.000  
C36  22584786.877   117604970.691       -1455.766          28.000  
G10  23125178.672   121523632.268       -3849.458          15.000  
G25  23745933.432   124785821.456       -3848.232          23.000  
G26  20450223.505   107466635.018        1119.287          29.000    20450226.803    80251059.713         838.673          27.000  
G29  23740257.462   124755976.207         242.703          26.000  
G31  21232836.213   111579380.4681       -848.431          22.000  
G32  20791908.062                        -666.526          31.000  
J01  36526042.147   191945708.4691        477.266          26.000  
J02  38958735.928   204729486.414       -1143.872          28.000  
R04  19572454.572   104809605.9361      -1862.201          29.000  
R14  22650676.163   120740850.7561      -3633.320          26.000  
> 2021  9 30 11 25 32.9999183  0 12
C06  36540852.194   190277777.715         196.421          28.000  
C16  36919613.583   192250163.599         242.546          30.000  
C19  22144871.724   115314238.748       -2345.234          30.000  
C22  22352906.105   116397411.143         684.417          24.000  
C36  22585066.584   117606426.180       -1455.748          26.000  
G25  23746660.429   124789669.278       -3847.993          19.000  
G26                                                                  20450012.751    80250221.750         837.055          30.000  
G29  23740202.300   124755733.361         242.677          26.000  
J01  36525950.111   191945231.522         477.347          24.000  
J02  38958954.177   204730629.878       -1143.654          27.000  
R04  19572802.631   104811469.456       -1861.894          30.000  
R14  22651355.793   120744473.406       -3632.618          31.000  
> 2021  9 30 11 25 33.9999181  0 11
C06  36540754.762   190277269.639         194.635          27.000  
C07  36603150.266   190602138.0081        504.473          21.000  
C16  36919506.557   192249608.906         242.431          29.000  
C22  22352712.739   116396414.961         683.400          22.000  
C36  22585286.032   117607569.976       -1456.322          28.000  
G25  23747323.270   124793201.192       -3847.195          19.000  
G26                                                                  20449739.340    80249149.580         834.929          30.000  
G29  23740091.677   124755175.767         242.142          25.000  
G32  20792093.633   109263231.4551       -662.361          32.000  
J02  38959112.468   204731457.962       -1143.340          27.000  
R14  22651978.761   120747793.990       -3631.022          28.000  
> 2021  9 30 11 25 34.9999178  0 13
C06  36540628.849   190276606.258         195.393          27.000  
C07  36602962.296   190601165.092         506.037          21.000  
C16  36919369.552   192248897.917         242.867          27.000  
C22  22352492.691   116395261.460         686.069          21.000  
C36  22585477.899   117608558.040       -1456.282          29.000  
G10  23127267.326   121534393.2351      -3848.391          18.000  
G25  23747955.233   124796576.733       -3847.952          19.000  
G26  20449437.149   107462481.4781       1120.307          26.000    20449438.049    80247961.870         834.640          27.000  
G29  23739952.873   124754461.215         241.334          22.000  
G31  21233164.486   111581147.2021       -851.824          16.000  
G32  20792132.306   109263426.116        -668.090          27.000  
J02  38959240.179   204732127.675       -1142.455          22.000  
R14  22652569.353   120750941.905       -3631.117          29.000  
> 2021  9 30 11 25 35.9999176  0 14
C06  36540531.416   190276098.908         194.247          27.000  
C07  36602806.704   190600346.377         505.590          22.000  
C16  36919263.726   192248342.826         242.850          30.000  
C19  22146011.235   115320183.2581      -2346.238          28.000  
C22  22352301.124   116394263.874         685.283          24.000  
C30  25729753.063   133981553.5351       1269.946          24.000  
C36  22585703.043   117609702.633       -1456.819          26.000  
G25  23748619.573   124799838.754       -3848.795          18.000  
G26  20449162.539   107461046.793        1118.853          31.000    20449166.137    80246892.357         834.668          28.000  
G29  23739847.346   124753904.755         241.080          24.000  
G32  20792199.160   109263778.894        -667.752          30.000  
J01  36525462.948   191942693.3861        476.989          24.000  
J02  38959397.870   204732955.903       -1144.507          27.000  
R14  22653187.824   120754239.266       -3631.078          30.000  
> 2021  9 30 11 25 36.9999173  0 13
C01  37486104.410   195199831.1881       -328.734          29.000  
C06  36540404.005   190275435.688         195.425          27.000  
C16  36919126.720   192247632.179         241.439          27.000  
C22  22352079.278   116393110.833         685.502          23.000  
C30  25729419.094   133979816.675        1266.423          22.000  
C36  22585895.510   117610691.368       -1458.479          24.000  
G25  23749255.433   124803214.363       -3847.612          18.000  
G26  20448858.850   107459455.507        1118.020          30.000    20448863.047    80245704.581         834.980          27.000  
G29  23739715.737   124753191.339         240.385          24.000  
G32  20792235.735   109263974.039        -668.039          31.000  
J01  36525283.073   191941744.270         476.080          25.000  
J02  38959526.181   204733627.242       -1144.292          27.000  
R14  22653774.518   120757366.714       -3631.799          28.000  
> 2021  9 30 11 25 37.9999173  0 11
C06  36540364.432   190275240.146         194.966          26.000  
C07  36602516.205   190598869.3781        504.356          22.000  
C16  36919079.353   192247391.671         240.125          24.000  
C36  22586176.116   117612149.938       -1459.438          27.000  
G25  23749962.343   124807061.847       -3848.444          18.000  
G26  20448646.896   107458337.630        1117.426          29.000    20448648.995    80244868.854         835.709          27.000  
G29  23739675.265   124752951.584         239.149          23.000  
J01  36525191.636   191941267.683         475.669          24.000  
J02  38959744.130   204734771.177       -1144.127          25.000  
R04  19574229.943   104819112.5621      -1865.459          25.000  
R14  22654454.148   120760989.516       -3631.720          31.000  
> 2021  9 30 11 25 38.9999171  0 11
C06  36540267.299   190274732.663         195.797          26.000  
C07  36602359.414   190598053.396         504.104          24.000  
C16  36918973.227   192246839.457         240.347          24.000  
C19  22147222.697   115326445.1871      -2348.855          31.000  
C30  25728871.373   133976971.5101       1266.217          24.000  
C36  22586397.662   117613296.603       -1459.038          27.000  
G25  23750614.692   124810322.879       -3851.200          17.000  
G26  20448375.584   107456905.394        1116.682          31.000    20448376.184    80243797.289         836.239          24.000  
G29  23739580.830   124752397.214         239.207          26.000  
G31  21233604.282   111583451.2321       -851.661          23.000  
J01  36525042.639   191940477.797         474.968          26.000  
> 2021  9 30 11 25 39.9999168  0 11
C06  36540138.988   190274069.360         194.662          28.000  
C16  36918836.521   192246130.144         241.146          28.000  
C19  22147585.446   115328325.792       -2349.226          29.000  
C22  22351535.154   116390277.5721        682.454          20.000  
C36  22586588.030   117614287.179       -1458.851          31.000  
G25  23751257.147   124813700.820       -3850.203          16.000  
G26  20448070.995   107455316.280        1116.123          30.000    20448073.693    80242609.988         832.298          27.000  
G29  23739454.018   124751685.502         238.997          28.000  
G32  20792471.372   109265194.5911       -670.940          32.000  
J01  36524863.363   191939529.121         476.560          27.000  
R14  22655669.207   120767465.7911      -3631.829          31.000  
> 2021  9 30 11 25 40.9999165  0 14
C06  36540010.977   190273407.155         193.665          30.000  
C07  36601984.673   190596109.8031        502.949          28.000  
C16  36918700.715   192245420.352         241.945          30.000  
C19  22147948.195   115330206.397       -2348.488          30.000  
C22  22351312.109   116389128.323         680.234          19.000  
C30  25728200.138   133973503.6521       1266.225          21.000  
C36  22586778.099   117615278.051       -1459.908          34.000  
G10  23131312.126   121555866.5481      -3853.191          26.000  
G25  23751910.095   124817078.196       -3849.678          18.000  
G26                                                                  20447770.603    80241424.470         832.534          32.000  
G29  23739332.902   124750974.255         238.721          28.000  
G32  20792513.642   109265392.683        -670.654          29.000  
J01  36524683.788   191938578.459         478.993          23.000  
R14  22656260.397   120770617.433       -3633.414          33.000  
> 2021  9 30 11 25 41.9999163  0  8
C06  36539914.144   190272899.393         195.950          26.000  
C07  36601826.383   190595295.434         502.355          27.000  
C16  36918593.390   192244865.452         242.468          28.000  
C22  22351121.441   116388135.890         680.057          23.000  
C30  25727895.249   133971924.611        1267.133          22.000  
C36  22586997.547   117616424.814       -1458.895          34.000  
G26  20447491.196   107452297.1851       1115.276          30.000    20447497.192    80240355.771         834.474          32.000  
J01  36524535.990   191937784.780         478.452          24.000  
> 2021  9 30 11 25 42.9999160  0 12
C06  36539787.032   190272234.908         195.736          29.000  
C07  36601640.212   190594323.989         503.620          20.000  
C16  36918456.984   192244154.923         242.051          31.000  
C19  22148701.273   115334124.0341      -2350.211          26.000  
C22  22350899.594   116386985.409         683.498          20.000  
C36  22587186.116   117617414.269       -1457.866          36.000  
G25  23753251.666   124823988.4111      -3848.491          18.000  
G26  20447187.806   107450709.286        1115.449          27.000    20447194.102    80239167.854         835.022          30.000  
G29  23739098.464   124749709.0651        238.629          23.000  
G32  20792617.970   109265945.2101       -669.484          35.000  
J01  36524360.911   191936833.875         477.133          26.000  
J02  38960435.752   204738443.1751      -1142.742          30.000  
> 2021  9 30 11 25 43.9999158  0 12
C04  38370356.655   199804563.0431       -320.376          27.000  
C06  36539687.501   190271726.633         195.566          31.000  
C16  36918350.858   192243600.090         242.211          29.000  
C19  22149092.802   115336162.133       -2350.265          26.000  
C22  22350708.327   116385990.368         681.303          24.000  
C36  22587405.565   117618560.155       -1459.413          36.000  
G25  23753932.195   124827519.328       -3842.804          16.000  
G26  20446916.194   107449278.363        1115.028          24.000    20446921.291    80238098.843         833.655          27.000  
G29  23738993.837   124749155.445         238.588          24.000  
G32  20792683.924   109266300.538        -670.674          33.000  
J01  36524210.715   191936042.689         476.044          28.000  
R14  22658104.121   120780445.7741      -3632.657          23.000  
> 2021  9 30 11 25 44.9999158  0 16
C01  37486155.974   195200110.1891       -330.834          28.000  
C06  36539649.427   190271531.072         195.604          31.000  
C07  36601382.090   190593007.8081        502.322          15.000  
C16  36918304.390   192243357.283         242.618          32.000  
C19  22149543.690   115338511.940       -2349.713          25.000  
C22  22350574.619   116385309.484         681.755          29.000  
C30  25727005.165   133967343.5021       1269.281          21.000  
C36  22587685.571                       -1459.907          40.000  
G25  23754676.580   124831668.019       -3848.229          16.000  
G26  20446700.044   107448164.053        1113.612          27.000    20446708.438    80237266.087         831.802          28.000  
G31  21234201.168   111586516.2621       -854.198          17.000  
G32  20792807.439   109266971.291        -672.857          34.000  
J01  36524122.576   191935566.584         476.494          25.000  
J02  38960806.595   204740413.8561      -1143.508          33.000  
R04  19576251.743   104829939.2311      -1872.789          26.000  
R14  22658786.748   120784084.646       -3631.540          23.000  
> 2021  9 30 11 25 45.9999155  0 15
C01  37486129.592   195199973.323        -332.211          32.000  
C04  38370383.936   199804715.5581       -308.370          34.000  
C06  36539522.315   190270866.980         194.746          36.000  
C16  36918167.984   192242646.344         241.930          35.000  
C22  22350349.475   116384160.142         680.217          23.000  
C36  22587873.840   117620997.4011      -1460.935          43.000  
G25  23755331.027   124835043.861       -3850.204          17.000  
G26  20446398.753   107446577.842        1112.970          30.000    20446405.348    80236081.790         829.502          33.000  
G29  23738816.659   124748207.8381        236.735          27.000  
G31  21234277.915   111586899.126        -856.037          18.000  
G32  20792847.611   109267169.148        -670.548          32.000  
J01  36523937.304   191934618.600         475.063          23.000  
J02  38960934.606   204741084.631       -1142.467          35.000  
R04  19576515.560   104831352.616       -1871.221          30.000  
R14  22659379.138   120787241.881       -3631.884          26.000  
> 2021  9 30 11 25 46.9999153  0 12
C01  37486132.890   195199993.338        -332.580          37.000  
C04  38370381.538   199804711.587        -308.028          30.000  
C06  36539425.782   190270359.598         195.041          29.000  
C16  36918062.457   192242092.243         242.272          29.000  
C22  22350162.405   116383168.930         677.818          26.000  
C36  22588092.389   117622144.756       -1459.912          36.000  
G25  23756025.945   124838578.823       -3849.892          18.000  
G26  20446126.541   107445149.572        1113.268          28.000    20446133.736    80235017.936         829.115          26.000  
J01  36523787.108   191933828.175         476.018          31.000  
J02  38961094.695   204741912.634       -1144.096          33.000  
R04  19576810.556   104832932.245       -1873.990          26.000  
R14  22660001.507   120790559.620       -3633.081          25.000  
> 2021  9 30 11 25 47.9999150  0 13
C01  37486106.808   195199857.773        -332.884          31.000  
C06  36539298.970   190269695.181         197.149          28.000  
C16  36917927.551   192241381.369         242.339          28.000  
C19  22150667.012   115344317.7901      -2352.212          25.000  
C22  22349945.055   116382022.788         677.387          25.000  
C30  25726038.034   133962295.6461       1263.403          21.000  
G25  23756694.782   124842274.292       -3853.568          17.000  
G26  20445825.849   107443566.158        1110.558          28.000    20445832.145    80233835.075         832.034          19.000  
G29  23738572.029   124746948.9371        234.433          23.000  
G32  20792956.436                        -673.783          33.000  
J01  36523606.933   191932879.487         476.410          25.000  
J02  38961222.707   204742586.372       -1144.354          31.000  
R04  19577065.380   104834296.751       -1874.362          23.000  
> 2021  9 30 11 25 48.9999150  0 14
C06  36539259.397   190269499.349         195.483          22.000  
C07  36600761.220   190589747.4801        502.503          24.000  
C16  36917881.682   192241138.520         243.266          27.000  
C22  22349818.243   116381345.487         677.349          27.000  
C36  22588560.665   117624593.3391      -1459.090          25.000  
G10  23136725.178   121584325.5641      -3851.783          22.000  
G25  23757442.465   124846126.679       -3851.916          18.000  
G26  20445613.596   107442455.179        1111.212          37.000    20445620.491    80233003.109         831.759          23.000  
G29  23738526.160   124746714.965         234.124          22.000  
G31  21234627.174   111588677.1451       -856.480          20.000  
G32  20793085.946   109268397.6711       -672.621          33.000  
J02  38961437.358   204743730.118       -1143.453          29.000  
R04  19577416.736   104836178.204       -1876.689          28.000  
R14  22661271.128   120797327.3571      -3632.706          22.000  
> 2021  9 30 11 25 49.9999148  0 15
C01  37486176.060   195200212.0441       -333.692          30.000  
C06  36539164.063   190268991.726         194.709          18.000  
C07  36600605.928   190588933.214         500.638          30.000  
C16  36917777.954   192240582.885         244.209          23.000  
C19  22151512.727   115348711.1121      -2353.695          26.000  
C22  22349629.074   116380356.309         676.633          27.000  
C36  22588780.113   117625740.878       -1461.879          24.000  
G10  23137398.812   121587862.252       -3852.715          19.000  
G25  23758144.579   124849662.957       -3851.592          19.000  
G26  20445343.783   107441029.042        1110.153          37.000    20445348.879    80231937.515         829.218          30.000  
G29  23738422.432   124746166.872         232.172          22.000  
G32  20793150.102   109268755.628        -675.647          39.000  
J01  36523372.495   191931613.2701        474.729          28.000  
R04  19577700.940   104837700.313       -1876.211          26.000  
R14  22661891.999   120800637.275       -3632.584          25.000  
> 2021  9 30 11 25 50.9999145  0 14
C01  37486149.379   195200077.056        -332.951          33.000  
C06  36539034.853   190268328.751         194.442          24.000  
C07  36600419.457   190587964.552         500.279          25.000  
C16  36917642.448   192239871.140         242.758          25.000  
C19  22151873.077   115350595.918       -2352.961          30.000  
C22  22349409.925   116379211.156         676.050          30.000  
C30  25725147.951   133957718.8551       1265.682          22.000  
G10  23138037.370   121591243.282       -3853.799          20.000  
G25  23758819.711   124853440.971       -3851.656          24.000  
G26  20445041.292   107439446.760        1110.019          40.000    20445047.288    80230755.846         828.798          33.000  
G29  23738287.226   124745462.342         232.535          21.000  
G32  20793187.876                        -674.158          39.000  
J01  36523192.320   191930665.828         474.922          27.000  
R04  19577957.862   104839075.609       -1877.603          28.000  
> 2021  9 30 11 25 51.9999145  0 11
C01  37486208.138   195200409.358        -331.903          33.000  
C06  36538999.777   190268134.341         194.383          28.000  
C07  36600321.125   190587464.901         498.898          26.000  
C16  36917595.680   192239628.968         241.367          25.000  
C22  22349278.616   116378535.331         674.951          31.000  
G10  23138769.463   121595095.815       -3852.963          19.000  
G25  23759586.281   124857292.951       -3852.456          29.000  
G26  20444827.241   107438337.290        1108.435          36.000    20444836.534    80229927.656         828.353          31.000  
G29  23738241.357   124745228.600         234.086          27.000  
J02  38961941.010   204746371.8001      -1144.297          32.000  
R04  19578301.424   104840915.592       -1878.636          29.000  
