     3.03           OBSERVATION DATA    M: Mixed            RINEX VERSION / TYPE
Geo++ RINEX Logger  Geo++               20210930 115942 UTC PGM / RUN BY / DATE
************************************************************COMMENT
This file was generated by the Geo++ RINEX Logger App       COMMENT
for Android devices (Version 2.1.6). If you encounter       COMMENT
any issues, please send an email to android@geopp.de        COMMENT
Filtering Mode: BEST                                        COMMENT
************************************************************COMMENT
Geo++                                                       MARKER NAME
GEODETIC                                                    MARKER TYPE
Geo++               Geo++                                   OBSERVER / AGENCY
unknown             HUAWEI              ELS-AN00            REC # / TYPE / VERS
unknown             ELS-AN00                                ANT # / TYPE
 -2411101.8936  5386050.7747  2412209.9482                  APPROX POSITION XYZ
        0.0000        0.0000        0.0000                  ANTENNA: DELTA H/E/N
G    8 C1C L1C D1C S1C C5Q L5Q D5Q S5Q                      SYS / # / OBS TYPES
R    4 C1C L1C D1C S1C                                      SYS / # / OBS TYPES
E   12 C1B L1B D1B S1B C1C L1C D1C S1C C5Q L5Q D5Q S5Q      SYS / # / OBS TYPES
C    4 C2I L2I D2I S2I                                      SYS / # / OBS TYPES
J    8 C1C L1C D1C S1C C5Q L5Q D5Q S5Q                      SYS / # / OBS TYPES
  2021     9    30    12     0    0.9994214     GPS         TIME OF FIRST OBS
 24 R01  1 R02 -4 R03  5 R04  6 R05  1 R06 -4 R07  5 R08  6 GLONASS SLOT / FRQ #
    R09 -2 R10 -5 R11  0 R12 -1 R13 -2 R14 -7 R15  0 R16 -1 GLONASS SLOT / FRQ #
    R17  4 R18 -3 R19  3 R20  2 R21  4 R22 -3 R23  3 R24  2 GLONASS SLOT / FRQ #
G L1C                                                       SYS / PHASE SHIFT
G L5Q -0.25000                                              SYS / PHASE SHIFT
R L1C                                                       SYS / PHASE SHIFT
E L1B                                                       SYS / PHASE SHIFT
E L1C +0.50000                                              SYS / PHASE SHIFT
E L5Q -0.25000                                              SYS / PHASE SHIFT
C L2I                                                       SYS / PHASE SHIFT
J L1C                                                       SYS / PHASE SHIFT
J L5Q -0.25000                                              SYS / PHASE SHIFT
 C1C    0.000 C1P    0.000 C2C    0.000 C2P    0.000        GLONASS COD/PHS/BIS
                                                            END OF HEADER
> 2021  9 30 12  0  0.9994214  0 12
C06  36319104.407   189123114.213         209.347          25.000  
C07  36329580.055   189177652.004         169.672          33.000  
C10  37074024.087   193054121.477         245.565          30.000  
E08                                                                                                                                  22070921.019    86611028.065       -1041.415          28.000  
G16  21871220.569   114934086.883        2398.096          29.000  
G22  23017307.949   120956781.785          58.948          24.000  
G26  20116301.174   105711969.326        -130.909          22.000  
G32  21111155.851   110939867.232       -1683.125          37.000    21111158.549    82844718.463       -1255.269          32.000  
J01  36252086.703   190505939.648         202.000          27.000    36252084.604   142260978.899         147.628          28.000  
J02  39266822.145   206348569.604       -1120.891          28.000    39266832.338   154091515.3941       -838.001          23.000  
R04  20461864.446   109572355.651       -3408.923          36.000  
R05  19238293.906   102839706.731         490.412          31.000  
> 2021  9 30 12  0  1.9994212  0 14
C06  36319004.277   189122593.255         208.052          24.000  
C07  36329486.520   189177169.761         168.384          33.000  
C10  37073915.862   193053563.837         245.423          28.000  
C16  36681609.250   191010857.4251        240.754          23.000  
C19  23103939.875   120308367.5801      -3137.332          21.000  
E08                                                                                                                                  22071126.677    86611835.159       -1042.513          27.000  
G16  21870704.027   114931373.268        2398.477          29.000  
G26  20116266.698   105711784.426        -130.090          22.000  
G29  23724656.862   124673811.9091       -903.802          23.000  
G32  21111413.073   110941235.257       -1683.714          38.000    21111418.469    82845739.991       -1257.280          33.000  
J01  36251988.670   190505423.530         200.068          28.000    36251987.172   142260595.533         148.151          30.000  
J02  39266977.737   206349375.568       -1121.603          28.000    39266985.831   154092117.352        -834.975          24.000  
R04  20462440.947   109575442.534       -3409.397          36.000  
R05  19238139.213   102838880.116         489.654          31.000  
> 2021  9 30 12  0  2.9994209  0 14
C06  36318874.766   189121916.840         207.760          24.000  
C07  36329363.305   189176531.858         169.518          33.000  
C10  37073779.157   193052849.604         245.757          30.000  
C16  36681473.444   191010147.167         241.511          21.000  
C19  23104452.221   120311037.574       -3139.152          22.000  
E08                                                                                                                                  22071302.056    86612525.357       -1042.997          28.000  
G16  21870158.404   114928501.874        2398.941          27.000  
G22  23017146.361   120955872.6571         63.342          16.000  
G26  20116201.044   105711441.366        -129.724          24.000  
G32  21111640.615   110942446.490       -1684.166          38.000    21111648.410    82846644.416       -1254.858          32.000  
J01  36251860.060   190504751.405         199.089          30.000    36251859.160   142260094.570         146.884          29.000  
J02  39267101.251   206350024.439       -1121.241          29.000    39267109.346   154092599.510        -835.707          26.000  
R04  20462985.370   109578358.466       -3410.124          36.000  
R05  19237958.738   102837915.053         488.687          30.000  
> 2021  9 30 12  0  3.9994207  0 15
C03  36484750.833   189985606.0171       -400.884          30.000  
C06  36318775.535   189121396.163         208.317          24.000  
C07  36329269.470   189176050.270         169.241          34.000  
C09  37180692.342   193609622.6881        295.905          24.000  
C10  37073671.831   193052291.529         245.629          31.000  
C19  23104993.946   120313863.826       -3138.294          23.000  
E08                                                                                                                                  22071508.013    86613332.684       -1043.080          29.000  
G16  21869643.661   114925787.590        2399.072          28.000  
G26  20116165.968   105711255.414        -130.487          26.000  
G31  21477088.221   112862778.5901      -1074.211          23.000  
G32  21111901.135   110943815.730       -1684.130          37.000    21111908.930    82847666.973       -1257.856          31.000  
J01  36251761.728   190504237.993         198.143          33.000    36251761.428   142259712.113         147.296          29.000  
J02  39267254.745   206350830.505       -1120.230          29.000    39267262.540   154093199.008        -835.034          26.000  
R04  20463562.470   109581448.692       -3410.857          36.000  
R05  19237808.842   102837114.084         488.047          30.000  
> 2021  9 30 12  0  4.9994204  0 14
C06  36318644.526   189120719.572         207.986          20.000  
C07  36329148.354   189175413.060         168.570          35.000  
C09  37180547.243   193608857.803         297.813          25.000  
C10  37073535.425   193051578.048         244.699          30.000  
C16  36681230.612   191008883.7681        241.509          21.000  
E08                                                                                                                                  22071684.591    86614022.621       -1043.003          28.000  
G16  21869097.739   114922916.740        2396.015          29.000  
G22  23016968.284   120954964.2581         58.249          27.000  
G29  23724929.073   124675264.1801       -907.115          21.000  
G32  21112131.376   110945028.094       -1685.658          37.000    21112138.870    82848572.219       -1258.498          31.000  
J01  36251634.016   190503567.303         197.825          33.000    36251634.016   142259210.866         148.369          30.000  
J02  39267378.859   206351478.041       -1120.052          27.000    39267385.755   154093681.510        -837.378          24.000  
R04  20464106.894   109584364.152       -3411.544          36.000  
R05  19237631.665   102836166.794         487.066          30.000  
> 2021  9 30 12  0  5.9994202  0 16
C06  36318545.594   189120200.275         205.922          18.000  
C07  36329057.817   189174932.288         168.785          34.000  
C09  37180431.223   193608247.634         298.288          24.000  
C10  37073428.400   193051021.360         244.552          33.000  
C16  36681123.587   191008329.847         241.245          26.000  
C19  23106051.913   120319358.6201      -3136.080          23.000  
E08                                                                                                                                  22071891.148    86614830.102       -1043.471          31.000  
G22  23016894.835   120954592.283          55.759          27.000  
G26  20116072.133   105710732.4111       -134.189          27.000  
G29  23725039.997   124675855.889        -905.645          27.000  
G31  21477349.640   112864137.6981      -1073.386          16.000  
G32  21112395.193   110946399.125       -1687.560          39.000    21112399.690    82849596.091       -1259.364          31.000  
J01  36251536.284   190503054.359         197.271          31.000    36251536.284   142258827.752         147.739          28.000  
J02  39267531.454   206352281.653       -1118.437          25.000    39267537.749   154094284.547        -837.677          27.000  
R04  20464684.294   109587455.961       -3412.671          29.000  
R05  19237478.771   102835349.877         485.941          32.000  
> 2021  9 30 12  0  6.9994199  0 14
C06  36318415.184   189119525.039         206.068          21.000  
C07  36328934.302   189174295.669         166.920          33.000  
C09  37180284.625   193607481.917         297.655          21.000  
C10  37073291.095   193050308.371         244.332          34.000  
C16  36680988.680   191007619.701         240.480          24.000  
E08                                                                                                                                  22072067.426    86615521.262       -1044.429          30.000  
G16  21868040.371   114917339.1211       2395.056          23.000  
G22  23016791.107   120954064.147          55.220          26.000  
G26  20116011.275   105710394.972        -136.497          26.000  
G32  21112622.436   110947613.382       -1686.309          37.000    21112632.029    82850502.908       -1259.346          31.000  
J01                                                                  36251408.272   142258326.842         149.209          27.000  
J02  39267653.769   206352928.329       -1120.106          28.000  
R04  20465238.910   109590425.169       -3413.362          26.000  
R05  19237301.293   102834400.623         485.093          34.000  
> 2021  9 30 12  0  7.9994196  0 16
C06  36318282.376   189118849.867         207.490          26.000  
C07  36328813.786   189173659.377         167.033          32.000  
C09  37180137.426   193606715.988         298.219          26.000  
C10  37073153.790   193049596.203         243.516          27.000  
C16  36680852.574   191006911.087         239.974          26.000  
C19  23107079.602   120324698.8311      -3140.918          13.000  
E08                                                                                                                                  22072243.704    86616212.892       -1045.051          32.000  
G16  21867494.149   114914471.263        2394.817          33.000  
G22  23016690.976   120953536.849          51.730          24.000  
G26  20115950.717   105710058.369        -136.615          25.000  
G29  23725202.484   124676720.3091       -904.763          25.000  
G32  21112857.173   110948828.697       -1687.824          35.000    21112863.469    82851410.360       -1261.262          34.000  
J01  36251282.359   190501715.5721        195.046          34.000    36251280.261   142257824.798         147.381          26.000  
J02  39267777.883   206353576.357       -1121.027          33.000  
R04  20465790.528   109593379.325       -3414.947          30.000  
R05  19237122.617   102833445.303         484.237          33.000  
> 2021  9 30 12  0  8.9994194  0 13
C03  36484736.742   189985539.5701       -394.105          32.000  
C06  36318183.745   189118329.323         208.474          24.000  
C07  36328722.649   189173179.964         168.555          31.000  
C09  37180020.807   193606106.628         295.901          28.000  
C10  37073046.164   193049040.504         243.716          27.000  
E08                                                                                                                                  22072450.261    86617023.991       -1045.444          29.000  
G16  21866978.206   114911760.882        2395.112          29.000  
G29  23725313.707   124677310.622        -906.355          25.000  
G32  21113120.091   110950201.865       -1687.816          31.000    21113123.689    82852435.784       -1262.696          30.000  
J01                                                                  36251183.428   142257442.064         148.179          30.000  
J02  39267930.777   206354383.530       -1123.253          26.000  
R04  20466368.828   109596476.409       -3415.854          31.000  
R05  19236973.920   102832651.245         482.694          33.000  
> 2021  9 30 12  0  9.9994191  0 13
C03  36484724.151   189985466.062        -395.983          32.000  
C06  36318054.534   189117652.785         207.310          27.000  
C07  36328602.732   189172544.823         168.638          31.000  
C09  37179873.909   193605342.122         296.199          29.000  
C10  37072910.658   193048328.976         241.323          26.000  
E08                                                                                                                                  22072626.239    86617717.527       -1046.460          27.000  
G16  21866433.183   114908893.666        2393.243          29.000  
G26  20115862.578   105709544.8091       -137.079          11.000  
G32  21113359.925   110951418.206       -1688.712          29.000    21113354.529    82853344.272       -1262.599          28.000  
J01  36251054.517   190500535.7001        197.328          32.000    36251056.916   142256942.343         146.206          29.000  
J02  39268056.690   206355034.160       -1123.780          25.000  
R04  20466917.748   109599415.837       -3416.644          33.000  
R05  19236793.745   102831687.402         481.114          33.000  
> 2021  9 30 12  0 10.9994189  0 14
C03  36484741.239   189985550.265        -397.426          32.000  
C06  36317955.603   189117132.637         208.029          29.000  
C07  36328506.798   189172065.363         164.025          30.000  
C09  37179756.390   193604734.819         294.875          30.000  
C10  37072804.232   193047775.315         241.105          26.000  
E08                                                                                                                                  22072832.796    86618528.235       -1045.641          26.000  
G16  21865918.739   114906185.266        2393.974          29.000  
G26  20115826.003   105709367.195        -137.993          16.000  
G29  23725513.669   124678341.2081       -906.869          25.000  
G32  21113619.845   110952791.280       -1688.028          31.000    21113616.847    82854369.933       -1260.197          28.000  
J01  36250956.185   190500023.239         196.925          27.000    36250960.083   142256560.409         146.928          30.000  
J02  39268211.983   206355843.020       -1123.987          27.000  
R04  20467495.748   109602511.365       -3416.840          34.000  
R05  19236643.249   102830883.093         480.334          34.000  
> 2021  9 30 12  0 11.9994186  0 14
C06  36317825.193   189116457.417         204.809          25.000  
C07  36328383.883   189171430.260         166.921          30.000  
C09  37179607.094   193603971.562         295.847          27.000  
C10  37072669.025   193047064.604         243.555          24.000  
E08                                                                                                                                  22073009.973    86619221.465       -1045.625          29.000  
G16  21865373.717   114903318.253        2394.044          28.000  
G22  23016345.016   120951762.5631         49.184          21.000  
G29  23725597.311   124678776.288        -909.578          22.000  
G31  21478103.318   112868082.6711      -1081.203          16.000  
G32                                                                  21113848.587    82855278.549       -1261.362          32.000  
J01  36250829.373   190499353.820         196.578          30.000    36250832.071   142256060.056         146.880          29.000  
J02  39268337.296   206356494.335       -1123.617          30.000  
R04  20468041.969   109605435.682       -3417.576          32.000  
R05  19236463.673   102829923.362         479.558          32.000  
> 2021  9 30 12  0 12.9994186  0 15
C06  36317786.819   189116253.410         203.892          21.000  
C07  36328349.107   189171263.823         165.712          34.000  
C09  37179550.733   193603674.310         299.195          24.000  
C10  37072622.857   193046821.424         242.426          28.000  
C19  23109798.419   120338848.5341      -3141.901          19.000  
E08                                                                                                                                  22073276.489    86620267.335       -1046.215          29.000  
G16  21864918.632   114900924.002        2393.710          28.000  
G22  23016333.624   120951713.043          50.492          25.000  
G26  20115781.634   105709172.7311       -139.988          28.000  
G29  23725770.591   124679686.365        -910.542          23.000  
G32  21114167.566   110955696.8031      -1692.399          38.000    21114170.564    82856541.212       -1263.035          31.000  
J01  36250791.899   190499157.874         195.231          28.000    36250795.496   142255913.900         145.411          28.000  
J02  39268554.645   206357617.473       -1123.295          27.000  
R04  20468679.628   109608850.325       -3418.354          29.000  
R05  19236369.538   102829420.225         478.571          32.000  
> 2021  9 30 12  0 13.9994184  0 15
C03  36484824.881   189985975.2641       -406.455          32.000  
C06  36317688.487   189115736.840         204.690          26.000  
C07  36328261.568   189170785.236         166.764          32.000  
C09  37179435.313   193603063.400         297.666          23.000  
C10  37072517.031   193046266.468         242.700          27.000  
C19  23110340.744   120341677.655       -3141.282          19.000  
E08                                                                                                                                  22073483.345    86621078.691       -1047.125          30.000  
G16  21864402.689   114898216.592        2391.732          28.000  
G26  20115746.558   105708997.458        -140.391          25.000  
G29  23725882.413   124680282.258        -911.479          22.000  
G32                                                                  21114431.983    82857568.942       -1263.492          31.000  
J01  36250694.167   190498647.939         195.325          30.000    36250698.364   142255533.101         144.909          29.000  
J02  39268712.636   206358425.617       -1123.409          29.000  
R04  20469255.229   109611932.918       -3419.112          25.000  
R05  19236219.043   102828615.425         477.929          34.000  
> 2021  9 30 12  0 14.9994181  0 15
C03  36484813.789   189985911.974        -404.528          34.000  
C06  36317559.577   189115062.873         206.056          30.000  
C07  36328141.951   189170150.768         166.313          31.000  
C09  37179289.014   193602298.092         295.991          29.000  
C10  37072380.625   193045555.490         242.830          28.000  
E08                                                                                                                                  22073659.324    86621772.030       -1047.632          24.000  
G16  21863858.865   114895351.840        2391.178          26.000  
G26  20115682.103   105708666.435        -141.589          18.000  
G29  23725969.353   124680721.559        -912.704          26.000  
G31  21478570.995   112870541.7121      -1079.507          17.000  
G32  21114659.825   110958293.0071      -1691.594          33.000    21114663.123    82858478.815       -1261.650          27.000  
J01  36250566.755   190497980.327         193.509          26.000    36250571.851   142255035.266         145.297          30.000  
J02  39268837.949   206359074.377       -1121.700          21.000  
R04  20469803.550   109614868.632       -3419.907          35.000  
R05  19236034.670   102827630.212         477.061          34.000  
> 2021  9 30 12  0 15.9994179  0 15
C03  36484831.777   189986003.954        -404.229          32.000  
C06  36317459.746   189114544.479         206.010          26.000  
C07  36328047.516   189169672.500         165.443          31.000  
C09  37179173.294   193601689.866         295.773          29.000  
C10  37072273.299   193045001.564         241.028          27.000  
C16  36679969.685   191002335.7151        239.207          28.000  
E08                                                                                                                                  22073867.080    86622585.099       -1046.245          24.000  
G16  21863344.122   114892644.262        2392.740          22.000  
G22  23016096.488   120950458.2731         47.667          14.000  
G29  23726082.975   124681320.202        -913.974          21.000  
G32  21114923.942   110959668.523       -1690.770          35.000    21114924.842    82859506.411       -1262.241          26.000  
J01  36250468.423   190497471.137         194.713          28.000    36250474.419   142254653.488         147.235          31.000  
J02  39268989.045   206359881.503       -1122.435          24.000  
R04  20470383.348   109617973.381       -3420.144          33.000  
R05  19235886.873   102826840.311         475.937          32.000  
> 2021  9 30 12  0 16.9994176  0 14
C03  36484819.785   189985939.441        -403.546          30.000  
C06  36317330.535   189113868.390         209.971          18.000  
C07  36327926.700   189169038.712         166.244          35.000  
C10  37072136.594   193044291.969         240.668          24.000  
E08                                                                                                                                  22074043.957    86623278.936       -1047.456          27.000  
G16  21862799.999   114889779.783        2391.280          30.000  
G22  23015997.856   120949937.211          49.297          26.000  
G26  20115581.673   105708160.7101       -142.677          24.000  
G29  23726164.518   124681761.187        -914.202          23.000  
G32  21115153.583   110960886.970       -1691.948          35.000    21115156.281    82860416.009       -1261.876          30.000  
J01  36250341.611   190496803.361         194.977          29.000    36250347.307   142254153.191         147.305          28.000  
J02  39269111.660   206360531.034       -1121.620          28.000  
R04  20470931.969   109620912.142       -3421.252          30.000  
R05  19235706.697   102825877.301         474.602          32.000  
> 2021  9 30 12  0 17.9994173  0 14
C01  37488835.819   195214290.0621       -392.699          28.000  
C03  36484807.194   189985874.127        -402.865          34.000  
C06  36317199.526   189113188.783         212.031          19.000  
C07  36327801.686   189168405.624         163.463          35.000  
C10  37072000.488   193043583.176         238.909          29.000  
C16  36679698.073   191000919.1321        240.289          24.000  
E08                                                                                                                                  22074220.835    86623973.832       -1047.408          27.000  
G16  21862255.575   114886916.266        2390.278          29.000  
G29  23726246.062   124682202.980        -912.998          28.000  
G32  21115384.424   110962107.171       -1693.999          38.000    21115388.920    82861326.469       -1264.579          25.000  
J01  36250214.798   190496135.797         194.808          32.000    36250220.794   142253654.106         146.102          27.000  
J02  39269234.575   206361179.693       -1120.963          30.000  
R04  20471480.889   109623851.003       -3422.230          30.000  
R05  19235526.522   102824914.106         474.443          30.000  
> 2021  9 30 12  0 18.9994171  0 13
C03  36484824.282   189985963.868        -400.795          29.000  
C07  36327712.948   189167928.401         166.817          31.000  
C10  37071894.062   193043031.953         240.028          28.000  
C16  36679592.247   191000367.155         238.534          26.000  
E08                                                                                                                                  22074427.692    86624785.669       -1047.603          28.000  
G16  21861739.333   114884211.588        2388.547          27.000  
G22  23015831.471   120949052.8611         46.958          25.000  
G26  20115482.141   105707659.7721       -143.110          21.000  
G32  21115644.943   110963486.037       -1694.223          31.000    21115652.438    82862354.240       -1265.119          28.000  
J01  36250117.966   190495626.061         194.567          38.000    36250123.362   142253274.127         143.351          27.000  
J02  39269387.169   206361985.452       -1121.744          34.000  
R04  20472059.488   109626948.993       -3427.999          31.000  
R05  19235376.326   102824110.568         473.417          29.000  
> 2021  9 30 12  0 19.9994168  0 14
C07  36327593.930   189167295.502         163.813          32.000  
C09  37178612.682   193598790.5591        297.091          16.000  
C10  37071758.256   193042322.488         241.353          26.000  
C16  36679453.743   190999660.001         238.764          27.000  
E08                                                                                                                                  22074604.869    86625481.537       -1049.130          28.000  
G16  21861194.910   114881350.172        2389.681          27.000  
G22  23015733.439   120948533.254          46.760          28.000  
G29  23726440.927   124683245.1041       -917.792          18.000  
G31  21479201.158   112873892.1101      -1078.991          19.000  
G32  21115875.184   110964707.910       -1695.039          31.000    21115885.677    82863265.973       -1265.609          27.000  
J01  36249989.654   190494959.282         194.043          39.000    36249996.849   142252777.710         143.359          27.000  
J02  39269510.983   206362634.805       -1122.462          35.000  
R04  20472607.209   109629882.845       -3425.115          35.000  
R05  19235198.549   102823160.380         472.948          29.000  
> 2021  9 30 12  0 20.9994166  0 14
C04  38367559.291   199789950.2891       -376.483          28.000  
C06  36316867.656   189111470.8181        205.119          19.000  
C07  36327499.495   189166817.284         170.026          31.000  
C16  36679349.415   190999109.257         238.210          27.000  
G16  21860678.667   114878645.836        2388.162          28.000  
G22  23015665.986   120948172.244          45.141          27.000  
G26  20115384.109   105707161.6781       -144.627          25.000  
G29  23726556.647   124683849.090        -919.830          20.000  
G31  21479345.359   112874656.054       -1079.289          20.000  
G32  21116136.303   110966088.202       -1696.119          31.000    21116148.595    82864296.900       -1267.116          26.000  
J01  36249895.819   190494451.676         194.672          31.000    36249900.916   142252398.824         143.830          28.000  
J02  39269663.578   206363442.445       -1123.278          32.000  
R04  20473185.808   109632981.321       -3424.910          34.000  
R05  19235050.452   102822368.715         472.392          33.000  
> 2021  9 30 12  0 21.9994163  0 12
C04  38367541.304   199789858.330        -376.717          34.000  
C10  37071515.724   193041063.4051        239.192          20.000  
C16  36679213.609   190998402.852         237.236          25.000  
G16  21860133.944   114875784.788        2387.772          24.000  
G26  20115319.954   105706832.915        -143.809          24.000  
G29  23726641.788   124684296.130        -919.110          23.000  
G31  21479459.580   112875261.679       -1078.511          21.000  
G32  21116376.737   110967313.379       -1699.242          37.000    21116382.133    82865212.012       -1269.431          29.000  
J01  36249770.806   190493785.366         192.734          32.000    36249775.003   142251902.688         142.693          28.000  
J02  39269787.392   206364092.978       -1123.244          34.000  
R04  20473735.328   109635923.095       -3428.038          33.000  
R05  19234870.276   102821405.728         471.506          30.000  
> 2021  9 30 12  0 22.9994161  0 10
C04  38367553.595   199789922.755        -377.104          31.000  
C07  36327287.842   189165706.6081        164.067          20.000  
G16  21859620.699   114873083.203        2384.741          24.000  
G22  23015507.096   120947298.5781         41.613          24.000  
G26  20115286.377   105706662.452        -145.657          21.000  
G29  23726755.709   124684900.498        -920.897          22.000  
G32  21116641.453                       -1697.080          36.000    21116645.650    82866246.584       -1269.915          31.000  
J01  36249674.273   190493278.336         191.144          31.000    36249678.170   142251523.892         141.694          26.000  
R04  20474315.426   109639030.201       -3429.603          35.000  
R05  19234723.078   102820618.710         471.204          33.000  
> 2021  9 30 12  0 23.9994158  0 13
C04  38367535.608   199789831.484        -377.430          33.000  
C06  36316510.003   189109602.4861        207.267          20.000  
C09  37178090.743   193596042.4741        299.578          16.000  
C10  37071275.290   193039803.5681        241.918          20.000  
C16  36678979.171   190997147.8491        240.299          19.000  
G22  23015407.865   120946784.815          39.973          26.000  
G29  23726839.651   124685349.031        -920.803          30.000  
G31  21479717.701   112876630.5271      -1079.761          22.000  
G32  21116874.692   110969927.4771      -1705.513          36.000    21116878.589    82867162.892       -1269.001          28.000  
J01  36249548.360   190492614.963         190.440          32.000    36249552.557   142251029.847         141.404          27.000  
J02  39270061.102   206365550.0401      -1123.942          29.000  
R04  20474862.548   109641960.207       -3429.431          37.000  
R05  19234544.402   102819663.346         469.744          32.000  
> 2021  9 30 12  0 24.9994156  0 12
C04  38367547.600   199789897.483        -379.537          29.000  
C06  36316410.772   189109083.759         204.885          20.000  
C16  36678875.443   190996595.820         240.109          23.000  
G16  21858560.334   114867522.7701       2385.748          25.000  
G22  23015338.313   120946429.671          39.992          27.000  
G26  20115197.938   105706165.5741       -145.552          29.000  
G29  23726956.270   124685955.589        -921.367          24.000  
G32  21117138.509                       -1702.490          36.000    21117141.207    82868196.332       -1269.247          26.000  
J01  36249451.227   190492108.673         192.277          25.000    36249456.024   142250652.189         142.779          25.000  
J02  39270212.498   206366358.893       -1124.421          27.000  
R04  20475446.843   109645088.860       -3429.799          33.000  
R05  19234396.904   102818875.633         467.759          35.000  
> 2021  9 30 12  0 25.9994153  0 10
C01  37488835.519   195214289.2961       -391.883          29.000  
C09  37177827.526   193594665.0401        296.878          18.000  
G16  21858015.910   114864664.921        2385.795          23.000  
G22  23015239.082   120945916.897          39.375          26.000  
G26  20115137.080   105705838.775        -145.725          31.000  
G31  21479978.520   112877998.6471      -1078.329          21.000  
G32  21117372.647                       -1702.321          38.000    21117375.945    82869113.597       -1270.279          29.000  
J01  36249325.614   190491443.726         192.354          23.000    36249329.511   142250155.737         143.858          23.000  
R04  20475996.662   109648032.509       -3430.668          25.000  
R05  19234218.228   102817920.113         466.802          31.000  
> 2021  9 30 12  0 26.9994150  0  9
C04  38367511.325   199789722.3901       -382.145          32.000  
C07  36326846.547   189163346.5651        158.069          13.000  
C16  36678604.730   190995181.7631        238.364          21.000  
G22  23015137.752   120945406.111          36.724          23.000  
G26  20115075.323   105705512.800        -147.461          31.000  
G32  21117605.286   110973770.8811      -1700.698          37.000    21117610.682    82870031.092       -1271.123          26.000  
J01  36249200.301   190490779.077         191.392          22.000    36249204.198   142249658.769         143.493          20.000  
R04  20476543.784   109650963.044       -3432.839          23.000  
R05  19234041.050   102816973.502         466.400          30.000  
> 2021  9 30 12  0 27.9994150  0 10
C06  36316114.877   189107530.9461        204.346          24.000  
C07  36326820.465   189163188.606         157.294          17.000  
C16  36678558.562   190994942.830         239.416          21.000  
G16  21857017.302   114859419.8671       2385.836          20.000  
G26  20115103.803   105705659.687        -146.809          25.000  
G31  21480293.602   112879680.5081      -1079.604          20.000  
G32  21117930.561   110975475.333       -1705.013          35.000    21117934.458    82871302.316       -1271.626          26.000  
J01  36249165.225   190490588.630         189.939          24.000    36249167.923   142249516.415         141.368          19.000  
J02  39270672.379   206368788.7031      -1125.771          27.000  
R05  19233953.811   102816507.066         466.634          30.000  
> 2021  9 30 12  0 28.9994148  0 11
C04  38367598.864   199790176.1021       -383.656          32.000  
C06  36316014.746   189107014.364         203.916          25.000  
C16  36678453.035   190994390.568         239.945          24.000  
G16  21856506.156   114856720.572        2383.367          24.000  
G26  20115072.025   105705490.529        -147.620          24.000  
G29  23727420.648   124688367.2361       -918.320          17.000  
G32  21118193.779   110976863.895       -1700.690          35.000    21118197.976    82872339.279       -1274.327          29.000  
J01                                                                  36249072.289   142249143.697         132.362          18.000  
J02  39270824.974   206369598.803       -1125.860          25.000  
R04  20477778.929   109657576.4391      -3435.752          19.000  
R05  19233805.114   102815711.578         464.603          28.000  
> 2021  9 30 12  0 29.9994143  0 12
C04  38367523.316   199789778.804        -383.276          33.000  
C06  36315824.078   189106030.084         203.007          22.000  
C09  37177303.788   193591919.3341        295.717          19.000  
C16  36678258.170   190993371.145         237.478          27.000  
G22  23014903.314   120944188.2701         38.189          20.000  
G29  23727449.429   124688499.831        -922.117          18.000  
G31  21480492.365   112880740.8741      -1082.801          18.000  
G32  21118366.459   110977777.597       -1702.606          33.000    21118373.055    82873025.256       -1274.846          23.000  
J01  36248888.517   190489110.3751        186.810          19.000    36248888.517   142248422.289         134.352          17.000  
J02  39270889.429   206369936.284       -1124.369          26.000  
R04  20478270.588   109660210.048       -3434.977          19.000  
R05  19233568.278   102814445.702         462.321          24.000  
> 2021  9 30 12  0 30.9994140  0 11
C06  36315694.568   189105358.344         203.510          25.000  
C07  36326430.136   189161158.9651        151.973          18.000  
C16  36678122.664   190992665.799         236.511          27.000  
G16  21855361.248   114850696.2461       2382.700          21.000  
G22  23014803.783   120943677.463          37.018          20.000  
G29  23727537.568   124688949.815        -922.241          24.000  
G32  21118599.098   110979007.873       -1703.808          32.000    21118607.492    82873946.300       -1273.061          25.000  
J01                                                                  36248763.803   142247932.438         140.493          17.000  
J02  39271013.243   206370587.403       -1122.109          24.000  
R04  20478830.301   109663206.643       -3434.514          19.000  
R05  19233392.899   102813508.759         462.001          24.000  
> 2021  9 30 12  0 31.9994138  0 14
C04  38367519.419   199789763.2191       -381.955          29.000  
C06  36315595.037   189104841.636         205.692          24.000  
C09  37177041.170   193590546.4741        296.014          18.000  
C10  37070311.757   193034766.2011        242.703          16.000  
C16  36678016.538   190992116.842         237.087          25.000  
G16  21854847.104   114847998.329        2382.479          22.000  
G26  20114866.068   105704363.0181       -150.760          20.000  
G29  23727656.585   124689558.716        -925.111          24.000  
G31  21480752.285   112882118.6601      -1081.353          18.000  
G32  21118860.217   110980395.417       -1702.637          27.000    21118871.909    82874984.489       -1275.388          21.000  
J01  36248667.270   190487942.5051        195.096          17.000  
J02  39271167.337   206371393.369       -1120.697          27.000  
R04  20479408.001   109666300.081       -3432.355          20.000  
R05  19233244.802   102812716.315         461.872          27.000  
> 2021  9 30 12  0 32.9994135  0 11
C06  36315463.128   189104168.669         204.405          20.000  
C07  36326216.983   189160065.9891        157.695          18.000  
C16  36677880.432   190991410.715         238.148          23.000  
G16  21854303.281   114845143.069        2382.601          25.000  
G26  20114804.611   105704041.691        -151.017          21.000  
G29  23727742.026   124690011.791        -926.035          25.000  
G32  21119092.856   110981625.972       -1704.638          30.000    21119106.647    82875906.878       -1274.783          22.000  
J01  36248539.858   190487273.828         196.408          17.000  
J02  39271291.151   206372042.413       -1122.645          27.000  
R04  20479957.520   109669243.084       -3433.116          20.000  
R05  19233072.121   102811793.890         461.673          32.000  
> 2021  9 30 12  0 33.9994132  0  8
G16  21853759.757   114842287.954        2382.729          23.000  
G22  23014530.372   120942301.0801         37.069          20.000  
G26  20114742.254   105703719.289        -150.137          25.000  
G29  23727831.064   124690467.544        -929.883          23.000  
G32                                                                  21119339.885    82876826.934       -1272.935          27.000  
J02  39271415.565   206372691.522       -1121.187          25.000  
R04  20480515.734   109672231.849       -3434.396          20.000  
R05  19232899.141   102810868.775         460.855          32.000  
> 2021  9 30 12  0 34.9994130  0  9
C10  37069934.618   193032800.4981        239.013          17.000  
G16  21853247.711   114839589.932        2382.140          22.000  
G26  20114710.476   105703555.315        -152.761          24.000  
G29  23727948.883   124691082.259        -930.227          22.000  
G31  21481127.625   112884104.1371      -1079.598          27.000  
G32                                                                  21119604.302    82877864.432       -1273.591          28.000  
J02  39271569.058   206373497.533       -1121.602          25.000  
R04  20481107.824   109675403.133       -3437.032          24.000  
R05  19232753.442   102810089.918         459.454          32.000  
> 2021  9 30 12  0 35.9994127  0  9
C01  37488817.831   195214208.2281       -390.599          32.000  
C04  38367480.146   199789573.1491       -381.793          32.000  
G26  20114648.419   105703236.748        -154.689          25.000  
G29  23728038.821   124691540.884        -931.431          24.000  
G31  21481240.347   112884710.026       -1077.134          27.000  
G32  21119834.843   110985486.0141      -1707.625          38.000    21119839.939    82878786.216       -1276.005          27.000  
J01  36248194.197   190485438.4281        189.721          17.000  
R04  20481667.836   109678401.363       -3439.811          24.000  
R05  19232578.363   102809154.440         458.042          32.000  
> 2021  9 30 12  0 36.9994125  0  9
C04  38367493.337   199789642.447        -381.518          35.000  
G16  21852196.039   114834043.3761       2375.973          21.000  
G26  20114615.741   105703075.425        -154.047          31.000  
G29  23728156.639   124692157.153        -931.178          21.000  
G31  21481383.947   112885472.209       -1078.093          26.000  
G32  21120097.461   110986878.732       -1708.088          35.000  
J02  39271843.069   206374958.3071      -1126.754          21.000  
R04  20482260.826   109681577.167       -3438.964          21.000  
R05  19232435.662   102808391.372         457.197          33.000  
> 2021  9 30 12  0 37.9994122  0 13
C01  37488816.332   195214206.3181       -388.542          31.000  
C04  38367476.848   199789555.469        -381.593          34.000  
C10  37069563.175   193030843.3151        231.773          18.000  
G16  21851657.013   114831194.603        2375.551          21.000  
G22  23014198.502   120940589.4301         31.345          20.000  
G26  20114554.584   105702756.798        -154.995          32.000  
G29  23728244.478   124692616.570        -933.075          21.000  
G31  21481498.468   112886078.441       -1079.919          20.000  
G32  21120330.699   110988114.937       -1708.923          35.000  
J01  36247972.051   190484272.7101        188.543          18.000  
J02  39271968.082   206375611.843       -1125.960          24.000  
R04  20482809.446   109684514.973       -3440.431          22.000  
R05  19232261.482   102807459.734         456.473          33.000  
> 2021  9 30 12  0 38.9994120  0  8
C01  37488831.322   195214282.447        -388.550          32.000  
C04  38367491.239   199789624.571        -381.388          34.000  
G16  21851146.166   114828504.029        2374.913          21.000  
G26  20114522.506   105702597.329        -156.333          26.000  
G29  23728359.598   124693234.940        -934.681          23.000  
G31  21481644.167   112886843.589       -1080.688          19.000  
J02  39272125.173   206376422.017       -1124.577          25.000  
R05  19232117.582   102806690.978         456.000          34.000  
> 2021  9 30 12  0 39.9994117  0 10
C01  37488815.733   195214203.218        -390.219          29.000  
C04  38367474.750   199789537.346        -381.249          32.000  
C16  36677017.929   190986938.9481        237.037          31.000  
G26  20114462.847   105702282.008        -157.870          24.000  
G29  23728450.136   124693695.281        -932.202          18.000  
G31  21481759.887   112887449.918       -1078.223          23.000  
G32  21120831.952   110990745.2741      -1709.221          34.000  
J02  39272248.988   206377074.035       -1124.734          28.000  
R04  20483945.660   109690599.7821      -3441.000          21.000  
R05  19231940.405   102805743.674         455.315          32.000  
> 2021  9 30 12  0 40.9994115  0  8
C04  38367488.241   199789606.275        -381.379          33.000  
C16  36676911.802   190986389.356         237.829          30.000  
G16  21850089.997   114822964.5191       2376.440          25.000  
G26  20114437.365   105702124.728        -157.405          22.000  
G31  21481904.087   112888212.892       -1078.425          25.000  
G32  21121097.568   110992139.769       -1709.786          35.000  
J02  39272403.681   206377882.974       -1124.049          32.000  
R05  19231792.007   102804950.897         452.983          30.000  
> 2021  9 30 12  0 41.9994115  0  9
C04  38367561.990   199789987.566        -381.580          33.000  
G16  21849633.414   114820587.231        2376.534          22.000  
G22  23013956.569   120939372.9911         25.529          20.000  
G26  20114470.342   105702282.686        -159.799          23.000  
G29  23728757.123   124695244.0251       -929.283          20.000  
G32  21121424.942   110993850.459       -1712.645          37.000  
J02  39272616.833   206379006.575       -1123.769          33.000  
R04  20485164.316   109697125.4521      -3441.249          25.000  
R05  19231708.965   102804506.440         452.012          28.000  
> 2021  9 30 12  0 42.9994112  0  9
C04  38367545.501   199789900.624        -381.808          32.000  
C16  36676728.030   190985447.3121        235.316          21.000  
G16  21849088.691   114817738.538        2374.341          21.000  
G22  23013857.938   120938873.017          28.450          19.000  
G31  21482227.264   112889901.0071      -1081.853          20.000  
G32  21121660.279   110995087.021       -1711.205          32.000  
J02  39272740.048   206379657.527       -1124.032          33.000  
R04  20485721.630   109700109.524       -3442.994          21.000  
R05  19231535.085   102803576.845         451.525          30.000  
> 2021  9 30 12  0 43.9994109  0  8
C04  38367529.312   199789813.959        -381.826          33.000  
C16  36676594.622   190984743.587         234.225          22.000  
G16  21848544.867   114814892.185        2371.042          21.000  
G31  21482343.583   112890510.623       -1082.698          21.000  
G32  21121895.916   110996325.896       -1711.754          34.000  
J01  36247373.066   190481104.6921        184.495          19.000  
J02  39272862.963   206380310.142       -1125.511          28.000  
R05  19231359.407   102802637.806         450.960          30.000  
> 2021  9 30 12  0 44.9994107  0  8
C04  38367543.402   199789883.821        -382.613          30.000  
C16  36676490.894   190984197.855         232.339          18.000  
G16  21848033.421   114812206.498        2371.357          21.000  
G22  23013697.549   120938027.5021         29.096          20.000  
G32  21122168.427                       -1719.831          36.000  
J02  39273017.056   206381120.712       -1124.337          25.000  
R04  20486853.646   109706171.1481      -3444.775          24.000  
R05  19231215.207   102801866.845         450.124          31.000  
> 2021  9 30 12  0 45.9994104  0  6
C04  38367527.813   199789797.978        -382.677          32.000  
G31  21482608.600   112891891.2251      -1083.708          20.000  
G32  21122403.165                       -1715.890          37.000  
J02  39273141.470   206381772.115       -1124.694          23.000  
R04  20487410.661   109709154.269       -3444.891          23.000  
R05  19231039.828   102800929.520         449.260          32.000  
> 2021  9 30 12  0 46.9994102  0  8
C04  38367541.903   199789868.333        -382.886          32.000  
C16  36676247.462   190982950.2201        234.555          19.000  
G16  21846979.051   114806672.3861       2373.571          19.000  
G22  23013542.556   120937182.1481         27.967          19.000  
G31  21482753.999   112892658.130       -1081.836          20.000  
G32  21122668.181   111000384.4431      -1716.510          37.000  
J02  39273296.163   206382581.068       -1123.355          25.000  
R05  19230895.328   102800157.279         448.380          31.000  
> 2021  9 30 12  0 47.9994099  0 10
C04  38367526.314   199789782.795        -383.094          34.000  
G16  21846436.127   114803827.141        2372.345          20.000  
G22  23013443.924   120936682.019          26.818          19.000  
G26  20114183.141   105700761.2911       -168.975          17.000  
G29  23729340.819   124698351.2621       -942.784          16.000  
G32  21122903.518   111001624.820       -1712.931          34.000  
J01  36246935.968   190478786.0701        185.702          17.000  
J02  39273419.378   206383231.549       -1122.393          24.000  
R04  20488517.195   109715079.4591      -3445.740          16.000  
R05  19230720.249   102799221.798         447.287          32.000  
> 2021  9 30 12  0 48.9994097  0  9
C04  38367540.704   199789853.431        -383.047          31.000  
C16  36676010.626   190981696.1701        237.502          23.000  
G16  21845924.081   114801140.170        2371.568          19.000  
G22  23013375.871   120936338.921          28.659          20.000  
G29  23729458.638   124698980.451        -944.364          15.000  
G32  21123168.535   111003023.423       -1714.490          33.000  
J02  39273575.869   206384038.949       -1122.174          22.000  
R04  20489100.591   109718203.624       -3444.138          18.000  
R05  19230576.049   102798450.662         446.373          33.000  
> 2021  9 30 12  0 49.9994094  0  7
C16  36675873.021   190980990.494         237.864          25.000  
G16  21845380.558   114798295.507        2370.657          19.000  
G26  20114091.704   105700308.8291       -165.931          17.000  
G32  21123405.671   111004265.408       -1714.941          39.000  
J02  39273699.384   206384688.804       -1123.024          22.000  
R04  20489657.605   109721186.191       -3445.145          19.000  
R05  19230403.369   102797527.085         445.085          34.000  
> 2021  9 30 12  0 50.9994092  0  7
C16  36675766.895   190980440.653         238.178          22.000  
G29  23729660.698   124700075.4621       -938.495          13.000  
G32  21123672.486   111005667.299       -1719.550          37.000  
J01  36246618.788   190477120.4561        187.157          18.000  
J02  39273855.276   206385498.318       -1125.151          25.000  
R04  20490238.003   109724294.553       -3446.566          20.000  
R05  19230260.668   102796764.684         444.229          31.000  
> 2021  9 30 12  0 51.9994089  0  7
C16  36675629.890   190979734.407         237.050          24.000  
G22  23013110.255   120934711.5911         27.768          20.000  
G26  20113995.171   105699852.0501       -166.254          19.000  
G31  21483394.056   112896027.7931      -1079.663          17.000  
G32  21123910.521   111006916.166       -1721.095          35.000  
J02  39273980.289   206386151.551       -1125.739          25.000  
R04  20490788.722   109727243.976       -3447.905          20.000  
> 2021  9 30 12  0 52.9994086  0  8
C16  36675496.482   190979028.731         236.680          21.000  
G26  20113933.414   105699546.491        -169.716          20.000  
G29  23729830.980   124701005.4041       -938.281          13.000  
G32  21124145.558   111008162.042       -1715.556          31.000  
J01  36246369.960   190475803.4321        185.023          20.000  
J02  39274103.204   206386805.892       -1127.212          24.000  
R04  20491340.940   109730200.852       -3449.475          24.000  
R05  19229918.904   102794937.4671        442.556          28.000  
> 2021  9 30 12  0 53.9994084  0  8
C16  36675392.454   190978479.470         238.010          22.000  
G22  23012943.571   120933867.9351         27.599          20.000  
G26  20113904.334   105699400.489        -169.374          20.000  
G32  21124411.174   111009563.359       -1717.351          34.000  
J01  36246275.526   190475303.391         184.317          21.000  
J02  39274257.597   206387617.001       -1126.870          23.000  
R04  20491924.036   109733323.649       -3450.231          26.000  
R05  19229775.603   102794172.083         441.041          30.000  
> 2021  9 30 12  0 54.9994081  0  7
G22  23012847.937   120933368.661          25.288          19.000  
G26  20113843.176   105699096.847        -168.185          20.000  
G32  21124648.610   111010808.549       -1719.065          34.000  
J01  36246146.915   190474646.037         184.825          21.000  
J02  39274382.611   206388270.950       -1125.556          24.000  
R04  20492479.851   109736299.360       -3450.344          24.000  
R05  19229601.424   102793240.782         439.691          33.000  
> 2021  9 30 12  0 55.9994081  0  7
C16  36675213.478   190977537.6111        235.480          19.000  
G31  21483969.358   112899082.4611      -1080.033          19.000  
G32  21124981.080                       -1720.408          36.000  
J01  36246113.338   190474460.596         185.661          21.000  
J02  39274598.161   206389395.861       -1123.994          26.000  
R04  20493121.407   109739735.055       -3451.807          25.000  
R05  19229521.679   102792813.942         439.684          34.000  
> 2021  9 30 12  0 56.9994076  0  6
C16  36675017.114   190976522.154         234.237          24.000  
G22  23012682.451   120932532.3351         21.667          19.000  
G32  21125158.857   111013458.2181      -1720.439          37.000  
J02  39274663.216   206389732.838       -1124.989          23.000  
R04  20493613.067   109742367.544       -3454.900          25.000  
R05  19229292.038   102791586.566         438.140          32.000  
> 2021  9 30 12  0 57.9994074  0  7
G16  21841176.268   114776210.8291       2363.172          17.000  
G29  23730353.218   124703820.3721       -936.702          15.000  
G32  21125428.070   111014862.683       -1716.757          35.000  
J01  36245831.533   190472989.1791        182.220          20.000  
J02  39274818.509   206390542.296       -1124.484          26.000  
R04  20494197.362   109745497.076       -3454.948          25.000  
R05  19229152.335   102790840.249         436.800          28.000  
> 2021  9 30 12  0 58.9994071  0  7
G22  23012524.161   120931705.1221         17.923          19.000  
G29  23730439.559   124704284.340        -932.280          14.000  
G31  21484289.236   112900754.4521      -1085.379          18.000  
G32  21125663.707   111016108.157       -1720.027          33.000  
J02  39274942.923   206391194.332       -1125.048          26.000  
R04  20494754.976   109748483.272       -3456.354          23.000  
R05  19228979.954   102789918.627         436.597          28.000  
> 2021  9 30 12  0 59.9994068  0  5
C04  38367478.347   199789548.6841       -382.969          30.000  
G32  21125899.044   111017356.224       -1723.315          33.000  
J02  39275065.538   206391846.571       -1124.793          28.000  
R04  20495310.792   109751459.000       -3455.636          28.000  
R05  19228809.372   102789006.190         436.025          24.000  
> 2021  9 30 12  1  0.9994066  0  8
G16  21839589.167   114767871.7991       2356.775          16.000  
G22  23012366.170   120930882.6241         17.675          19.000  
G29  23730637.122   124705355.1441       -926.983          13.000  
G32  21126166.160   111018764.010       -1722.544          35.000  
J01  36245491.868   190471173.9371        188.534          19.000  
J02  39275219.032   206392656.659       -1125.189          26.000  
R04  20495901.683   109754623.430       -3455.801          24.000  
R05  19228664.273   102788231.120         434.872          28.000  
> 2021  9 30 12  1  1.9994063  0  8
C04  38367475.649   199789533.9921       -383.710          35.000  
G22  23012272.635   120930392.201          18.771          20.000  
G26  20113527.495   105697448.9401       -173.632          18.000  
G32  21126404.195   111020014.431       -1723.821          35.000  
J01  36245365.056   190470515.171         185.900          19.000  
J02  39275342.546   206393309.356       -1126.563          27.000  
R04  20496461.995   109757624.138       -3457.615          26.000  
R05  19228491.292   102787306.328         433.311          29.000  
> 2021  9 30 12  1  2.9994061  0  7
C04  38367489.740   199789605.373        -384.054          33.000  
G16  21838544.091   114762366.9011       2360.559          15.000  
G26  20113500.513   105697306.954        -173.472          18.000  
G32  21126670.710   111021422.656       -1723.214          33.000  
J02  39275495.140   206394119.589       -1124.344          26.000  
R04  20497047.489   109760759.493       -3457.451          26.000  
R05  19228347.692   102786538.479         431.704          29.000  
> 2021  9 30 12  1  3.9994058  0  9
C04  38367473.251   199789521.266        -384.631          31.000  
G16  21838005.663   114759529.524        2364.397          15.000  
G22  23012108.948   120929570.5211         14.431          20.000  
G26  20113443.553   105697007.936        -173.932          19.000  
G32  21126914.142   111022674.029       -1724.839          35.000  
J01  36245143.509   190469357.4751        181.002          18.000  
J02  39275620.154   206394771.409       -1125.076          27.000  
R04  20497610.799   109763775.883       -3458.574          25.000  
R05  19228175.011   102785615.659         430.690          28.000  
> 2021  9 30 12  1  4.9994056  0  8
C04  38367487.341   199789593.834        -385.063          29.000  
G16  21837496.915   114756849.976        2364.048          14.000  
G29  23731040.043   124707501.7751       -935.071          13.000  
G31  21485088.483   112904874.0471      -1084.126          15.000  
G32  21127181.856   111024083.844       -1725.090          35.000  
J02  39275774.247   206395580.160       -1125.072          24.000  
R04  20498206.787   109766967.375       -3458.468          26.000  
R05  19228033.809   102784860.789         429.954          33.000  
> 2021  9 30 12  1  5.9994053  0  9
C04  38367472.352   199789510.919        -385.658          30.000  
G22  23011950.358   120928756.6991         14.000          21.000  
G26  20113362.909   105696566.2041       -172.742          20.000  
G29  23731126.083   124707963.583        -936.966          13.000  
G31  21485203.903   112905482.992       -1078.478          15.000  
G32  21127418.093   111025335.603       -1724.956          32.000  
J02  39275898.361   206396232.612       -1125.634          26.000  
R04  20498760.204   109769930.965       -3459.034          23.000  
R05  19227862.927   102783947.047         429.849          31.000  
> 2021  9 30 12  1  6.9994051  0  6
G22  23011885.903   120928427.817          13.725          25.000  
G26  20113336.827   105696425.142        -175.889          20.000  
G29  23731242.403   124708587.194        -941.299          13.000  
G32  21127684.309   111026745.837       -1724.643          36.000  
J02  39276054.553   206397041.945       -1123.540          23.000  
R05  19227721.725   102783192.873         429.413          32.000  
> 2021  9 30 12  1  7.9994048  0  9
G16  21835904.418   114748497.0641       2360.059          11.000  
G22  23011790.869   120927941.018          13.636          23.000  
G26  20113277.468   105696130.004        -178.362          20.000  
G29  23731332.940   124709058.863        -948.284          11.000  
G31  21485465.921   112906850.2361      -1079.057          15.000  
G32  21127921.444   111027997.634       -1724.659          35.000  
J02  39276179.267   206397693.362       -1123.136          22.000  
R04  20499895.218   109776008.5701      -3457.951          19.000  
R05  19227550.844   102782278.787         429.079          33.000  
> 2021  9 30 12  1  8.9994045  0  7
C04  38367453.165   199789417.6881       -384.821          32.000  
G16  21835362.093   114745664.170        2357.096          12.000  
G29  23731423.178   124709536.990        -953.999          10.000  
G32  21128163.077   111029250.447       -1725.566          36.000  
J02  39276306.079   206398344.365       -1124.966          22.000  
R04  20500449.834   109778978.252       -3459.065          24.000  
R05  19227382.060   102781376.385         428.356          32.000  
> 2021  9 30 12  1  9.9994045  0  8
G16  21834912.105   114743307.051        2356.088          10.000  
G22  23011695.535   120927438.9201         15.310          18.000  
G26  20113257.981   105696016.9381       -178.241          20.000  
G29  23731603.353   124710492.819        -958.204          10.000  
G32  21128490.450   111030978.150       -1726.376          35.000  
J02  39276515.034   206399469.728       -1126.594          19.000  
R04  20501098.885   109782454.576       -3459.279          24.000  
R05  19227301.716   102780947.744         427.094          31.000  
> 2021  9 30 12  1 10.9994043  0  7
C04  38367540.105   199789874.0581       -383.680          32.000  
G26  20113230.400   105695879.526        -177.904          20.000  
G31  21485932.099   112909315.2571      -1087.691          15.000  
G32  21128757.566   111032389.250       -1725.785          33.000  
J02  39276669.128   206400280.813       -1124.449          22.000  
R04  20501687.377   109785605.102       -3461.711          22.000  
R05  19227161.113   102780195.347         426.896          33.000  
> 2021  9 30 12  1 11.9994040  0  5
G22  23011546.238   120926620.8291         14.927          20.000  
G26  20113174.039   105695584.143        -178.868          20.000  
G32  21128996.200   111033643.435       -1727.367          34.000  
J02  39276792.342   206400932.433       -1124.419          25.000  
R05  19226992.630   102779295.163         426.071          33.000  
> 2021  9 30 12  1 12.9994038  0  4
G32  21129264.515   111035055.526       -1726.648          34.000  
J02  39276945.836   206401742.549       -1124.722          23.000  
R04  20502816.995   109791654.5261      -3458.943          19.000  
R05  19226851.728   102778542.216         424.778          31.000  
> 2021  9 30 12  1 13.9994035  0  6
G26  20113093.995   105695151.3081       -178.806          20.000  
G31  21486315.533   112911311.7881      -1085.932          17.000  
G32  21129505.248   111036309.650       -1727.181          33.000  
J02  39277074.447   206402394.160       -1123.623          21.000  
R04  20503372.810   109794631.303       -3459.949          24.000  
R05  19226683.544   102777642.797         424.392          34.000  
> 2021  9 30 12  1 14.9994033  0  5
G22  23011327.689   120925473.1711         16.026          20.000  
G31  21486463.931   112912082.615       -1084.322          16.000  
G32  21129772.663   111037721.158       -1726.570          30.000  
R04  20503956.206   109797754.960       -3461.451          24.000  
R05  19226544.140   102776898.161         423.705          35.000  
> 2021  9 30 12  1 15.9994030  0  5
C04  38367517.021   199789757.6901       -382.200          29.000  
G26  20113014.250   105694720.6421       -178.058          20.000  
J02  39277346.959   206403853.0211      -1124.934          18.000  
R04  20504507.225   109800705.690       -3461.577          22.000  
R05  19226374.458   102775990.943         423.051          34.000  
> 2021  9 30 12  1 16.9994028  0  6
G22  23011167.600   120924654.7751         13.929          20.000  
G26  20112988.468   105694583.736        -180.062          20.000  
G32  21130277.813   111040388.3751      -1728.261          34.000  
J02  39277497.155   206404662.291       -1124.014          21.000  
R04  20505091.820   109803836.317       -3462.180          22.000  
R05  19226236.254   102775251.777         422.082          32.000  
> 2021  9 30 12  1 17.9994025  0  7
G22  23011073.465   120924169.678          11.704          20.000  
G26  20112933.906   105694290.452        -179.717          20.000  
G31  21486838.371   112914070.3731      -1076.754          15.000  
G32  21130515.548   111041643.988       -1728.920          34.000  
J02  39277622.768   206405313.478       -1124.552          20.000  
R04  20505649.434   109806822.437       -3463.244          21.000  
R05  19226068.370   102774354.465         421.108          34.000  
> 2021  9 30 12  1 18.9994022  0  4
G22  23010976.632   120923685.250          12.101          20.000  
J02  39277745.383   206405964.560       -1123.246          24.000  
R04  20506214.543   109809848.138       -3464.795          25.000  
R05  19225899.287   102773450.939         420.557          34.000  
> 2021  9 30 12  1 19.9994020  0  4
C04  38367510.725   199789722.0431       -381.178          33.000  
J02  39277898.876   206406772.488       -1121.547          28.000  
R04  20506815.927   109813068.976       -3464.741          25.000  
R05  19225759.284   102772702.508         419.603          32.000  
> 2021  9 30 12  1 20.9994017  0  3
C04  38367494.236   199789634.791        -381.239          32.000  
J02  39278022.691   206407420.357       -1120.293          25.000  
R05  19225591.100   102771802.698         418.523          31.000  
> 2021  9 30 12  1 21.9994015  0  4
C04  38367508.926   199789703.613        -381.235          31.000  
G32  21131536.642   111046988.6731      -1731.919          40.000  
J02  39278178.583   206408227.052       -1122.867          21.000  
R05  19225450.198   102771049.665         416.870          31.000  
> 2021  9 30 12  1 22.9994012  0  5
C04  38367492.138   199789616.438        -381.501          31.000  
G22  23010668.446   120922073.1011          3.432          20.000  
G31  21487463.738   112917371.9941      -1070.603          15.000  
G32  21131776.476   111048250.409       -1734.121          35.000  
R05  19225280.815   102770144.275         416.315          32.000  
> 2021  9 30 12  1 23.9994010  0  5
C04  38367505.928   199789685.524        -381.435          31.000  
G22  23010605.789   120921753.935           4.992          19.000  
G32  21132044.790   111049668.292       -1731.793          37.000  
J02  39278462.186   206409686.7801      -1124.613          25.000  
R05  19225143.210   102769408.753         415.269          31.000  
> 2021  9 30 12  1 24.9994007  0  5
C04  38367489.140   199789598.671        -381.841          33.000  
G31  21487726.357   112918734.3741      -1079.232          14.000  
G32  21132283.724   111050927.558       -1732.231          39.000  
J02  39278585.101   206410337.955       -1122.911          27.000  
R05  19224981.322   102768543.481         413.877          31.000  
> 2021  9 30 12  1 25.9994004  0  4
C04  38367473.851   199789512.040        -381.966          32.000  
G22  23010423.815   120920794.0121          9.611          20.000  
G31  21487842.076   112919341.823       -1081.309          15.000  
R05  19224815.237   102767655.809         413.792          31.000  
> 2021  9 30 12  1 26.9994002  0  5
C04  38367487.041   199789581.718        -382.012          33.000  
G22  23010358.760   120920470.066           8.618          20.000  
G31  21487988.975   112920111.078       -1086.303          15.000  
G32  21132789.474   111053605.1941      -1733.212          33.000  
R05  19224679.731   102766931.878         412.569          29.000  
> 2021  9 30 12  1 27.9993999  0  5
C04  38367471.752   199789495.306        -382.525          33.000  
G22  23010262.227   120919988.846           8.028          23.000  
G31  21488108.592   112920724.688       -1086.999          16.000  
J02  39278982.626   206412450.0681      -1123.518          21.000  
R05  19224512.147   102766035.625         411.941          28.000  
> 2021  9 30 12  1 28.9993997  0  4
C04  38367487.041   199789566.254        -383.427          29.000  
G22  23010199.870   120919665.286           7.610          20.000  
J02  39279140.617   206413258.864       -1124.606          18.000  
R05  19224372.744   102765289.944         411.942          28.000  
> 2021  9 30 12  1 29.9993994  0  3
G22  23010107.534   120919186.577           4.008          21.000  
J02  39279262.932   206413908.699       -1121.816          19.000  
R05  19224209.057   102764415.460         411.196          35.000  
> 2021  9 30 12  1 30.9993992  0  3
G22  23010044.278   120918599.466           6.339          21.000  
G32  21133816.263   111058967.1041      -1735.592          33.000  
R05  19224074.150   102763694.177         410.296          32.000  
> 2021  9 30 12  1 31.9993989  0  5
C04  38367469.354   199789468.6731       -383.926          32.000  
G22  23009949.843   120918122.491           2.958          20.000  
G26  20112340.017   105691190.6311       -189.278          18.000  
G32  21134055.198   111060230.643       -1737.259          36.000  
R05  19223903.568   102762782.166         408.029          24.000  
> 2021  9 30 12  1 32.9993987  0  5
C04  38367483.144   199789540.179        -383.786          35.000  
G31  21488782.525   112924277.9481      -1086.880          16.000  
G32  21134324.711   111061652.572       -1737.029          32.000  
J02  39279695.233   206416170.3831      -1120.347          21.000  
R05  19223773.758   102762087.978         407.552          28.000  
> 2021  9 30 12  1 33.9993984  0  5
C04  38367466.955   199789455.495        -383.841          32.000  
G22  23009794.551   120917330.9331          0.570          20.000  
G26  20112262.670   105690786.0001       -191.967          18.000  
G32  21134568.743   111062918.908       -1742.167          33.000  
R05  19223607.973   102761201.815         407.019          33.000  
> 2021  9 30 12  1 34.9993981  0  4
C04  38367450.467   199789370.438        -383.114          30.000  
G32  21134808.576   111064185.480       -1737.341          33.000  
J02  39279946.759   206417466.2201      -1120.332          21.000  
R05  19223443.387   102760322.328         406.217          34.000  
> 2021  9 30 12  1 35.9993979  0  6
C04  38367463.957   199789441.317        -383.310          32.000  
G22  23009644.355   120916539.7341          2.634          20.000  
G26  20112178.728   105690379.5611       -191.548          19.000  
G31  21489167.459   112926277.9251      -1089.416          17.000  
G32  21135079.289   111065607.765       -1736.329          36.000  
R05  19223306.682   102759591.528         404.478          34.000  
> 2021  9 30 12  1 36.9993976  0  6
C04  38367447.769   199789356.163        -383.362          32.000  
G22  23009549.320   120916064.408           2.817          20.000  
G26  20112118.770   105690097.432        -189.526          20.000  
G32  21135318.823   111066872.128       -1737.781          36.000  
J02  39280223.467   206418921.7411      -1122.494          21.000  
R05  19223139.997   102758700.525         403.719          32.000  
> 2021  9 30 12  1 37.9993976  0  5
G22  23009549.021   120916062.555           0.999          20.000  
G26  20112151.147   105690286.790        -189.110          26.000  
G31  21489484.639   112927979.6811      -1085.941          26.000  
G32  21135648.295   111068609.051       -1736.856          35.000  
R05  19223063.550   102758292.016         403.013          34.000  
> 2021  9 30 12  1 38.9993974  0  3
G26  20112122.967   105690160.738        -189.172          33.000  
G32  21135917.809   111070031.626       -1738.562          35.000  
R05  19222925.346   102757553.183         403.232          34.000  
> 2021  9 30 12  1 39.9993971  0  6
C22  22168908.784   115439511.9991       -524.136          35.000  
G22  23009394.628   120915272.9411         -0.763          19.000  
G26  20112067.206   105689877.352        -189.219          36.000  
G32  21136157.643   111071298.163       -1739.629          36.000  
J02  39280708.831   206421502.8671      -1121.108          20.000  
R05  19222758.961   102756663.375         402.847          33.000  
> 2021  9 30 12  1 40.9993969  0  6
C04  38367531.111   199789794.7821       -382.850          31.000  
C22  22168945.658   115439723.730        -524.837          33.000  
G26  20112041.423   105689751.942        -190.306          32.000  
G31  21489880.066   112930130.7171      -1084.077          31.000  
J02  39280860.826   206422309.203       -1121.622          23.000  
R05  19222617.759   102755908.581         401.635          32.000  
> 2021  9 30 12  1 41.9993966  0  7
C04  38367514.323   199789709.162        -383.009          32.000  
C22  22168951.055   115439781.999        -527.346          32.000  
G22  23009237.836   120914485.4201          1.483          20.000  
G26  20111985.662   105689198.428        -189.992          33.000  
G32  21136667.290   111073991.7311      -1740.689          36.000  
J02  39280985.839   206422957.340       -1120.202          23.000  
R05  19222449.875   102755011.639         400.698          32.000  
> 2021  9 30 12  1 42.9993964  0  7
C04  38367527.513   199789779.481        -382.389          34.000  
C22  22168991.826   115439997.145        -527.366          32.000  
G22  23009175.179   120914170.036           0.077          24.000  
G26  20111960.479   105689074.172        -190.384          32.000  
G31  21490133.990   112931510.5801      -1084.951          27.000  
J02  39281138.434   206423762.971       -1121.319          22.000  
R05  19222314.369   102754286.830         399.970          33.000  
> 2021  9 30 12  1 43.9993961  0  8
C04  38367510.425   199789693.594        -382.813          32.000  
C22  22169003.818   115440056.850        -529.318          29.000  
G22  23009081.045   120913696.899           0.730          22.000  
G26  20111913.712   105688791.980        -191.445          33.000  
G31  21490251.209   112932122.854       -1084.886          24.000  
G32  21137189.828                       -1744.816          38.000  
J02  39281261.648   206424412.204       -1122.175          25.000  
R05  19222150.982   102753413.749         398.924          33.000  
> 2021  9 30 12  1 44.9993958  0  7
C04  38367493.637   199789607.945        -382.934          33.000  
C22  22169014.910   115440118.276        -530.906          29.000  
G26  20111862.148   105688511.735        -192.302          33.000  
G31  21490365.729   112932735.239       -1085.129          25.000  
G32  21137432.360                       -1745.960          36.000  
J02  39281383.364   206425061.632       -1122.119          31.000  
R05  19221984.297   102752522.645         397.661          33.000  
> 2021  9 30 12  1 45.9993956  0  8
C04  38367506.828   199789678.445        -382.761          32.000  
C07  36318659.815   189120910.3231        150.268          34.000  
C22  22169056.581   115440336.894        -531.158          30.000  
G26  20111834.567   105688388.148        -191.188          32.000  
G31  21490513.227   112933505.293       -1084.363          22.000  
G32  21137704.272   111079381.0261      -1743.896          31.000  
J02  39281535.959   206425869.177       -1122.913          33.000  
R05  19221847.892   102751793.595         397.228          32.000  
> 2021  9 30 12  1 46.9993953  0  9
C04  38367490.939   199789592.794        -382.962          30.000  
C07  36318540.198   189120291.324         150.450          34.000  
C22  22169069.772   115440400.107        -531.814          27.000  
G22  23008840.012   120912435.6071          0.753          22.000  
G26  20111779.705   105688108.115        -193.504          32.000  
G31  21490629.247   112934117.350       -1085.145          22.000  
G32  21137943.806   111080650.708       -1742.049          33.000  
J02  39281658.574   206426519.197       -1122.487          33.000  
R05  19221684.505   102750919.933         396.635          33.000  
> 2021  9 30 12  1 47.9993948  0  7
C07  36318356.425                         147.396          33.000  
C22  22169022.105   115440150.761        -531.175          24.000  
G22  23008689.516   120911648.770          -3.135          21.000  
G26  20111667.882   105687513.335        -191.614          33.000  
G32  21138123.382   111081605.350       -1742.959          33.000  
J02  39281719.432   206426853.381       -1122.674          32.000  
R05  19221461.159   102749726.479         395.821          33.000  
> 2021  9 30 12  1 48.9993946  0  6
C07  36318268.286   189118750.2231        147.169          32.000  
C22  22169065.575   115440371.596        -533.637          26.000  
G22  23008631.656   120911337.619          -5.355          19.000  
G32  21138397.092   111083033.517       -1744.211          35.000  
J02  39281872.026   206427660.894       -1122.734          33.000  
R05  19221327.752   102749013.463         394.973          32.000  
> 2021  9 30 12  1 49.9993943  0  8
C04  38367408.796   199789177.7151       -381.275          29.000  
C07  36318151.067   189118133.737         149.068          33.000  
C22  22169081.164   115440437.227        -534.220          26.000  
G22  23008540.819   120910870.766          -6.786          22.000  
G31  21490951.224   112935805.6301      -1088.092          18.000  
G32  21138636.626   111084305.133       -1744.126          35.000  
J02  39282000.037   206428309.789       -1120.898          33.000  
R05  19221164.065   102748138.417         393.675          31.000  
> 2021  9 30 12  1 50.9993943  0  7
C04  38367480.446   199789558.168        -380.102          30.000  
C07  36318122.587   189117984.261         149.855          27.000  
C22  22169186.092   115440970.729        -533.027          25.000  
G26  20111625.611   105687308.1391       -197.876          25.000  
G32  21138971.794   111086049.187       -1743.825          34.000  
J02  39282210.791                       -1122.183          35.000  
R05  19221090.616   102747745.357         392.418          31.000  
> 2021  9 30 12  1 51.9993940  0  8
C07  36318002.070   189117364.763         152.849          20.000  
C22  22169197.784   115441035.959        -534.326          22.000  
G22  23008457.476   120910414.4101        -11.634          23.000  
G26  20111571.948   105687034.184        -200.166          24.000  
G31  21491274.400   112937513.7451      -1093.520          17.000  
G32  21139214.326                       -1744.784          35.000  
J02  39282338.803   206430060.6331      -1122.812          35.000  
R05  19220927.229   102746872.547         391.626          33.000  
> 2021  9 30 12  1 52.9993938  0  5
C07  36317912.732   189116899.016         153.392          18.000  
C22  22169240.354   115441258.138        -534.341          24.000  
G32  21139483.540   111088751.2841      -1748.865          35.000  
J02  39282488.699                       -1116.798          30.000  
R05  19220796.819   102746175.120         390.631          38.000  
> 2021  9 30 12  1 53.9993935  0  6
C04  38367460.060   199789449.5641       -380.600          35.000  
C07  36317797.012   189116278.291         151.204          19.000  
G26  20111503.896   105686650.6211       -203.228          20.000  
G32  21139724.573   111090024.341       -1744.691          33.000  
J02  39282611.614   206431513.5691      -1121.563          33.000  
R05  19220637.929   102745325.227         389.755          35.000  
> 2021  9 30 12  1 54.9993933  0  7
C04  38367473.251   199789517.974        -380.935          36.000  
C07  36317710.072   189115814.552         150.910          20.000  
C22  22169302.411   115441546.5991       -535.949          24.000  
G26  20111483.510   105686537.840        -201.088          19.000  
G32  21139995.586   111091454.555       -1745.918          31.000  
J02  39282765.108   206432320.905       -1120.912          31.000    39282767.206   154154070.3881       -838.768          29.000  
R05  19220509.018   102744636.994         389.987          34.000  
> 2021  9 30 12  1 55.9993930  0  8
C04  38367456.463   199789430.544        -381.247          36.000  
C07  36317592.554   189115196.249         149.165          21.000  
G26  20111430.147   105686265.410        -200.041          21.000  
G31  21491800.836   112940303.0771      -1090.971          15.000  
G32  21140237.818   111092727.913       -1746.780          32.000  
J01  36239516.405   190439765.7591        176.492          25.000  
J02  39282888.322   206432969.264       -1121.901          23.000    39282890.721   154154555.277        -836.473          21.000  
R05  19220348.630   102743779.656         389.154          35.000  
> 2021  9 30 12  1 56.9993928  0  6
C04  38367468.454   199789499.594        -381.551          35.000  
C07  36317508.312   189114737.225         146.851          23.000  
C22  22169355.475   115441835.7431       -533.329          19.000  
J01  36239424.069   190439274.884         175.632          23.000  
J02  39283040.617   206433776.193       -1122.528          22.000    39283044.814   154155155.636        -834.090          18.000  
R05  19220217.320   102743077.337         388.449          36.000  
> 2021  9 30 12  1 57.9993925  0  7
C04  38367451.966   199789412.631        -381.714          35.000  
C07  36317392.892   189114121.763         148.022          20.000  
G22  23008013.784   120908102.2621        -10.469          18.000  
G26  20111362.094   105685882.2891       -203.270          22.000  
G32  21140759.457                       -1750.421          38.000  
J02                                                                  39283169.528   154155639.247        -834.509          17.000  
R05  19220056.332   102742216.572         387.653          37.000  
> 2021  9 30 12  1 58.9993923  0  4
C07  36317307.751   189113661.710         148.315          23.000  
G22  23007955.324   120907797.637         -10.310          18.000  
G32  21141031.069   111096874.7671      -1748.258          41.000  
R05  19219923.224   102741504.861         387.011          37.000  
> 2021  9 30 12  1 59.9993920  0  4
C07  36317189.033   189113045.449         147.588          23.000  
G31  21492330.269   112943092.8651      -1085.979          14.000  
G32  21141273.901   111098152.878       -1754.987          35.000  
R05  19219753.541   102740598.404         386.207          38.000  
> 2021  9 30 12  2  0.9993917  0  5
C07  36317072.114   189112429.658         147.958          26.000  
G22  23007777.247   120906873.1311        -11.169          18.000  
G26  20111240.378   105685226.4201       -201.970          22.000  
G32  21141517.332   111099432.752       -1750.699          33.000  
R05  19219588.356   102739714.716         384.510          38.000  
> 2021  9 30 12  2  1.9993915  0  3
C04  38367446.270   199789374.7641       -383.162          25.000  
G32  21141788.944   111100867.448       -1749.009          30.000  
R05  19219459.445   102739026.031         385.390          36.000  
> 2021  9 30 12  2  2.9993912  0  4
C07  36316866.457   189111354.5801        147.184          27.000  
G26  20111168.128   105684841.8021       -202.654          21.000  
G32  21142030.877   111102143.141       -1747.799          31.000  
R05  19219300.555   102738176.672         384.166          34.000  
> 2021  9 30 12  2  3.9993910  0  6
C07  36316776.819   189110894.603         147.587          29.000  
G22  23007573.089   120905810.8701        -13.564          18.000  
G26  20111143.545   105684730.361        -204.315          23.000  
G31  21492842.015   112945842.4141      -1078.342          10.000  
G32  21142303.388   111103575.865       -1748.744          30.000  
R05  19219171.644   102737487.777         382.937          32.000  
> 2021  9 30 12  2  4.9993907  0  6
C04  38367424.685   199789271.3121       -380.648          31.000  
C07  36316657.501   189110279.820         146.990          24.000  
G26  20111091.081   105684461.560        -203.630          25.000  
G31  21492959.234   112946449.119       -1081.544          10.000  
G32  21142545.320   111104852.214       -1749.546          32.000  
R05  19219012.754   102736638.601         382.170          30.000  
> 2021  9 30 12  2  5.9993907  0  6
C04  38367497.534   199789651.427        -380.154          33.000  
C07  36316628.421   189110132.671         148.419          26.000  
G26  20111128.256   105684664.736        -203.846          25.000  
G31  21493161.294   112947530.872       -1082.794          10.000  
G32  21142878.690   111106602.213       -1751.381          36.000  
R05  19218941.104   102736254.960         381.349          34.000  
> 2021  9 30 12  2  6.9993905  0  7
C01  37489090.942                        -395.083          34.000  
C04  38367510.425   199789719.018        -379.849          30.000  
C07  36316538.184   189109672.093         148.228          24.000  
G22  23007435.184   120905067.6221        -13.145          18.000  
G26  20111102.174   105684553.492        -205.309          26.000  
G32  21143152.100   111108039.636       -1752.533          36.000  
R05  19218811.893   102735564.788         379.934          33.000  
> 2021  9 30 12  2  7.9993902  0  5
C01  37489073.854   195215461.6461       -394.826          35.000  
C04  38367493.037   199789630.409        -380.112          31.000  
G26  20111050.310   105684285.882        -204.777          25.000  
G32  21143394.033   111109318.801       -1751.852          37.000  
R05  19218651.804   102734708.406         379.191          34.000  
> 2021  9 30 12  2  8.9993900  0  6
C01  37489087.645   195215544.059        -394.701          36.000  
C04  38367506.528   199789698.233        -379.969          32.000  
C07  36316324.732   189108593.2221        149.528          29.000  
G22  23007294.881   120904308.0951        -15.996          18.000  
G32  21143666.844   111110754.885       -1750.903          37.000  
R05  19218520.795   102734008.106         378.270          34.000  
> 2021  9 30 12  2  9.9993897  0  5
C01  37489072.355   195215470.232        -394.576          35.000  
C07  36316206.014   189107976.000         147.243          26.000  
C19  23172223.004   120663846.3191      -3178.651          30.000  
G26  20110980.458   105683909.0571       -206.308          24.000  
R05  19218357.408   102733135.421         377.568          35.000  
> 2021  9 30 12  2 10.9993894  0  5
C01  37489055.867   195215395.782        -392.959          35.000  
C07  36316087.596   189107360.019         147.772          27.000  
C19  23172744.643   120666556.922       -3179.042          26.000  
G26  20110931.292   105683643.852        -208.613          25.000  
R05  19218194.621   102732264.527         376.635          35.000  
> 2021  9 30 12  2 11.9993892  0  5
C01  37489072.355   195215477.295        -394.111          34.000  
C07  36316000.656   189106900.158         147.653          30.000  
C19  23173294.162   120669423.277       -3178.519          26.000  
G26  20110912.405   105683537.542        -208.373          22.000  
R05  19218063.012   102731560.737         375.956          35.000  
> 2021  9 30 12  2 12.9993889  0  6
C01  37489057.366   195215403.204        -394.517          34.000  
C07  36315884.336   189106283.864         148.192          27.000  
C19  23173814.002   120672134.516       -3180.825          28.000  
G26  20110863.239   105683272.146        -206.656          25.000  
G32  21144678.943                       -1756.486          40.000    21144683.440    82976239.0161      -1310.972          29.000  
R05  19217898.726   102730683.515         375.221          34.000  
> 2021  9 30 12  2 13.9993887  0  6
C01  37489072.655   195215485.480        -394.763          34.000  
C07  36315799.495   189105823.435         148.563          23.000  
C19  23174362.922   120675003.433       -3181.729          26.000  
G26  20110843.453   105683165.047        -209.376          23.000  
G32  21144952.654   111117478.6261      -1755.254          37.000    21144957.750    82977314.469       -1310.169          32.000  
R05  19217767.716   102729982.517         374.172          34.000  
> 2021  9 30 12  2 14.9993884  0  7
C01  37489058.265   195215411.812        -394.810          32.000  
C07  36315682.576   189105207.607         145.236          19.000  
C19  23174881.264   120677716.197       -3180.923          27.000  
G22  23006820.610   120901878.9751        -20.351          18.000  
G26  20110794.587   105682901.848        -208.268          26.000  
G32  21145194.886   111118761.408       -1755.790          37.000    21145201.182    82978272.611       -1313.683          31.000  
R05  19217607.327   102729125.800         373.575          33.000  
> 2021  9 30 12  2 15.9993882  0  7
C01  37489074.454   195215494.756        -395.676          31.000  
C04  38367484.044   199789549.7531       -382.598          30.000  
C07  36315596.236   189104750.760         144.380          19.000  
C19  23175431.083   120680585.866       -3181.439          29.000  
G26  20110773.901   105682795.180        -208.959          27.000  
G32  21145468.297                       -1755.918          38.000    21145475.192    82979349.401       -1310.769          31.000  
R05  19217478.117   102728435.055         372.703          35.000  
> 2021  9 30 12  2 16.9993879  0  6
C01  37489060.364   195215421.852        -395.153          31.000  
C07  36315480.816   189104138.437         144.614          20.000  
C19  23175950.923   120683298.560       -3180.794          31.000  
G26  20110723.836   105682531.586        -209.733          26.000  
G32  21145714.127   111121469.6461      -1756.048          40.000    21145718.624    82980306.496       -1310.202          31.000  
R05  19217318.327   102727580.023         371.678          34.000  
> 2021  9 30 12  2 17.9993874  0  7
C01  37488985.715   195215036.203        -395.045          32.000  
C04  38367393.806   199789066.0641       -382.972          32.000  
C07  36315302.139   189103211.820         146.559          26.000  
C19  23176412.603   120685698.293       -3180.998          28.000  
G26  20110613.812   105681953.040        -209.702          24.000  
G32  21145901.197   111122439.063       -1756.878          40.000    21145902.996    82981029.111       -1310.578          30.000  
R05  19217096.481   102726394.402         370.931          33.000  
> 2021  9 30 12  2 18.9993874  0  7
C01  37489062.162   195215430.922        -394.976          31.000  
C04  38367468.155   199789448.883        -383.092          34.000  
C07  36315273.959   189103065.533         146.305          29.000  
C19  23177024.480   120688878.611       -3178.626          27.000  
G26  20110652.485   105682163.300        -210.546          24.000  
G32  21146236.365   111124196.765       -1757.546          38.000  
R05  19217027.529   102726025.863         370.200          32.000  
> 2021  9 30 12  2 19.9993871  0  7
C01  37489048.672   195215357.421        -394.761          31.000  
C04  38367451.666   199789363.504        -383.049          33.000  
C07  36315154.342   189102452.305         143.958          26.000  
C19  23177546.418   120691589.794       -3180.671          25.000  
G26  20110603.319   105681902.482        -212.520          24.000  
G32  21146476.799   111125482.493       -1759.165          39.000  
R05  19216868.639   102725176.610         369.023          32.000  
> 2021  9 30 12  2 20.9993869  0  7
C01  37489064.561   195215439.797        -394.678          31.000  
C04  38367464.557   199789434.213        -383.109          33.000  
C07  36315065.903   189101995.066         143.649          23.000  
C19  23178098.037   120694457.121       -3179.726          24.000  
G26  20110582.933   105681801.912        -215.491          24.000  
G32  21146753.807   111126925.816       -1756.722          37.000  
R05  19216739.728   102724487.639         368.091          32.000  
> 2021  9 30 12  2 21.9993866  0  8
C01  37489049.271   195215365.083        -393.257          31.000  
C04  38367448.068   199789348.730        -383.085          32.000  
C06  36303109.580   189039995.2241        205.490          31.000  
C07  36314950.783   189101382.698         143.841          19.000  
C19  23178618.476   120697168.689       -3180.520          25.000  
G26  20110533.168   105681544.677        -216.367          26.000  
G32  21146999.337   111128212.852       -1757.699          39.000  
R05  19216579.339   102723630.550         366.693          32.000  
> 2021  9 30 12  2 22.9993864  0  8
C04  38367462.159   199789419.134        -382.657          30.000  
C06  36303007.951   189039477.707         205.152          30.000  
C16  36664753.719   190922936.5381        238.299          32.000  
C19  23179170.094   120700037.825       -3182.711          22.000  
G22  23006237.513   120898594.1451        -19.098          18.000  
G26  20110511.882   105681446.056        -216.425          27.000  
G32  21147273.048   111129658.085       -1763.217          41.000  
R05  19216453.426   102722957.218         365.184          33.000  
> 2021  9 30 12  2 23.9993861  0  8
C01  37489049.571   195215370.6981       -393.148          31.000  
C04  38367445.970   199789333.222        -382.358          30.000  
C06  36302879.340   189038804.201         204.954          27.000  
C07  36314744.825   189100314.6441        144.040          25.000  
C16  36664614.316   190922230.670         238.068          32.000  
G26  20110465.115   105681190.621        -216.841          26.000  
G32  21147518.877   111130948.768       -1760.980          36.000  
R05  19216297.534   102722123.497         364.646          33.000  
> 2021  9 30 12  2 24.9993859  0  8
C01  37489065.760   195215451.606        -393.181          33.000  
C04  38367458.561   199789402.889        -381.599          32.000  
C06  36302780.408   189038287.230         203.768          29.000  
C07  36314657.586   189099857.791         146.208          26.000  
C16  36664505.791   190921680.068         236.958          32.000  
G26  20110444.129   105681091.449        -215.263          25.000  
G32  21147792.888   111132394.044       -1761.121          34.000  
R05  19216170.422   102721444.534         364.239          35.000  
> 2021  9 30 12  2 25.9993856  0  8
C01  37489051.670   195215376.336        -393.149          34.000  
C04  38367440.873   199789315.843        -381.344          32.000  
C06  36302651.797   189037614.680         204.097          30.000  
C16  36664370.884   190920975.067         235.905          31.000  
C19  23180767.988   120708336.7201      -3184.070          24.000  
G26  20110396.162   105680833.873        -214.525          25.000  
G32  21148035.420   111133680.861       -1760.385          32.000  
R05  19216012.731   102720601.105         363.104          33.000  
> 2021  9 30 12  2 26.9993853  0  8
C01  37489036.980   195215301.025        -393.438          32.000  
C04  38367423.485   199789228.554        -381.131          31.000  
C06  36302522.587   189036941.533         205.158          29.000  
C07  36314421.649   189098632.1881        143.315          20.000  
C16  36664235.078   190920270.334         236.489          32.000  
C19  23181291.426   120711052.896       -3185.255          23.000  
G26  20110346.996   105680575.648        -214.362          28.000  
R05  19215857.439   102719771.454         362.499          34.000  
> 2021  9 30 12  2 27.9993851  0  7
C01  37489052.869   195215382.373        -393.885          31.000  
C04  38367436.377   199789297.322        -381.109          33.000  
C06  36302423.355   189036423.928         205.379          28.000  
C16  36664128.352   190919721.971         237.468          28.000  
G26  20110329.309   105680475.694        -216.240          26.000  
G32  21148558.857   111136418.4601      -1764.335          37.000  
R05  19215733.325   102719107.839         361.844          32.000  
> 2021  9 30 12  2 28.9993848  0  7
C01  37489039.378   195215307.902        -394.374          32.000  
C04  38367420.188   199789209.965        -381.156          35.000  
C06  36302293.545   189035749.805         206.138          27.000  
C16  36663992.246   190919015.413         238.441          28.000  
G26  20110277.445   105680219.166        -216.197          26.000  
G32  21148803.188   111137709.329       -1762.818          33.000  
R05  19215578.932   102718282.776         360.666          33.000  
> 2021  9 30 12  2 29.9993846  0  6
C01  37489056.766   195215390.144        -395.003          32.000  
C04  38367433.079   199789278.934        -381.422          35.000  
C06  36302195.513   189035231.232         206.640          31.000  
C16  36663885.820   190918464.989         238.207          30.000  
G26  20110258.558   105680120.632        -217.792          21.000  
R05  19215450.321   102717595.012         359.930          33.000  
> 2021  9 30 12  2 30.9993843  0  6
C01  37489043.575   195215316.898        -395.421          34.000  
C04  38367416.590   199789191.991        -381.692          35.000  
C06  36302066.302   189034555.932         207.084          30.000  
C16  36663748.815   190917758.446         237.819          31.000  
G26  20110209.692   105679866.472        -219.152          26.000  
R05  19215294.428   102716761.728         359.041          34.000  
> 2021  9 30 12  2 31.9993841  0  7
C01  37489060.663   195215399.984        -395.368          32.000  
C04  38367430.081   199789261.223        -381.641          32.000  
C06  36301966.472   189034036.469         207.073          31.000  
C16  36663642.988   190917208.626         237.550          31.000  
G26  20110190.805   105679770.886        -219.984          26.000  
G32  21149597.638   111141897.0941      -1764.203          37.000  
R05  19215165.818   102716074.355         358.415          35.000  
> 2021  9 30 12  2 32.9993838  0  8
C01  37489047.173   195215327.066        -395.726          31.000  
C04  38367413.892   199789174.399        -381.696          33.000  
C06  36301836.362   189033361.092         206.472          29.000  
C16  36663507.182   190916502.053         238.262          30.000  
G22  23005515.613   120894750.4551        -27.264          19.000  
G26  20110142.838   105679518.559        -220.560          27.000  
J02  39288009.977   206459824.8401      -1117.786          34.000  
R05  19215007.527   102715227.545         357.733          35.000  
> 2021  9 30 12  2 33.9993838  0  8
C01  37489123.320   195215722.764        -395.991          34.000  
C04  38367487.041   199789556.074        -381.995          32.000  
C06  36301797.089   189033154.319         206.575          30.000  
C16  36663461.014   190916263.838         238.232          32.000  
G22  23005521.909   120894778.362         -29.058          23.000  
G26  20110184.209   105679738.644        -220.619          28.000  
J02  39288226.427                       -1116.333          35.000  
R05  19214936.776   102714849.377         356.624          35.000  
> 2021  9 30 12  2 34.9993836  0  8
C01  37489140.708   195215806.723        -396.530          33.000  
C04  38367499.633   199789625.723        -382.120          36.000  
C06  36301696.658   189032635.453         205.565          29.000  
C16  36663355.187   190915713.958         237.353          32.000  
G22  23005467.946   120894493.279         -30.358          26.000  
G26  20110166.521   105679644.263        -221.863          26.000  
J02  39288379.021   206461829.3231      -1119.394          34.000  
R05  19214808.165   102714161.709         355.532          34.000  
> 2021  9 30 12  2 35.9993833  0  8
C01  37489127.517   195215734.962        -396.986          33.000  
C04  38367483.144   199789539.419        -382.353          35.000  
C06  36301565.949   189031961.887         204.454          30.000  
C16  36663219.981   190915008.631         236.893          33.000  
G22  23005383.105   120894052.372         -32.634          25.000  
G26  20110120.653   105679393.375        -221.586          26.000  
J02  39288498.638   206462475.679       -1118.877          32.000  
R05  19214651.374   102713323.936         354.499          35.000  
> 2021  9 30 12  2 36.9993830  0  7
C01  37489113.427   195215663.673        -397.268          33.000  
C04  38367469.054   199789453.085        -381.176          34.000  
C06  36301436.738   189031289.083         203.681          29.000  
C16  36663085.674   190914303.152         237.111          34.000  
G22  23005297.664   120893612.611         -32.516          25.000  
J02  39288618.855   206463121.820       -1119.306          34.000  
R05  19214493.983   102712482.372         353.509          34.000  
> 2021  9 30 12  2 37.9993828  0  8
C01  37489128.716   195215748.746        -397.603          33.000  
C04  38367481.046   199789522.090        -381.511          33.000  
C06  36301337.807   189030772.317         204.395          29.000  
C16  36662980.447   190913753.023         237.612          33.000  
G22  23005242.802   120893330.404         -33.056          17.000  
G26  20110057.097   105679050.3681       -224.030          26.000  
J02  39288769.651   206463925.440       -1117.952          35.000  
R05  19214365.072   102711793.751         352.905          34.000  
> 2021  9 30 12  2 38.9993825  0  7
C01  37489113.727   195215677.846        -397.560          30.000  
C04  38367463.058   199789435.250        -381.730          34.000  
C06  36301207.697   189030098.739         205.492          29.000  
C16  36662845.240   190913046.392         240.235          31.000  
G22  23005158.260   120892891.060         -33.728          20.000  
G26  20110006.732   105678801.901        -225.229          25.000  
R05  19214209.180   102710960.516         352.169          35.000  
> 2021  9 30 12  2 39.9993823  0 10
C01  37489129.616   195215762.859        -397.163          33.000  
C04  38367475.350   199789505.020        -382.452          33.000  
C06  36301108.466   189029579.932         206.913          28.000  
C16  36662739.414   190912494.738         237.991          30.000  
G22  23005104.897   120892609.707         -34.242          20.000  
G26  20109987.845   105678711.233        -222.512          24.000  
G32  21151750.148   111153186.2781      -1767.618          34.000  
J02  39289048.158   206465377.2941      -1119.372          32.000  
J03  37268819.333   195848967.6371       -291.939          19.000  
R05  19214082.068   102710280.357         351.121          35.000  
> 2021  9 30 12  2 40.9993820  0  9
C01  37489115.525   195215691.671        -397.298          32.000  
C04  38367459.760   199789419.078        -382.852          36.000  
C06  36300979.855   189028905.312         205.544          25.000  
C16  36662604.207   190911788.829         237.169          31.000  
G22  23005021.255   120892171.356         -35.318          21.000  
G26  20109940.178   105678460.831        -223.630          27.000  
G32  21151995.079   111154481.771       -1768.461          34.000  
J02  39289168.675   206466022.120       -1117.478          31.000  
R05  19213925.576   102709443.909         350.188          34.000  
> 2021  9 30 12  2 41.9993818  0  8
C01  37489130.815   195215776.531        -397.204          32.000  
C04  38367473.551   199789489.664        -383.186          36.000  
C06  36300880.024   189028387.530         206.137          28.000  
C16  36662499.280   190911240.012         235.695          32.000  
G26  20109921.591   105678369.808        -223.757          24.000  
J02  39289319.770   206466825.421       -1118.924          33.000  
J03  37268780.960   195848762.4831       -291.684          20.000  
R05  19213800.563   102708776.429         349.545          34.000  
> 2021  9 30 12  2 42.9993812  0  7
C01  37489027.087   195215236.863        -396.747          33.000  
C04  38367367.424   199788935.887        -382.668          34.000  
C06  36300659.676   189027244.755         205.260          29.000  
C16  36662272.037   190910066.674         237.660          32.000  
G26  20109785.185   105677648.911        -225.286          26.000  
J02                                                                  39289362.940   154179899.2371       -834.692          30.000  
R05  19213554.733   102707461.818         348.597          33.000  
> 2021  9 30 12  2 43.9993810  0  8
C01  37489044.475   195215321.256        -396.393          31.000  
C04  38367380.615   199789006.046        -382.594          33.000  
C06  36300559.546   189026726.920         205.756          30.000  
C16  36662167.709   190909517.188         237.322          33.000  
G26  20109769.896   105677559.782        -226.557          25.000  
G32  21152710.683   111158215.1571      -1771.382          39.000  
J02  39289509.239   206467802.0051      -1116.940          34.000    39289515.534   154180499.486        -836.554          30.000  
R05  19213428.820   102706788.332         347.564          33.000  
> 2021  9 30 12  2 44.9993807  0  9
C01  37489030.085   195215249.061        -395.928          31.000  
C04  38367363.827   199788920.007        -382.347          32.000  
C06  36300429.436   189026052.991         205.261          29.000  
C16  36662032.503   190908811.692         237.057          30.000  
G22  23004648.014   120890268.4871        -37.066          21.000  
G26  20109721.929   105677313.335        -225.858          27.000  
G32  21152960.110                       -1770.533          39.000  
J02                                                                  39289638.149   154180982.477        -835.845          31.000  
R05  19213272.029   102705950.409         346.879          32.000  
> 2021  9 30 12  2 45.9993805  0  9
C01  37489045.674   195215332.393        -395.458          31.000  
C04  38367375.519   199788989.601        -381.588          31.000  
C06  36300330.204   189025535.484         205.001          30.000  
C16  36661926.976   190908261.772         237.763          30.000  
G22  23004592.552   120889990.230         -37.726          23.000  
G26  20109705.141   105677223.915        -226.217          25.000  
G32  21153235.919   111161011.7821      -1769.336          37.000  
J02                                                                  39289790.444   154181582.341        -835.049          30.000  
R05  19213147.315   102705284.404         346.372          32.000  
> 2021  9 30 12  2 46.9993802  0  7
C01  37489032.783   195215259.300        -395.217          33.000  
C06  36300200.694   189024861.615         205.297          28.000  
C16  36661790.571   190907555.003         238.370          32.000  
G26  20109657.174   105676978.190        -227.312          24.000  
G32  21153479.651   111162308.606       -1769.972          37.000  
J02  39289910.961                       -1120.250          36.000    39289913.359   154182063.647        -834.499          30.000  
R05  19212991.723   102704451.836         345.175          34.000  
> 2021  9 30 12  2 47.9993802  0  8
C01  37489108.630   195215653.987        -394.505          33.000  
C06  36300161.121   189024654.981         206.957          28.000  
C16  36661742.904   190907316.810         237.965          32.000  
G22  23004517.904   120889592.7401        -38.954          21.000  
G26  20109700.044   105677205.609        -227.515          27.000  
G32  21153816.318   111164078.975       -1771.065          32.000  
J02  39290126.212   206470995.6011      -1124.576          34.000    39290125.612   154182897.081        -833.532          27.000  
R05  19212925.468   102704097.808         344.503          35.000  
> 2021  9 30 12  2 48.9993800  0  8
C01  37489124.219   195215735.901        -394.152          34.000  
C04  38367446.869   199789351.4111       -381.075          32.000  
C06  36300061.590   189024135.913         205.652          29.000  
C16  36661639.175   190906766.822         237.024          34.000  
G26  20109683.856   105677118.443        -229.631          28.000  
G32  21154093.326   111165539.454       -1775.982          36.000  
J02  39290279.106                       -1121.143          34.000  
R05  19212800.155   102703428.154         343.942          34.000  
> 2021  9 30 12  2 49.9993797  0  7
C01  37489109.829   195215661.930        -394.516          32.000  
C04  38367430.680   199789263.933        -380.921          31.000  
C06  36299931.780   189023461.723         206.100          29.000  
C16  36661503.369   190906062.669         236.684          31.000  
G26  20109638.587   105676876.164        -230.438          25.000  
J02  39290401.121   206472456.9651      -1117.901          32.000  
R05  19212644.263   102702595.238         342.883          34.000  
> 2021  9 30 12  2 50.9993795  0  7
C01  37489126.318   195215743.905        -394.480          32.000  
C06  36299832.249   189022943.205         205.812          32.000  
C16  36661398.442   190905513.515         236.909          31.000  
G26  20109623.597   105676790.904        -229.778          24.000  
G32  21154617.663   111168299.6271      -1773.442          34.000  
J02  39290551.018   206473259.423       -1117.601          33.000  
R05  19212522.248   102701942.446         341.463          33.000  
> 2021  9 30 12  2 51.9993792  0  8
C01  37489112.228   195215669.935        -394.517          33.000  
C06  36299702.439   189022268.606         206.526          29.000  
C16  36661263.236   190904808.447         236.726          34.000  
G22  23004250.789   120888176.5201        -44.425          19.000  
G26  20109578.329   105676548.252        -230.318          25.000  
G32  21154867.390   111169601.243       -1776.812          35.000  
J02  39290671.534   206473904.654       -1118.211          34.000  
R05  19212371.152   102701134.701         340.667          32.000  
> 2021  9 30 12  2 52.9993789  0  7
C01  37489098.137   195215596.108        -394.732          33.000  
C06  36299570.830   189021593.831         206.568          29.000  
C16  36661128.929   190904103.512         236.700          33.000  
G26  20109532.161   105676306.806        -232.256          24.000  
G32  21155113.520   111170904.723       -1775.485          38.000  
J02  39290792.950   206474549.854       -1118.615          36.000  
R05  19212221.556   102700335.023         340.242          31.000  
> 2021  9 30 12  2 53.9993787  0  6
C01  37489113.427   195215678.744        -395.165          32.000  
C06  36299471.299   189021075.997         204.912          29.000  
C16  36661023.701   190903554.830         236.629          32.000  
G22  23004120.079   120887480.4611        -44.420          18.000  
G26  20109513.274   105676223.606        -230.990          24.000  
R05  19212098.941   102699679.748         339.597          32.000  
> 2021  9 30 12  2 54.9993784  0  7
C01  37489099.636   195215605.553        -395.439          34.000  
C06  36299342.388   189020401.997         205.340          29.000  
C16  36660886.097   190902849.291         235.655          33.000  
G22  23004040.334   120887051.105         -43.013          23.000  
G26  20109467.705   105675981.651        -232.194          26.000  
G32  21155637.857   111173668.1901      -1775.629          35.000  
R05  19211949.044   102698879.040         338.595          34.000  
> 2021  9 30 12  2 55.9993782  0  6
C01  37489116.125   195215688.756        -395.648          34.000  
C06  36299243.157   189019883.861         205.895          28.000  
C16  36660780.570   190902299.820         237.650          32.000  
G26  20109451.217   105675898.845        -233.413          27.000  
J02  39291223.152   206476800.0571      -1117.656          33.000  
R05  19211827.628   102698229.973         338.202          34.000  
> 2021  9 30 12  2 56.9993779  0  8
C01  37489102.934   195215616.066        -395.857          32.000  
C04  38367416.290   199789185.3871       -394.552          27.000  
C06  36299113.047   189019210.068         204.151          28.000  
C16  36660644.764   190901593.440         239.050          32.000  
G26  20109404.749   105675659.468        -233.278          27.000  
G32  21156166.990   111176435.0421      -1777.746          34.000  
J02  39291343.669   206477445.386       -1118.505          34.000  
R05  19211673.235   102697404.000         336.372          35.000  
> 2021  9 30 12  2 57.9993777  0  6
C01  37489119.123   195215699.497        -395.609          31.000  
C06  36299012.017   189018693.416         204.419          30.000  
C16  36660538.937   190901042.808         238.037          28.000  
G16  21778809.844   114448418.8411       2308.723          24.000  
J02  39291493.865   206478248.372       -1117.644          27.000  
R05  19211550.320   102696747.230         335.867          34.000  
> 2021  9 30 12  2 58.9993774  0  6
C01  37489104.733   195215626.019        -394.140          30.000  
C06  36298882.806   189018019.690         206.011          29.000  
C16  36660403.731   190900337.279         236.259          34.000  
G16  21778274.414   114445637.778        2307.985          19.000  
G22  23003762.427   120885654.2781        -43.937          16.000  
R05  19211398.625   102695935.961         335.184          32.000  
> 2021  9 30 12  2 59.9993772  0  6
C06  36298784.474   189017501.164         207.065          26.000  
C16  36660298.204   190899787.575         237.564          31.000  
G16  21777774.960   114443014.233        2308.468          21.000  
G26  20109324.105   105675259.6731       -236.517          25.000  
G32  21156967.736   111180665.2881      -1779.250          34.000  
R05  19211279.308   102695298.764         334.259          31.000  
> 2021  9 30 12  3  0.9993769  0  8
C01  37489105.332   195215633.2091       -394.031          30.000  
C04  38367406.397   199789157.4821       -378.338          31.000  
C06  36298656.763   189016825.936         206.969          29.000  
C16  36660162.398   190899081.559         238.053          31.000  
G16  21777241.929   114440232.739        2309.032          20.000  
G22  23003627.820   120884960.8001        -47.388          14.000  
G26  20109277.337   105675023.184        -235.773          23.000  
R05  19211129.112   102694495.414         333.011          31.000  
> 2021  9 30 12  3  1.9993769  0  5
C06  36298617.490   189016619.231         205.776          31.000  
C16  36660117.729   190898843.776         237.049          32.000  
G26  20109323.505   105675257.863        -233.984          24.000  
J02  39292106.641   206481457.3691      -1116.641          32.000  
R05  19211067.954   102694168.673         332.620          33.000  
> 2021  9 30 12  3  2.9993766  0  4
C06  36298488.279   189015945.236         205.263          27.000  
C16  36659979.524                         238.487          34.000  
G26  20109277.637   105675019.567        -234.974          29.000  
R05  19210913.261   102693341.764         331.523          32.000  
> 2021  9 30 12  3  3.9993764  0  8
C01  37489183.578   195216035.1291       -394.371          29.000  
C06  36298388.748   189015427.306         205.861          26.000  
C16  36659873.698                         237.978          35.000  
G22  23003505.804   120884311.8681        -45.660          15.000  
G26  20109261.448   105674939.572        -235.577          28.000  
G32  21158082.964   111186521.1931      -1780.230          35.000  
J02  39292384.548                       -1119.091          38.000  
R05  19210789.447   102692680.068         330.800          33.000  
> 2021  9 30 12  3  4.9993761  0  4
C06  36298257.739   189014752.937         206.554          31.000  
C16  36659739.391   190896876.3081        239.682          31.000  
J02  39292507.163   206483517.7541      -1115.717          37.000  
R05  19210638.052   102691870.868         330.061          33.000  
> 2021  9 30 12  3  5.9993759  0  5
C01  37489188.375   195216043.1111       -394.385          30.000  
C06  36298158.508   189014233.709         207.948          30.000  
C16  36659634.163   190896325.316         237.989          29.000  
J02  39292657.659   206484320.119       -1116.818          31.000  
R05  19210514.238   102691208.667         329.225          35.000  
> 2021  9 30 12  3  6.9993756  0  5
C06  36298029.297   189013557.616         207.942          31.000  
C16  36659497.758   190895619.127         238.071          31.000  
G26  20109165.814   105674389.3451       -237.421          35.000  
J02  39292778.475   206484964.042       -1116.424          36.000  
R05  19210361.643   102690393.008         328.601          36.000  
> 2021  9 30 12  3  7.9993754  0  4
C06  36297928.867   189013037.377         207.040          26.000  
C16  36659391.931   190895068.708         237.689          32.000  
G26  20109149.326                        -233.872          34.000  
R05  19210237.529   102689729.148         328.028          33.000  
> 2021  9 30 12  3  8.9993751  0  5
C06  36297799.656   189012362.266         206.249          28.000  
C16  36659256.725   190894362.807         236.884          29.000  
G22  23003160.144   120882488.1281        -46.834          25.000  
G26  20109104.956   105674058.1801       -237.509          34.000  
R05  19210083.736   102688906.983         327.032          34.000  
> 2021  9 30 12  3  9.9993746  0  6
C06  36297608.988   189011375.395         205.737          30.000  
C16  36659058.562   190893345.153         237.400          30.000  
G22  23003017.742   120881748.094         -47.776          24.000  
G26  20108998.230   105673509.076        -239.423          33.000  
J02  39293111.845   206486736.5991      -1116.451          31.000  
R05  19209872.382   102687777.475         325.841          33.000  
> 2021  9 30 12  3 10.9993743  0  6
C06  36297478.878   189010701.202         206.268          27.000  
C07  36309914.269   189075203.9361        140.805          35.000  
C16  36658922.456   190892638.731         238.641          30.000  
G22  23002937.997   120881323.507         -47.047          20.000  
G26  20108953.561                        -237.236          34.000  
R05  19209715.291   102686938.374         325.014          32.000  
> 2021  9 30 12  3 11.9993741  0  7
C06  36297379.347   189010182.873         205.478          28.000  
C07  36309822.533   189074750.964         139.884          34.000  
C16  36658815.730   190892087.701         239.019          29.000  
G22  23002880.737   120881054.469         -46.022          18.000  
G26  20108940.970                        -241.231          35.000  
G32  21160107.462   111197150.1391      -1781.478          36.000  
R05  19209595.674   102686298.318         323.687          34.000  
> 2021  9 30 12  3 12.9993738  0  8
C06  36297249.837   189009508.597         205.743          27.000  
C07  36309705.614   189074142.620         139.697          32.000  
C16  36658679.924   190891380.529         238.360          30.000  
G22  23002792.898   120880627.801         -47.036          19.000  
G26  20108897.500   105672959.4281       -242.397          39.000  
G32  21160355.691   111198459.096       -1782.011          36.000  
J02  39293515.066   206488825.0891      -1117.137          21.000  
R05  19209445.777   102685497.318         322.532          39.000  
> 2021  9 30 12  3 13.9993736  0  6
C06  36297149.706   189008989.971         206.926          28.000  
C07  36309617.175   189073690.582         140.828          33.000  
C16  36658574.097   190890829.869         238.421          32.000  
G26  20108884.309                        -242.504          40.000  
J02  39293667.060   206489625.480       -1114.783          24.000  
R05  19209326.160   102684857.742         321.483          40.000  
> 2021  9 30 12  3 14.9993733  0  6
C06  36297019.296   189008315.030         204.883          21.000  
C07  36309498.757                         139.192          35.000  
C16  36658439.191   190890123.929         239.190          26.000  
G26  20108840.839   105672656.2841       -243.522          39.000  
J02  39293789.376   206490266.948       -1113.643          31.000  
R05  19209176.864   102684059.731         321.467          38.000  
> 2021  9 30 12  3 15.9993733  0  7
C01  37489183.878   195215910.1811       -390.794          30.000  
C07  36309473.275   189072949.4161        141.407          36.000  
C22  22171921.098   115455012.2811       -576.966          39.000  
G26  20108886.408   105672899.480        -241.678          35.000  
G32  21161232.584   111203014.8811      -1780.958          25.000  
J02  39294000.729   206491380.337       -1113.542          29.000  
R05  19209120.802   102683759.637         320.121          37.000  
> 2021  9 30 12  3 16.9993731  0  7
C06  36296873.597   189007591.4271        206.251          19.000  
C07  36309386.335   189072497.555         140.056          36.000  
C22  22171974.162   115455278.363        -578.278          37.000  
G26  20108873.816   105672828.000        -243.708          34.000  
G32  21161532.376   111204480.568       -1780.987          25.000  
J02  39294153.324   206492179.426       -1114.634          29.000  
R05  19209007.481   102683154.118         319.600          36.000  
> 2021  9 30 12  3 17.9993728  0  8
C01  37489192.272   195215910.0641       -389.592          31.000  
C06  36296744.387   189006916.133         207.023          23.000  
C07  36309271.215   189071889.606         139.681          36.000  
C22  22171996.047   115455388.816        -578.702          37.000  
G26  20108832.145   105672599.538        -244.510          35.000  
G32  21161802.189   111205789.246       -1781.528          25.000  
J02  39294278.037   206492821.020       -1114.260          30.000  
R05  19208858.484   102682357.461         317.978          36.000  
> 2021  9 30 12  3 18.9993725  0  7
C07  36309152.497   189071281.820         139.229          36.000  
C16  36658026.976   190887915.6521        239.418          27.000  
C22  22172015.533   115455499.788        -578.764          37.000  
G26  20108787.476   105672371.580        -244.543          34.000    20108787.476    78911201.5541       -182.440          30.000  
J01                                                                  36230645.546   142176836.0561        128.049          25.000  
J02  39294401.552   206493462.876       -1114.355          30.000  
R05  19208704.990   102681537.702         317.567          36.000  
> 2021  9 30 12  3 19.9993723  0  9
C01  37489195.570   195215907.9081       -389.306          31.000  
C07  36309066.456   189070830.185         138.740          36.000  
C16  36657922.049   190887364.275         238.384          28.000  
C22  22172067.697   115455767.389        -580.386          37.000  
G26  20108774.285   105672301.656        -245.962          34.000    20108774.285    78911149.636        -183.759          29.000  
G32  21162361.902   111208962.5411      -1783.234          27.000  
J01                                                                  36230552.910   142176472.663         129.801          25.000  
J02  39294552.947   206494262.257       -1114.700          31.000  
R05  19208591.369   102680929.714         317.176          36.000  
> 2021  9 30 12  3 20.9993720  0  9
C01  37489180.880   195215828.872        -389.539          31.000  
C07  36308948.938   189070222.617         139.846          36.000  
C16  36657786.842   190886657.734         238.061          27.000  
C22  22172088.383   115455879.445        -580.052          37.000  
G26  20108733.214   105672074.752        -246.259          34.000    20108731.115    78910980.418        -185.013          30.000  
G32  21162607.732   111210273.486       -1784.402          28.000  
J01                                                                  36230429.396   142175989.389         130.179          25.000  
J02  39294676.761   206494904.716       -1115.132          29.000  
R05  19208434.877   102680093.194         315.374          36.000  
> 2021  9 30 12  3 21.9993718  0 11
C01  37489195.870   195215906.010        -389.456          31.000  
C07  36308862.597   189069771.279         138.154          36.000  
C16  36657681.315   190886106.725         239.573          27.000  
C22  22172139.347   115456148.102        -581.390          37.000  
G26  20108715.526   105672005.996        -247.469          34.000    20108718.224    78910930.213        -184.458          29.000  
G29  23746616.959   124789315.2661      -1016.105          24.000  
G32  21162872.448   111211742.662       -1784.446          29.000  
J01                                                                  36230336.460   142175623.768         130.767          26.000  
J02  39294829.955   206495704.507       -1114.521          30.000  
R04  20577580.737   110192010.9231      -3536.562          26.000  
R05  19208315.860   102679457.302         315.616          36.000  
> 2021  9 30 12  3 22.9993715  0  9
C01  37489180.281   195215826.912        -389.222          31.000  
C07  36308746.878   189069163.901         139.883          36.000  
C16  36657546.409   190885398.580         239.877          28.000  
C22  22172160.932   115456261.185        -582.110          37.000  
G26  20108673.555   105671780.158        -247.435          34.000    20108675.054    78910761.576        -183.971          29.000  
J01                                                                  36230213.845   142175141.058         129.386          25.000  
J02  39294951.971   206496346.288       -1114.207          30.000  
R04  20578156.039   110195091.610       -3537.446          26.000  
R05  19208164.165   102678645.805         313.625          36.000  
> 2021  9 30 12  3 23.9993713  0 10
C01  37489195.270   195215903.806        -389.017          31.000  
C06  36296058.462   189003326.9161        208.869          19.000  
C07  36308657.539   189068712.880         137.434          36.000  
C16  36657440.582   190884846.402         240.079          27.000  
C22  22172213.396   115456531.018        -582.962          36.000  
G26  20108661.263   105671712.524        -248.908          34.000    20108662.163    78910711.405        -186.296          30.000  
J01                                                                  36230122.108   142174776.582         128.867          25.000  
J02  39295104.565   206497145.373       -1113.740          29.000  
J03  37268014.990   195844741.2711       -287.276          23.000  
R05  19208043.048   102677998.894         312.591          37.000  
> 2021  9 30 12  3 24.9993710  0 12
C01  37489181.180   195215824.392        -389.092          31.000  
C06  36295928.951   189002649.557         209.501          19.000  
C07  36308544.518   189068106.030         138.468          36.000  
C16  36657302.977   190884138.038         239.614          27.000  
C22  22172234.681   115456645.416        -582.881          37.000  
C30  25114567.547   130778144.0981        775.729          28.000  
G26  20108621.091   105671488.138        -249.360          34.000    20108620.192    78910543.791        -185.558          30.000  
G32                                                                  21163597.346    83050442.0211      -1334.608          25.000  
J01                                                                  36230000.393   142174296.183         127.539          26.000  
J02  39295228.080   206497786.899       -1114.807          29.000    39295229.279   154202912.6361       -831.057          27.000  
R04  20579328.228   110201369.0591      -3538.373          24.000  
R05  19207905.744   102677264.441         312.263          37.000  
> 2021  9 30 12  3 25.9993708  0 12
C01  37489196.469   195215901.187        -389.143          31.000  
C07  36308456.379   189067655.440         137.731          36.000  
C16  36657196.551   190883586.934         237.751          27.000  
C22  22172286.246   115456916.486        -585.123          37.000  
C30  25114357.992   130777055.816         775.460          27.000  
G26  20108607.301   105671421.645        -249.388          34.000    20108607.601    78910494.631        -187.287          30.000  
G32                                                                  21163878.252    83051542.251       -1334.414          26.000  
J01                                                                  36229907.157   142173933.019         128.572          27.000  
J02  39295380.074   206498586.532       -1114.688          30.000    39295380.974   154203508.856        -831.948          27.000  
J03  37267970.321   195844525.2131       -285.938          22.000  
R04  20579932.909   110204606.607       -3537.222          26.000  
R05  19207784.927   102676619.278         311.238          37.000  
> 2021  9 30 12  3 26.9993705  0 12
C01  37489181.780   195215821.850        -389.101          31.000  
C06  36295697.811   189001450.2521        207.017          20.000  
C07  36308339.460   189067048.785         139.343          36.000  
C16  36657058.646   190882881.048         236.612          27.000  
C22  22172308.730   115457031.958        -583.290          38.000  
G26  20108564.131   105671198.237        -249.105          35.000    20108564.730    78910328.255        -186.675          30.000  
G29  23747227.037   124792363.1071      -1023.530          19.000  
G32                                                                  21164126.780    83052523.025       -1332.587          25.000  
J01  36229776.747   190388761.8351        172.313          29.000    36229784.242   142173451.201         128.533          26.000  
J02  39295502.090   206499227.609       -1113.322          30.000    39295502.989   154203986.905        -831.310          27.000  
J03  37267933.746   195844338.783        -285.418          22.000  
R05  19207635.031   102675817.698         311.114          37.000  
> 2021  9 30 12  3 27.9993702  0 11
C01  37489166.790   195215742.467        -389.059          32.000  
C07  36308222.840   189066442.418         138.442          36.000  
C16  36656923.140   190882175.638         237.093          26.000  
C22  22172330.915   115457148.088        -583.835          38.000  
C30  25113879.223   130774568.9871        775.015          26.000  
G26  20108520.361   105670975.554        -249.474          35.000    20108522.460    78910162.471        -187.487          30.000  
G32  21164378.606   111219561.0711      -1787.780          35.000    21164375.907    83053504.470       -1335.576          24.000  
J01  36229649.036   190388117.231         170.617          26.000    36229661.927   142172970.340         127.673          26.000  
J02  39295624.705   206499868.618       -1113.521          30.000    39295625.604   154204466.534        -834.254          27.000  
J03  37267900.469   195844151.698        -286.177          20.000  
R05  19207491.730   102675051.531         309.450          37.000  
> 2021  9 30 12  3 28.9993700  0 12
C01  37489182.079   195215819.311        -389.367          32.000  
C07  36308137.100   189065992.377         137.953          36.000  
C16  36656816.414   190881625.806         237.420          27.000  
C22  22172383.378   115457420.932        -585.481          37.000  
C30  25113669.668   130773481.942         774.770          28.000  
G26  20108508.669   105670910.957        -251.999          35.000    20108509.868    78910114.264        -187.425          30.000  
G29  23747465.672   124793621.7481      -1023.148          18.000  
G32                                                                  21164655.014    83054606.187       -1336.454          23.000  
J01  36229566.593   190387631.191         170.354          25.000    36229569.891   142172608.679         126.065          26.000  
J02  39295776.700   206500667.341       -1113.945          30.000    39295777.599   154205063.996        -832.444          26.000  
R04  20581681.299   110213968.8581      -3540.878          29.000  
R05  19207370.914   102674406.008         308.371          37.000  
> 2021  9 30 12  3 29.9993700  0 10
C01  37489256.728   195216208.598        -389.450          31.000  
C07  36308109.819   189065854.643         137.832          36.000  
C22  22172497.300   115458006.519        -585.226          37.000  
C30  25113521.871   130772707.959         774.164          27.000  
G26  20108559.634   105671162.033        -249.897          36.000    20108557.535    78910301.087        -186.898          30.000  
G32                                                                  21164994.079    83055942.523       -1337.503          24.000  
J01                                                                  36229537.213   142172481.340         127.651          26.000  
J02  39295988.653   206501781.131       -1114.170          31.000    39295989.553   154205896.054        -830.833          26.000  
R04  20582338.144   110217486.292       -3541.906          28.000  
R05  19207313.653   102674099.754         307.697          37.000  
> 2021  9 30 12  3 30.9993697  0 10
C01  37489241.138   195216129.802        -390.046          32.000  
C07  36307994.998   189065248.765         136.334          36.000  
C22  22172518.585   115458124.387        -586.385          37.000  
C30  25113285.634   130771466.085         772.942          26.000  
E08                                                                                                                                  22113014.878    86776117.0361      -1102.815          27.000  
G26  20108516.164   105670941.085        -252.220          35.000    20108515.564    78910136.028        -189.977          29.000  
J01  36229384.319   190386817.7431        171.233          21.000    36229414.598   142171999.553         130.738          27.000  
J02  39296111.268   206502422.540       -1113.947          30.000    39296110.968   154206375.875        -833.209          26.000  
R04  20582911.347   110220556.507       -3542.162          26.000  
R05  19207169.153   102673327.638         307.115          37.000  
> 2021  9 30 12  3 31.9993695  0 12
C01  37489256.128   195216207.761        -390.781          30.000  
C07  36307907.159   189064799.059         137.323          36.000  
C16  36656525.016   190880132.3681        240.104          28.000  
C22  22172570.749   115458398.756        -587.343          37.000  
C30  25113078.178   130770381.292         772.907          26.000  
E08                                                                                                                                  22113238.224    86776984.097       -1101.743          26.000  
G26  20108506.571   105670878.060        -252.616          34.000    20108503.872    78910089.456        -188.671          29.000  
G32  21165530.708   111225615.3591      -1789.024          39.000  
J01  36229281.790   190386331.491         171.840          20.000    36229321.663   142171634.434         126.822          26.000  
J02  39296262.364   206503221.163       -1113.733          30.000    39296262.364   154206972.909        -832.045          26.000  
R04  20583510.932   110223766.479       -3542.298          26.000  
R05  19207054.333   102672713.266         306.628          38.000  
> 2021  9 30 12  3 32.9993692  0 12
C01  37489241.138   195216130.261        -391.199          30.000  
C07  36307789.940   189064193.406         136.624          36.000  
C16  36656388.310   190879424.339         239.158          27.000  
C22  22172593.533   115458517.715        -587.312          37.000  
C30  25112841.042   130769140.138         772.195          26.000  
E08                                                                                                                                  22113429.192    86777733.563       -1103.259          26.000  
G26  20108463.400   105670658.217        -253.358          35.000    20108461.901    78909925.513        -188.883          30.000  
G32  21165780.135   111226932.160       -1789.831          39.000  
J01  36229160.374   190385688.131         170.835          21.000    36229200.247   142171155.408         125.092          26.000  
J02  39296382.880   206503862.312       -1114.285          31.000    39296384.679   154207452.695        -832.236          26.000  
R04  20584079.938   110226814.201       -3542.678          29.000  
R05  19206898.441   102671880.639         304.497          37.000  
> 2021  9 30 12  3 33.9993690  0 11
C01  37489255.229   195216209.241        -391.188          30.000  
C07  36307702.101   189063744.055         136.442          36.000  
C16  36656282.484   190878873.079         238.701          27.000  
C22  22172647.795   115458793.290        -587.984          37.000  
C30  25112631.787   130768055.535         772.929          27.000  
E08                                                                                                                                  22113650.438    86778602.551       -1105.760          26.000  
G26  20108450.809   105670596.390        -254.758          35.000    20108449.910    78909879.459        -189.410          30.000  
G32  21166061.940   111228407.018       -1789.429          39.000  
J01  36229068.638   190385200.539         172.558          23.000    36229108.210   142170794.801         124.358          27.000  
J02  39296536.374   206504661.515       -1114.335          31.000    39296536.374   154208048.202        -830.207          26.000  
R05  19206783.620   102671266.563         304.924          37.000  
> 2021  9 30 12  3 34.9993687  0 10
C07  36307587.880   189063139.124         136.008          36.000  
C16  36656145.479   190878166.032         239.269          28.000  
C22  22172668.181   115458913.784        -589.801          37.000  
C30  25112394.951   130766814.857         771.594          25.000  
E08                                                                                                                                  22113844.404    86779355.833       -1104.748          24.000  
G26  20108407.639   105670378.084        -254.840          36.000    20108408.239    78909715.920        -189.204          29.000  
G32  21166314.665   111229725.202       -1791.455          39.000  
J01                                                                  36228985.295   142170316.972         127.115          26.000  
J02  39296658.389   206505303.208       -1114.064          31.000    39296657.490   154208524.531        -829.144          25.000  
R05  19206636.722   102670481.190         302.092          38.000  
> 2021  9 30 12  3 35.9993684  0 11
C07  36307473.359   189062534.661         137.452          35.000  
C16  36656009.373   190877458.790         238.693          29.000  
C22  22172684.670   115459035.342        -590.204          36.000  
C30  25112157.515   130765575.702         768.790          27.000  
G26  20108362.970   105670160.664        -254.736          36.000    20108365.968    78909552.399        -189.043          28.000  
G29  23748348.261   124798261.3051      -1022.096          19.000  
G32  21166570.688   111231044.265       -1792.698          40.000  
J01                                                                  36228862.980   142169837.833         126.070          24.000  
J02  39296781.604   206505944.538       -1114.232          29.000    39296779.805   154209003.386        -832.509          26.000  
R04  20585820.533   110236134.4491      -3545.628          24.000  
R05  19206488.625   102669689.757         301.658          38.000  
> 2021  9 30 12  3 36.9993682  0 10
C07  36307387.019   189062086.225         135.366          32.000  
C22  22172738.333   115459313.036        -589.858          30.000  
G22  23001220.187   120872228.1121        -56.367          17.000  
G26  20108344.083   105670101.175        -255.115          34.000    20108353.976    78909507.647        -191.991          26.000  
G29  23748489.763   124798967.550       -1022.143          18.000  
G32  21166852.193   111232521.138       -1791.330          38.000  
J01  36228735.868   190383427.6681        172.154          20.000    36228771.244   142169476.494         126.697          24.000  
J02                                                                  39296931.500   154209601.532        -832.768          26.000  
R04  20586417.420   110239331.315       -3546.365          22.000  
R05  19206377.701   102669097.014         302.117          36.000  
> 2021  9 30 12  3 37.9993679  0 10
C07  36307269.800   189061481.506         137.122          31.000  
C16  36655755.748   190876201.3581        238.504          27.000  
C22  22172762.916   115459434.981        -591.712          30.000  
C30  25111712.323   130763256.3561        769.261          20.000  
G22  23001141.341   120871812.628         -58.011          16.000  
G26  20108311.705   105669884.171        -257.228          30.000    20108312.605    78909346.514        -190.033          26.000  
J01  36228611.754   190382782.210         172.344          19.000    36228648.029   142168995.112         128.324          22.000  
J02  39297056.814   206507386.8561      -1115.123          27.000    39297051.717   154210080.792        -832.368          27.000  
R04  20586993.021   110242412.938       -3546.611          17.000  
R05  19206232.602   102668321.316         301.615          35.000  
> 2021  9 30 12  3 38.9993677  0  9
C07  36307184.359   189061033.477         134.252          33.000  
C22  22172816.578   115459713.929        -592.637          31.000  
C30  25111519.257   130762173.779         771.447          22.000  
G22  23001095.473   120871554.270         -55.157          15.000  
G26  20108302.412   105669825.809        -257.298          36.000    20108301.513    78909302.768        -192.189          25.000  
G32  21167362.140   111235318.3131      -1793.880          34.000  
J01  36228523.615   190382294.764         170.382          20.000    36228556.592   142168633.206         125.175          19.000  
J02  39297207.909   206508186.279       -1114.128          31.000    39297204.012   154210676.984        -831.166          25.000  
R05  19206115.983   102667697.938         300.216          36.000  
> 2021  9 30 12  3 39.9993672  0  8
C07  36307006.582   189060117.117         136.626          33.000  
C22  22172782.102   115459524.985        -591.721          32.000  
G22  23000957.868   120870819.241         -49.829          14.000  
G26  20108200.782   105669295.311        -256.991          36.000    20108199.883    78908906.345        -191.962          26.000  
G32  21167555.206   111236324.007       -1793.773          38.000  
J01  36228365.924   190381337.435         167.852          21.000    36228376.117   142167918.638         126.638          21.000  
J02  39297269.966   206508512.898       -1113.958          30.000    39297265.469   154210919.443        -831.169          26.000  
R05  19205910.925   102666601.238         298.978          36.000  
> 2021  9 30 12  3 40.9993669  0  8
C07  36306892.661   189059513.103         136.971          33.000  
C22  22172806.685   115459648.804        -593.824          32.000  
G22  23000880.222   120870396.173         -49.213          13.000  
G26  20108154.914   105669080.391        -256.391          35.000    20108159.111    78908745.758        -193.850          26.000  
G32  21167802.535   111237645.202       -1796.077          38.000  
J01  36228267.592   190380696.409         168.382          24.000    36228255.001   142167439.823         126.658          23.000  
J02  39297391.382   206509154.196       -1113.835          31.000    39297387.785   154211398.307        -832.615          26.000  
R05  19205753.533   102665760.333         298.150          36.000  
> 2021  9 30 12  3 41.9993667  0  8
C07  36306807.820   189059065.577         134.252          33.000  
C22  22172861.847   115459929.570        -592.047          32.000  
G22  23000830.756   120870128.332         -45.879          10.000  
G26  20108144.721   105669023.790        -260.820          34.000    20108148.019    78908703.312        -192.668          26.000  
G32  21168085.539   111239124.726       -1795.011          36.000  
J01  36228197.741   190380212.807         167.954          25.000    36228162.365   142167077.922         126.022          23.000  
J02  39297542.477   206509952.680       -1113.910          30.000    39297540.379   154211995.373        -832.619          27.000  
R05  19205641.711   102665162.148         296.741          36.000  
> 2021  9 30 12  3 42.9993664  0  9
C07  36306692.400   189058461.930         136.471          33.000  
C22  22172884.032   115460054.602        -594.030          32.000  
G22  23000755.209   120869703.872         -50.597          12.000  
G26  20108102.151   105668810.192        -258.217          35.000    20108107.247    78908542.417        -192.974          25.000  
G32  21168339.164   111240447.130       -1798.494          37.000    21168367.044    83069114.7931      -1342.062          27.000  
J01                                                                  36228040.050   142166599.641         125.701          22.000  
J02  39297663.594   206510593.728       -1114.049          29.000    39297663.893   154212476.147        -833.422          25.000  
R04  20589864.733   110257791.5111      -3549.072          20.000  
R05  19205496.012   102664383.890         296.382          36.000  
> 2021  9 30 12  3 43.9993664  0  9
C07  36306660.022   189058326.723         134.671          32.000  
C22  22173004.249   115460648.458        -594.203          32.000  
G22  23000772.896   120869756.800         -55.516          11.000  
G26  20108154.914   105669069.598        -259.935          35.000    20108157.612    78908735.902        -192.325          26.000  
G32                                                                  21168711.506    83070456.495       -1342.936          27.000  
J01                                                                  36228007.672   142166472.990         124.954          22.000  
J02  39297874.947   206511707.872       -1114.457          29.000    39297875.847   154213307.631        -829.264          24.000  
R04  20590519.780   110261298.773       -3549.872          22.000  
R05  19205442.649   102664098.074         294.113          37.000  
> 2021  9 30 12  3 44.9993661  0  9
C07  36306547.300   189057723.488         135.892          32.000  
C16  36654894.744   190871721.4691        237.551          27.000  
C22  22173026.133   115460774.711        -594.548          32.000  
G22  23000704.544   120869341.002         -59.219          13.000  
G26  20108112.943   105668857.149        -261.266          35.000    20108116.541    78908575.753        -194.040          26.000  
G32  21168927.956   111243565.7901      -1795.472          31.000    21168965.730    83071445.039       -1341.035          27.000  
J01                                                                  36227885.657   142165995.490         125.633          20.000  
J02  39297997.562   206512349.202       -1114.108          29.000    39297996.663   154213785.299        -831.654          24.000  
R05  19205299.648   102663333.336         294.400          36.000  
> 2021  9 30 12  3 45.9993659  0 10
C07  36306465.157   189057276.423         135.136          33.000  
C16  36654791.016   190871171.782         237.759          29.000  
C22  22173081.595   115461057.533        -596.411          34.000  
G22  23000662.872   120869090.662         -67.850          14.000  
G26  20108102.450   105668802.715        -262.704          34.000    20108106.348    78908535.112        -194.744          26.000  
G32                                                                  21169249.633    83072551.172       -1340.738          26.000  
J01                                                                  36227792.421   142165633.448         126.311          21.000  
J02  39298148.958   206513148.734       -1114.724          31.000    39298148.358   154214382.155        -832.334          23.000  
R04  20591685.373   110267540.8571      -3552.838          23.000  
R05  19205174.634   102662665.273         292.711          36.000  
> 2021  9 30 12  3 46.9993656  0  9
C07  36306350.337   189056673.493         134.803          33.000  
C16  36654657.309   190870465.700         237.906          28.000  
C22  22173104.379   115461184.834        -597.093          35.000  
C30  25109763.972   130753130.7851        768.314          21.000  
G26  20108062.278   105668591.391        -260.437          33.000    20108066.475    78908376.672        -194.777          26.000  
G32  21169456.790   111246372.4521      -1795.570          28.000    21169502.358    83073540.432       -1341.512          27.000  
J01                                                                  36227670.106   142165154.644         125.595          22.000  
J02  39298272.472   206513790.515       -1114.266          30.000    39298270.673   154214861.912        -832.793          23.000  
R05  19205030.434   102661894.945         291.594          35.000  
> 2021  9 30 12  3 47.9993654  0  9
C07  36306262.797   189056226.679         134.207          35.000  
C16  36654555.379   190869916.040         237.342          28.000  
C22  22173160.440   115461468.361        -596.600          35.000  
C30  25109554.117   130752049.707         767.764          16.000  
G26  20108054.783   105668537.865        -262.842          36.000    20108057.481    78908337.005        -195.098          30.000  
G32                                                                  21169786.862    83074646.957       -1341.749          26.000  
J01  36227702.483   190377862.4521        168.184          29.000    36227577.470   142164792.280         127.346          24.000  
J02  39298425.666   206514590.444       -1115.282          30.000    39298422.968   154215458.649        -832.257          24.000  
R05  19204916.813   102661287.523         292.001          36.000  
> 2021  9 30 12  3 48.9993651  0  8
C07  36306147.977   189055624.529         132.869          36.000  
C22  22173188.921   115461597.361        -599.034          39.000  
C30  25109323.577   130750814.128         766.374          20.000  
G26  20108015.511   105668328.324        -264.438          33.000    20108019.108    78908180.558        -197.504          31.000  
J01  36227591.860   190377221.604         168.171          26.000  
J02                                                                  39298544.684   154215937.870        -833.276          21.000  
R04  20593415.475   110276805.7481      -3553.518          21.000  
R05  19204769.615   102660500.482         291.091          34.000  
> 2021  9 30 12  3 49.9993649  0  7
C07  36306063.435   189055178.686         133.788          36.000  
C22  22173245.582   115461883.021        -597.388          37.000  
G22  23000439.527   120868125.6481        -66.326          17.000  
G26  20108005.917   105668276.733        -264.683          33.000    20108010.114    78908142.630        -196.932          31.000  
J02  39298699.377   206516031.4131      -1114.573          28.000    39298698.477   154216536.165        -834.666          23.000  
R04  20594015.959   110280020.734       -3554.966          25.000  
R05  19204660.190   102659915.315         290.166          32.000  
> 2021  9 30 12  3 50.9993646  0  8
C07  36305947.715   189054577.064         131.442          36.000  
C22  22173270.464   115462013.308        -599.341          37.000  
C30  25108893.675   130748497.7241        768.510          20.000  
E08                                                                                                                                  22117099.251    86792228.7101      -1109.765          28.000  
G26  20107965.445   105668068.322        -265.201          32.000    20107971.141    78907987.561        -198.408          31.000  
J01  36227384.703   190376100.5171        166.537          23.000  
J02  39298820.493   206516673.794       -1114.829          27.000    39298822.591   154217015.989        -832.466          20.000  
R05  19204519.588   102659164.114         288.494          33.000  
> 2021  9 30 12  3 51.9993644  0  9
C06  36292879.163   188986752.0771        205.174          29.000  
C07  36305862.574   189054131.755         133.234          36.000  
C22  22173325.326   115462300.418        -599.656          40.000  
E08                                                                                                                                  22117322.296    86793102.267       -1106.839          29.000  
G26  20107953.453   105668018.190        -263.890          35.000    20107960.349    78907949.389        -197.548          31.000  
G32  21170826.542   111253470.3951      -1798.730          27.000  
J01  36227282.174   190375618.153         167.061          25.000  
J02  39298970.989   206517473.445       -1115.531          29.000    39298977.884   154217613.691        -830.608          19.000  
R05  19204408.964   102658572.524         287.287          32.000  
> 2021  9 30 12  3 52.9993641  0 10
C06  36292750.851   188986079.168         203.976          28.000  
C07  36305746.255   189053530.501         133.286          37.000  
C16  36653930.612   190866697.1621        237.051          25.000  
C22  22173350.809   115462431.924        -600.527          41.000  
E08                                                                                                                                  22117515.363    86793857.132       -1109.422          29.000  
G26  20107915.380   105667811.154        -265.144          35.000    20107920.476                        -198.695          31.000  
G32  21171081.066   111254797.546       -1800.636          25.000  
J01  36227159.859   190374978.791         167.069          30.000  
J02  39299092.404   206518116.120       -1114.266          30.000    39299101.998   154218090.594        -830.276          18.000  
R05  19204267.162   102657814.958         286.108          34.000  
> 2021  9 30 12  3 53.9993638  0 11
C06  36292620.741   188985406.407         204.939          25.000  
C07  36305628.736   189052929.116         134.495          36.000  
C16  36653795.405   190865990.501         238.912          24.000  
C22  22173375.092   115462563.769        -600.389          39.000  
E08                                                                                                                                  22117708.729    86794613.436       -1108.614          30.000  
G26  20107876.107   105667604.225        -265.431          36.000    20107881.803    78907644.7971       -198.303          31.000  
G32  21171333.791   111256125.735       -1800.523          30.000  
J01  36227031.848   190374339.081         166.960          32.000  
J02  39299215.020   206518757.164       -1113.000          30.000  
R04  20596344.747   110292491.4701      -3556.937          30.000  
R05  19204124.461   102657051.446         285.409          34.000  
> 2021  9 30 12  3 54.9993636  0  8
C06  36292523.909   188984889.198         204.624          28.000  
C07  36305541.197   189052483.953         133.133          35.000  
C22  22173428.755   115462852.205        -600.511          40.000  
E08                                                                                                                                  22117928.777    86795487.355       -1111.353          28.000  
G26  20107866.514   105667555.471        -265.304          37.000    20107871.310    78907608.202        -196.922          27.000  
J01                                                                  36226816.897   142161806.6591        122.156          30.000  
J02  39299369.413   206519555.256       -1113.561          27.000  
R05  19204012.938   102656455.917         284.793          35.000  
> 2021  9 30 12  3 55.9993633  0  8
C06  36292393.799   188984215.559         205.616          27.000  
C07  36305425.477   189051882.887         134.408          36.000  
C22  22173453.937   115462985.171        -600.966          39.000  
E08                                                                                                                                  22118121.843    86796245.363       -1110.765          26.000  
G26  20107827.840   105667350.057        -267.748          38.000    20107831.738    78907453.891        -199.096          31.000  
J01  36226810.001   190373217.9061        166.576          30.000    36226694.881   142161330.171         123.989          27.000  
J02  39299490.229   206520195.774       -1113.268          28.000  
R05  19203869.937   102655691.532         284.255          36.000  
> 2021  9 30 12  3 56.9993631  0  8
C07  36305340.036   189051438.075         131.752          33.000  
C22  22173511.198   115463274.777        -601.891          36.000  
E08                                                                                                                                  22118346.088    86797119.694       -1110.067          29.000  
G26  20107822.144   105667302.455        -267.878          37.000    20107823.044    78907418.116        -199.414          32.000  
J01                                                                  36226602.845   142160971.400         124.202          29.000  
J02  39299641.924   206520994.123       -1113.805          30.000  
R04  20598155.194   110302186.0411      -3558.749          24.000  
R05  19203755.117   102655077.392         283.301          34.000  
> 2021  9 30 12  3 57.9993631  0 10
C06  36292251.397   188983490.3681        205.329          17.000  
C07  36305317.252   189051305.494         134.021          34.000  
C22  22173626.618   115463877.012        -602.854          37.000  
C30  25107344.947   130740534.5301        761.825          20.000  
E08                                                                                                                                  22118629.991    86798229.245       -1109.564          28.000  
G26  20107873.709   105667570.472        -268.875          35.000    20107874.308    78907617.949        -200.253          32.000  
G32  21172491.589   111262195.0991      -1803.308          29.000  
J01  36226683.789   190372570.3211        166.394          25.000    36226571.067   142160847.036         125.000          29.000  
J02  39299855.376   206522107.812       -1112.997          29.000  
R05  19203699.655   102654780.573         282.484          33.000  
> 2021  9 30 12  3 58.9993628  0  9
C07  36305203.331   189050705.285         132.295          35.000  
C16  36653274.666   190863251.8031        236.985          17.000  
C22  22173653.899   115464012.021        -603.588          36.000  
C30  25107117.704   130739304.104         762.624          21.000  
E08                                                                                                                                  22118824.257    86798987.809       -1112.590          29.000  
G26  20107832.937   105667366.695        -269.021          36.000    20107836.534    78907464.920        -200.360          32.000  
J01  36226547.083   190371931.878         165.693          27.000    36226449.651   142160369.663         124.500          28.000  
J02  39299977.392   206522748.609       -1114.472          28.000  
R05  19203554.556   102654004.890         281.063          33.000  
> 2021  9 30 12  3 59.9993626  0 11
C06  36292018.159   188982299.6131        205.441          26.000  
C07  36305118.489   189050261.661         129.478          37.000  
C22  22173710.859   115464304.050        -605.085          41.000  
C30  25106934.231   130738228.736         763.489          20.000  
E08                                                                                                                                  22119047.902    86799864.775       -1113.221          29.000  
G22  22999911.892   120865172.8781        -70.417          19.000  
G26  20107821.245   105667321.588        -271.106          34.000    20107827.840    78907430.522        -202.086          31.000  
G32  21173035.712   111265013.9921      -1805.403          25.000  
J01  36226455.647   190371451.648         165.368          28.000    36226358.214   142160009.815         123.913          30.000  
J02  39300128.787   206523548.060       -1114.913          32.000  
R05  19203439.436   102653389.860         279.678          36.000  
> 2021  9 30 12  4  0.9993623  0 10
C06  36291888.948   188981625.419         207.077          25.000  
C07  36305002.770   189049661.572         131.896          37.000  
C22  22173737.541   115464440.033        -603.968          41.000  
C30  25106720.179   130737281.016         763.992          20.000  
E08                                                                                                                                  22119241.867    86800624.321       -1111.556          29.000  
G26  20107782.872   105667118.998        -269.888          34.000    20107789.167    78907279.347        -200.982          31.000  
G32  21173289.037   111266346.382       -1804.864          28.000  
J01  36226325.836   190370813.297         165.484          25.000    36226237.098   142159532.920         123.529          29.000  
J02  39300250.203   206524190.080       -1114.451          32.000  
R05  19203296.135   102652623.786         278.936          35.000  
> 2021  9 30 12  4  1.9993620  0  8
C06  36291760.637   188980949.758         207.867          25.000  
C07  36304887.649   189049061.501         130.602          37.000  
C22  22173763.323   115464576.388        -604.880          42.000  
C30  25106500.431   130736047.527         765.120          20.000  
E08                                                                                                                                  22119435.234    86801382.887       -1110.972          29.000  
G26  20107746.597   105666916.841        -271.107          34.000    20107750.194    78907127.147        -201.585          31.000  
J01  36226217.611   190370174.609         166.014          23.000    36226115.982   142159056.767         122.710          30.000  
R05  19203155.532   102651872.327         278.354          36.000  
> 2021  9 30 12  4  2.9993618  0  8
C06  36291662.005   188980431.044         204.601          26.000  
C07  36304801.909   189048617.656         132.366          36.000  
C16  36652789.602   190860731.7051        238.964          21.000  
C22  22173819.684   115464869.443        -605.392          42.000  
E08                                                                                                                                  22119657.979    86802258.802       -1111.720          29.000  
G26  20107737.603   105666872.729        -270.672          35.000    20107742.100    78907093.879        -202.708          30.000  
J01  36226142.963   190369693.963         164.679          23.000    36226024.545   142158698.399         122.333          29.000  
R05  19203043.709   102651274.803         277.638          37.000  
> 2021  9 30 12  4  3.9993615  0 11
C06  36291533.694   188979758.181         203.988          27.000  
C07  36304686.189   189048017.766         131.428          37.000  
C16  36652653.496   190860024.856         237.795          22.000  
C21  24860872.676   129457088.6671       2030.474          25.000  
C22  22173846.366   115465006.845        -606.281          42.000  
E08                                                                                                                                  22119851.645    86803018.112       -1113.752          29.000  
G26  20107697.131   105666671.622        -271.357          35.000    20107704.326    78906944.626        -204.017          30.000  
J01  36226036.237   190369056.199         164.824          23.000    36225903.729   142158222.130         123.130          30.000  
J02  39300642.931   206526272.9441      -1114.252          31.000  
R04  20602383.167   110324827.2881      -3562.327          20.000  
R05  19202900.708   102650510.102         277.927          36.000  
> 2021  9 30 12  4  4.9993613  0 11
C06  36291436.261   188979241.003         205.441          28.000  
C07  36304601.048   189047574.166         131.085          37.000  
C16  36652548.269   190859474.751         237.495          24.000  
C21  24860423.587   129454747.309        2029.630          24.000  
C22  22173901.827   115465300.922        -606.861          42.000  
E08                                                                                                                                  22120074.691    86803896.735       -1113.429          29.000  
G22  22999577.024   120863484.1171        -73.179          22.000  
G26  20107691.435   105666628.604        -271.923          35.000    20107696.531    78906912.188        -202.543          30.000  
J01  36225944.201   190368576.129         163.573          23.000    36225812.892   142157864.367         123.103          29.000  
J02  39300797.924   206527071.246       -1113.489          29.000  
R05  19202790.385   102649919.989         277.238          36.000  
> 2021  9 30 12  4  5.9993610  0 10
C06  36291307.651   188978566.682         205.928          28.000  
C07  36304486.227   189046974.473         130.836          37.000  
C16  36652414.561   190858769.133         237.394          25.000  
C22  22173928.209   115465439.358        -607.172          42.000  
E08                                                                                                                                  22120267.757    86804656.216       -1112.251          28.000  
G26  20107650.363   105666428.475        -273.436          36.000    20107658.458    78906762.426        -203.604          29.000  
J01  36225821.286   190367939.184         164.171          25.000    36225691.476   142157389.041         123.131          30.000  
J02  39300915.442   206527711.865       -1111.484          30.000  
R04  20603566.448   110331163.4021      -3563.633          26.000  
R05  19202648.283   102649160.740         275.671          36.000  
> 2021  9 30 12  4  6.9993605  0 10
C01  37489182.379   195216011.4261       -394.246          32.000  
C06  36291117.582   188977580.497         205.975          25.000  
C07  36304313.547   189046062.990         131.301          37.000  
C22  22173893.433   115465266.379        -607.270          41.000  
E08                                                                                                                                  22120401.165    86805180.871       -1112.917          29.000  
G26  20107555.029   105665914.325        -273.772          35.000    20107560.725    78906379.005        -205.007          31.000  
G32  21174839.264   111274531.8541      -1807.715          32.000  
J01                                                                  36225509.801   142156676.939         124.138          30.000  
J02  39300976.600   206528037.590       -1116.343          31.000  
R05  19202447.722   102648088.326         274.298          35.000  
> 2021  9 30 12  4  7.9993603  0 11
C01  37489196.469   195216092.773        -392.710          32.000  
C06  36291018.351   188977062.561         205.069          25.000  
C07  36304228.705   189045619.762         131.814          35.000  
C22  22173951.593   115465562.093        -607.752          38.000  
C30  25105157.061   130729141.5661        762.293          19.000  
E08                                                                                                                                  22120624.211    86806057.327       -1111.381          29.000  
G22  22999317.704   120862137.0911        -75.958          21.000  
G26  20107544.237   105665872.937        -275.198          37.000    20107552.631    78906348.627        -206.157          31.000  
J01  36225537.982   190366506.8911        165.751          26.000    36225417.465   142156317.526         123.428          27.000  
J02  39301125.297   206528835.782       -1112.779          28.000  
R05  19202337.099   102647496.913         273.510          34.000  
> 2021  9 30 12  4  8.9993600  0 14
C01  37489181.480   195216016.669        -391.925          33.000  
C06  36290890.939   188976388.401         206.523          26.000  
C07  36304110.587   189045021.059         129.629          35.000  
C16  36651975.365   190856499.3571        236.005          22.000  
C21  24858475.535   129444599.4841       2030.279          22.000  
C22  22173980.373   115465703.271        -609.555          38.000  
C30  25104924.722   130727910.957         762.777          20.000  
E08                                                                                                                                  22120816.078    86806817.925       -1114.129          28.000  
G26  20107508.561   105665675.209        -276.375          37.000    20107513.958    78906202.356        -206.535          29.000  
G32  21175356.106   111277360.3431      -1809.160          29.000  
J01  36225409.371   190365868.454         165.860          26.000    36225295.450   142155840.389         124.431          28.000  
J02  39301259.005   206529476.566       -1114.265          30.000  
R04  20605227.598   110340058.7211      -3567.574          29.000  
R05  19202196.496   102646745.155         272.203          36.000  
> 2021  9 30 12  4  9.9993597  0 13
C01  37489161.993   195215939.848        -391.318          32.000  
C06  36290762.328   188975713.844         204.364          26.000  
C07  36303994.268   189044422.921         129.432          35.000  
C21  24857996.167   129442102.618        2025.882          23.000  
C22  22174008.853   115465844.728        -610.168          39.000  
C30  25104696.880   130726678.933         763.423          19.000  
E08                                                                                                                                  22121010.343    86807579.303       -1114.299          27.000  
G22  22999161.212   120861343.3251        -74.365          20.000  
G26  20107471.987   105665478.332        -276.571          37.000    20107473.186    78906055.751        -205.910          26.000  
J01                                                                  36225173.134   142155363.560         124.235          26.000  
J02  39301377.423   206530118.436       -1113.931          28.000  
R04  20605798.103   110343113.576       -3567.649          22.000  
R05  19202055.893   102645993.827         270.934          38.000  
> 2021  9 30 12  4 10.9993595  0 14
C01  37489174.285   195216018.529        -390.686          33.000  
C06  36290663.696   188975196.851         204.644          25.000  
C07  36303910.626   189043980.413         130.789          35.000  
C16  36651741.827   190855246.4391        236.802          26.000  
C21  24857547.078   129439764.711        2024.655          23.000  
C22  22174065.514   115466142.480        -609.758          39.000  
C30  25104362.911   130725005.879         762.067          20.000  
G22  22999110.247   120861100.480         -70.949          19.000  
G26  20107468.389   105665439.014        -274.747          36.000    20107464.792    78906026.020        -203.890          26.000  
G32  21175881.342   111280192.0761      -1809.448          34.000  
J01                                                                  36225081.398   142155004.369         123.871          24.000  
J02  39301524.321   206530917.717       -1113.851          24.000  
R04  20606404.883   110346363.232       -3568.110          26.000  
R05  19201945.270   102645402.936         270.033          36.000  
> 2021  9 30 12  4 11.9993595  0 11
C01  37489245.935   195216408.869        -390.325          32.000  
C07  36303884.544   189043850.147         131.072          34.000  
C16  36651697.758   190855009.285         237.144          27.000  
C21  24857157.648   129437740.940        2023.184          24.000  
C22  22174182.733   115466752.831        -610.957          38.000  
G26  20107517.555   105665715.190        -277.156          34.000    20107516.956    78906229.477        -203.112          26.000  
G32  21176225.804   111282001.885       -1810.786          37.000  
J01  36225172.235   190364584.2771        164.712          24.000    36225050.220   142154881.079         123.409          24.000  
J02  39301735.075   206532031.213       -1113.493          27.000  
R04  20607068.024   110349914.214       -3568.030          27.000  
R05  19201894.905   102645133.099         269.596          35.000  
> 2021  9 30 12  4 12.9993592  0 14
C01  37489226.748   195216330.507        -389.968          32.000  
C06  36290487.119   188974321.1471        202.154          22.000  
C07  36303770.323   189043251.800         129.718          34.000  
C16  36651562.851   190854303.689         237.060          28.000  
C21  24856678.280   129435248.808        2024.286          24.000  
C22  22174210.014   115466895.449        -611.666          39.000  
C30  25103975.280   130723016.1441        758.778          23.000  
G22  22999046.691   120860777.1601        -76.892          20.000  
G26  20107478.582   105665519.291        -277.145          33.000    20107479.781    78906081.311        -205.091          25.000  
G32  21176484.525                       -1812.115          37.000  
J01  36225057.415   190363946.916         165.129          23.000    36224930.303   142154405.849         121.355          25.000  
J02  39301855.891   206532672.181       -1113.602          27.000  
R04  20607642.426   110352989.699       -3568.617          28.000  
R05  19201755.801   102644390.170         268.919          36.000  
> 2021  9 30 12  4 13.9993590  0 14
C01  37489238.740   195216407.745        -389.532          31.000  
C06  36290387.887   188973806.085         203.433          25.000  
C07  36303683.383   189042809.642         129.612          33.000  
C16  36651457.024   190853753.989         238.241          27.000  
C21  24856226.792   129432910.763        2026.471          24.000  
C22  22174267.274   115467194.671        -613.162          39.000  
C30  25103767.224   130721944.757         759.538          22.000  
G26  20107468.989   105665481.541        -277.651          34.000    20107472.586    78906052.024        -207.847          26.000  
G29  23752899.410   124822329.4491      -1049.845          26.000  
G32  21176772.326   111284673.6511      -1812.235          39.000  
J01                                                                  36224839.765   142154048.973         122.869          22.000  
J02  39302006.387   206533470.272       -1112.518          28.000  
R04  20608245.608   110356220.300       -3569.036          29.000  
R05  19201648.176   102643814.231         267.875          35.000  
> 2021  9 30 12  4 14.9993587  0 14
C01  37489222.551   195216328.561        -389.272          31.000  
C06  36290255.979   188973132.728         206.489          23.000  
C07  36303572.160   189042211.592         129.795          33.000  
C16  36651320.619   190853048.358         235.959          28.000  
C21  24855743.227   129430415.756        2026.321          23.000  
C22  22174294.555   115467338.467        -613.135          39.000  
C30  25103530.088   130720716.473         760.318          22.000  
G26  20107434.213   105665286.857        -278.638          34.000    20107436.312    78905906.360        -205.580          25.000  
G29  23753028.620   124822906.846       -1050.404          27.000  
G32  21177027.449   111286012.664       -1812.450          40.000  
J01                                                                  36224718.349   142153572.831         123.860          24.000  
J02  39302127.503   206534109.059       -1111.048          27.000  
R04  20608818.212   110359286.667       -3569.431          28.000  
R05  19201512.070   102643086.910         267.018          35.000  
> 2021  9 30 12  4 15.9993585  0 12
C01  37489235.442   195216405.792        -390.159          32.000  
C06  36290156.747   188972614.074         206.365          24.000  
C07  36303485.820   189041769.744         129.278          33.000  
C21  24855292.339   129428077.968        2025.115          25.000  
C22  22174354.514   115467638.858        -612.165          39.000  
C30  25103323.231   130719643.770         759.804          24.000  
G26  20107429.716   105665250.223        -279.164          34.000    20107430.016    78905877.266        -208.414          25.000  
G32  21177313.451   111287509.702       -1812.456          38.000  
J01                                                                  36224627.512   142153214.244         122.845          24.000  
J02  39302278.599   206534905.404       -1112.019          28.000  
R04  20609422.893   110362524.323       -3570.368          28.000  
R05  19201406.243   102642521.726         266.207          36.000  
> 2021  9 30 12  4 16.9993582  0 12
C01  37489218.954   195216327.845        -390.891          30.000  
C06  36290028.136   188971938.754         206.350          24.000  
C07  36303370.699   189041171.935         130.127          33.000  
C16  36651076.887   190851794.9051        236.870          27.000  
C21  24854811.172   129425585.176        2023.306          24.000  
C22  22174380.896   115467783.671        -613.393          39.000  
C30  25103089.093   130718415.517         760.295          23.000  
G26  20107391.343   105665056.655        -278.552          33.000    20107393.441    78905733.767        -209.629          28.000  
G32  21177568.874   111288849.691       -1812.359          40.000  
J01                                                                  36224505.497   142152737.028         125.636          24.000  
R04  20609998.795   110365608.163       -3571.021          28.000  
R05  19201268.039   102641782.147         265.344          36.000  
> 2021  9 30 12  4 17.9993580  0 10
C07  36303282.261   189040730.488         130.118          33.000  
C16  36650971.960   190851245.717         237.074          26.000  
C21  24854360.584   129423249.989        2021.425          24.000  
C22  22174437.556   115468085.259        -614.594          37.000  
C30  25102889.431   130717344.577         758.123          18.000  
G26  20107383.848   105665021.181        -280.538          34.000    20107387.445    78905709.023        -209.718          27.000  
G32  21177854.876   111290347.758       -1813.278          41.000  
J01                                                                  36224415.559   142152377.309         124.535          22.000  
R04  20610601.977   110368838.059       -3571.440          28.000  
R05  19201158.315   102641195.711         264.544          37.000  
> 2021  9 30 12  4 18.9993577  0 11
C06  36289794.298   188970482.5091        204.614          22.000  
C07  36303168.040   189040132.981         128.212          34.000  
C16  36650837.353   190850539.859         236.767          28.000  
C22  22174465.737   115468231.248        -614.889          34.000  
C30  25102648.098   130716117.399         759.656          16.000  
G26  20107348.772   105664828.709        -281.036          36.000    20107351.170    78905564.928        -207.363          27.000  
G32  21178109.100   111291688.770       -1814.532          41.000    21178106.702    83107439.8591      -1353.202          23.000  
J01                                                                  36224294.743   142151901.494         121.486          19.000  
J02  39302677.622   206536984.9371      -1113.731          26.000  
R04  20611178.178   110371924.113       -3572.202          27.000  
R05  19201019.811   102640455.947         263.586          36.000  
> 2021  9 30 12  4 19.9993574  0 12
C06  36289663.289   188969810.280         202.224          21.000  
C07  36303052.919   189039535.599         129.897          32.000  
C16  36650702.447   190849835.215         236.616          29.000  
C21  24853401.848   129418268.8881       2023.452          20.000  
C22  22174494.817   115468377.725        -616.079          35.000  
C30  25102413.061   130714889.299         759.915          14.000  
G26  20107312.497   105664636.788        -280.248          37.000    20107313.397    78905419.835        -208.775          26.000  
G32  21178363.024   111293030.209       -1814.889          41.000    21178360.926    83108440.127       -1353.651          23.000  
J01                                                                  36224173.926   142151426.336         123.024          22.000  
J02  39302798.139   206537625.322       -1112.572          27.000  
R04  20611756.478   110375020.800       -3572.601          29.000  
R05  19200879.208   102639704.061         262.752          37.000  
> 2021  9 30 12  4 20.9993572  0 11
C06  36289564.357   188969294.837         203.966          23.000  
C07  36302969.277   189039094.414         130.330          33.000  
C16  36650596.620   190849286.107         237.205          28.000  
C22  22174552.976   115468680.860        -616.146          36.000  
C30  25102204.106   130713815.715         761.527          13.000  
G26  20107304.103   105664602.909        -281.199          37.000    20107305.902    78905393.578        -209.828          25.000  
G32  21178648.727   111294529.677       -1815.218          41.000    21178645.129    83109558.907       -1354.300          22.000  
J01                                                                  36224084.588   142151069.720         120.467          19.000  
J02  39302949.534   206538422.194       -1113.022          24.000  
R04  20612361.459   110378260.617       -3573.445          26.000  
R05  19200771.582   102639128.235         262.016          37.000  
> 2021  9 30 12  4 21.9993569  0 12
C06  36289435.147   188968621.912         205.392          25.000  
C07  36302854.157   189038497.307         130.525          33.000  
C16  36650461.414   190848580.304         236.903          27.000  
C21  24852475.489   129413438.5681       2024.536          23.000  
C22  22174579.658   115468828.410        -614.893          35.000  
C30  25101967.869   130712588.952         756.502          12.000  
G26  20107266.629   105664412.078        -281.285          37.000    20107269.927    78905249.641        -207.915          26.000  
G32  21178905.649   111295872.078       -1815.457          42.000    21178899.353    83110561.219       -1355.249          22.000  
J01                                                                  36223962.573   142150595.926         121.042          19.000  
J02  39303071.550   206539063.093       -1113.074          25.000  
R04  20612942.457   110381371.759       -3574.527          26.000  
R05  19200622.286   102638330.736         260.456          37.000  
> 2021  9 30 12  4 22.9993567  0 12
C06  36289337.414   188968103.568         206.080          24.000  
C07  36302769.316   189038056.452         130.495          33.000  
C16  36650356.186   190848031.382         236.642          28.000  
C21  24852025.801   129411102.143        2023.255          22.000  
C22  22174639.616   115469132.714        -617.201          35.000  
C30  25101763.711   130711519.099         757.478          11.000  
G22  22998443.209   120857645.5191        -84.476          28.000  
G26  20107260.933   105664379.400        -281.710          37.000    20107263.331    78905223.574        -210.992          26.000  
G32  21179191.351   111297372.556       -1815.637          41.000    21179183.856    83111680.622       -1355.004          22.000  
J01  36223961.973                         161.883          31.000    36223870.536   142150236.931         124.820          19.000  
J02  39303225.643   206539861.755       -1114.062          26.000  
R05  19200505.667   102637707.232         259.304          37.000  
> 2021  9 30 12  4 23.9993564  0 12
C06  36289208.804   188967428.236         207.049          24.000  
C07  36302656.594   189037459.658         128.369          33.000  
C16  36650222.179   190847326.504         236.241          29.000  
C22  22174669.895   115469281.403        -616.067          35.000  
G22  22998368.861   120857256.197         -82.820          28.000  
G26  20107225.258   105664189.687        -282.873          37.000    20107228.256    78905081.322        -210.488          26.000  
G29  23754157.339   124828763.0441      -1054.832          28.000  
G32  21179445.575   111298715.942       -1816.355          41.000    21179438.080    83112684.053       -1356.878          22.000  
J01  36223846.853   190357570.1741        160.701          30.000    36223749.120   142149760.559         123.269          19.000  
J02  39303351.556   206540502.095       -1112.653          27.000  
R04  20614120.042   110387676.9981      -3575.116          22.000  
R05  19200374.058   102637003.856         259.086          37.000  
> 2021  9 30 12  4 24.9993562  0 10
C06  36289108.373   188966909.514         207.681          24.000  
C07  36302573.251   189037018.966         127.281          33.000  
C16  36650115.753   190846777.466         237.294          27.000  
C22  22174726.856   115469586.651        -618.978          35.000  
G26  20107218.063   105664157.982        -284.379          37.000    20107222.859    78905057.270        -210.865          26.000  
G32  21179732.776   111300217.295       -1817.594          42.000  
J01  36223758.714   190357092.346         161.613          29.000    36223658.583   142149405.041         118.015          19.000  
J02  39303504.150   206541299.428       -1111.989          25.000  
R04  20614723.224   110390907.221       -3576.834          24.000  
R05  19200262.835   102636409.060         258.376          37.000  
> 2021  9 30 12  4 25.9993559  0 12
C06  36288977.963   188966232.790         207.432          24.000  
C07  36302459.630   189036422.557         128.483          33.000  
C16  36649981.446   190846072.136         236.542          27.000  
C22  22174753.837   115469736.591        -617.819          35.000  
G22  22998252.241   120856636.2571        -84.435          27.000  
G26  20107179.689   105663969.542        -284.394          37.000    20107186.884    78904915.369        -211.840          26.000  
G32  21179991.197   111301561.815       -1817.027          42.000  
J01  36223636.998   190356457.318         163.180          28.000    36223540.165   142148938.340         114.282          19.000  
J02  39303625.266   206541937.911       -1110.829          25.000  
J03  37266813.122   195838456.1881       -291.426          27.000  
R04  20615299.425   110393993.202       -3578.037          26.000  
R05  19200126.429   102635680.204         258.105          37.000  
> 2021  9 30 12  4 26.9993559  0 10
C07  36302434.448   189036294.695         126.995          33.000  
C16  36649936.477   190845836.111         235.520          27.000  
C22  22174874.354   115470355.470        -618.613          34.000  
G26  20107235.151   105664254.369        -285.900          37.000    20107241.147    78905128.674        -215.282          25.000  
G32  21180337.457   111303379.507       -1818.977          42.000  
J01                                                                  36223509.886   142148821.067         118.732          19.000  
J02  39303836.620   206543048.901       -1110.667          26.000  
J03  37266867.385   195838747.224        -290.712          26.000  
R04  20615967.962   110397572.894       -3577.445          27.000  
R05  19200076.064   102635410.585         256.820          38.000  
> 2021  9 30 12  4 27.9993556  0 13
C06  36288812.778   188965352.4191        205.344          25.000  
C07  36302317.828   189035698.508         127.838          33.000  
C16  36649801.870   190845131.601         236.555          27.000  
C21  24849761.168   129399277.1101       2020.989          20.000  
C22  22174904.333   115470506.509        -620.505          35.000  
G22  22998196.180   120856332.9391        -85.720          27.000  
G26  20107201.274   105664067.059        -286.053          37.000    20107205.771    78904990.625        -214.118          26.000  
G32  21180593.780   111304724.998       -1818.885          42.000  
J01                                                                  36223389.369   142148349.841         119.431          19.000  
J02  39303960.135   206543687.915       -1112.787          26.000  
J03  37266834.407   195838566.276        -292.844          25.000  
R04  20616543.864   110400656.794       -3577.946          24.000  
R05  19199946.853   102634719.566         255.422          38.000  
> 2021  9 30 12  4 28.9993554  0 15
C06  36288714.746   188964834.546         204.743          25.000  
C07  36302232.987   189035258.736         126.455          33.000  
C16  36649696.943   190844582.724         237.023          28.000  
C21  24849313.578   129396945.382        2019.009          19.000  
C22  22174962.793   115470814.225        -620.886          36.000  
C30  25100516.874   130704959.2961        763.418          13.000  
G22  22998154.209   120856105.147         -88.556          27.000  
G26  20107193.180   105664037.870        -287.869          37.000    20107200.075    78904968.887        -214.128          25.000  
G29  23754880.738   124832741.1231      -1056.803          25.000  
G32  21180878.883   111306228.567       -1820.293          41.000  
J01  36223422.047   190355179.6421        162.838          20.000    36223297.333   142147995.378         119.824          19.000  
J02  39304112.129   206544485.961       -1113.523          27.000  
J03  37266832.309   195838544.041        -292.547          26.000  
R04  20617150.644   110403905.734       -3578.297          25.000  
R05  19199835.630   102634125.908         254.630          38.000  
> 2021  9 30 12  4 29.9993551  0 12
C06  36288587.634   188964161.571         204.326          26.000  
C07  36302117.867   189034663.109         128.997          33.000  
C16  36649562.036   190843877.197         236.989          27.000  
C22  22174992.772   115470966.590        -620.863          36.000  
C30  25100280.038   130703727.030         764.622          13.000  
G22  22998081.659   120855721.148         -88.408          27.000  
G26  20107159.603   105663851.859        -286.894          36.000    20107164.999    78904830.765        -216.214          26.000  
G32  21181133.406   111307575.258       -1819.116          41.000  
J01  36223314.121   190354544.173         162.693          22.000    36223176.217   142147523.832         118.581          18.000  
J02  39304237.143   206545126.091       -1112.360          26.000  
J03  37266796.933   195838362.880        -291.706          24.000  
R05  19199695.328   102633375.911         254.048          37.000  
> 2021  9 30 12  4 30.9993549  0 14
C06  36288491.100   188963644.428         205.407          24.000  
C07  36302032.426   189034223.636         126.966          33.000  
C16  36649456.509   190843328.289         236.388          27.000  
C22  22175051.531   115471275.559        -620.235          36.000  
C30  25100073.481   130702650.280         761.647          13.000  
E08                                                                                                                                  22125552.199    86825390.5061      -1120.107          28.000  
G22  22998037.590   120855494.050         -87.006          27.000  
G26  20107156.006   105663823.934        -287.220          36.000    20107160.203    78904811.374        -215.858          27.000  
G29  23755152.050   124834069.9471      -1059.085          24.000  
G32  21181420.907   111309079.907       -1819.137          42.000  
J01  36223222.685   190354066.655         161.630          25.000  
J02  39304387.039   206545923.838       -1113.265          26.000    39304385.240   154238856.6781       -829.981          26.000  
R04  20618353.411   110410347.0351      -3579.806          21.000  
R05  19199585.903   102632790.390         253.357          37.000  
> 2021  9 30 12  4 31.9993546  0 14
C06  36288363.089   188962969.893         206.713          26.000  
C07  36301921.503   189033628.157         126.235          33.000  
C16  36649321.902   190842623.763         235.422          28.000  
C22  22175082.710   115471428.871        -621.949          36.000  
C30  25099837.544   130701419.363         760.078          12.000  
E08                                                                                                                                  22125747.364    86826156.774       -1119.278          28.000  
G22  22997965.040   120855108.327         -88.204          26.000  
G26  20107120.630   105663638.900        -288.945          37.000    20107124.228    78904674.180        -216.741          26.000  
G29  23755276.464   124834656.546       -1059.253          23.000  
G32  21181678.129   111310427.443       -1820.458          42.000  
J02  39304506.956   206546563.770       -1113.450          26.000    39304506.356   154239332.909        -828.919          26.000  
J03  37266755.562   195838156.7481       -290.992          22.000  
R04  20618931.111   110413440.393       -3580.615          26.000  
R05  19199448.898   102632057.630         252.427          38.000  
> 2021  9 30 12  4 32.9993541  0 15
C06  36288174.819   188961982.489         206.668          25.000  
C07  36301745.225   189032720.643         126.207          33.000  
C16  36649128.236   190841607.143         236.595          28.000  
C21  24847380.217   129386833.5661       2018.153          19.000  
C22  22175052.431   115471270.538        -623.009          36.000  
C30  25099541.949   130699882.018         752.458          10.000  
E08                                                                                                                                  22125882.570    86826688.496       -1120.983          28.000  
G22  22997831.333   120854409.031         -89.319          25.000  
G26  20107027.095   105663139.387        -288.271          37.000    20107029.493    78904302.376        -215.728          27.000  
G29  23755342.419   124834928.829       -1061.253          22.000  
G32  21181873.894   111311460.406       -1821.327          41.000  
J02  39304570.212   206546890.457       -1114.586          26.000    39304568.114   154239575.492        -831.994          26.000  
J03  37266660.228   195837660.583        -291.481          24.000  
R04  20619453.349   110416237.232       -3580.952          28.000  
R05  19199246.538   102630976.398         251.566          37.000  
> 2021  9 30 12  4 33.9993539  0 14
C06  36288073.489   188961463.379         207.083          25.000  
C07  36301663.681   189032281.644         126.696          33.000  
C16  36649023.309   190841057.834         237.074          28.000  
C21  24846933.226   129384504.670        2014.500          19.000  
C22  22175111.190   115471581.184        -622.839          36.000  
E08                                                                                                                                  22126108.014    86827574.702       -1122.145          29.000  
G22  22997788.762   120854183.102         -90.412          25.000  
G26  20107020.200   105663113.140        -289.596          37.000    20107023.497    78904281.860        -216.587          26.000  
G29  23755512.101   124836059.032       -1060.556          21.000  
G32  21182160.795   111312966.558       -1821.944          41.000  
J02  39304720.708   206547688.956       -1113.120          25.000    39304719.809   154240171.895        -831.960          25.000  
J03  37266655.731   195837637.530        -292.170          25.000  
R04  20620068.823   110419533.180       -3581.595          30.000  
R05  19199144.609   102630431.288         250.201          37.000  
> 2021  9 30 12  4 34.9993536  0 13
C06  36287943.679   188960787.716         206.713          25.000  
C07  36301547.961   189031687.101         126.128          33.000  
C16  36648887.203   190840352.931         236.710          28.000  
C22  22175141.169   115471736.663        -624.968          36.000  
E08                                                                                                                                  22126303.779    86828344.071       -1123.548          29.000  
G22  22997715.313   120853801.392         -91.916          25.000  
G26  20106984.224   105662930.345        -290.004          37.000    20106989.321    78904144.956        -215.337          26.000  
G29  23755646.408   124836648.184       -1062.649          20.000  
G32  21182417.118   111314316.085       -1823.334          41.000  
J02  39304841.824   206548329.500       -1112.562          25.000    39304841.225   154240650.973        -831.509          25.000  
J03  37266621.555   195837456.524        -291.889          24.000  
R04  20620652.819   110422660.161       -3582.162          30.000  
R05  19199012.400   102629725.205         249.244          37.000  
> 2021  9 30 12  4 35.9993533  0 13
C06  36287815.368   188960112.345         206.316          25.000  
C07  36301432.541   189031092.998         126.300          33.000  
C16  36648752.597   190839647.982         236.245          28.000  
C21  24845978.387   129379536.4891       2017.848          20.000  
C22  22175170.849   115471893.072        -624.698          37.000  
E08                                                                                                                                  22126499.843    86829113.025       -1121.113          28.000  
G22  22997643.363   120853420.868         -91.389          25.000  
G26  20106949.449   105662748.425        -290.933          37.000    20106954.845    78904008.258        -217.188          26.000  
G32  21182675.839   111315666.433       -1823.382          41.000  
J02  39304965.938   206548969.192       -1112.957          26.000    39304962.641   154241128.045        -830.277          25.000  
J03  37266586.779   195837276.558        -292.817          24.000  
R04  20621237.714   110425792.253       -3583.458          29.000  
R05  19198875.395   102628992.182         247.442          37.000  
> 2021  9 30 12  4 36.9993531  0 11
C06  36287717.636   188959595.549         203.371          24.000  
C07  36301348.599   189030655.102         127.344          32.000  
C16  36648647.369   190839098.628         236.853          28.000  
C22  22175230.807   115472206.026        -624.828          37.000  
E08                                                                                                                                  22126725.587    86829999.430       -1121.651          28.000  
G22  22997599.293   120853197.242         -91.152          25.000  
G26  20106946.451   105662724.512        -291.295          38.000    20106950.648    78903990.682        -217.404          26.000  
G32  21182964.839   111317174.724       -1823.993          42.000  
J03  37266582.582   195837253.872        -292.200          24.000  
R04  20621846.293   110429050.795       -3584.177          28.000  
R05  19198771.967   102628439.699         246.811          37.000  
> 2021  9 30 12  4 37.9993528  0 12
C06  36287589.025   188958923.410         204.590          25.000  
C07  36301236.177   189030060.907         124.861          33.000  
C16  36648512.463   190838394.262         234.721          28.000  
C21  24845050.829   129374720.6381       2016.624          20.000  
C22  22175261.986   115472363.081        -626.187          37.000  
E08                                                                                                                                  22126921.051    86830767.598       -1121.249          29.000  
G22  22997524.945   120852815.780         -90.972          25.000  
G26  20106912.574   105662543.305        -292.745          37.000    20106915.272    78903854.542        -217.463          26.000  
G32  21183222.660   111318525.635       -1823.783          41.000  
J01  36222368.276   190349639.2151        159.647          31.000  
J03  37266552.303   195837072.588        -291.316          23.000  
R05  19198625.668   102627657.141         246.831          37.000  
> 2021  9 30 12  4 38.9993526  0 13
C06  36287490.693   188958407.415         203.401          27.000  
C07  36301153.135   189029623.664         124.801          33.000  
C16  36648405.737   190837846.844         235.543          27.000  
C21  24844602.040   129372391.021        2017.550          21.000  
C22  22175324.043   115472677.469        -628.845          37.000  
E08                                                                                                                                  22127147.095    86831652.884       -1121.523          27.000  
G22  22997481.775   120852592.940         -94.753          24.000  
G26  20106908.977   105662520.880        -294.795          37.000    20106911.375    78903837.346        -218.933          27.000  
G29  23756195.628   124839651.1141      -1064.324          24.000  
G32  21183512.260   111320035.244       -1826.712          41.000  
J02  39305383.549   206551206.5941      -1113.693          26.000  
J03  37266548.106   195837049.984        -294.027          25.000  
R05  19198522.539   102627106.698         245.232          37.000  
> 2021  9 30 12  4 39.9993526  0 13
C06  36287450.821   188958202.961         205.364          27.000  
C07  36301128.252   189029499.027         123.641          33.000  
C16  36648358.669   190837610.599         236.357          27.000  
C22  22175443.960   115473304.940        -627.594          38.000  
C36  23150792.340   120552251.1681      -1716.330          23.000  
E08                                                                                                                                  22127433.696    86832775.756       -1124.342          28.000  
G22  22997497.963   120852687.882         -93.650          24.000  
G26  20106963.839   105662814.338        -293.590          37.000    20106967.436    78904056.119        -219.389          26.000  
G29  23756405.183   124840715.963       -1064.840          23.000  
G32  21183858.520   111321860.716       -1825.431          42.000  
J02  39305594.303   206552320.583       -1114.422          26.000  
J03  37266605.366   195837345.645        -296.145          25.000  
R05  19198479.969   102626878.352         243.521          37.000  
> 2021  9 30 12  4 40.9993523  0 12
C06  36287320.711   188957529.701         204.029          26.000  
C07  36301013.731   189028905.661         124.247          33.000  
C16  36648222.863   190836907.374         234.233          26.000  
C22  22175473.639   115473464.122        -627.288          38.000  
E08                                                                                                                                  22127630.060    86833547.440       -1123.852          28.000  
G22  22997426.313   120852308.932         -93.568          24.000  
G26  20106929.662   105662635.264        -293.832          37.000    20106932.960    78903923.028        -219.727          26.000  
G29  23756528.098   124841307.980       -1065.545          25.000  
G32  21184117.541   111323213.527       -1826.167          41.000  
J02  39305715.120   206552963.421       -1116.096          26.000  
J03  37266571.789   195837167.597        -293.605          24.000  
R05  19198345.962   102626162.326         243.265          37.000  
> 2021  9 30 12  4 41.9993521  0 13
C06  36287221.180   188957012.976         204.303          26.000  
C07  36300929.489   189028468.407         124.074          33.000  
C16  36648116.737   190836360.412         234.283          27.000  
C22  22175534.497   115473779.751        -628.005          38.000  
E08                                                                                                                                  22127856.704    86834435.853       -1123.867          28.000  
G22  22997381.344   120852086.126         -90.037          24.000  
G26  20106925.165   105662614.116        -293.295          37.000    20106929.362    78903907.746        -221.459          26.000  
G29  23756678.893   124842058.091       -1065.195          26.000  
G32  21184403.243   111324724.189       -1825.073          41.000  
J02  39305867.114   206553762.931       -1114.026          25.000  
J03  37266566.693   195837145.094        -291.225          23.000  
R04  20624890.086   110445349.9971      -3587.250          24.000  
R05  19198241.034   102625601.612         243.813          37.000  
> 2021  9 30 12  4 42.9993518  0  9
C06  36287092.868   188956339.970         204.369          27.000  
C07  36300817.067   189027875.328         123.968          33.000  
C22  22175566.575   115473940.014        -628.909          38.000  
E08                                                                                                                                  22128053.068    86835206.282       -1124.152          27.000  
G26  20106891.888   105662436.096        -295.580          35.000    20106895.786    78903774.741        -219.692          26.000  
J01  36221904.198   190347266.4041        159.004          27.000  
J02  39305990.629   206554404.157       -1114.245          23.000  
J03  37266532.217   195836964.365        -292.527          21.000  
R05  19198103.729   102624867.279         241.369          37.000  
> 2021  9 30 12  4 43.9993516  0 11
C06  36286993.337   188955823.072         204.936          26.000  
C07  36300734.025   189027438.333         124.342          33.000  
C22  22175627.133   115474256.754        -629.073          38.000  
C36  23151799.343   120557556.3131      -1716.998          22.000  
E08                                                                                                                                  22128278.811    86836095.028       -1123.975          26.000  
G26  20106886.192   105662416.026        -295.069          37.000    20106890.689    78903758.704        -220.344          26.000  
G29  23756950.805   124843405.6901      -1068.933          24.000  
J01  36221799.270   190346792.020         158.437          27.000  
J02  39306142.923   206555203.768       -1114.812          26.000  
R04  20626064.673   110451640.6081      -3588.343          20.000  
R05  19197995.804   102624290.651         241.202          37.000  
> 2021  9 30 12  4 44.9993513  0 11
C06  36286863.527   188955150.044         204.615          27.000  
C07  36300621.003   189026845.373         123.644          33.000  
C22  22175656.213   115474417.950        -629.826          38.000  
C36  23152037.978   120558805.058       -1716.335          23.000  
E08                                                                                                                                  22128475.475    86836865.812       -1123.846          27.000  
G26  20106851.716   105662238.990        -295.147          37.000    20106856.813    78903626.994        -222.053          26.000  
G29  23757055.133   124844002.319       -1069.636          24.000  
J01  36221656.569   190346160.006         160.517          25.000  
J02  39306264.639   206555845.860       -1114.420          26.000  
R04  20626646.870   110454757.553       -3589.040          22.000  
R05  19197860.598   102623567.367         240.317          37.000  
> 2021  9 30 12  4 45.9993510  0 11
C07  36300507.382   189026252.406         123.949          33.000  
C22  22175689.190   115474579.538        -630.168          39.000  
C36  23152278.711   120560051.724       -1715.008          22.000  
E08                                                                                                                                  22128671.839    86837635.615       -1121.774          27.000  
G26  20106820.538   105662062.338        -295.949          37.000    20106824.435    78903496.579        -222.346          27.000  
G29  23757170.853   124844598.800       -1068.865          24.000  
J01  36221519.564   190345526.493         161.063          21.000  
J02  39306388.454   206556486.568       -1112.980          26.000  
J03  37266461.466   195836579.3111       -291.600          24.000  
R04  20627226.368   110457860.958       -3589.422          22.000  
R05  19197727.490   102622855.867         237.929          37.000  
> 2021  9 30 12  4 46.9993508  0 12
C06  36286634.785   188953959.6431        205.389          26.000  
C07  36300423.140   189025815.520         124.116          33.000  
C22  22175750.048   115474897.619        -630.986          39.000  
C36  23152549.124   120561452.977       -1713.318          22.000  
E08                                                                                                                                  22128897.883    86838522.268       -1123.095          26.000  
G26  20106816.640   105662043.653        -296.415          37.000    20106820.838    78903483.306        -222.821          26.000  
G29  23757227.514   124845073.930       -1068.771          24.000  
J01  36221397.848   190344730.722         164.626          18.000  
J02  39306539.849   206557284.418       -1113.093          25.000  
J03  37266456.069   195836556.370        -292.271          26.000  
R04  20627837.945   110461136.293       -3589.474          24.000  
R05  19197617.466   102622267.802         238.364          36.000  
> 2021  9 30 12  4 47.9993505  0 11
C06  36286504.975   188953285.619         205.696          26.000  
C07  36300310.718   189025222.728         124.261          32.000  
C22  22175779.427   115475060.198        -631.902          39.000  
C36  23152788.058   120562699.408       -1717.600          23.000  
E08                                                                                                                                  22129093.647    86839294.995       -1126.990          26.000  
G26  20106783.064   105661867.999        -299.394          37.000    20106786.961    78903351.215        -220.305          25.000  
G29  23757326.145   124845669.578       -1068.686          26.000  
G32  21186016.726   111333167.7281      -1829.329          39.000  
J02  39306659.466   206557923.370       -1111.257          23.000  
J03  37266420.994   195836376.118        -292.748          26.000  
R05  19197487.056   102621571.100         237.284          36.000  
> 2021  9 30 12  4 48.9993503  0 13
C06  36286404.845   188952767.841         204.929          27.000  
C07  36300223.478   189024786.195         123.497          33.000  
C22  22175840.885   115475379.434        -630.875          39.000  
C36  23153058.171   120564104.689       -1719.160          23.000  
E08                                                                                                                                  22129320.590    86840185.791       -1125.559          26.000  
G26  20106779.766   105661850.464        -297.638          36.000    20106783.064    78903337.860        -222.342          26.000  
G29  23757455.056   124846423.995       -1069.252          25.000  
G32  21186298.531   111334681.488       -1829.145          38.000  
J01  36221141.825   190343620.6121        160.351          27.000  
J02  39306810.261   206558720.243       -1113.287          25.000    39306816.557   154248396.1471       -829.524          25.000  
J03  37266417.396   195836353.372        -291.866          23.000  
R04  20629041.012   110467578.8121      -3590.749          22.000  
R05  19197385.127   102621026.030         236.919          37.000  
> 2021  9 30 12  4 49.9993500  0  9
C06  36286276.533   188952094.671         205.221          26.000  
C07  36300110.157   189024193.437         124.379          33.000  
C22  22175872.963   115475542.937        -632.894          39.000  
C36  23153297.706   120565355.056       -1717.515          23.000  
E08                                                                                                                                  22129516.654    86840958.932       -1127.053          25.000  
G26  20106745.590   105661675.785        -299.105          37.000    20106749.787    78903206.975        -222.276          26.000  
G32  21186550.057   111336038.015       -1831.043          37.000  
J02  39306932.577   206559361.107       -1112.815          26.000    39306937.973   154248872.622        -830.044          26.000  
R05  19197254.717   102620328.713         235.514          37.000  
> 2021  9 30 12  4 50.9993498  0 14
C06  36286176.403   188951576.429         206.553          25.000  
C07  36300027.114   189023757.063         123.644          33.000  
C16  36647007.804   190830649.0071        236.030          27.000  
C22  22175932.621   115475863.081        -632.655          39.000  
C36  23153566.320   120566760.872       -1717.695          21.000  
E08                                                                                                                                  22129741.499    86841851.262       -1126.947          24.000  
G22  22996863.902   120849319.1661        -97.586          18.000  
G26  20106745.889   105661659.094        -297.995          37.000    20106746.789    78903195.576        -223.998          26.000  
G29  23757711.678   124847776.0241      -1069.798          25.000  
G32  21186835.459   111337552.705       -1830.341          36.000  
J01  36220916.981   190342204.3481        157.874          29.000  
J02  39307086.071   206560158.199       -1111.806          28.000    39307086.970   154249467.040        -829.847          23.000  
R04  20630225.792   110473922.6981      -3592.281          17.000  
R05  19197153.987   102619790.336         235.491          34.000  
> 2021  9 30 12  4 51.9993495  0 14
C07  36299914.992   189023164.545         124.502          34.000  
C16  36646873.497   190829944.078         237.394          25.000  
C21  24838637.969   129341374.3771       2013.667          24.000  
C22  22175960.802   115476027.622        -632.427          38.000  
C36  23153806.753   120568010.903       -1718.053          21.000  
E08                                                                                                                                  22129936.364    86842625.362       -1126.805          24.000  
G26  20106712.013   105661485.547        -299.518          38.000    20106715.011    78903067.189        -224.334          28.000  
G29  23757820.203   124848374.088       -1071.603          26.000  
G32  21187090.283   111338909.196       -1828.488          34.000  
J01  36220789.869   190341573.754         158.332          27.000  
J02  39307205.688   206560796.925       -1110.983          28.000    39307207.486   154249945.909        -829.602          21.000  
J03  37266343.647   195835965.3461       -291.261          24.000  
R04  20630805.590   110477027.578       -3592.838          26.000  
R05  19197021.479   102619082.311         234.808          33.000  
> 2021  9 30 12  4 52.9993492  0 12
C07  36299801.370   189022572.012         125.848          34.000  
C21  24838160.100   129338891.782        2014.350          24.000  
C22  22175991.680   115476192.543        -632.933          37.000  
E08                                                                                                                                  22130133.327    86843398.651       -1124.617          24.000  
G26  20106677.237   105661312.167        -299.651          37.000    20106682.333    78902938.238        -224.035          29.000  
G29  23757934.724   124848973.601       -1072.681          29.000  
G32  21187344.207   111340266.024       -1829.995          29.000  
J01  36220663.357   190340942.890         158.302          29.000  
J02  39307327.104   206561436.385       -1113.227          25.000    39307328.603   154250423.072        -830.740          22.000  
J03  37266311.270   195835783.441        -292.049          18.000  
R04  20631391.685   110480165.775       -3593.211          24.000  
R05  19196890.169   102618379.913         234.274          34.000  
> 2021  9 30 12  4 53.9993490  0 13
C06  36285817.851   188949710.4861        203.917          16.000  
C07  36299719.827   189022135.766         125.187          32.000  
C21  24837715.208   129336566.036        2012.388          25.000  
C22  22176056.735   115476514.041        -633.100          32.000  
C36  23154327.193   120570664.0491      -1716.739          21.000  
E08                                                                                                                                  22130362.969    86844289.640       -1127.341          26.000  
G26  20106675.138   105661296.930        -299.697          38.000    20106679.336    78902926.616        -223.400          28.000  
G29  23758077.425   124849730.701       -1071.344          27.000  
J01  36220570.121   190340469.635         158.221          32.000  
J02                                                                  39307482.096   154251018.243        -830.964          25.000  
J03  37266304.974   195835759.896        -291.138          17.000  
R04  20632002.062   110483435.047       -3593.576          29.000  
R05  19196784.942   102617817.606         233.387          36.000  
> 2021  9 30 12  4 54.9993490  0 10
C07  36299694.345   189022011.734         124.072          32.000  
C21  24837330.274   129334553.460        2012.337          26.000  
C22  22176177.252   115477148.297        -633.555          33.000  
E08                                                                                                                                  22130649.870    86845416.348       -1127.345          26.000  
G22  22996701.415   120848451.0631       -100.454          19.000  
G26  20106734.198   105661597.316        -300.938          38.000    20106736.596    78903149.967        -223.836          28.000  
G29  23758266.594   124850534.093       -1071.986          26.000  
J01  36220540.442   190340311.490         158.104          32.000  
R04  20632671.199   110487017.658       -3593.857          31.000  
R05  19196741.772   102617586.749         232.446          36.000  
> 2021  9 30 12  4 55.9993487  0 10
C07  36299577.126   189021419.595         122.771          31.000  
C19  23261977.568   121131222.1741      -3220.534          26.000  
C21  24836855.103   129332073.000        2010.696          26.000  
C22  22176207.831   115477314.794        -635.214          33.000  
C36  23154903.694   120573627.0191      -1715.839          20.000  
E08                                                                                                                                  22130847.133    86846189.289       -1125.089          26.000  
G26  20106700.021   105661425.666        -301.116          38.000    20106703.319    78903021.025        -224.943          26.000  
J02  39307803.174   206563985.1591      -1110.665          21.000  
R04  20633253.096   110490134.230       -3594.666          32.000  
R05  19196607.165   102616867.478         231.151          37.000  
> 2021  9 30 12  4 56.9993485  0 11
C07  36299492.584   189020983.757         122.875          31.000  
C21  24836409.911   129329750.701        2008.866          25.000  
C22  22176267.789   115477638.021        -637.220          35.000  
C36  23155177.704   120575031.266       -1718.061          21.000  
E08                                                                                                                                  22131074.376    86847080.286       -1127.685          26.000  
G26  20106696.724   105661412.127        -302.489          38.000    20106700.321    78903011.107        -226.530          26.000  
G29  23758519.319   124851893.2471      -1074.400          29.000  
G31  21516111.606   113067845.3561      -1094.141          22.000  
J02  39307954.270   206564780.449       -1109.575          24.000  
R04  20633862.274   110493395.822       -3595.011          30.000  
R05  19196501.039   102616300.356         230.307          36.000  
> 2021  9 30 12  4 57.9993480  0 11
C07  36299321.702   189020079.712         122.340          33.000  
C21  24835874.182   129326961.006        2009.075          25.000  
C22  22176242.007   115477493.516        -636.934          33.000  
E08                                                                                                                                  22131212.580    86847619.593       -1127.057          26.000  
G26  20106603.488   105660926.603        -303.162          38.000    20106607.985    78902649.276        -226.941          27.000  
G29  23758566.986   124852179.389       -1074.048          27.000  
G31  21516172.464   113068152.051       -1094.702          21.000  
J02  39308016.327   206565102.849       -1111.701          24.000  
J03  37266212.938   195835344.8661       -292.159          25.000  
R04  20634383.314   110496186.347       -3595.774          29.000  
R05  19196305.274   102615253.306         228.943          36.000  
> 2021  9 30 12  4 58.9993477  0 11
C07  36299208.981   189019488.148         122.550          32.000  
C19  23263525.097   121139323.3971      -3221.012          23.000  
C21  24835399.910   129324483.660        2009.085          24.000  
C22  22176268.988   115477661.777        -638.482          32.000  
E08                                                                                                                                  22131410.443    86848393.794       -1127.288          26.000  
G22  22996389.931   120846810.4631       -103.327          21.000  
G26  20106572.909   105660756.747        -302.773          38.000    20106576.507    78902523.461        -226.323          27.000  
G32  21188982.573   111348895.7551      -1833.358          31.000  
J01  36220075.164   190337779.8001        157.636          31.000  
R04  20634963.412   110499292.826       -3596.702          30.000  
R05  19196172.466   102614543.655         229.029          37.000  
> 2021  9 30 12  4 59.9993475  0 11
C07  36299127.137   189019052.664         122.082          30.000  
C21  24834955.618   129322161.430        2009.753          25.000  
C22  22176327.448   115477986.670        -636.765          31.000  
E08                                                                                                                                  22131638.286    86849284.284       -1125.533          26.000  
G22  22996349.159   120846598.821        -103.944          24.000  
G26  20106571.710   105660744.882        -303.764          39.000    20106573.509    78902513.454        -224.790          26.000  
G32  21189274.870   111350413.848       -1833.285          33.000  
J01  36219969.037   190337306.376         157.561          30.000  
J02  39308290.936   206566539.6071      -1112.781          23.000  
R04  20635575.288   110502569.452       -3597.061          31.000  
R05  19196067.239   102613980.906         227.478          37.000  
> 2021  9 30 12  5  0.9993472  0 11
C06  36284981.130   188945464.0081        208.074          23.000  
C07  36299011.417   189018460.990         123.696          29.000  
C21  24834479.548   129319683.587        2008.724          25.000  
C22  22176365.821   115478155.748        -637.916          31.000  
E08                                                                                                                                  22131836.748    86850057.087       -1125.907          25.000  
G26  20106540.232   105660575.802        -303.413          39.000    20106541.131    78902385.971        -227.083          25.000  
J01  36219846.422   190336675.205         157.451          28.000  
J02  39308411.753   206567179.121       -1112.284          23.000  
J03  37266132.293   195834965.7631       -296.030          20.000  
R04  20636155.387   110505675.941       -3597.467          31.000  
R05  19195925.437   102613223.348         227.627          37.000  
> 2021  9 30 12  5  1.9993469  0 10
C07  36298895.997   189017869.547         123.261          28.000  
C19  23265141.877   121147745.7941      -3227.807          19.000  
C21  24834002.578   129317205.722        2010.147          26.000  
C22  22176398.499   115478325.432        -637.593          32.000  
E08                                                                                                                                  22132034.911    86850831.808       -1129.547          24.000  
G22  22996204.359   120845866.9071       -106.795          22.000  
G26  20106508.154   105660407.334        -304.177          39.000    20106509.653    78902260.364        -227.769          25.000  
J02  39308534.068   206567817.204       -1110.668          24.000  
J03  37266096.918   195834787.703        -292.297          18.000  
R05  19195798.325   102612544.086         225.739          37.000  
> 2021  9 30 12  5  2.9993467  0 10
C07  36298812.655   189017434.173         122.350          30.000  
C19  23265697.693   121150658.792       -3223.096          16.000  
C21  24833557.986   129314883.200        2009.087          21.000  
C22  22176460.556   115478651.595        -639.321          33.000  
E08                                                                                                                                  22132261.854    86851727.521       -1130.980          24.000  
G22  22996162.088   120845658.408        -105.954          21.000  
G26  20106505.756   105660396.807        -305.353          38.000    20106507.554    78902252.380        -227.333          26.000  
J02  39308686.662   206568612.160       -1109.598          25.000  
R04  20637350.959   110512077.8321      -3598.373          30.000  
R05  19195698.195   102612008.189         225.673          36.000  
> 2021  9 30 12  5  3.9993464  0 10
C07  36298699.333   189016842.794         123.829          31.000  
C19  23266224.428   121153415.089       -3225.479          15.000  
C22  22176493.533   115478822.207        -638.061          33.000  
E08                                                                                                                                  22132460.317    86852505.219       -1130.609          25.000  
G22  22996091.337   120845290.094        -102.395          22.000  
G26  20106471.879   105660229.281        -305.391          37.000    20106476.076    78902126.667        -226.875          28.000  
G29  23759246.316   124855682.9581      -1079.402          23.000  
J03  37266057.046   195834583.4341       -291.991          21.000  
R04  20637931.657   110515187.605       -3599.072          29.000  
R05  19195562.389   102611282.236         223.796          36.000  
> 2021  9 30 12  5  4.9993462  0 12
C06  36284536.538   188943076.9451        204.841          22.000  
C07  36298622.586   189016407.650         125.708          32.000  
C16  36645316.076   190821709.0531        237.040          27.000  
C19  23266784.440   121156329.338       -3227.627          16.000  
C21  24832643.319   129310084.7991       2008.648          22.000  
C22  22176560.087   115479149.490        -639.309          34.000  
E08                                                                                                                                  22132688.459    86853399.416       -1129.492          27.000  
G26  20106469.181   105660219.916        -306.837          38.000    20106474.278    78902118.045        -226.969          27.000  
G29  23759383.021   124856447.684       -1080.112          17.000  
G31  21517083.533   113072981.4891      -1098.318          18.000  
R04  20638542.334   110518457.551       -3599.388          32.000  
R05  19195455.962   102610714.041         223.941          37.000  
> 2021  9 30 12  5  5.9993459  0 10
C07  36298506.867   189015816.539         121.389          30.000  
C19  23267318.670   121159087.829       -3225.674          18.000  
C22  22176597.561   115479321.088        -640.638          35.000  
E08                                                                                                                                  22132881.825    86854173.706       -1129.664          25.000  
G26  20106436.504   105660053.377        -306.710          37.000    20106443.399    78901992.492        -228.163          29.000  
G29  23759483.752   124857052.933       -1077.624          18.000  
G31  21517207.347   113073608.526       -1099.517          17.000  
J01  36219298.701   190333837.8811        157.434          23.000  
J02  39309079.690   206570681.8961      -1111.778          20.000  
R05  19195324.953   102610013.702         223.525          36.000  
> 2021  9 30 12  5  6.9993457  0 12
C06  36284304.499   188941887.3431        203.876          21.000  
C07  36298422.625   189015381.538         124.528          34.000  
C16  36645066.948   190820456.0711        236.781          28.000  
C19  23267884.679   121161999.348       -3223.801          18.000  
C21  24831714.862   129305286.5591       2008.133          24.000  
C22  22176659.318   115479649.330        -639.543          38.000  
E08                                                                                                                                  22133105.170    86855067.123       -1128.191          23.000  
G26  20106436.803   105660044.913        -307.071          37.000    20106441.300    78901984.811        -228.632          29.000  
G31  21517363.239   113074391.497       -1098.327          16.000  
G32  21191276.884   111360912.1771      -1836.558          30.000    21191185.448    83158790.2131      -1371.197          24.000  
J02  39309232.285   206571478.477       -1111.398          29.000  
R05  19195234.716   102609530.596         222.534          36.000  
> 2021  9 30 12  5  7.9993457  0 11
C07  36298393.545   189015258.927         121.817          31.000  
C16  36645020.480   190820219.299         237.569          24.000  
C21  24831327.829   129303278.294        2008.330          24.000  
C22  22176780.434   115480290.277        -640.928          37.000  
E08                                                                                                                                  22133392.671    86856196.676       -1129.665          22.000  
G22  22995962.726   120844601.8231       -104.083          24.000  
G26  20106495.263   105660352.124        -305.321          36.000    20106500.060    78902212.872        -227.625          27.000  
G32  21191598.262   111362748.859       -1837.042          27.000    21191534.106    83160161.407       -1371.050          26.000  
J02  39309443.638   206572590.647       -1112.296          26.000  
R04  20640413.939   110528479.8281      -3600.996          18.000  
R05  19195189.747   102609290.142         221.722          37.000  
> 2021  9 30 12  5  8.9993454  0 12
C07  36298280.523   189014668.863         121.647          31.000  
C16  36644884.974   190819512.962         237.063          27.000  
C21  24830852.359   129300802.185        2006.869          24.000  
C22  22176812.212   115480464.221        -642.152          37.000  
E08                                                                                                                                  22133590.834    86856974.290       -1131.007          22.000  
G26  20106463.485   105660187.903        -309.541          36.000    20106468.581    78902089.203        -231.407          27.000  
G29  23759918.751   124859216.5841      -1076.982          20.000  
G32                                                                  21191793.127    83161179.478       -1371.949          22.000  
J02  39309565.354   206573230.093       -1112.400          27.000  
J03  37266048.352   195834469.7631       -292.697          23.000  
R04  20640994.337   110531588.359       -3601.592          29.000  
R05  19195052.442   102608556.195         220.768          37.000  
> 2021  9 30 12  5  9.9993452  0 10
C07  36298198.980   189014235.144         123.765          32.000  
C16  36644780.346   190818963.170         237.754          19.000  
C21  24830408.666   129298483.466        2005.924          20.000  
C22  22176870.372   115480794.930        -642.470          34.000  
E08                                                                                                                                  22133819.875    86857868.629       -1129.732          23.000  
G22  22995855.101   120844023.2281       -107.533          23.000  
G26  20106462.586   105660181.957        -308.485          37.000    20106467.682    78902084.408        -230.825          27.000  
G32                                                                  21192083.326    83162316.430       -1373.377          28.000  
R04  20641603.515   110534850.518       -3602.912          28.000  
R05  19194952.611   102608023.016         218.976          37.000  
> 2021  9 30 12  5 10.9993449  0 12
C06  36283916.267   188939813.4481        206.008          23.000  
C07  36298087.757   189013645.010         121.583          32.000  
C16  36644644.840   190818257.595         236.473          20.000  
C21  24829937.092   129296007.745        2008.889          19.000  
C22  22176901.551   115480969.585        -644.220          32.000  
E08                                                                                                                                  22134018.338    86858643.992       -1128.345          24.000  
G22  22995784.650   120843659.265        -109.961          23.000  
G26  20106432.007   105660018.551        -309.627          37.000    20106437.103    78901962.226        -231.767          27.000  
G32                                                                  21192344.745    83163338.275       -1375.199          29.000  
J02  39309842.063   206574665.8361      -1110.870          22.000  
J03  37266016.873   195834266.5101       -291.869          25.000  
R05  19194825.799   102607345.361         217.943          37.000  
> 2021  9 30 12  5 11.9993446  0 12
C07  36297972.936   189013054.709         121.438          32.000  
C16  36644510.533   190817552.689         235.375          20.000  
C21  24829462.821   129293531.123        2007.349          19.000  
C22  22176936.326   115481144.572        -645.138          33.000  
E08                                                                                                                                  22134218.300    86859423.006       -1133.360          23.000  
G22  22995712.699   120843295.015        -107.168          23.000  
G26  20106400.828   105659855.420        -309.723          37.000    20106406.225    78901841.295        -232.433          27.000  
G32                                                                  21192604.665    83164359.813       -1374.870          29.000  
J02  39309965.577   206575303.546       -1110.992          21.000  
J03  37265985.095   195834084.352        -290.671          25.000  
R04  20642761.614   110541052.0841      -3603.883          27.000  
R05  19194698.986   102606667.480         218.405          37.000  
> 2021  9 30 12  5 12.9993444  0  9
C06  36283694.121   188938620.0791        206.011          23.000  
C07  36297888.095   189012620.874         122.051          31.000  
C22  22177000.182   115481476.370        -645.195          33.000  
E08                                                                                                                                  22134447.341    86860320.642       -1131.172          24.000  
G26  20106402.627   105659850.613        -310.700          38.000    20106405.625    78901837.624        -232.089          27.000  
G32  21192920.946                       -1841.106          35.000  
J03  37265982.397   195834060.404        -289.783          24.000  
R04  20643373.490   110544328.006       -3604.747          29.000  
R05  19194594.359   102606107.806         215.333          37.000  
> 2021  9 30 12  5 13.9993441  0 11
C06  36283568.508   188937945.674         205.464          23.000  
C07  36297774.773   189012031.610         119.414          30.000  
C16  36644274.297   190816299.8211        236.505          21.000  
C21  24828547.254   129288740.5151       2001.631          18.000  
C22  22177034.059   115481653.109        -647.905          32.000  
E08                                                                                                                                  22134645.504    86861098.704       -1130.820          23.000  
G22  22995602.076   120842722.4881       -109.054          24.000  
G26  20106372.048   105659689.313        -311.422          37.000    20106375.046    78901717.384        -232.969          27.000  
J02  39310243.785   206576739.2791      -1110.964          20.000  
R04  20643957.486   110547455.377       -3605.501          31.000  
R05  19194462.750   102605404.770         214.421          37.000  
> 2021  9 30 12  5 14.9993439  0 10
C06  36283473.174   188937427.943         205.227          24.000  
C07  36297692.630   189011598.596         118.498          31.000  
C16  36644168.770   190815751.109         236.848          21.000  
C22  22177097.315   115481986.638        -646.802          32.000  
E08                                                                                                                                  22134873.646    86861995.152       -1131.872          24.000  
G22  22995565.801   120842517.226        -111.008          25.000  
G26  20106367.551   105659686.168        -312.060          37.000    20106374.746    78901715.819        -234.278          28.000  
G29  23760685.320   124863340.1941      -1082.283          22.000  
J03  37265950.020   195833854.2851       -291.752          25.000  
R05  19194358.722   102604847.740         214.248          37.000  
> 2021  9 30 12  5 15.9993436  0 10
C06  36283346.662   188936755.121         203.647          25.000  
C07  36297580.508   189011009.309         122.932          29.000  
C16  36644033.863   190815045.702         237.641          21.000  
C22  22177135.089   115482164.239        -647.119          32.000  
E08                                                                                                                                  22135071.509    86862773.960       -1130.870          23.000  
G22  22995497.748   120842157.123        -113.895          24.000  
G26  20106338.771   105659525.744        -313.283          37.000    20106343.868    78901596.330        -233.318          28.000  
J03  37265915.544   195833674.163        -292.946          26.000  
R04  20645156.955   110553878.6271      -3606.603          32.000  
R05  19194231.010   102604165.197         212.831          37.000  
> 2021  9 30 12  5 16.9993434  0 11
C06  36283250.428   188936238.229         205.058          25.000  
C07  36297497.765   189010576.356         119.352          29.000  
C16  36643926.837   190814494.748         238.408          22.000  
C21  24827195.490   129281653.1181       1997.542          17.000  
C22  22177202.242   115482498.635        -645.925          33.000  
E08                                                                                                                                  22135299.951    86863669.495       -1130.765          23.000  
G22  22995458.176   120841955.597        -113.009          25.000  
G26  20106339.970   105659523.471        -313.077          38.000    20106342.669    78901594.002        -233.333          28.000  
J03  37265910.147   195833651.483        -292.007          26.000  
R04  20645773.628   110557180.326       -3607.310          32.000  
R05  19194138.375   102603670.201         212.836          37.000  
> 2021  9 30 12  5 17.9993431  0 10
C06  36283123.916   188935564.789         204.908          24.000  
C07  36297383.244   189009987.341         120.578          29.000  
C21  24826728.114   129279185.487        1998.755          16.000  
C22  22177237.318   115482677.295        -647.755          33.000  
E08                                                                                                                                  22135498.413    86864448.214       -1132.232          22.000  
G22  22995389.823   120841596.038        -114.266          24.000  
G26  20106309.991   105659364.109        -314.446          38.000    20106311.490    78901474.432        -233.496          28.000  
G29  23761061.859   124865335.1751      -1085.108          20.000  
R04  20646355.226   110560295.120       -3607.758          30.000  
R05  19194006.466   102602965.169         212.012          37.000  
> 2021  9 30 12  5 18.9993428  0 12
C06  36282995.905   188934891.415         205.202          24.000  
C07  36297272.321   189009398.391         120.852          28.000  
C21  24826254.142   129276716.700        2003.006          15.000  
C22  22177268.197   115482856.362        -648.536          33.000  
E08                                                                                                                                  22135698.675    86865227.791       -1134.085          23.000  
G26  20106278.813   105659205.226        -314.091          37.000    20106280.911    78901355.658        -235.009          27.000  
G29  23761173.982   124865948.175       -1086.832          19.000  
G32                                                                  21194517.941    83171870.1721      -1375.517          31.000  
J02  39310906.626   206580249.1021      -1112.291          19.000    39310907.525   154264449.7231       -828.405          25.000  
J03  37265847.191   195833289.8201       -291.463          22.000  
R04  20646939.821   110563425.374       -3608.269          30.000  
R05  19193876.955   102602272.529         211.115          37.000  
> 2021  9 30 12  5 19.9993426  0 12
C07  36297188.080   189008966.129         118.991          32.000  
C16  36643538.906   190812529.1821        236.859          24.000  
C21  24825808.351   129274401.000        2004.107          14.000  
C22  22177337.149   115483192.559        -648.274          34.000  
C30  25089433.846   130647266.3991        741.492          23.000  
E08                                                                                                                                  22135928.615    86866126.938       -1134.342          23.000  
G26  20106278.813   105659204.681        -314.286          37.000    20106280.911    78901355.086        -235.066          29.000  
G32                                                                  21194809.039    83173010.814       -1376.772          29.000  
J01  36217920.855   190326459.1591        154.677          25.000  
J02  39311055.622   206581044.761       -1110.796          26.000    39311058.321   154265043.108        -828.295          24.000  
R04  20647556.494   110566727.955       -3609.620          30.000  
R05  19193784.919   102601781.330         211.390          35.000  
> 2021  9 30 12  5 20.9993423  0 12
C06  36282759.668   188933698.4221        206.525          27.000  
C07  36297072.360   189008378.189         120.300          34.000  
C16  36643402.201   190811824.251         236.802          26.000  
C21  24825332.280   129271927.567        2006.320          11.000  
C22  22177371.325   115483373.400        -648.257          40.000  
G26  20106247.934   105659047.361        -313.896          39.000    20106250.932    78901237.295        -235.675          31.000  
G29  23761434.801   124867335.5241      -1087.149          19.000  
G32  21195059.965   111380983.1541      -1842.738          37.000    21195071.058    83174034.011       -1376.635          27.000  
J01  36217821.924   190325831.659         155.702          23.000  
J02  39311177.638   206581682.902       -1110.204          28.000    39311180.936   154265519.600        -831.111          24.000  
R04  20648146.186   110569885.274       -3610.267          29.000  
R05  19193658.107   102601102.914         210.252          33.000  
> 2021  9 30 12  5 21.9993421  0 10
C07  36296990.816   189007945.659         118.328          31.000  
C22  22177437.280   115483710.250        -649.064          40.000  
G22  22995184.465   120840480.2081       -113.722          21.000  
G26  20106246.435   105659047.614        -315.529          35.000    20106251.232    78901237.783        -235.414          30.000  
G29  23761572.106   124868109.270       -1090.220          18.000  
G32                                                                  21195361.557    83175176.252       -1377.405          27.000  
J01  36217735.583   190325361.592         154.728          24.000  
J02  39311328.134   206582477.726       -1110.247          31.000    39311332.331   154266114.492        -829.137          25.000  
R04  20648763.159   110573189.285       -3610.113          32.000  
R05  19193560.075   102600579.418         208.724          32.000  
> 2021  9 30 12  5 22.9993418  0 10
C07  36296872.998   189007357.251         121.889          31.000  
C16  36643163.266   190810571.4051        234.824          29.000  
C22  22177472.955                        -649.098          39.000  
G22  22995117.012   120840121.595        -114.256          22.000  
G26  20106217.655   105658891.105        -314.455          36.000    20106221.253    78901119.351        -235.259          29.000  
G29  23761681.230   124868727.784       -1091.490          18.000  
G32  21195612.783   111383885.1061      -1844.237          41.000    21195622.676    83176200.840       -1376.452          23.000  
J02  39311449.250   206583115.414       -1110.247          26.000    39311451.948   154266590.925        -830.818          22.000  
R04  20649347.754   110576319.686       -3610.376          32.000  
R05  19193430.565   102599886.827         207.941          30.000  
> 2021  9 30 12  5 23.9993416  0 10
C06  36282418.504   188931987.2061        206.384          25.000  
C07  36296797.150   189006924.765         119.097          32.000  
C22  22177536.211                        -650.179          39.000  
G26  20106216.156   105658892.181        -316.486          37.000    20106221.552    78901119.965        -236.754          29.000  
G29  23761823.632   124869226.363       -1093.056          17.000  
G32  21195903.881   111385415.395       -1846.748          37.000    21195914.374    83177343.606       -1377.848          22.000  
J01  36217520.632   190324267.5921        151.520          19.000  
J02  39311600.945   206583909.175       -1108.277          22.000    39311604.842   154267185.771        -829.881          24.000  
R04  20649962.928   110579614.013       -3610.679          32.000  
R05  19193330.434   102599351.161         206.555          31.000  
> 2021  9 30 12  5 24.9993413  0  8
C06  36282287.495   188931312.318         206.448          24.000  
C07  36296687.126   189006336.731         118.167          30.000  
C22  22177570.388   115484412.1361       -651.149          39.000  
G26  20106188.875   105658736.562        -318.768          38.000    20106191.573    78901004.194        -238.033          30.000  
G29  23761941.750   124869845.313       -1090.213          18.000  
J02  39311722.361   206584545.068       -1108.889          30.000  
R04  20650547.523   110582745.156       -3611.245          31.000  
R05  19193203.622   102598673.524         204.951          32.000  
> 2021  9 30 12  5 25.9993411  0 10
C06  36282186.465   188930793.812         204.527          18.000  
C07  36296607.082   189005904.839         120.668          28.000  
C16  36642825.400   190808770.2141        236.513          30.000  
C22  22177634.243   115484751.259        -653.277          38.000  
G26  20106191.273   105658739.101        -317.703          38.000    20106192.173    78901007.170        -238.209          30.000  
G29  23762092.845   124870620.024       -1089.595          26.000  
G32  21196456.698   111388320.3081      -1847.420          34.000  
J02  39311874.356   206585339.098       -1109.364          30.000  
R04  20651165.695   110586054.774       -3612.187          30.000  
R05  19193105.889   102598150.805         203.977          31.000  
> 2021  9 30 12  5 26.9993408  0  9
C07  36296491.662   189005316.111         118.943          30.000  
C16  36642689.294   190808065.484         236.350          28.000  
C22  22177667.220                        -652.432          35.000  
C30  25087877.924   130639267.3441        738.844          29.000  
G26  20106159.795   105658583.843        -318.106          38.000    20106163.093    78900892.479        -237.976          28.000  
G29  23762216.960   124871237.106       -1090.043          26.000  
G32  21196722.015   111389694.024       -1845.290          35.000  
R04  20651753.888   110589204.477       -3612.491          31.000  
R05  19192976.979   102597461.805         204.780          29.000  
> 2021  9 30 12  5 27.9993405  0 10
C06  36281931.042   188929444.8431        207.236          27.000  
C07  36296375.942   189004727.967         120.377          29.000  
C22  22177702.896   115485117.3531       -652.135          32.000  
G22  22994819.018   120838654.7851       -117.736          17.000  
G26  20106130.715   105658429.658        -318.036          37.000    20106133.114    78900777.630        -238.317          29.000  
G29  23762341.373   124871855.523       -1092.277          27.000  
G32  21196982.534   111391067.912       -1847.720          36.000  
J02  39312112.391   206586610.5921      -1108.256          22.000  
R04  20652337.584   110592330.361       -3612.962          28.000  
R05  19192848.667   102596776.358         204.414          32.000  
> 2021  9 30 12  5 28.9993403  0 13
C01  37489288.206   195216562.3811       -395.081          28.000  
C06  36281831.810   188928924.625         206.717          23.000  
C07  36296290.201   189004296.178         119.412          32.000  
C16  36642439.267   190806810.1711        237.889          29.000  
C22  22177772.148   115485457.696        -653.628          40.000  
C30  25087445.023   130637011.8731        737.638          23.000  
G26  20106131.015   105658433.454        -319.733          39.000    20106133.713    78900780.746        -238.119          30.000  
G29  23762494.867   124872633.480       -1093.045          20.000  
G32  21197276.931   111392600.252       -1848.005          35.000  
J01  36216991.199   190321443.6351        154.347          24.000  
J02  39312263.786   206587403.685       -1107.838          30.000  
R04  20652952.758   110595624.332       -3613.679          32.000  
R05  19192750.335   102596250.887         203.390          35.000  
> 2021  9 30 12  5 29.9993400  0 11
C01  37489273.816   195216489.807        -396.277          35.000  
C07  36296174.181   189003708.003         118.498          32.000  
C16  36642301.662   190806103.090         238.383          23.000  
C22  22177809.622   115485642.266        -653.172          38.000  
G22  22994714.690   120838103.9141       -119.675          18.000  
G26  20106101.336   105658280.044        -319.727          37.000    20106105.533    78900667.170        -239.240          29.000  
G29  23762618.981   124873253.510       -1093.309          19.000  
G32  21197534.152   111393975.405       -1848.949          38.000  
J02  39312384.902   206588039.222       -1108.146          29.000  
R04  20653536.754   110598751.555       -3614.405          29.000  
R05  19192614.529   102595524.151         202.610          31.000  
> 2021  9 30 12  5 30.9993398  0  8
C01  37489289.405   195216573.760        -396.412          35.000  
C06  36281603.668   188927729.5321        206.370          27.000  
C07  36296088.441   189003276.773         120.899          28.000  
C22  22177871.679   115485982.690        -654.046          35.000  
G26  20106100.736   105658284.621        -321.968          35.000    20106106.432    78900671.316        -240.899          26.000  
G29  23762768.278   124874030.721       -1092.953          19.000  
J02  39312537.197   206588832.518       -1109.166          27.000  
R05  19192510.501   102594968.770         201.184          29.000  
> 2021  9 30 12  5 31.9993395  0  9
C06  36281473.858   188927055.093         205.289          26.000  
C07  36295976.918   189002687.557         120.594          24.000  
C22  22177905.555   115486168.616        -654.949          28.000  
C30  25086801.669   130633551.5021        737.510          24.000  
G22  22994609.763   120837557.3741       -122.314          18.000  
G26  20106072.256   105658132.175        -323.337          31.000    20106079.451    78900559.751        -241.344          26.000  
G29  23762893.891   124874651.825       -1094.913          18.000  
J02  39312660.112   206589467.711       -1107.881          27.000  
R05  19192379.492   102594267.715         199.718          26.000  
> 2021  9 30 12  5 32.9993393  0  9
C07  36295895.974   189002255.734         118.299          26.000  
C22  22177973.009   115486511.607        -655.498          29.000  
C30  25086600.208   130632502.854         735.923          22.000  
G22  22994575.587   120837365.203        -123.585          18.000  
G26  20106074.055   105658140.444        -323.246          27.000    20106080.950    78900564.203        -238.322          27.000  
G29  23763049.783   124875433.456       -1097.082          20.000  
J02  39312809.109   206590259.579       -1106.838          26.000  
R04  20655351.997   110608472.1741      -3614.365          20.000  
R05  19192287.156   102593774.805         198.165          25.000  
> 2021  9 30 12  5 33.9993390  0 11
C06  36281245.416   188925864.5391        204.582          24.000  
C07  36295785.650   189001669.653         117.482          28.000  
C16  36641819.296   190803592.9131        236.884          24.000  
C22  22178011.082   115486698.693        -655.852          33.000  
G22  22994514.129   120837015.936        -122.245          19.000  
G26  20106043.476   105657990.629        -322.823          31.000    20106052.470    78900449.514        -238.687          29.000  
G29  23763172.998   124876059.487       -1100.425          20.000  
G32  21198648.481   111399800.0391      -1852.958          36.000  
J02  39312929.325   206590893.983       -1108.043          27.000  
R04  20655938.092   110611611.178       -3616.302          26.000  
R05  19192160.344   102593096.990         197.683          29.000  
> 2021  9 30 12  5 34.9993388  0  9
C06  36281145.286   188925345.704         206.665          27.000  
C07  36295702.608   189001239.627         118.066          27.000  
C16  36641717.067   190803044.348         236.362          26.000  
C22  22178077.636   115487042.483        -656.192          36.000  
G26  20106048.272   105657998.334        -324.649          34.000    20106053.369    78900453.460        -240.616          33.000  
G29  23763323.793   124877110.343       -1099.131          20.000  
G32  21198938.680   111401337.182       -1851.517          33.000  
J02  39313079.821   206591687.050       -1108.452          26.000  
R05  19192062.012   102592570.949         197.361          33.000  
> 2021  9 30 12  5 35.9993388  0 10
C06  36281106.013   188925139.023         205.994          30.000  
C07  36295679.824   189001120.704         119.716          25.000  
C16  36641670.899   190802807.591         237.183          25.000  
C22  22178203.549   115487699.629        -657.439          32.000  
C30  25086020.709   130629515.4541        736.414          26.000  
G26  20106108.231   105658322.462        -323.673          32.000    20106114.227    78900694.491        -241.428          31.000  
G32  21199290.337   111403189.126       -1851.566          34.000  
J01  36216414.698   190318544.0681        154.472          30.000  
J02  39313289.676   206592795.569       -1108.962          30.000  
R05  19192025.137   102592373.881         196.756          31.000  
> 2021  9 30 12  5 36.9993385  0  8
C06  36280975.603   188924464.502         206.131          32.000  
C16  36641536.592   190802101.876         237.262          32.000  
C22  22178238.925   115487888.024        -656.145          31.000  
G26                                                                  20106085.147    78900583.661        -242.604          31.000  
G29  23763657.162   124878837.9751      -1100.584          16.000  
G32  21199549.357   111404567.837       -1850.667          34.000  
R04  20657819.589   110621685.9551      -3618.795          25.000  
R05  19191896.826   102591687.770         195.977          33.000  
> 2021  9 30 12  5 37.9993382  0 10
C06  36280846.093   188923789.793         207.043          28.000  
C07  36295455.279   188999944.6231        121.105          23.000  
C16  36641398.388   190801396.913         236.601          29.000  
C22  22178272.501   115488076.103        -654.442          32.000  
C30  25085559.628   130627104.9111        737.333          19.000  
G26  20106053.669                        -324.416          35.000    20106055.767    78900472.130        -240.983          29.000  
G29  23763778.878   124879466.683       -1100.912          16.000  
G32  21199818.871   111405945.299       -1851.364          34.000  
J01  36216210.539   190317289.8331        153.793          19.000  
R05  19191768.515   102591002.309         195.442          30.000  
> 2021  9 30 12  5 38.9993380  0 11
C01  37489349.963   195216913.1371       -393.762          31.000  
C06  36280745.363   188923270.405         207.207          30.000  
C07  36295371.637   188999512.050         119.143          20.000  
C16  36641289.863   190800847.271         237.989          26.000  
C22  22178337.856   115488419.245        -656.396          29.000  
C30  25085360.866   130626055.205         737.125          21.000  
G22  22994339.950   120836050.2431       -120.891          17.000  
G26  20106051.870   105658034.1071       -322.482          34.000    20106056.667    78900477.693        -240.623          29.000  
G29  23763927.275   124880247.984       -1093.709          15.000  
R04  20659020.258   110628116.2651      -3618.641          29.000  
R05  19191671.382   102590482.614         194.913          29.000  
> 2021  9 30 12  5 39.9993377  0 12
C01  37489335.873   195216837.813        -391.600          33.000  
C06  36280611.355   188922594.046         209.330          24.000  
C07  36295259.215   188998924.030         120.681          30.000  
C16  36641154.656   190800140.559         238.083          30.000  
C22  22178374.431   115488607.815        -657.482          35.000  
C30  25085132.124   130624850.546         738.165          23.000  
G22  22994275.494   120835697.903        -120.722          16.000  
G26                                                                  20106029.385    78900365.882        -240.894          25.000  
G29  23764049.591   124880868.227       -1092.347          27.000  
G32  21200374.386   111408719.7231      -1847.785          38.000  
R04  20659609.950   110631273.691       -3616.746          27.000  
R05  19191552.065   102589844.911         194.821          32.000  
> 2021  9 30 12  5 40.9993375  0  8
C06  36280510.925   188922071.909         209.357          24.000  
C07  36295177.971   188998492.406         119.377          24.000  
C22  22178443.083   115488952.205        -656.058          25.000  
C30  25084933.362   130623800.572         737.249          17.000  
G26  20106024.289   105657891.6341       -321.660          26.000    20106030.585    78900369.938        -238.675          27.000  
G29  23764199.187   124881644.959       -1091.962          21.000  
J02  39313954.915   206596285.9881      -1106.051          25.000  
R05  19191452.534   102589312.753         195.958          25.000  
> 2021  9 30 12  5 41.9993372  0 10
C07  36295064.650   188997903.694         121.367          30.000  
C16  36640913.324   190798882.6331        238.911          25.000  
C22  22178480.557   115489139.503        -655.411          36.000  
G22  22994170.567   120835149.4961       -119.627          16.000  
G26  20105994.610   105657740.278        -321.022          29.000    20106001.505    78900256.294        -239.097          32.000  
G29  23764325.999   124882264.522       -1091.033          24.000  
G32  21200923.906   111411628.0301      -1849.348          36.000  
J02  39314073.933   206596918.694       -1104.431          29.000  
R04  20660809.119   110637695.6511      -3615.859          24.000  
R05  19191327.221   102588642.768         196.571          30.000  
> 2021  9 30 12  5 42.9993370  0 11
C06  36280273.190   188920868.3361        213.280          26.000  
C07  36294981.607   188997469.556         122.535          33.000  
C16  36640809.595   190798330.420         241.646          27.000  
C22  22178547.711   115489482.694        -655.079          36.000  
G22  22994133.393   120834953.541        -119.062          17.000  
G26  20105993.710   105657746.148        -321.060          31.000    20106002.404    78900260.134        -239.484          25.000  
G29  23764477.994   124883040.066       -1090.634          23.000  
G32  21201217.103                       -1847.536          36.000  
J02                                                                  39314231.624   154277488.5031       -821.777          28.000  
R04  20661431.489   110641028.000       -3615.660          27.000  
R05  19191231.887   102588133.830         196.359          32.000  
> 2021  9 30 12  5 43.9993367  0 13
C01  37489330.477   195216829.8071       -384.755          27.000  
C06  36280142.480   188920186.401         213.774          30.000  
C07  36294867.686   188996878.004         123.789          30.000  
C16  36640674.089   190797619.590         242.878          32.000  
C22  22178585.485                        -654.083          36.000  
C30  25084292.406   130620331.8801        740.833          24.000  
G22  22994066.839   120834599.748        -118.891          25.000  
G26                                                                  20105973.924    78900146.699        -239.907          31.000  
G29  23764610.203   124883658.527       -1091.696          27.000  
G32  21201480.021   111414524.5651      -1847.626          38.000  
J02  39314345.845   206598337.5471      -1102.171          26.000    39314351.541   154277958.347        -823.432          28.000  
R04  20662013.686   110644145.952       -3615.623          26.000  
R05  19191105.074   102587455.742         196.460          34.000  
> 2021  9 30 12  5 44.9993364  0 11
C06  36280007.873   188919503.227         215.170          26.000  
C07  36294753.465   188996284.894         125.433          38.000  
C16  36640537.983   190796907.600         244.083          35.000  
C22  22178622.359                        -653.557          41.000  
C30  25084071.159   130619122.753         740.873          26.000  
G22  22993996.088   120834246.083        -118.920          23.000  
G26                                                                  20105945.444    78900033.637        -238.963          38.000  
G29  23764740.313   124884553.732       -1092.341          28.000  
G32  21201743.538   111415899.754       -1848.192          41.000  
J02                                                                  39314472.357   154278427.941        -822.194          31.000  
R05  19190978.262   102586777.329         196.889          37.000  
> 2021  9 30 12  5 45.9993362  0 13
C01  37489324.481   195216815.4301       -382.025          35.000  
C06  36279899.648   188918974.989         215.525          22.000  
C07  36294669.223   188995846.540         126.636          38.000  
C16  36640434.855   190796349.847         246.869          35.000  
C21  24813872.414   129212302.8651       2002.094          27.000  
C22  22178688.314   115490242.0231       -652.474          42.000  
C36  23167545.942   120639492.2501      -1708.497          25.000  
G22  22993956.515   120834050.831        -120.760          25.000  
G26  20105942.446   105657446.7311       -319.477          38.000    20105946.643    78900037.223        -238.949          38.000  
G29  23764892.907   124885330.896       -1091.837          29.000  
G32  21202034.337   111417431.736       -1846.321          44.000  
J02  39314613.260   206599750.8011      -1098.870          31.000    39314621.354   154279013.977        -821.417          30.000  
R05  19190881.429   102586259.690         197.245          37.000  
> 2021  9 30 12  5 46.9993359  0 12
C01  37489307.692   195216728.183        -380.725          36.000  
C06  36279767.739   188918291.100         216.632          24.000  
C07  36294551.105   188995251.561         127.419          35.000  
C16  36640297.550                         246.645          32.000  
C21  24813399.641   129209831.870        2003.057          25.000  
C22  22178723.389   115490426.695        -653.097          42.000  
C36  23167798.367   120640732.868       -1709.233          22.000  
G26  20105916.664                        -318.066          33.000    20105916.664    78899922.821        -237.558          33.000  
G29  23765032.011   124885950.865       -1094.115          23.000  
G32  21202295.756   111418805.878       -1846.763          41.000  
J02  39314732.277   206600376.901       -1099.119          29.000    39314740.671   154279481.636        -820.017          29.000  
R05  19190760.913   102585615.381         196.153          33.000  
> 2021  9 30 12  5 47.9993357  0 13
C01  37489320.284   195216796.060        -379.682          34.000  
C07  36294467.163   188994812.096         127.347          35.000  
C16  36640189.625   190795085.0011        247.420          30.000  
C21  24812956.248   129207516.040        2003.735          23.000  
C22  22178790.543   115490767.303        -654.216          40.000  
C30  25083306.988   130615362.2231        742.036          24.000  
C36  23168082.570   120642130.075       -1709.481          19.000  
G22  22993847.990   120833500.0051       -117.617          18.000  
G26  20105916.963   105657309.3531       -322.368          31.000    20105916.963    78899926.169        -238.488          32.000  
G32  21202584.156   111420337.302       -1846.923          39.000  
J02  39314880.974   206601160.941       -1098.807          29.000    39314889.668   154280065.561        -819.184          28.000  
R04  20664413.224   110656995.3211      -3613.591          29.000  
R05  19190664.080   102585098.113         196.937          32.000  
> 2021  9 30 12  5 48.9993354  0 10
C01  37489303.795   195216707.186        -379.308          33.000  
C07  36294354.141                         126.452          34.000  
C16  36640053.219   190794368.965         250.695          30.000  
C22  22178825.619   115490951.866        -652.289          39.000  
C30  25083076.148   130614151.224         743.577          22.000  
G22  22993781.736   120833144.947        -117.732          20.000  
G26  20105887.284   105657155.898        -318.334          33.000  
G32  21202846.175   111421711.148       -1846.124          39.000  
J02  39315000.292   206601785.977       -1096.493          29.000    39315008.686   154280531.891        -818.988          28.000  
R05  19190532.771   102584396.307         197.070          31.000  
> 2021  9 30 12  5 49.9993352  0 12
C01  37489316.986   195216773.949        -379.115          34.000  
C06  36279434.370   188916543.6821        218.753          22.000  
C07  36294269.000   188993786.3661        128.222          34.000  
C16  36639944.394   190793808.294         249.829          30.000  
C22  22178890.973   115491292.442        -654.092          39.000  
C30  25082873.188   130613094.939         744.021          24.000  
G22  22993744.862   120832947.125        -118.210          21.000  
G26  20105889.682   105657159.712        -319.376          32.000  
G29  23765446.624   124888124.8911      -1093.564          21.000  
G32  21203138.173   111423242.432       -1847.030          39.000  
J02  39315148.089   206602567.203       -1096.108          26.000    39315157.683   154281115.674        -818.805          28.000  
R05  19190435.938   102583878.805         196.803          31.000  
> 2021  9 30 12  5 50.9993352  0 14
C01  37489390.735   195217152.773        -378.637          31.000  
C07  36294244.417   188993659.320         124.230          35.000  
C16  36639899.425   190793559.129         248.213          28.000  
C21  24811652.450   129200722.5691       2000.230          20.000  
C22  22179011.790   115491946.090        -657.987          37.000  
C30  25082725.091   130612351.151         743.743          24.000  
C36  23168959.163   120646850.8781      -1705.615          23.000  
G22  22993769.145   120833064.335        -117.528          21.000  
G26  20105946.043   105657479.212        -322.500          29.000  
G29  23765678.963   124889486.843       -1094.536          23.000  
G32  21203486.232   111425089.774       -1852.719          38.000  
J02  39315355.546   206603661.532       -1093.206          23.000    39315365.139   154281933.645        -815.455          27.000  
R04  20666270.139   110666938.8331      -3613.735          29.000  
R05  19190399.063   102583681.233         196.291          33.000  
> 2021  9 30 12  5 51.9993349  0 11
C06  36279265.287   188915639.0191        220.106          23.000  
C07  36294126.899   188993064.781         126.483          31.000  
C16  36639762.120   190792841.834         249.889          26.000  
C22  22179047.765   115492132.232        -655.757          37.000  
C36  23169207.991   120648089.946       -1708.915          20.000  
G22  22993701.692   120832708.260        -115.706          20.000  
G26  20105916.364   105657325.073        -317.592          33.000  
G32  21203747.351   111426463.374       -1847.863          36.000  
J02  39315474.563   206604282.852       -1094.902          23.000    39315483.257   154282395.881        -814.911          24.000  
R04  20666853.835   110670064.009       -3615.607          28.000  
R05  19190270.752   102582995.815         195.307          34.000  
> 2021  9 30 12  5 52.9993347  0 13
C06  36279163.957   188915105.588         221.861          24.000  
C07  36294044.756   188992627.150         125.988          32.000  
C16  36639655.394   190792280.009         249.516          25.000  
C21  24810734.186   129195940.2321       2000.022          19.000  
C22  22179116.717   115492475.080        -652.785          39.000  
C36  23169485.299   120649487.491       -1710.421          18.000  
G22  22993662.119   120832510.124        -115.934          20.000  
G26  20105915.165                        -318.744          35.000  
G29  23765962.267   124890889.3491      -1094.144          21.000  
G32  21204038.150   111427995.766       -1847.174          33.000  
J02                                                                  39315631.954   154282976.502        -815.066          20.000  
R04  20667475.005   110673390.993       -3616.608          27.000  
R05  19190176.317   102582491.321         194.779          33.000  
> 2021  9 30 12  5 53.9993344  0 10
C06  36279033.548   188914414.817         222.286          22.000  
C07  36293930.835   188992032.068         127.336          32.000  
C22  22179152.093                        -655.455          40.000  
C36  23169732.028   120650728.972       -1709.257          23.000  
G22  22993594.066   120832153.846        -117.326          19.000  
G26  20105887.584   105657145.2991       -321.797          36.000  
G29  23766086.681   124891511.328       -1094.320          24.000  
G32  21204299.869   111429368.822       -1845.219          34.000  
R04  20668059.900   110676523.188       -3617.683          26.000  
R05  19190052.803   102581831.025         194.154          34.000  
> 2021  9 30 12  5 54.9993341  0  9
C07  36293815.714   188991434.181         130.091          31.000  
C16  36639378.686   190790843.0951        249.036          19.000  
C22  22179186.868   115492851.9971       -654.549          38.000  
C36  23169978.158   120651969.708       -1708.696          21.000  
G26  20105859.403                        -319.862          36.000    20105863.900    78899728.5851       -239.096          31.000  
G32  21204559.489   111430742.113       -1846.811          32.000  
J02  39315872.987   206606318.8631      -1100.467          21.000  
R04  20668645.095   110679656.914       -3617.765          27.000  
R05  19189929.288   102581170.363         193.680          32.000  
> 2021  9 30 12  5 55.9993339  0  9
C06  36278805.406   188913187.1101        223.318          23.000  
C07  36293731.173   188990992.830         128.568          29.000  
C21  24809338.652   129188685.7601       2001.174          17.000  
C22  22179253.722   115493194.028        -654.324          37.000  
C36  23170252.168   120653362.793       -1703.145          16.000  
G22  22993485.841   120831600.3491       -117.133          17.000  
G26  20105861.502   105657010.1561       -321.054          33.000    20105864.799    78899732.650        -239.912          32.000  
R04  20669260.868   110682954.102       -3618.104          30.000  
R05  19189835.154   102580667.223         193.375          33.000  
> 2021  9 30 12  5 56.9993336  0  7
C07  36293618.451   188990395.769         128.484          32.000  
C22  22179289.997   115493380.314        -653.851          41.000  
G22  22993415.390   120831245.843        -119.314          26.000  
G26  20105831.223   105656858.428        -320.566          34.000    20105836.619    78899619.361        -239.411          32.000  
G29  23766500.694   124893804.2581      -1093.606          20.000  
R04  20669845.164   110686082.667       -3616.792          31.000  
R05  19189708.341   102579989.581         192.682          30.000  
> 2021  9 30 12  5 57.9993334  0  9
C07  36293534.809   188989954.764         129.587          31.000  
C21  24808408.696   129183899.5111       2003.654          14.000  
C22  22179355.352   115493723.090        -654.838          41.000  
C36  23170773.507   120656298.3611      -1700.503          14.000  
G22  22993375.817   120831050.084        -119.137          27.000  
G26  20105830.623   105656864.562        -322.209          33.000    20105837.219    78899623.958        -240.141          33.000  
G29  23766659.884   124894583.428       -1094.478          25.000  
G32  21205412.398   111435180.0411      -1848.080          32.000  
R05  19189611.808   102579472.848         191.675          32.000  
> 2021  9 30 12  5 58.9993331  0  9
C07  36293421.787   188989357.910         128.208          33.000  
C21  24807931.726   129181428.068        2003.452          13.000  
C22  22179390.727   115493910.281        -655.939          40.000  
C36  23171019.637   120657531.445       -1702.178          14.000  
G22  22993308.364   120830696.543        -119.918          27.000  
G26  20105804.841   105656713.697        -323.166          34.000    20105807.839    78899511.228        -242.708          34.000  
G32  21205670.820   111436555.761       -1848.820          30.000  
R04  20671046.732   110692517.5591      -3616.636          33.000  
R05  19189488.294   102578812.885         190.589          34.000  
> 2021  9 30 12  5 59.9993329  0  7
C07  36293334.547                         129.037          33.000  
C21  24807485.635   129179111.355        2006.162          13.000  
C22  22179453.084   115494254.560        -655.910          40.000  
C36  23171161.439   120658318.783       -1706.244          15.000  
G22  22993269.091   120830501.852        -121.143          26.000  
G26  20105809.038   105656721.120        -321.600          36.000    20105809.638    78899516.811        -239.596          31.000  
R05  19189394.758   102578313.156         189.783          34.000  
> 2021  9 30 12  6  0.9993326  0  7
C07  36293215.830   188988321.1161        127.677          33.000  
C21  24807009.864   129176634.626        2012.385          13.000  
C22  22179487.560   115494443.214        -658.566          39.000  
G22  22993201.038   120830150.830        -121.859          23.000  
G26  20105779.658   105656571.388        -323.191          35.000    20105780.858    78899405.022        -241.546          30.000  
G32                                                                  21206230.232    83217802.4991      -1380.742          34.000  
R05  19189265.548   102577621.953         188.977          32.000  
> 2021  9 30 12  6  1.9993324  0  8
C01  37489364.653   195216962.6401       -377.768          27.000  
C07  36293131.588   188987881.170         129.988          32.000  
C22  22179556.812   115494788.730        -656.004          36.000  
G22  22993165.063   120829957.732        -121.982          26.000  
G26  20105779.359   105656579.862        -323.869          30.000    20105782.057    78899411.328        -240.020          31.000  
G32  21206515.935                       -1856.772          33.000    21206520.731    83218948.359       -1384.301          31.000  
R04  20672862.275   110702239.6471      -3618.523          29.000  
R05  19189167.816   102577100.051         188.032          33.000  
> 2021  9 30 12  6  2.9993321  0  8
C01  37489346.066   195216870.996        -376.240          30.000  
C07  36293015.868   188987286.046         125.714          31.000  
C22  22179593.987   115494978.881        -661.534          39.000  
G22  22993100.008   120829606.463        -121.912          25.000  
G26  20105748.780   105656431.062        -324.173          35.000    20105753.876    78899300.351        -244.307          33.000  
G32                                                                  21206781.850    83219977.435       -1385.697          32.000  
R04  20673448.070   110705375.786       -3619.266          24.000  
R05  19189043.402   102576434.598         187.544          33.000  
> 2021  9 30 12  6  3.9993318  0  8
C07  36292905.544   188986691.086         125.983          33.000  
C22  22179629.662   115495169.838        -661.268          38.000  
G22  22993034.653   120829255.684        -123.231          22.000  
G26  20105720.299   105656282.625        -324.629          35.000    20105725.996    78899189.877        -243.547          33.000  
G29  23767259.768   124897793.8501      -1098.288          29.000  
G32  21207047.766   111443750.2311      -1852.827          36.000    21207045.368    83221005.954       -1376.363          30.000  
R04  20674032.365   110708505.296       -3621.337          28.000  
R05  19188918.088   102575764.970         186.419          34.000  
> 2021  9 30 12  6  4.9993318  0  7
C07  36292878.863   188986565.333         125.415          32.000  
C22  22179756.774   115495830.034        -661.073          40.000  
G22  22993061.335   120829377.175        -121.126          19.000  
G26  20105785.654                        -325.759          35.000    20105788.053    78899433.123        -245.878          32.000  
G32  21207397.924   111445602.852       -1853.675          36.000    21207396.425    83222388.616       -1384.367          30.000  
R04  20674713.494   110712152.215       -3622.791          27.000  
R05  19188884.212   102575584.188         184.905          34.000  
> 2021  9 30 12  6  5.9993316  0  5
C07  36292797.919   188986127.380         127.209          32.000  
C22  22179821.829   115496178.697        -660.396          39.000  
G26  20105790.451   105656628.0891       -325.138          36.000    20105790.151    78899441.384        -242.579          32.000  
G32  21207692.920   111447141.765       -1860.719          37.000    21207688.723    83223537.093       -1386.483          30.000  
R05  19188787.079   102575064.105         183.991          33.000  
> 2021  9 30 12  6  6.9993313  0  8
C07  36292684.597   188985532.240         126.709          32.000  
C22  22179860.202   115496370.958        -661.717          38.000  
G22  22992960.605   120828833.5891       -123.415          20.000  
G26  20105762.270   105656481.306        -327.683          35.000    20105762.570    78899331.839        -245.296          30.000  
G29  23767744.533   124900310.6481      -1101.108          29.000  
G32  21207957.936   111448524.663       -1852.887          30.000  
R04  20675910.865   110718564.5771      -3625.554          27.000  
R05  19188660.567   102574388.506         183.499          31.000  
> 2021  9 30 12  6  7.9993311  0  5
C07  36292602.154   188985093.939         125.997          32.000  
C22  22179924.358   115496719.868        -658.727          37.000  
G26  20105763.170   105656493.445        -326.546          31.000    20105764.069    78899339.911        -244.575          28.000  
R04  20676525.739   110721857.161       -3624.145          29.000  
R05  19188565.233   102573878.773         182.860          31.000  
> 2021  9 30 12  6  8.9993308  0  6
C07  36292486.734   188984500.562         124.782          29.000  
C22  22179965.130   115496914.988        -664.815          35.000  
G26  20105734.690   105656347.532        -327.696          32.000    20105735.589    78899231.685        -246.640          30.000  
G29  23768005.952   124901727.4371      -1105.063          25.000  
R04  20677112.433   110724998.892       -3625.227          30.000  
R05  19188439.020   102573203.583         181.825          32.000  
> 2021  9 30 12  6  9.9993306  0  5
C07  36292401.593   188984063.459         125.116          31.000  
C22  22180030.784                        -664.765          38.000  
G26  20105734.390   105656361.699        -330.066          32.000    20105738.287    78899242.331        -245.226          30.000  
R04  20677726.408   110728286.067       -3626.227          34.000  
R05  19188343.086   102572690.790         180.800          30.000  
> 2021  9 30 12  6 10.9993303  0  7
C07  36292287.972   188983470.733         124.543          27.000  
C22  22180069.158   115497436.7631       -665.654          38.000  
G26  20105705.909   105656219.196        -329.692          33.000    20105711.006    78899134.202        -245.088          30.000  
G29  23768277.564   124903154.1141      -1107.906          23.000  
G32  21209069.267   111454357.7841      -1853.685          31.000  
R04  20678311.003   110731416.771       -3627.133          35.000  
R05  19188220.471   102572035.607         179.979          32.000  
> 2021  9 30 12  6 11.9993300  0  6
C07  36292174.351   188982878.111         123.784          24.000  
C22  22180105.732   115497633.239        -666.634          39.000  
G26                                                                  20105683.725    78899026.327        -246.336          33.000  
G29  23768404.376   124903790.717       -1109.756          22.000  
R04  20678899.796   110734569.726       -3628.319          33.000  
R05  19188093.959   102571359.362         179.071          31.000  
> 2021  9 30 12  6 12.9993298  0  7
C07  36292092.507   188982443.018         121.390          22.000  
C22  22180173.186   115497984.613        -663.427          33.000  
G26  20105681.326   105656091.0651       -330.575          32.000    20105686.723    78899037.547        -247.581          34.000  
G29  23768560.568   124904585.118       -1109.276          22.000  
G32  21209629.579   111457283.4151      -1856.691          31.000  
R04  20679516.469   110737872.293       -3629.159          36.000  
R05  19187998.625   102570850.315         177.513          35.000  
> 2021  9 30 12  6 13.9993295  0  7
C07  36291977.986   188981853.033         121.412          17.000  
C22  22180210.360   115498180.926        -665.921          34.000  
G26  20105657.943   105655949.468        -330.595          38.000    20105660.641    78898932.320        -248.122          34.000  
G29  23768681.084   124905221.567       -1109.024          23.000  
G32  21209893.696   111458666.958       -1855.569          34.000  
R04  20680105.261   110741025.117       -3629.674          35.000  
R05  19187875.110   102570189.510         176.509          35.000  
> 2021  9 30 12  6 14.9993293  0  6
C22  22180278.713   115498534.953        -666.458          37.000  
G26  20105657.943                        -333.549          34.000    20105663.938    78898944.347        -246.836          32.000  
G29  23768830.381   124906014.762       -1108.148          25.000  
G32  21210186.593   111460207.602       -1855.389          32.000  
R04  20680720.135   110744318.003       -3630.292          34.000  
R05  19187782.774   102569695.857         175.722          33.000  
> 2021  9 30 12  6 15.9993290  0  7
C19  23305605.165   121358486.9291      -3230.993          30.000  
C22  22180317.686                        -665.160          38.000  
G26  20105629.762   105655805.1871       -331.326          35.000    20105637.257                        -247.336          32.000  
G29  23768953.596   124906650.746       -1108.524          25.000  
G32  21210448.912   111461590.834       -1856.184          30.000  
R04  20681309.827   110747475.541       -3630.228          33.000  
R05  19187660.459   102569042.619         175.232          32.000  
> 2021  9 30 12  6 16.9993288  0  7
C19  23306164.578   121361404.646       -3230.955          28.000  
C22  22180382.141   115499089.7931       -666.626          38.000  
G26  20105638.456   105655822.712        -333.178          36.000    20105639.655    78898852.7651       -246.131          31.000  
G29  23769104.991   124907445.495       -1110.769          24.000  
G32  21210742.708   111463132.283       -1857.196          33.000  
R04  20681932.196   110750808.495       -3630.513          32.000  
R05  19187563.926   102568526.026         174.612          31.000  
> 2021  9 30 12  6 17.9993285  0  7
C07  36291587.057   188979797.4731        120.854          19.000  
C19  23306694.311   121364167.370       -3231.466          29.000  
C22  22180424.412                        -669.111          35.000  
G26  20105608.477                        -332.094          36.000    20105612.374    78898748.210        -251.648          31.000  
G29  23769227.007   124908081.770       -1109.907          16.000  
R04  20682523.087   110753972.032       -3630.885          33.000  
R05  19187441.611   102567872.227         173.623          34.000  
> 2021  9 30 12  6 18.9993283  0  8
C07  36291501.616   188979365.495         120.237          20.000  
C19  23307254.024   121367086.581       -3230.904          30.000  
C22  22180491.565   115499646.8581       -667.282          37.000  
G26  20105614.473   105655704.3201       -332.246          34.000    20105615.972    78898761.759        -246.340          30.000  
G29  23769373.905   124908874.337       -1106.466          16.000  
G32  21211299.123   111466057.5131      -1857.457          30.000  
R04  20683140.360   110757277.584       -3630.301          31.000  
R05  19187349.574   102567380.715         172.633          33.000  
> 2021  9 30 12  6 19.9993283  0  7
C19  23307874.294   121370317.868       -3231.106          30.000  
C22  22180618.078   115500313.908        -667.414          37.000  
G26  20105678.628   105656038.438        -331.862          36.000    20105679.528    78899010.240        -249.499          30.000  
G29  23769581.961   124909980.540       -1106.417          16.000  
J01  36211801.791   190294302.8801        161.686          28.000  
R04  20683822.088   110760928.820       -3631.965          30.000  
R05  19187317.197   102567207.583         171.946          34.000  
> 2021  9 30 12  6 20.9993280  0  9
C07  36291367.909   188978653.6191        122.799          20.000  
C19  23308404.627   121373081.189       -3231.820          30.000  
C22  22180656.151   115500513.869        -669.486          36.000  
G26  20105653.446   105655900.360        -336.651          35.000    20105653.746    78898906.619        -248.896          30.000  
G29  23769707.874   124910615.532       -1108.369          16.000  
G32  21211917.595   111469303.4761      -1860.203          32.000  
J01  36211681.874   190293668.769         161.690          28.000  
R04  20684412.979   110764092.615       -3632.754          32.000  
R05  19187195.181   102566554.697         170.588          31.000  
> 2021  9 30 12  6 21.9993275  0  8
C19  23308875.901   121375532.578       -3232.254          33.000  
C22  22180639.663   115500403.367        -670.081          35.000  
G26  20105567.106   105655447.369        -337.367          35.000    20105568.005    78898567.941        -249.842          34.000  
G29  23769773.828   124910936.329       -1110.513          17.000  
G32  21212122.053   111470375.950       -1860.061          31.000  
J01  36211499.301   190292719.545         161.405          29.000  
R04  20684943.612   110766934.243       -3633.510          31.000  
R05  19187017.704   102565606.056         170.095          33.000  
> 2021  9 30 12  6 22.9993272  0  8
C07  36291080.108   188977157.6451        122.117          19.000  
C19  23309408.332   121378296.901       -3231.778          34.000  
C22  22180680.135                        -667.797          37.000  
G26  20105540.124   105655310.089        -334.561          37.000    20105542.223    78898465.326        -251.275          35.000  
G29  23769902.139   124911574.887       -1113.111          17.000  
J01  36211379.384   190292084.807         162.651          26.000  
R04  20685533.303   110770092.168       -3633.978          35.000  
R05  19186899.886   102564976.481         169.444          35.000  
> 2021  9 30 12  6 23.9993270  0  8
C19  23309974.940                       -3232.959          35.000  
C22  22180744.590   115500981.5771       -669.976          37.000  
G26  20105544.022   105655331.411        -337.446          37.000    20105545.820    78898481.485        -251.002          33.000  
G29  23770061.329   124912372.797       -1113.727          18.000  
G32  21212678.468   111473308.2341      -1860.738          31.000  
J01  36211289.146   190291607.422         160.769          28.000  
R04  20686154.473   110773418.073       -3634.705          35.000  
R05  19186812.346   102564508.983         168.354          35.000  
> 2021  9 30 12  6 24.9993267  0  8
C07  36290883.444   188976131.7141        122.466          17.000  
C19  23310506.772   121383921.9841      -3235.449          32.000  
C22  22180783.863   115501183.521        -672.440          36.000  
G26  20105522.137   105655195.447        -340.632          35.000    20105520.038                        -252.812          34.000  
G29  23770197.135   124913014.119       -1114.915          23.000  
J01  36211169.229   190290973.436         161.132          26.000  
R04  20686742.966   110776570.023       -3635.256          33.000  
R05  19186694.828   102563880.170         167.656          35.000  
> 2021  9 30 12  6 25.9993265  0  8
C19  23311062.887   121386844.392       -3235.231          34.000  
C22  22180856.113                        -671.642          37.000  
G26  20105521.237   105655218.071        -337.466          37.000    20105525.434    78898396.8821       -250.504          36.000  
G29  23770368.316   124914128.640       -1117.086          20.000  
G32  21213237.281   111476244.9661      -1863.619          31.000  
J01  36211078.092   190290497.366         161.007          29.000  
R04  20687366.834   110779910.965       -3637.070          32.000  
R05  19186606.089   102563406.217         165.661          34.000  
> 2021  9 30 12  6 26.9993262  0  9
C07  36290685.281   188975108.2151        121.515          19.000  
C19  23311593.819   121389609.873       -3233.311          35.000  
C22  22180896.285   115501745.0391       -674.312          39.000  
G26  20105495.755   105655084.438        -340.386          36.000    20105500.851    78898296.844        -251.673          30.000  
G29  23770508.320   124914772.821       -1116.986          23.000  
G32  21213501.399   111477635.371       -1862.649          30.000  
J01  36210957.276   190289864.467         160.247          26.000  
R04  20687955.027   110783060.745       -3638.073          30.000  
R05  19186487.971   102562774.432         164.474          35.000  
> 2021  9 30 12  6 27.9993260  0  7
C19  23312154.132   121392531.614       -3234.691          31.000  
C22  22180964.938                        -674.415          38.000  
G26  20105498.153                        -341.059          37.000    20105503.849    78898314.728        -255.022          31.000  
G29  23770675.304   124915574.953       -1117.503          22.000  
G32  21213797.294   111479183.098       -1863.191          30.000  
J01  36210865.240   190289389.253         160.005          28.000  
R04  20688573.199   110786370.382       -3637.776          33.000  
> 2021  9 30 12  6 28.9993257  0  8
C19  23312684.764   121395297.911       -3235.189          31.000  
C22  22181000.613   115502312.4131       -676.929          37.000  
G26  20105477.468                        -343.642          34.000    20105478.367    78898215.528        -254.922          32.000  
G29  23770815.607   124916221.268       -1119.739          21.000  
G32  21214061.411   111480574.374       -1864.181          31.000  
J01  36210744.123   190288757.691         158.525          29.000  
R04  20689162.891   110789527.961       -3638.809          31.000  
R05  19186279.615   102561661.1901        162.661          34.000  
> 2021  9 30 12  6 29.9993254  0  8
C19  23313216.596   121398064.930       -3235.459          34.000  
C22  22181040.185                        -671.274          36.000  
G26  20105450.786   105654840.8241       -337.443          36.000    20105452.285    78898116.680        -253.447          32.000  
G29  23770958.008   124917227.683       -1122.454          19.000  
G32  21214326.128   111481965.563       -1864.299          29.000  
J01  36210623.907   190288127.419         156.975          29.000  
R04  20689752.882   110792687.582       -3639.718          31.000  
R05  19186159.098   102561016.077         162.001          34.000  
> 2021  9 30 12  6 30.9993252  0  7
C19  23313779.007   121400988.455       -3237.450          30.000  
C22  22181111.536   115502860.7851       -676.426          37.000  
G26  20105456.182   105654866.736        -341.469          37.000    20105458.880    78898136.035        -249.142          34.000  
G32  21214621.423   111483515.223       -1865.039          29.000  
J01  36210531.870   190287655.024         156.785          26.000  
R04  20690372.253   110796004.754       -3639.631          28.000  
R05  19186066.762   102560522.921         160.967          35.000  
> 2021  9 30 12  6 31.9993249  0  7
C19  23314309.339   121403757.298       -3237.839          26.000  
C22  22181150.809                        -677.538          35.000  
G26  20105432.499   105654735.423        -341.449          38.000    20105434.297    78898038.000        -256.615          32.000  
G32  21214886.440   111484907.645       -1866.056          31.000  
J01  36210409.555   190287025.021         157.461          27.000  
R04  20690960.446   110799153.817       -3640.030          27.000  
R05  19185944.447   102559869.317         160.532          35.000  
> 2021  9 30 12  6 32.9993247  0  7
C19  23314871.151   121406683.079       -3237.332          22.000  
C22  22181221.260   115503437.6971       -674.602          36.000  
G26  20105436.396   105654761.942        -341.487          36.000    20105439.694    78898057.778        -256.538          34.000  
G32  21215183.834   111486458.647       -1866.639          31.000  
J01  36210319.617   190286551.961         157.981          30.000  
R04  20691580.117   110802472.737       -3640.396          28.000  
R05  19185853.610   102559383.705         159.672          33.000  
> 2021  9 30 12  6 33.9993247  0  7
C19  23315492.620   121409919.287       -3236.121          26.000  
C22  22181352.269                        -680.234          38.000  
G26  20105499.352   105655104.577        -342.515          36.000    20105503.550    78898313.655        -255.211          31.000  
G32  21215540.887   111488325.830       -1867.481          28.000  
J01  36210286.640   190286393.536         158.730          29.000  
R04  20692259.747   110806112.284       -3641.614          29.000  
R05  19185822.731   102559218.476         158.803          32.000  
> 2021  9 30 12  6 34.9993244  0  5
C19  23316025.352   121412687.234       -3236.823          29.000  
C22  22181391.542                        -679.926          35.000  
G26  20105475.669   105654975.234        -344.683          37.000    20105478.667    78898216.949        -257.996          34.000  
G32  21215808.002   111489721.270       -1868.473          32.000  
R05  19185699.217   102558558.387         158.126          33.000  
> 2021  9 30 12  6 35.9993242  0  6
C19  23316586.863   121415612.229       -3238.087          28.000  
C22  22181462.593   115504698.1941       -677.287          36.000  
G26  20105483.763   105655004.132        -344.559          36.000    20105483.763    78898238.585        -258.604          34.000  
G32  21216105.995   111491275.060       -1868.850          31.000  
R04  20693468.510   110812584.9601      -3642.402          32.000  
R05  19185609.879   102558080.514         156.953          33.000  
> 2021  9 30 12  6 36.9993239  0  7
C19  23317119.894   121418381.496       -3237.334          28.000  
C22  22181503.665                        -678.489          36.000  
G26  20105457.381   105654876.184        -345.170          36.000    20105458.581    78898143.102        -256.047          33.000  
G32  21216369.513   111492672.124       -1869.276          31.000  
J01  36209957.168   190284658.5981        157.032          28.000  
R04  20694057.302   110815737.763       -3644.234          28.000  
R05  19185489.062   102557434.650         155.147          33.000  
> 2021  9 30 12  6 37.9993236  0  8
C19  23317652.625   121421150.959       -3238.437          26.000  
C22  22181545.036   115505121.3381       -680.254          37.000  
G26  20105433.998   105654748.778        -343.061          35.000    20105435.497    78898047.906        -256.536          33.000  
G29  23772164.673   124923357.8081      -1122.207          20.000  
G32  21216633.630   111494068.224       -1868.816          30.000  
J01  36209836.352   190284029.124         156.440          29.000  
R04  20694645.495   110818887.557       -3644.680          33.000  
R05  19185368.846   102556791.994         154.271          33.000  
> 2021  9 30 12  6 38.9993234  0  8
C01  37489372.448   195216903.1331       -382.773          31.000  
C19  23318214.736   121424077.378       -3238.931          31.000  
C22  22181614.288                        -681.738          39.000  
G26  20105437.895   105654780.034        -347.062          35.000    20105442.692    78898070.817        -259.711          31.000  
G32  21216928.326   111495621.793       -1868.888          32.000  
J01  36209747.314   190283557.175         156.569          29.000  
R04  20695256.472   110822159.535       -3643.701          28.000  
R05  19185279.208   102556313.315         153.468          31.000  
> 2021  9 30 12  6 39.9993231  0  8
C19  23318745.968   121426847.867       -3239.944          33.000  
C22  22181653.861   115505696.1621       -678.319          35.000  
G26  20105411.813   105654654.250        -346.472          31.000    20105417.209    78897976.067        -260.620          31.000  
G29  23772453.673   124925087.8591      -1125.001          20.000  
G32  21217192.144   111497017.850       -1868.443          32.000  
J01  36209627.397   190282927.680         157.195          29.000  
R04  20695846.164   110825317.091       -3645.130          28.000  
R05  19185159.890   102555675.169         153.339          35.000  
