     3.04           OBSERVATION DATA    M: Mixed            RINEX VERSION / TYPE
Higeo_Hi1105        Huawei CBG          20220126 062054 UTC PGM / RUN BY / DATE 
************************************************************COMMENT             
* If you have any problem,                                 *COMMENT             
*     please contact with LBS Technology Group, thanks.    *COMMENT             
*                                                          *COMMENT             
* Version Higeo2RinexV1.1 2020.07.21                       *COMMENT             
* Fuction:  Convert Higeo Log to Rinex file                *COMMENT             
*                                                          *COMMENT             
* Note that the verision support B1C B2A signal            *COMMENT             
*     BDS: C1D L1D D1D S1D indicate BDS B1C                *COMMENT             
*     BDS: C5D L5D D5D S5D indicate BDS B2A                *COMMENT             
*     Reference: RINEX V3.04                               *COMMENT             
*                                                          *COMMENT             
* Copyright(C) Huawei Technologies Co., Ltd. 2019 - 2020   *COMMENT             
*     All rights reserved.                                 *COMMENT             
************************************************************COMMENT             
                                                            MARKER NAME         
                                                            MARKER NUMBER       
                                                            MARKER TYPE         
                                                            OBSERVER / AGENCY   
                                                            REC # / TYPE / VERS 
                                                            ANT # / TYPE        
        0.0000        0.0000        0.0000                  APPROX POSITION XYZ 
        0.0000        0.0000        0.0000                  ANTENNA: DELTA H/E/N
G    8 C1C L1C D1C S1C C5I L5I D5I S5I                      SYS / # / OBS TYPES 
R    4 C1C L1C D1C S1C                                      SYS / # / OBS TYPES 
E    8 C1C L1C D1C S1C C5I L5I D5I S5I                      SYS / # / OBS TYPES 
J    8 C1C L1C D1C S1C C5I L5I D5I S5I                      SYS / # / OBS TYPES 
C   12 C2I L2I D2I S2I C1D L1D D1D S1D C5D L5D D5D S5D      SYS / # / OBS TYPES 
  2022     1    25     6    53   49.0000000     GPS         TIME OF FIRST OBS   
  2022     1    25     7    16   18.0000000     GPS         TIME OF LAST OBS    
G                                                           SYS / PHASE SHIFT   
R                                                           SYS / PHASE SHIFT   
E                                                           SYS / PHASE SHIFT   
J                                                           SYS / PHASE SHIFT   
C                                                           SYS / PHASE SHIFT   
  0                                                         GLONASS SLOT / FRQ #
 C1C    0.000 C1P    0.000 C2C    0.000 C2P    0.000        GLONASS COD/PHS/BIS 
                                                            END OF HEADER       
> 2022  1 25  6 53 49.0000000  0  2                     
G 4                      3709.181         391.817          23.000                                                                  
G 8                    -21285.109       -2617.594          28.000                                                                  
> 2022  1 25  6 53 50.0000000  0  2                     
G 4                      5744.316         382.095          30.000                                                                  
G 8                    -35035.993       -2617.598          26.000                      -10888.224       -1957.360          22.000  
> 2022  1 25  6 53 51.0000000  0  3                     
G 4                      7745.496         380.948          22.000                                                                  
G 8                    -48797.594       -2618.357          24.000                      -18565.970       -1957.157          28.000  
R24                                                        26.000  
> 2022  1 25  6 53 53.0000000  0  8                     
G 4                      9743.900         380.016          17.000                                                                  
G 8                    -62567.398       -2620.577          27.000                      -26245.892       -1957.698          29.000  
G 9                    -14775.226       -1562.704          20.000                                                                  
G26                     21151.173        2237.176          22.000                                                                  
G27                     -5395.098        -807.917          22.000                                                                  
R 3                                                        34.000  
R24                                                        26.000  
C11                    -17933.226       -2753.815          31.000                                                                                                                                  
> 2022  1 25  6 53 54.0000000  0  9                     
G 4                     11737.473         378.922          26.000                                                                  
G 8                    -76344.590       -2622.352          30.000                      -33925.206       -1956.470          19.000  
G 9                    -22998.961       -1566.406          16.000                                                                  
G18                      8732.932         648.760          21.000                                                                  
G26                     32907.867        2236.033          23.000                                                                  
G27                     -9652.129        -808.714          18.000                                                                  
R 3                                                        25.000  
R24                                                        26.000  
C11                    -32254.151       -2747.876          29.000                                                                                                                                  
> 2022  1 25  6 53 55.0000000  0  9                     
G 4                     13727.093         378.643          30.000                                                                  
G 8                    -90126.462       -2622.775          27.000                      -41613.442       -1959.230          17.000  
G 9                    -31221.094       -1565.416          20.000                                                                  
G18                     12132.001         644.219          18.000                                                                  
G26                     44648.166        2232.215          18.000                                                                  
G27                    -13914.256        -812.172          29.000                                                                  
R 3                                                        23.000  
R24                                                        30.000  
C11                    -46594.500       -2757.452          29.000                                                                                                                                  
> 2022  1 25  6 53 56.0000000  0  8                     
G 4                     15709.228         376.891          33.000                                                                  
G 8                   -103916.761       -2624.302          29.000                      -49307.906       -1958.932          20.000  
G 9                    -39451.264       -1566.629          25.000                                                                  
G26                     56378.300        2233.075          22.000                                                                  
G27                    -18191.487        -813.990          30.000                                                                  
R 3                                                        28.000  
R24                                                        29.000  
C11                    -60954.268       -2758.189          28.000                                                                                                                                  
> 2022  1 25  6 53 57.0000000  0 10                     
G 4                     17674.191         373.332          25.000                                                                  
G 8                   -117713.154       -2627.381          28.000                      -57000.990       -1961.178          24.000  
G 9                    -47693.493       -1568.899          25.000                                                                  
G26                     68102.891        2230.301          20.000                                                                  
G27                    -22479.751        -816.056          29.000                                                                  
R 3                                                        27.000  
R24                                                        28.000  
E 8                     30804.039        3082.535          24.000                                                                  
E30                      6179.508         462.221          26.000                                                                  
C11                    -75331.680       -2760.385          26.000                                                                                                                                  
> 2022  1 25  6 53 58.0000000  0 10                     
G 4                     19637.510         374.724          20.000                                                                  
G 8                   -131515.259       -2627.357          29.000                      -64693.193       -1962.454          24.000  
G 9                    -55941.696       -1572.695          19.000                                                                  
G26                     79821.877        2230.074          21.000                                                                  
G27                    -26762.316        -813.612          25.000                                                                  
R 3                                                        32.000  
R24                                                        28.000  
E 8                     47014.585        3084.956          26.000                                                                  
C11                    -89705.950       -2760.683          30.000                                                                                                                                  
C34                    -20109.980       -1821.780          26.000                                                                                                                                  
> 2022  1 25  6 53 59.0000000  0 10                     
G 4                     21601.905         372.211          21.000                                                                  
G 8                   -145316.309       -2625.702          27.000                      -72384.928       -1959.639          24.000  
G 9                    -64208.942       -1572.075          16.000                                                                  
G26                     91542.140        2229.995          21.000                                                                  
G27                    -31042.233        -813.361          32.000                                                                  
R 3                                                        24.000  
R24                                                        32.000  
E 8                     63217.492        3084.011          22.000                                                                  
C11                   -104079.206       -2759.035          28.000                                                                                                                                  
C34                     -3813.350       -1822.297          30.000                                                                                                                                  
> 2022  1 25  6 54  0.0000000  0 11                     
G 4                     23568.986         378.789          23.000                                                                  
G 8                   -159113.249       -2626.253          31.000                      -80078.603       -1959.901          18.000  
G 9                    -72471.658       -1571.512          19.000                                                                  
G26                    103265.203        2230.181          22.000                                                                  
G27                    -35326.731        -816.486          29.000                                                                  
R 3                                                        25.000  
R24                                                        32.000  
E 8                     79420.681        3082.936          27.000                                                                  
E30                      5571.355         460.363          18.000                                                                  
C11                   -118453.717       -2761.277          29.000                                                                                                                                  
C34                    -13319.075       -1826.391          31.000                                                                                                                                  
> 2022  1 25  6 54  1.0000000  0 13                     
G 4                     25548.493         374.820          25.000                                                                  
G 8                   -172919.023       -2626.264          21.000                      -87773.540       -1960.690          16.000  
G 9                    -80723.238       -1569.315          19.000                                                                  
G26                    114986.611        2231.149          17.000                                                                  
G27                    -39610.995        -814.977          20.000                                                                  
R 3                                                        21.000  
R13                                                        18.000  
R24                                                        25.000  
E 7                      8924.780        1327.277          20.000                                                                  
E 8                     95618.337        3081.899          20.000                                                                  
E30                      7992.289         461.454          18.000                                                                  
C11                   -132840.175       -2763.316          26.000                                                                                                                                  
C34                    -22821.556       -1824.959          26.000                                                                                                                                  
> 2022  1 25  6 54  2.0000000  0 14                     
G 4                     27512.157         372.517          28.000                                                                  
G 8                   -186724.613       -2628.625          32.000                      -95466.158       -1960.609          19.000  
G 9                    -88968.274       -1568.486          17.000                                                                  
G26                    126703.884        2227.741          18.000                                                                  
G27                    -43893.222        -816.240          28.000                                                                  
R 3                                                        31.000  
R13                                                        16.000  
R24                                                        24.000  
E 7                     15896.878        1326.281          30.000                                                                  
E 8                    111813.555        3081.345          29.000                                                                  
E30                     10407.489         456.465          18.000                                                                  
J 1                     55559.428         791.061          24.000                                                                  
C11                   -147234.340       -2763.803          30.000                                                                                                                                  
C34                    -32331.741       -1827.784          26.000                                                                                                                                  
> 2022  1 25  6 54  4.0000000  0 13                     
G 4                     30940.510         367.758          32.000                                                                  
G 8                   -211061.319       -2630.442          33.000                     -109032.550       -1963.608          27.000  
G 9                   -103511.740       -1575.578          20.000                                                                  
G26                    147309.097        2226.463          22.000                                                                  
G27                    -51450.645        -818.202          29.000                                                                  
R 3                                                        30.000  
R24                                                        20.000  
E 7                     28152.708        1323.861          31.000                                                                  
E 8                    140323.365        3080.240          27.000                                                                  
E30                     14636.643         457.531          19.000                                                                  
J 1                     62863.430         788.397          24.000                                                                  
C11                   -172562.675       -2763.038          28.000                                                                                                                                  
C34                    -49064.250       -1825.421          24.000                                                                                                                                  
> 2022  1 25  6 54  5.0000000  0 13                     
G 4                     32887.339         372.115          28.000                                                                  
G 8                   -224881.566       -2629.295          33.000                     -116735.893       -1962.497          28.000  
G 9                   -111778.427       -1574.909          22.000                                                                  
G26                    159007.335        2224.952          22.000                                                                  
G27                    -55741.710        -815.018          27.000                                                                  
R 3                                                        24.000  
R24                                                        25.000  
E 7                     35113.628        1324.438          26.000                                                                  
E 8                    156512.392        3080.941          29.000                                                                  
E30                     17040.046         457.670          18.000                                                                  
J 1                     67004.832         788.287          24.000                                                                  
C11                   -186946.874       -2759.510          29.000                                                                                                                                  
C34                    -58576.086       -1824.780          25.000                                                                                                                                  
> 2022  1 25  6 54  6.0000000  0 14                     
G 4                     34825.508         358.543          28.000                                                                  
G 8                   -238694.804       -2630.849          31.000                     -124443.645       -1964.006          23.000  
G 9                   -120067.471       -1581.412          25.000                                                                  
G26                    170691.434        2221.191          23.000                                                                  
G27                    -60027.944        -824.855          33.000                                                                  
G31                     17157.612        2806.126          24.000                                                                  
R 3                                                        21.000  
R24                                                        27.000  
E 7                     42067.583        1319.707          27.000                                                                  
E 8                    172696.721        3080.846          25.000                                                                  
E30                     19436.646         452.842          25.000                                                                  
J 1                     71138.130         786.924          23.000                                                                  
C11                   -201345.601       -2767.308          26.000                                                                                                                                  
C34                    -68100.378       -1831.024          30.000                                                                                                                                  
> 2022  1 25  6 54  7.0000000  0 19                     
G 4                     36760.230         372.209          29.000                                                                  
G 8                   -252516.488       -2630.438          34.000                     -132165.357       -1967.372          21.000  
G 9                   -128372.285       -1577.454          21.000                                                                  
G26                    182373.480        2226.850          24.000                                                                  
G27                    -64348.917        -816.683          29.000                                                                  
G31                     31898.909        2804.096          18.000                                                                  
R 3                                                        15.000  
R24                                                        28.000  
E 7                     49015.556        1323.731          27.000                                                                  
E 8                    188887.537        3080.515          30.000                                                                  
E15                    -12002.320       -2675.267          21.000                                                                  
E30                     21806.327         450.109          22.000                                                                  
J 1                     75277.184         786.514          26.000                                                                  
J 2                      3282.936          26.272          22.000                                                                  
C 6                      5593.864         815.011          23.000                                                                                                                                  
C10                      1323.427         191.390          23.000                                                                                                                                  
C11                   -215738.630       -2762.642          28.000                                                                                                                                  
C12                     -1898.337        -276.398          19.000                                                                                                                                  
C34                    -77604.379       -1819.658          28.000                                                                                                                                  
> 2022  1 25  6 54  8.0000000  0 20                     
G 4                     38711.349         369.401          27.000                                                                  
G 8                   -266347.246       -2632.949          30.000                     -139878.687       -1965.761          20.000  
G 9                   -136660.340       -1576.314          24.000                                                                  
G26                    194078.511        2226.956          19.000                                                                  
G27                    -68641.713        -818.526          25.000                                                                  
G31                     46630.367        2802.385          19.000                                                                  
R 3                                                        15.000  
R24                                                        25.000  
E 7                     55967.053        1322.325          26.000                                                                  
E 8                    205067.094        3077.982          27.000                                                                  
E15                    -26063.684       -2674.801          17.000                                                                  
E30                     24179.949         449.882          22.000                                                                  
E36                      9185.314         898.477          19.000                                                                  
J 3                     28194.434         456.416          25.000                                                                  
C 6                      9833.104         813.049          21.000                                                                                                                                  
C 7                      3036.136         252.103          22.000                                                                                                                                  
C10                      2319.289         192.381          21.000                                                                                                                                  
C11                   -230134.014       -2765.817          27.000                                                                                                                                  
C25                    -19332.711       -1417.758          19.000                                                                                                                                  
C34                    -87110.444       -1826.138          29.000                                                                                                                                  
> 2022  1 25  6 54  9.0000000  0 21                     
G 4                     40664.024         372.379          25.000                                                                  
G 8                   -280164.462       -2629.213          29.000                     -147587.145       -1963.199          23.000  
G 9                   -144948.074       -1580.134          27.000                                                                  
G26                    205774.661        2225.160          20.000                                                                  
G27                    -72936.496        -816.312          24.000                                                                  
G31                     61355.166        2802.400          17.000                                                                  
R 3                                                        14.000  
R24                                                        20.000  
E 7                     62917.375        1322.800          27.000                                                                  
E 8                    221242.086        3077.984          29.000                                                                  
E15                    -40121.463       -2675.569          22.000                                                                  
E30                     26556.206         452.594          24.000                                                                  
E36                     13905.886         896.291          18.000                                                                  
C 6                     14069.918         814.517          19.000                                                                                                                                  
C 7                      4344.761         250.501          20.000                                                                                                                                  
C 9                      2657.409         264.006          20.000                                                                                                                                  
C10                      3322.389         190.407          21.000                                                                                                                                  
C11                   -244534.606       -2763.851          26.000                                                                                                                                  
C25                    -26712.490       -1417.976          20.000                                                                                                                                  
C26                     42578.318        2256.646          19.000                                                                                                                                  
C34                    -96620.153       -1827.083          21.000                                                                                                                                  
> 2022  1 25  6 54 10.0000000  0 23                     
G 4                     42612.541         370.791          21.000                        2923.681         265.418          18.000  
G 8                   -293991.253       -2632.510          27.000                     -155297.953       -1963.878          22.000  
G 9                   -153241.828       -1575.060          26.000                                                                  
G26                    217458.787        2222.979          21.000                                                                  
G27                    -77227.775        -815.658          27.000                                                                  
G31                     76081.225        2801.111          19.000                                                                  
R 3                                                        14.000  
R 5                                                        24.000  
R24                                                        27.000  
E 7                     69867.635        1321.736          20.000                                                                  
E 8                    237410.623        3076.287          24.000                                                                  
E15                    -54191.946       -2678.479          26.000                                                                  
E30                     28932.398         451.323          24.000                                                                  
E36                     18613.108         896.582          15.000                                                                  
J 3                     32998.863         453.823          21.000                                                                  
C 6                     18304.974         814.446          21.000                                                                                                                                  
C 7                      5646.362         249.963          20.000                                                                                                                                  
C 9                      4040.791         268.381          20.000                                                                                                                                  
C10                      4306.709         188.391          19.000                                                                                                                                  
C11                   -258932.898       -2766.420          28.000                                                                                                                                  
C25                    -34090.227       -1418.784          17.000                                                                                                                                  
C26                     54332.403        2258.475          18.000                                                                                                                                  
C34                   -106136.711       -1827.150          26.000                                                                                                                                  
> 2022  1 25  6 54 11.0000000  0 23                     
G 4                     44562.085         374.090          31.000                        3995.583         274.585          26.000  
G 8                   -307807.668       -2629.039          32.000                     -162997.449       -1960.018          20.000  
G 9                   -161527.297       -1577.632          25.000                                                                  
G26                    229141.052        2222.314          22.000                                                                  
G27                    -81506.671        -813.438          31.000                                                                  
G31                     90799.074        2800.141          20.000                                                                  
R 3                                                        15.000  
R 5                                                        20.000  
R24                                                        28.000  
E 7                     76810.060        1321.693          18.000                                                                  
E 8                    253581.111        3076.585          24.000                                                                  
E15                    -68264.088       -2679.801          25.000                      -13142.620       -2003.850          22.000  
E30                     31317.471         454.740          18.000                                                                  
E36                     23333.727         899.690          15.000                                                                  
J 3                     35384.361         452.095          28.000                                                                  
C 6                     22542.526         813.741          25.000                                                                                                                                  
C 7                      6950.327         249.382          20.000                                                                                                                                  
C 9                      5434.627         266.958          23.000                                                                                                                                  
C10                      5294.580         190.086          22.000                                                                                                                                  
C11                   -273336.435       -2768.317          25.000                                                                                                                                  
C25                    -41467.866       -1415.906          17.000                                                                                                                                  
C26                     66099.253        2259.445          18.000                                                                                                                                  
C34                   -115647.645       -1830.844          29.000                                                                                                                                  
> 2022  1 25  6 54 12.0000000  0 25                     
G 4                     46503.935         369.419          26.000                        5073.584         275.224          28.000  
G 8                   -321644.874       -2635.776          25.000                     -170705.084       -1968.371          20.000  
G 9                   -169831.585       -1579.315          19.000                                                                  
G16                      8895.902        1141.213          18.000                                                                  
G26                    240808.448        2220.522          21.000                                                                  
G27                    -85795.783        -819.160          31.000                       -3773.188        -609.665          22.000  
G31                    105524.728        2802.356          23.000                                                                  
R 3                                                        15.000  
R 5                                                        17.000  
R24                                                        27.000  
E 7                     83749.253        1321.792          20.000                                                                  
E 8                    269744.658        3072.609          30.000                                                                  
E15                    -82340.209       -2681.824          23.000                      -20989.128       -1998.636          19.000  
E30                     33702.669         453.396          18.000                                                                  
E36                     28064.523         898.734          17.000                                                                  
J 3                     37777.200         454.920          24.000                                                                  
C 6                     26775.360         810.498          24.000                                                                                                                                  
C 7                      8249.152         248.822          20.000                                                                                                                                  
C 9                      6826.064         266.002          25.000                                                                                                                                  
C10                      6280.837         187.876          20.000                                                                                                                                  
C11                   -287749.269       -2768.131          28.000                                                                                                                                  
C12                     -7059.234        -276.466          25.000                                                                                                                                  
C25                    -48844.275       -1417.553          14.000                                                                                                                                  
C26                     77867.341        2260.259          19.000                                                                                                                                  
C34                   -125171.788       -1829.890          29.000                                                                                                                                  
> 2022  1 25  6 54 13.0000000  0 25                     
G 4                     48427.580         367.564          28.000                        6150.916         278.872          25.000  
G 8                   -335480.846       -2626.030          26.000                     -178405.204       -1960.759          20.000  
G 9                   -178120.611       -1576.746          19.000                                                                  
G16                     14889.130        1141.838          17.000                                                                  
G26                    252483.698        2224.500          24.000                                                                  
G27                    -90091.739        -817.119          30.000                       -6168.465        -609.063          24.000  
G31                    120258.142        2801.199          25.000                                                                  
R 3                                                        12.000  
R 5                                                        16.000  
R24                                                        25.000  
E 7                     90689.539        1318.563          24.000                        4445.302         987.673          19.000  
E 8                    285884.372        3070.961          28.000                                                                  
E15                    -96426.797       -2681.039          25.000                      -28837.819       -2000.044          16.000  
E30                     36083.437         452.111          16.000                                                                  
E36                     32794.185         896.936          16.000                                                                  
J 3                     40159.865         454.058          22.000                        1078.273         339.105          21.000  
C 6                     30993.641         809.130          23.000                                                                                                                                  
C 7                      9546.950         249.158          20.000                                                                                                                                  
C 9                      8206.313         263.783          24.000                                                                                                                                  
C10                      7254.078         186.609          22.000                                                                                                                                  
C11                   -302171.452       -2769.864          27.000                                                                                                                                  
C12                     -8499.375        -278.276          24.000                                                                                                                                  
C25                    -56220.925       -1415.447          13.000                                                                                                                                  
C26                     89647.021        2261.569          17.000                                                                                                                                  
C34                   -134695.756       -1830.091          25.000                                                                                                                                  
> 2022  1 25  6 54 14.0000000  0 25                     
G 4                     50376.905         371.171          27.000                        7215.720         272.503          26.000  
G 8                   -349302.518       -2638.343          30.000                     -186121.473       -1965.281          21.000  
G 9                   -186409.152       -1576.752          17.000                                                                  
G26                    264159.289        2223.203          25.000                                                                  
G27                    -94381.035        -816.929          26.000                       -8569.452        -610.185          21.000  
G31                    134985.970        2801.633          28.000                                                                  
R 3                                                        14.000  
R 5                                                        17.000  
R24                                                        25.000  
E 7                     97621.303        1318.781          29.000                        8315.581         987.288          20.000  
E 8                    302024.999        3071.987          27.000                                                                  
E15                   -110516.232       -2680.065          23.000                      -36688.277       -1999.943          16.000  
E30                     38458.449         452.415          19.000                                                                  
E36                     37508.853         898.121          16.000                                                                  
J 1                    104132.857         781.585          24.000                                                                  
J 3                     42539.458         452.639          24.000                        2399.632         338.514          25.000  
C 6                     35201.721         808.826          20.000                                                                                                                                  
C 7                     10837.095         248.166          23.000                                                                                                                                  
C 9                      9583.385         264.895          24.000                                                                                                                                  
C10                      8230.481         188.350          20.000                                                                                                                                  
C11                   -316595.052       -2769.400          25.000                                                                                                                                  
C12                     -9948.080        -277.924          25.000                                                                                                                                  
C25                    -63590.544       -1415.190          13.000                                                                                                                                  
C26                    101448.446        2266.865          20.000                                                                                       12532.139        1712.738          21.000  
C34                   -144218.544       -1829.193          24.000                                                                                                                                  
> 2022  1 25  6 54 15.0000000  0 26                     
G 4                     52309.723         365.548          29.000                        8280.938         269.400          29.000  
G 8                   -363156.992       -2636.844          27.000                     -193835.447       -1965.386          20.000  
G 9                   -194697.445       -1575.232          19.000                                                                  
G16                     26860.011        1139.882          23.000                                                                  
G26                    275833.119        2225.915          20.000                                                                  
G27                    -98658.227        -813.173          24.000                      -10962.203        -607.927          24.000  
G31                    149712.746        2799.173          26.000                                                                  
R 3                                                        13.000  
R 5                                                        17.000  
R24                                                        28.000  
E 7                    104555.715        1318.615          28.000                       12180.298         983.206          23.000  
E 8                    318180.311        3075.790          25.000                                                                  
E15                   -124594.593       -2678.585          20.000                      -44544.221       -2001.918          18.000  
E30                     40820.561         450.665          21.000                                                                  
E36                     42220.669         896.703          13.000                                                                  
J 1                    108248.366         783.732          23.000                                                                  
J 3                     44918.240         454.527          20.000                        3727.135         336.633          20.000  
C 6                     39421.679         809.873          19.000                                                                                                                                  
C 7                     12125.086         245.075          24.000                                                                                                                                  
C 9                     10957.415         263.165          24.000                                                                                                                                  
C10                      9211.403         188.046          24.000                                                                                                                                  
C11                   -331003.106       -2765.244          24.000                                                                                                                                  
C12                    -11392.847        -275.067          24.000                                                                                                                                  
C25                    -70958.172           0.009          13.000                                                                                                                                  
C26                    113244.749        2269.431          23.000                                                                                       19240.871        1711.848          20.000  
C34                   -153733.278       -1824.826          24.000                                                                                                                                  
> 2022  1 25  6 54 16.0000000  0 27                     
G 4                     54250.526         367.626          29.000                        9352.065         270.486          28.000  
G 8                   -376991.121       -2632.995          30.000                     -201541.193       -1962.927          18.000  
G 9                   -202970.465       -1573.909          20.000                                                                  
G16                     32841.176        1137.179          22.000                                                                  
G18                     22355.140         644.870          16.000                                                                  
G26                    287520.617        2225.300          21.000                                                                  
G27                   -102935.534        -818.139          28.000                      -13356.020        -608.273          26.000  
G31                    164422.656        2803.472          25.000                                                                  
R 3                                                        11.000  
R 5                                                        20.000  
R24                                                        24.000  
E 7                    111494.428        1319.387          28.000                       16065.549         994.980          20.000  
E 8                    334341.799        3075.040          24.000                                                                  
E15                   -138670.856       -2676.783          22.000                      -52399.307       -2000.646          17.000  
E30                     43179.685         448.893          20.000                                                                  
E36                     46937.112         894.428          14.000                                                                  
J 1                    112375.256         787.290          23.000                                                                  
J 3                     47304.376         454.196          28.000                        5051.922         342.154          23.000  
C 6                     43635.309         809.729          22.000                                                                                                                                  
C 7                     13401.947         245.035          24.000                                                                                                                                  
C 9                     12335.953         265.010          23.000                                                                                                                                  
C10                     10179.076         185.225          23.000                                                                                                                                  
C11                   -345404.489       -2765.596          26.000                                                                                                                                  
C12                    -12829.335        -274.980          24.000                                                                                                                                  
C25                    -78331.953           0.009          15.000                                                                                                                                  
C26                    125056.286        2267.255          23.000                                                                                       25956.270        1710.980          17.000  
C34                   -163246.453       -1827.157          27.000                                                                                                                                  
> 2022  1 25  6 54 17.0000000  0 27                     
G 4                     56181.445         366.178          25.000                       10432.299         270.195          25.000  
G 8                   -390824.997       -2635.770          30.000                     -209238.077       -1961.256          21.000  
G 9                   -211245.026       -1574.215          17.000                                                                  
G16                     38817.991        1138.548          21.000                                                                  
G18                     25745.801         644.579          17.000                                                                  
G26                    299199.609        2219.276          20.000                                                                  
G27                   -107228.302        -818.910          30.000                      -15745.868        -605.370          25.000  
G31                    179161.626        2808.019          25.000                                                                  
R 3                                                        15.000  
R 5                                                        16.000  
R24                                                        27.000  
E 7                    118434.371        1317.178          27.000                       19950.346         986.860          23.000  
E 8                    350501.797        3077.078          27.000                                                                  
E15                   -152749.756       -2679.043          23.000                      -60248.481       -1999.082          18.000  
E30                     45538.071         446.984          21.000                                                                  
E36                     51635.673         893.646          15.000                                                                  
J 1                    116492.243         782.585          26.000                                                                  
J 3                     49685.214         453.933          27.000                        6381.627         337.728          25.000  
C 6                     47852.774         810.489          23.000                                                                                                                                  
C 7                     14684.328         246.987          22.000                                                                                                                                  
C 9                     13705.444         261.723          22.000                                                                                                                                  
C10                     11146.544         185.501          22.000                                                                                                                                  
C11                   -359811.543       -2767.719          29.000                                                                                                                                  
C12                    -14264.489        -274.557          24.000                                                                                                                                  
C25                    -85716.406           0.009          16.000                                                                                                                                  
C26                    136855.756        2268.178          24.000                                                                                       32672.138        1714.696          22.000  
C34                   -172750.595       -1823.215          31.000                                                                                                                                  
> 2022  1 25  6 54 18.0000000  0 27                     
G 4                     58110.106         366.775          23.000                       11515.441         277.059          19.000  
G 8                   -404667.206       -2637.053          31.000                     -216945.283       -1970.257          20.000  
G 9                   -219515.514       -1574.669          16.000                                                                  
G16                     44801.769        1139.724          24.000                                                                  
G18                     29134.012         642.077          18.000                                                                  
G26                    310859.016        2218.827          20.000                                                                  
G27                   -111521.228        -814.902          30.000                      -18142.696        -615.126          24.000  
G31                    193889.510        2803.474          25.000                                                                  
R 3                                                        15.000  
R 5                                                        16.000  
R12                                                        19.000  
R24                                                        31.000  
E 7                    125374.507        1317.208          24.000                       23817.419         983.450          22.000  
E 8                    366654.506        3071.850          29.000                                                                  
E15                   -166832.098       -2680.059          21.000                      -68105.871       -2004.300          17.000  
E30                     47883.279         446.957          23.000                                                                  
E36                     56335.146         894.989          14.000                                                                  
J 1                    120603.648         783.877          25.000                                                                  
J 3                     52071.595         455.628          24.000                        7710.325         343.058          20.000  
C 6                     52081.022         812.285          23.000                                                                                                                                  
C 9                     15073.222         262.401          21.000                                                                                                                                  
C10                     12112.624         184.505          20.000                                                                                                                                  
C11                   -374222.125       -2767.158          28.000                                                                                                                                  
C12                    -15695.455        -274.383          23.000                                                                                                                                  
C25                    -93108.224       -1418.235          14.000                                                                                                                                  
C26                    148664.797        2270.071          21.000                                                                                       39390.034        1715.911          21.000  
C34                   -182258.233       -1824.044          29.000                                                                                                                                  
> 2022  1 25  6 54 19.0000000  0 28                     
G 4                     60045.638         365.968          19.000                       12608.360         279.754          17.000  
G 8                   -418508.833       -2634.497          29.000                     -224655.911       -1964.827          19.000  
G 9                   -227801.047       -1579.477          14.000                                                                  
G16                     50788.786        1137.608          26.000                                                                  
G18                     32509.022         643.193          17.000                                                                  
G26                    322511.733        2216.809          21.000                                                                  
G27                   -115806.441        -818.238          28.000                      -20564.469        -613.597          20.000  
G31                    208626.764        2807.348          25.000                                                                  
R 3                                                        15.000  
R 5                                                        17.000  
R12                                                        18.000  
R24                                                        32.000  
E 7                    132300.887        1315.625          24.000                       27678.702         982.479          19.000  
E 8                    382796.615        3073.287          22.000                                                                  
E15                   -180919.397       -2678.624          23.000                      -75966.105       -2002.202          17.000  
E30                     50245.811         447.065          24.000                                                                  
E36                     61042.697         895.923          14.000                                                                  
J 1                    124715.850         780.257          24.000                                                                  
J 3                     54438.209         451.011          29.000                        9032.504         341.104          20.000  
C 6                     56304.032         809.609          25.000                                                                                                                                  
C 7                      1370.636         242.527          22.000                                                                                                                                  
C 9                     16448.438         263.248          23.000                                                                                                                                  
C10                     13069.955         183.776          17.000                                                                                                                                  
C11                   -388642.029       -2770.207          26.000                                                                                                                                  
C12                    -17128.852        -275.157          24.000                                                                                                                                  
C25                   -100482.443       -1416.285          15.000                                                                                                                                  
C26                    160474.987        2268.990          20.000                                                                                       46105.813        1710.803          20.000  
C34                   -191774.113       -1829.522          30.000                                                                                                                                  
> 2022  1 25  6 54 20.0000000  0 28                     
G 4                     61971.024         368.668          16.000                       13704.775         279.219          16.000  
G 8                   -432342.871       -2634.326          29.000                     -232371.855       -1964.478          21.000  
G 9                   -236096.207           0.001          15.000                                                                  
G16                     56772.283        1138.855          22.000                                                                  
G18                     35878.503         639.834          17.000                                                                  
G26                    334155.756        2214.455          21.000                                                                  
G27                   -120092.846        -815.014          23.000                      -22956.918        -606.838          17.000  
G31                    223372.854        2802.956          23.000                                                                  
R 3                                                        15.000  
R 5                                                        16.000  
R12                                                        16.000  
R24                                                        30.000  
E 7                    139232.697        1320.361          24.000                       31568.840         994.807          18.000  
E 8                    398945.712        3071.334          20.000                                                                  
E15                   -195004.758       -2681.103          24.000                      -83826.619       -2002.298          17.000  
E30                     52608.402         450.371          22.000                                                                  
E36                     65749.113         895.213          14.000                                                                  
J 1                    128814.720         781.253          25.000                                                                  
J 3                     56807.193         451.792          27.000                       10358.939         336.672          18.000  
C 6                     60513.953         807.934          21.000                                                                                                                                  
C 7                      2643.282         244.497          19.000                                                                                                                                  
C 9                     17816.612         262.123          20.000                                                                                                                                  
C10                     14024.089         183.540          15.000                                                                                                                                  
C11                   -403059.627       -2766.447          31.000                                                                                                                                  
C12                    -18560.854        -275.413          21.000                                                                                                                                  
C25                   -107858.006           0.009          15.000                                                                                                                                  
C26                    172282.982        2265.988          16.000                                                                                       52814.172        1711.165          15.000  
C34                   -201297.704       -1828.847          31.000                                                                                                                                  
> 2022  1 25  6 54 21.0000000  0 28                     
G 4                     63896.151         367.057          17.000                       14795.754         275.268          13.000  
G 8                   -446179.868       -2630.546          31.000                     -240084.949       -1965.482          19.000  
G 9                   -244398.759           0.001          12.000                                                                  
G16                     62763.397        1141.622          24.000                                                                  
G18                     39236.468         639.708          19.000                                                                  
G26                    345794.070        2216.744          20.000                                                                  
G27                   -124362.253        -808.266          28.000                      -25331.529        -606.635          23.000  
G31                    238105.637        2800.571          28.000                                                                  
R 3                                                        17.000  
R 5                                                        16.000  
R12                                                        18.000  
R24                                                        28.000  
E 7                    146177.722        1326.197          25.000                       35465.592         992.123          21.000  
E 8                    415093.379        3072.147          22.000                                                                  
E15                   -209100.717       -2683.382          22.000                      -91687.918       -2005.512          19.000  
E30                     54973.770         451.790          22.000                                                                  
E36                     70456.022         895.878          15.000                                                                  
J 1                    132916.485         777.835          26.000                                                                  
J 3                     59189.187         451.393          25.000                       11681.651         336.426          21.000  
C 6                     64723.717         808.829          22.000                                                                                                                                  
C 7                      3925.308         249.782          19.000                                                                                                                                  
C 9                     19174.458         263.146          22.000                                                                                                                                  
C10                     14978.061         183.501          14.000                                                                                                                                  
C11                   -417477.775       -2768.250          25.000                                                                                                                                  
C12                    -19984.463        -272.969          21.000                                                                                                                                  
C25                   -115223.103           0.009          13.000                                                                                                                                  
C26                    184077.665        2260.264          17.000                                                                                       59527.501        1707.757          21.000  
C34                   -210816.740       -1828.165          26.000                                                                                                                                  
> 2022  1 25  6 54 22.0000000  0 28                     
G 4                     65836.737         370.912          15.000                                                                  
G 8                   -460007.626       -2628.125          30.000                     -247789.871       -1964.448          21.000  
G 9                   -252706.547           0.001          11.000                                                                  
G16                     68760.691        1141.775          22.000                                                                  
G18                     42603.325         642.312          17.000                                                                  
G26                    357458.069        2219.152          20.000                                                                  
G27                   -128630.690        -809.893          27.000                      -27721.248        -610.048          24.000  
G31                    252838.901        2795.741          29.000                                                                  
R 3                                                        14.000  
R 5                                                        18.000  
R12                                                        19.000  
R24                                                        27.000  
E 7                    153119.011        1321.581          25.000                       39325.494         981.778          24.000  
E 8                    431234.026        3070.597          23.000                                                                  
E15                   -223194.227       -2684.699          22.000                      -99552.260       -2003.048          18.000  
E30                     57347.393         454.270          22.000                                                                  
E36                     75167.097         897.356          15.000                                                                  
J 1                    136999.530         776.353          25.000                                                                  
J 3                     61560.855         449.414          27.000                       13008.434         331.960          22.000  
C 6                     68938.957         809.768          23.000                                                                                                                                  
C 7                      5214.911         249.142          19.000                                                                                                                                  
C 9                     20551.161         265.004          21.000                                                                                                                                  
C10                     15933.922         184.462          12.000                                                                                                                                  
C11                   -431890.129       -2768.687          25.000                                                                                                                                  
C12                    -21404.974        -274.204          25.000                                                                                                                                  
C25                   -122588.685           0.009          19.000                                                                                                                                  
C26                    195855.323        2262.735          18.000                                                                                       66244.720        1710.327          19.000  
C34                   -220333.972       -1828.258          25.000                                                                                                                                  
> 2022  1 25  6 54 23.0000000  0 28                     
G 4                     67786.105         371.448          15.000                                                                  
G 8                   -473826.585       -2629.092          32.000                     -255520.859       -1968.732          22.000  
G 9                   -261018.297           0.001          13.000                                                                  
G16                     74763.159        1142.252          23.000                                                                  
G18                     45968.750         638.865          19.000                                                                  
G26                    369121.880        2216.641          19.000                                                                  
G27                   -132898.642        -812.322          28.000                      -30120.278        -611.270          22.000  
G31                    267556.751        2800.865          26.000                                                                  
R 3                                                        14.000  
R 5                                                        18.000  
R12                                                        18.000  
R24                                                        26.000  
E 7                    160048.676        1321.984          28.000                       43183.064         988.611          25.000  
E 8                    447373.045        3071.557          25.000                                                                  
E15                   -237289.988       -2685.641          24.000                     -107411.307       -2004.564          18.000  
E30                     59707.065         444.754          21.000                                                                  
E36                     79890.140         899.699          17.000                                                                  
J 1                    141088.236         776.900          25.000                                                                  
J 3                     63925.004         449.303          26.000                       14327.365         333.048          21.000  
C 6                     73153.488         809.251          25.000                                                                                                                                  
C 7                      6504.977         249.654          17.000                                                                                                                                  
C 9                     21928.029         264.982          24.000                                                                                                                                  
C10                     16889.877         182.527          13.000                                                                                                                                  
C11                   -446304.943       -2767.698          26.000                                                                                                                                  
C12                    -22824.613        -273.743          24.000                                                                                                                                  
C25                   -129970.964       -1419.047          20.000                                                                                                                                  
C26                    207639.520        2261.316          18.000                                                                                                                                  
C34                   -229851.365       -1827.700          25.000                                                                                                                                  
> 2022  1 25  6 54 24.0000000  0 28                     
G 4                     69738.031           0.002          12.000                                                                  
G 8                   -487659.242       -2632.996          31.000                     -263245.363       -1967.586          19.000  
G 9                   -269333.639           0.001          13.000                                                                  
G16                     80762.948        1140.384          20.000                                                                  
G18                     49321.148         638.059          17.000                                                                  
G26                    380775.742        2216.160          22.000                                                                  
G27                   -137175.084        -813.507          30.000                      -32500.550        -607.543          23.000  
G31                    282291.574        2800.757          29.000                                                                  
R 3                                                        14.000  
R 5                                                        18.000  
R12                                                        18.000  
R24                                                        30.000  
E 7                    166978.944        1321.453          28.000                       47052.257         988.305          22.000  
E 8                    463511.745        3070.919          28.000                                                                  
E15                   -251394.745       -2687.524          24.000                     -115277.218       -2005.024          17.000  
E30                     62067.690         451.915          19.000                                                                  
E36                     84620.523         901.118          17.000                       14520.324         667.199          12.000  
J 1                    145179.253         774.948          25.000                                                                  
J 3                     66295.112         450.422          26.000                       15647.350         333.075          21.000  
C 6                     77356.514         806.937          24.000                                                                                                                                  
C 7                      7790.188         245.101          15.000                                                                                                                                  
C 9                     23307.160         264.745          23.000                                                                                                                                  
C10                     17837.928           0.003          13.000                                                                                                                                  
C11                   -460723.375       -2770.785          27.000                                                                                                                                  
C12                    -24251.621        -275.266          22.000                                                                                                                                  
C25                   -137368.358       -1421.683          19.000                                                                                                                                  
C26                    219426.914        2262.974          20.000                                                                                                                                  
C34                   -239365.282       -1827.937          30.000                                                                                                                                  
> 2022  1 25  6 54 25.0000000  0 28                     
G 4                     71695.510           0.002          13.000                                                                  
G 8                   -501503.206       -2632.716          26.000                     -270959.051       -1962.520          19.000  
G16                     86751.530        1138.952          19.000                                                                  
G18                     52680.850         640.667          20.000                                                                  
G26                    392426.865        2219.353          25.000                                                                  
G27                   -141445.454        -809.232          31.000                      -34875.941        -606.194          24.000  
G31                    297026.928        2804.903          29.000                                                                  
R 3                                                        15.000  
R 5                                                        19.000  
R12                                                        19.000  
R24                                                        28.000  
E 7                    173919.516        1322.952          28.000                       50922.261         983.006          20.000  
E 8                    479653.273        3071.554          29.000                                                                  
E15                   -265496.292       -2683.117          26.000                     -123143.693       -2004.974          20.000  
E30                     64436.616         450.728          20.000                                                                  
E36                     89361.693         902.581          16.000                       17140.113         667.192          11.000  
J 1                    149265.730         780.182          27.000                                                                  
J 2                      5492.356          17.455          19.000                                                                  
J 3                     68659.471         452.143          24.000                       16949.517         337.830          23.000  
C 6                     81562.240         807.527          23.000                                                                                                                                  
C 7                      9071.546         247.070          13.000                                                                                                                                  
C 9                     24678.897         263.444          21.000                                                                                                                                  
C10                     18778.208           0.003          13.000                                                                                                                                  
C11                   -475139.751       -2768.523          27.000                                                                                                                                  
C12                    -25677.322        -272.015          23.000                                                                                                                                  
C25                   -144777.468       -1422.391          17.000                                                                                                                                  
C26                    231221.647        2264.481          19.000                                                                                       86389.847        1710.310          20.000  
C34                   -248874.951       -1825.182          28.000                                                                                                                                  
> 2022  1 25  6 54 26.0000000  0 28                     
G 4                     73657.584           0.002          13.000                                                                  
G 8                   -515336.430       -2632.211          23.000                     -278664.613       -1965.356          17.000  
G16                     92734.969        1139.520          19.000                                                                  
G18                     56041.325         639.327          21.000                                                                  
G26                    404088.132        2220.663          25.000                                                                  
G27                   -145704.777        -811.064          34.000                      -37262.408        -606.967          24.000  
G31                    311773.495        2805.322          28.000                                                                  
R 3                                                        13.000  
R 5                                                        18.000  
R12                                                        19.000  
R24                                                        31.000  
E 7                    180874.413        1324.112          23.000                       54792.217         983.835          26.000  
E 8                    495798.714        3071.178          33.000                                                                  
E15                   -279596.721       -2684.293          25.000                     -131010.589       -2006.516          19.000  
E30                     66799.393         450.068          19.000                                                                  
E36                     94100.642         904.441          22.000                       19766.626         670.564          14.000  
J 1                    153365.460         779.014          30.000                                                                  
J 2                      5582.200          15.393          19.000                                                                  
J 3                     71024.441         447.088          26.000                       18270.124         336.954          22.000  
C 6                     85771.093         809.549          26.000                                                                                                                                  
C 7                     10364.764         248.396          13.000                                                                                                                                  
C 9                     26050.419         263.964          24.000                                                                                                                                  
C10                     19722.509           0.003          13.000                                                                                                                                  
C11                   -489550.361       -2767.305          30.000                                                                                                                                  
C12                    -27092.735        -271.695          24.000                                                                                                                                  
C25                   -152180.679       -1420.212          15.000                                                                                                                                  
C26                    243021.824        2266.195          17.000                                                                                       93110.132        1710.147          20.000  
C34                   -258367.201       -1826.056          30.000                                                                                                                                  
> 2022  1 25  6 54 27.0000000  0 28                     
G 4                     75624.964           0.002          14.000                                                                  
G 8                   -529171.391       -2633.688          22.000                     -286377.950       -1965.994          24.000  
G16                     98745.218        1145.655          19.000                                                                  
G18                                                                                      4154.152         480.229          19.000  
G26                    415759.431        2219.841          24.000                                                                  
G27                   -149975.283        -811.158          23.000                      -39639.734        -606.839          24.000  
G31                    326513.110        2804.066          30.000                                                                  
R 3                                                        13.000  
R 5                                                        17.000  
R12                                                        19.000  
R24                                                        26.000  
E 7                    187820.005        1321.215          18.000                       58672.725         986.893          23.000  
E 8                    511936.472        3070.958          29.000                        2354.029        2290.248          28.000  
E15                   -293699.882       -2684.697          28.000                     -138884.045       -2005.283          22.000  
E30                     69153.332         445.104          18.000                                                                  
E36                     98868.883         908.319          19.000                       22399.288         672.008          14.000  
J 1                    157465.979         778.413          30.000                                                                  
J 2                      5675.920          19.458          18.000                                                                  
J 3                     73379.227         444.608          24.000                       19591.020         335.226          19.000  
C 6                     89984.479         809.360          22.000                                                                                                                                  
C 7                     11659.523          -0.072          10.000                                                                                                                                  
C 9                     27421.939         261.504          21.000                                                                                                                                  
C10                     20661.409           0.003          11.000                                                                                                                                  
C11                   -503968.464       -2769.668          29.000                                                                                                                                  
C12                    -28507.859        -271.874          20.000                                                                                                                                  
C25                   -159575.677       -1419.700          13.000                                                                                                                                  
C26                    254815.199        2263.085          20.000                                                                                       99823.730        1708.796          16.000  
C34                   -267883.645       -1827.724          29.000                                                                                                                                  
> 2022  1 25  6 54 28.0000000  0 27                     
G 4                     77592.652           0.002          11.000                                                                  
G 8                   -543005.647       -2631.636          18.000                     -294093.163       -1965.127          18.000  
G16                    104749.760        1141.346          20.000                                                                  
G26                    427441.736        2223.175          17.000                                                                  
G27                   -154235.200        -809.556          24.000                      -42021.096        -606.910          29.000  
G31                    341259.961        2806.199          25.000                                                                  
R 3                                                        13.000  
R 5                                                        13.000  
R12                                                        18.000  
R24                                                        26.000  
E 7                    194766.648        1324.044          19.000                       62552.708         984.341          22.000  
E 8                    528064.682        3067.524          28.000                       11346.929        2290.277          23.000  
E15                   -307815.171       -2687.731          24.000                     -146752.817       -2005.704          21.000  
E30                     71497.678         447.892          19.000                                                                  
E36                    103634.203         909.590          18.000                       25044.465         674.349          15.000  
J 1                    161546.920         776.758          26.000                        2918.571         578.118          21.000  
J 2                      5785.820          20.727          17.000                                                                  
J 3                     75735.620         449.196          21.000                       20909.606         333.765          27.000  
C 6                     94191.430         806.008          21.000                                                                                                                                  
C 7                     12955.561          -0.072          14.000                                                                                                                                  
C 9                     28791.659         266.153          19.000                                                                                                                                  
C10                     21597.056           0.003          14.000                                                                                                                                  
C11                   -518388.848       -2768.707          25.000                                                                                                                                  
C12                    -29929.565        -272.641          17.000                                                                                                                                  
C25                   -166973.663       -1421.110          13.000                                                                                                                                  
C26                    266592.856        2259.201          18.000                                                                                      106530.090        1706.064          24.000  
C34                   -277399.703       -1827.667          24.000                                                                                                                                  
> 2022  1 25  6 54 29.0000000  0 27                     
G 4                     79567.803           0.002          12.000                                                                  
G 8                   -556834.916       -2631.904          21.000                     -301806.382       -1965.684          18.000  
G16                    110754.303        1143.218          20.000                                                                  
G26                    439121.743        2223.818          19.000                                                                  
G27                   -158492.054        -810.220          31.000                      -44397.553        -605.366          24.000  
G31                    356002.385        2804.976          31.000                                                                  
R 3                                                        14.000  
R 5                                                        16.000  
R12                                                        19.000  
R24                                                        27.000  
E 7                    201718.322        1321.154          24.000                       66432.407         987.217          22.000  
E 8                    544182.245        3067.028          24.000                       20336.661        2290.528          20.000  
E15                   -321935.957       -2687.085          23.000                     -154628.973       -2007.040          23.000  
E30                     73861.288         450.649          18.000                                                                  
E36                    108411.306         907.458          19.000                       27696.996         676.553          14.000  
J 1                    165626.610         775.596          26.000                        5186.758         577.644          21.000  
J 2                      5891.368          19.441          17.000                                                                  
J 3                     78098.546         447.553          28.000                       22228.621         337.310          22.000  
C 6                     98394.159         807.701          21.000                                                                                                                                  
C 7                     14250.672          -0.072          15.000                                                                                                                                  
C 9                     30166.664         263.146          17.000                                                                                                                                  
C10                     22542.617           0.003          12.000                                                                                                                                  
C11                   -532813.488       -2771.741          25.000                                                                                                                                  
C12                    -31345.142        -272.261          22.000                                                                                                                                  
C25                   -174371.956           0.009          13.000                                                                                                                                  
C26                    278363.710        2260.758          20.000                                                                                      113224.678        1706.003          20.000  
C34                   -286920.231       -1827.740          29.000                                                                                      -12813.048       -1314.640          25.000  
> 2022  1 25  6 54 30.0000000  0 28                     
G 4                     81539.669           0.002          14.000                                                                  
G 8                   -570681.651       -2635.708          19.000                     -309514.464       -1965.421          17.000  
G16                    116761.492        1143.666          20.000                                                                  
G18                     11458.380         649.619          19.000                                                                  
G26                    450805.426        2223.751          24.000                                                                  
G27                   -162756.141        -813.723          28.000                      -46778.383        -606.456          24.000  
G31                    370736.209        2805.223          26.000                                                                  
R 3                                                        14.000  
R 5                                                        16.000  
R12                                                        20.000  
R24                                                        31.000  
E 7                    208674.928        1322.568          25.000                       70315.006         987.229          20.000  
E 8                    560300.598        3067.210          19.000                       29326.227        2290.348          17.000  
E15                   -336064.800       -2689.345          25.000                                                                  
E30                     76239.716         453.443          18.000                                                                  
E36                    113189.275         913.420          20.000                       30348.001         675.302          14.000  
J 1                    169698.414         775.562          24.000                        7455.607         580.071          17.000  
J 2                      6000.068          20.459          23.000                                                                  
J 3                     80455.273         446.767          29.000                       23550.542         332.193          24.000  
C 6                    102597.955         804.991          21.000                                                                                                                                  
C 7                     15538.315          -0.072          13.000                                                                                                                                  
C 9                     31543.967         263.766          20.000                                                                                                                                  
C10                     23498.184           0.003          13.000                                                                                                                                  
C11                   -547246.841       -2773.128          27.000                                                                                                                                  
C12                    -32762.437        -272.080          27.000                                                                                                                                  
C25                   -181759.080           0.009          12.000                                                                                                                                  
C26                    290140.884        2265.301          24.000                                                                                      119921.776        1710.214          25.000  
C34                   -296426.867       -1829.096          28.000                                                                                                                                  
> 2022  1 25  6 54 31.0000000  0 29                     
G 4                     83509.553           0.002          13.000                                                                  
G 8                   -584515.462       -2632.143          20.000                     -317217.633       -1963.981          17.000  
G16                    122773.730        1143.249          20.000                                                                  
G18                     14880.489         654.085          19.000                       11742.847         495.843          20.000  
G26                    462485.113        2224.880          23.000                                                                  
G27                   -167021.573        -811.504          27.000                      -49145.484        -603.698          24.000  
G31                    385481.486        2806.317          27.000                                                                  
R 3                                                        14.000  
R 5                                                        15.000  
R12                                                        19.000  
R24                                                        30.000  
E 7                    215637.000        1322.354          26.000                       74187.159         986.652          21.000  
E 8                    576427.501        3071.089          17.000                       38318.044        2292.913          14.000  
E15                   -350194.017       -2690.096          23.000                                                                  
E30                     78616.119         452.684          20.000                                                                  
E36                    117992.854         915.763          19.000                       33003.436         678.215          14.000  
J 1                    173771.654         774.220          22.000                        9727.084         576.231          17.000  
J 2                      6112.189          21.795          26.000                                                                  
J 3                     82805.188         446.631          27.000                       24861.429         334.674          21.000  
C 6                    106797.035         807.205          20.000                                                                                                                                  
C 7                     16824.202          -0.072          15.000                                                                                                                                  
C 9                     32917.875         262.562          21.000                                                                                                                                  
C10                     24464.360           0.003          12.000                                                                                                                                  
C11                   -561678.193       -2773.849          26.000                                                                                                                                  
C12                    -34176.003        -272.758          25.000                                                                                                                                  
C24                      5816.685         897.797          30.000                                                                                                                                  
C25                   -189135.818           0.009          12.000                                                                                                                                  
C26                    301925.899        2263.555          23.000                                                                                      126614.530        1709.006          24.000  
C34                   -305931.914       -1826.516          28.000                                                                                                                                  
> 2022  1 25  6 54 32.0000000  0 29                     
G 4                     85483.715           0.002          14.000                                                                  
G 8                   -598337.991       -2629.949          18.000                     -324922.246       -1963.628          17.000  
G16                    128774.176        1141.548          22.000                                                                  
G18                     18316.079         656.401          19.000                       13651.168         488.742          19.000  
G26                    474170.269        2224.432          24.000                                                                  
G27                   -171272.878        -810.436          29.000                      -51517.519        -611.063          25.000  
G31                    400224.374        2806.915          26.000                                                                  
R 3                                                        14.000  
R 5                                                        16.000  
R12                                                        25.000  
R24                                                        31.000  
E 7                    222603.412        1324.761          23.000                       78060.876         982.452          22.000  
E 8                    592559.226        3071.564          14.000                       47316.147        2293.566          12.000  
E15                   -364320.344       -2688.956          26.000                                                                  
E30                     80987.936         451.121          19.000                                                                  
E36                    122793.571         913.205          18.000                       35666.427         679.528          14.000  
J 1                    177841.945         773.274          27.000                       11988.937         576.096          17.000  
J 2                      6214.673          20.691          22.000                                                                  
J 3                     85147.173         446.810          27.000                       26182.802         340.599          22.000  
C 6                    111002.245         807.468          23.000                                                                                                                                  
C 7                     18110.663          -0.072          12.000                                                                                                                                  
C 9                     34288.229         262.158          24.000                                                                                                                                  
C10                     25434.012           0.003          12.000                                                                                                                                  
C11                   -576118.008       -2774.965          25.000                                                                                                                                  
C12                    -35588.137        -269.912          26.000                                                                                                                                  
C24                     10488.060         896.546          25.000                                                                                                                                  
C25                   -196510.951           0.009          12.000                                                                                                                                  
C26                    313716.774        2267.465          23.000                                                                                      133309.452        1707.859          22.000  
C34                   -315442.717       -1829.842          28.000                                                                                                                                  
> 2022  1 25  6 54 33.0000000  0 28                     
G 4                     87458.168           0.002          15.000                                                                  
G 8                   -612151.252       -2629.006          18.000                     -332620.466       -1961.048          17.000  
G16                    134773.771        1142.462          23.000                                                                  
G18                     21768.308         661.071          19.000                       15563.419         489.482          20.000  
G26                    485853.567        2223.805          23.000                                                                  
G27                   -175522.888        -808.493          27.000                      -53887.274        -612.006          28.000  
G31                    414951.604        2802.110          33.000                                                                  
R 3                                                        12.000  
R12                                                        25.000  
R24                                                        29.000  
E 7                    229574.222        1320.951          27.000                       81933.855         983.828          24.000  
E 8                    608709.679        3073.113          12.000                       56318.773        2291.769          14.000  
E15                   -378444.587       -2688.478          27.000                     -186178.757       -2009.621          17.000  
E30                     83363.375         451.130          20.000                                                                  
E36                    127579.962         910.031          18.000                       38333.382         679.866          15.000  
J 1                    181903.886         771.922          28.000                       14251.343         576.062          17.000  
J 2                      6320.441          19.262          24.000                                                                  
J 3                     87500.798         446.907          29.000                       27506.257         335.497          22.000  
C 6                    115208.681         807.206          23.000                                                                                                                                  
C 7                     19396.567          -0.072          12.000                                                                                                                                  
C 9                     35660.978         262.271          24.000                                                                                                                                  
C10                     26403.168           0.003          16.000                                                                                                                                  
C11                   -590555.622       -2771.943          27.000                                                                                                                                  
C12                    -36995.551        -270.733          24.000                                                                                                                                  
C24                     15161.548         897.552          28.000                                                                                        4398.550         677.894          23.000  
C25                   -203873.212           0.009          14.000                                                                                                                                  
C26                    325510.788        2267.976          27.000                                                                                      140001.106        1706.185          22.000  
C34                   -324952.112       -1827.172          31.000                                                                                                                                  
> 2022  1 25  6 54 34.0000000  0 28                     
G 4                     89445.907           0.002          16.000                                                                  
G 8                   -625953.913       -2625.190          17.000                     -340320.222       -1964.156          15.000  
G16                    140773.627        1139.281          22.000                                                                  
G18                     25212.182         657.173          19.000                       17471.950         486.493          18.000  
G26                    497542.467        2225.853          25.000                                                                  
G27                   -179768.734        -806.530          29.000                      -56271.060        -603.064          24.000  
G31                    429667.541        2802.307          28.000                                                                  
R 3                                                        14.000  
R12                                                        21.000  
R24                                                        31.000  
E 7                    236527.466        1323.094          24.000                       85806.709         983.201          19.000  
E 8                    624855.875        3072.921           9.000                       65312.154        2291.595          12.000  
E15                   -392569.463       -2687.870          28.000                     -194056.536       -2007.858          17.000  
E30                     85726.794         452.565          22.000                                                                  
E36                    132354.759         910.234          18.000                       41001.454         679.872          14.000  
J 1                    185984.889         777.974          25.000                       16515.546         577.375          18.000  
J 2                      6432.339          20.926          23.000                                                                  
J 3                     89858.770         451.389          29.000                       28822.350         333.865          24.000  
C 6                    119416.874         806.197          23.000                                                                                                                                  
C 7                     20682.507          -0.072          12.000                                                                                                                                  
C 9                     37023.605         262.553          25.000                                                                                                                                  
C10                     27368.053         184.696          15.000                                                                                                                                  
C11                   -604979.233       -2766.237          27.000                                                                                                                                  
C12                    -38407.875        -268.591          26.000                                                                                                                                  
C24                     19825.164         898.073          26.000                                                                                        7052.030         675.947          20.000  
C25                   -211230.806           0.009          11.000                                                                                                                                  
C26                    337299.654        2263.404          30.000                                                                                      146692.161        1710.951          20.000  
C34                   -334452.158       -1823.661          29.000                                                                                                                                  
> 2022  1 25  6 54 35.0000000  0 28                     
G 4                     91434.581           0.002          17.000                                                                  
G 8                   -639760.173       -2629.559          17.000                     -348024.344       -1962.600          13.000  
G16                    146774.238        1144.057          21.000                                                                  
G18                     28654.801         655.852          18.000                       19384.736         488.316          18.000  
G26                    509240.229        2225.918          22.000                                                                  
G27                   -184016.940        -807.037          28.000                                                                  
G31                    444384.510        2802.985          30.000                                                                  
R 3                                                        14.000  
R12                                                        23.000  
R24                                                        29.000  
E 7                    243491.517        1323.209          22.000                       89682.626         986.597          22.000  
E 8                    641002.813        3073.938          10.000                       74305.939        2292.659          11.000  
E15                   -406696.844       -2687.450          25.000                     -201936.365       -2007.862          17.000  
E30                     88105.925         453.529          23.000                                                                  
E36                    137156.130         914.629          20.000                       43671.693         679.804          14.000  
J 1                    190059.047         775.126          24.000                       18778.641         578.073          15.000  
J 2                      6539.523          20.842          23.000                                                                  
J 3                     92219.757         446.856          25.000                       30114.693         328.726          21.000  
C 6                    123618.753         807.360          21.000                                                                                                                                  
C 7                     21975.667          -0.072          14.000                                                                                                                                  
C 9                     38400.671         264.897          21.000                                                                                                                                  
C10                     28331.275         183.957          15.000                                                                                                                                  
C11                   -619395.484       -2770.079          24.000                                                                                                                                  
C12                    -39802.792        -265.164          26.000                                                                                                                                  
C24                     24504.655         899.686          25.000                                                                                        9704.790         673.342          23.000  
C25                   -218601.097           0.009          14.000                                                                                                                                  
C26                    349074.440        2263.113          27.000                                                                                      153398.731        1705.647          21.000  
C34                   -343950.234       -1827.167          28.000                                                                                                                                  
> 2022  1 25  6 54 36.0000000  0 28                     
G 4                     93423.780           0.002          20.000                                                                  
G 8                   -653585.857       -2631.204          16.000                     -355729.194       -1962.903          16.000  
G16                    152779.568        1142.115          22.000                                                                  
G18                     32083.048         651.115          17.000                       21295.574         484.894          17.000  
G26                    520928.651        2223.567          20.000                                                                  
G27                   -188250.778        -807.212          28.000                      -61012.833        -603.976          21.000  
G31                    459117.289        2803.666          21.000                                                                  
R 3                                                        16.000  
R12                                                        18.000  
R24                                                        23.000  
E 7                    250451.608        1325.875          27.000                       93563.793         988.922          19.000  
E 8                    657158.339        3073.736          10.000                                                                  
E15                   -420824.266       -2690.997          20.000                     -209812.782       -2006.867          17.000  
E30                     90467.288         445.989          21.000                                                                  
E36                    141951.247         909.774          17.000                       46340.594         680.406          14.000  
J 1                    194125.120         773.307          25.000                       21043.677         576.426          18.000  
J 2                      6646.874          20.140          20.000                         309.494           8.246          25.000  
J 3                     94564.112         448.884          22.000                       31425.878         336.407          23.000  
C 6                    127821.117         806.169          20.000                                                                                                                                  
C 7                     23273.517          -0.072          12.000                                                                                                                                  
C 9                     39778.581         262.603          20.000                                                                                                                                  
C10                     29284.095         181.614          18.000                                                                                                                                  
C11                   -633819.866       -2769.459          24.000                                                                                                                                  
C12                    -41188.756        -267.114          23.000                                                                                                                                  
C24                     29182.792         898.058          23.000                                                                                       12353.201         673.561          19.000  
C25                   -225968.296           0.009          15.000                                                                                                                                  
C26                    360847.007        2258.094          19.000                                                                                      160089.433        1706.766          20.000  
C34                   -353470.920       -1826.348          24.000                                                                                                                                  
> 2022  1 25  6 54 37.0000000  0 28                     
G 4                     95416.997         380.211          22.000                                                                  
G 8                   -667412.252       -2631.852          17.000                     -363424.479       -1960.511          18.000  
G16                    158783.293        1143.250          19.000                                                                  
G18                     35513.709         654.974          17.000                       23202.288         486.178          20.000  
G26                    532603.742        2220.847          21.000                                                                  
G27                   -192482.893        -805.564          30.000                      -63375.702        -603.189          24.000  
G31                    473856.585        2806.270          29.000                                                                  
R 3                                                        15.000  
R12                                                        23.000  
R24                                                        30.000  
E 7                    257423.824        1328.823          24.000                       97463.432         997.260          25.000  
E 8                    673313.031        3073.274          10.000                                                                  
E15                   -434955.863       -2687.439          25.000                     -217694.124       -2010.513          17.000  
E30                     92821.520         447.645          17.000                                                                  
E36                    146734.817         910.740          18.000                       49016.137         680.754          16.000  
J 1                    198194.970         775.037          31.000                       23306.524         575.993          18.000  
J 2                      6763.331          22.873          23.000                         521.413          99.352          25.000  
J 3                     96936.238         452.115          29.000                       32756.294         335.929          22.000  
C 6                    132029.369         809.406          21.000                                                                                                                                  
C 7                     24569.965          -0.072          14.000                                                                                                                                  
C 9                     41154.777         264.293          22.000                                                                                                                                  
C10                     30234.018         184.315          19.000                                                                                                                                  
C11                   -648243.993       -2770.045          23.000                                                                                                                                  
C12                    -42575.071        -263.895          28.000                                                                                                                                  
C24                     33860.831         900.821          27.000                                                                                       15015.147         678.657          21.000  
C25                   -233347.341           0.009          16.000                                                                                                                                  
C26                    372628.382        2262.453          26.000                                                                                      166788.698        1705.153          25.000  
C34                   -362965.668       -1821.951          30.000                                                                                                                                  
> 2022  1 25  6 54 38.0000000  0 27                     
G 4                     97415.786         382.187          25.000                                                                  
G 8                   -681233.361       -2629.202          15.000                     -371108.771       -1958.439          18.000  
G16                    164787.849        1143.262          18.000                                                                  
G18                     38958.447         655.011          19.000                       25109.205         488.340          20.000  
G26                    544279.249        2222.871          19.000                                                                  
G27                   -196705.388        -799.353          30.000                      -65726.332        -596.766          24.000  
G31                    488602.462        2805.098          28.000                                                                  
R 3                                                        16.000  
R12                                                        23.000  
R24                                                        28.000  
E 7                    264396.378        1328.477          27.000                      101369.662         995.492          24.000  
E15                   -449072.554       -2685.917          24.000                     -225576.763       -2007.805          18.000  
E30                     95182.743         449.509          16.000                                                                  
E36                    151535.586         911.661          18.000                       51695.467         683.745          14.000  
J 1                    202281.175         776.846          24.000                       25566.392         576.281          17.000  
J 2                      6879.430          22.389          23.000                         822.938          37.945          26.000  
J 3                     99307.955         451.473          29.000                       34079.015         338.409          21.000  
C 6                    136238.191         809.423          21.000                                                                                                                                  
C 7                     25864.394          -0.072          14.000                                                                                                                                  
C 9                     42532.911         266.318          24.000                                                                                                                                  
C10                     31196.522         186.564          20.000                                                                                                                                  
C11                   -662672.723       -2772.850          18.000                                                                                                                                  
C12                    -43954.216        -266.781          24.000                                                                                                                                  
C24                     38534.703         898.480          25.000                                                                                       17683.873         681.807          20.000  
C25                   -240732.805           0.009          16.000                                                                                                                                  
C26                    384413.370        2257.017          30.000                                                                                      173497.651        1705.298          25.000  
C34                   -372445.765       -1820.466          29.000                                                                                                                                  
> 2022  1 25  6 54 39.0000000  0 26                     
G 4                     99422.651         383.870          26.000                        4455.975         284.091          20.000  
G 8                   -695047.359       -2628.355          17.000                     -378797.647       -1960.920          17.000  
G16                    170778.717        1139.057          14.000                                                                  
G18                     42408.399         658.972          18.000                       27023.844         486.342          20.000  
G26                    555958.100        2222.316          19.000                                                                  
G27                   -200913.668        -801.307          29.000                      -68082.884        -599.921          24.000  
G31                    503335.713        2802.006          26.000                                                                  
R 3                                                        15.000  
R24                                                        27.000  
E 7                    271368.996        1328.759          25.000                      105248.249         992.811          20.000  
E15                   -463194.271       -2686.985          27.000                     -233455.598       -2006.911          16.000  
E30                     97545.842         448.176          12.000                                                                  
E36                    156330.836         912.663          18.000                       54378.905         683.893          11.000  
J 1                    206355.212         775.179          19.000                       27834.499         576.438          15.000  
J 2                      6982.525          17.682          24.000                        1082.822          98.665          25.000  
J 3                    101678.036         452.989          24.000                       35411.861         340.673          20.000  
C 6                    140447.295         807.609          21.000                                                                                                                                  
C 7                     27164.444          -0.072          14.000                                                                                                                                  
C 9                     43914.023         266.056          23.000                                                                                                                                  
C10                     32167.153         186.202          20.000                                                                                                                                  
C11                   -677103.599       -2770.551          16.000                                                                                                                                  
C12                    -45343.741        -264.830          25.000                                                                                                                                  
C24                     43219.453         899.402          26.000                                                                                       20361.720         683.098          20.000  
C25                   -248128.536           0.009          16.000                                                                                                                                  
C26                    396186.535        2257.087          27.000                                                                                      180187.592        1707.046          24.000  
C34                   -381926.627       -1817.559          27.000                                                                                                                                  
> 2022  1 25  6 54 40.0000000  0 27                     
G 4                    101436.606         385.559          26.000                        5573.780         290.711          24.000  
G 8                   -708855.326       -2626.340          16.000                     -386494.219       -1960.565          14.000  
G16                    176764.918        1137.749          13.000                                                                  
G18                     45883.197         659.534          19.000                       28983.429         497.941          20.000  
G26                    567635.731        2219.812          19.000                                                                  
G27                   -205131.678        -800.448          30.000                      -70447.902        -608.874          27.000  
G31                    518076.861        2804.714          27.000                                                                  
R 3                                                        14.000  
R12                                                        22.000  
R24                                                        29.000  
E 7                    278344.528        1331.919          24.000                      109136.301         991.659          22.000  
E15                   -477314.658       -2687.031          28.000                     -241323.543       -2005.229          18.000  
E30                     99897.914         447.163           9.000                                                                  
E36                    161145.255         918.155          18.000                       57062.943         682.900          12.000  
J 1                    210425.121         775.860          19.000                       30103.367         579.722          14.000  
J 2                      7088.291          20.992          24.000                                                                  
J 3                    104052.501         449.192          26.000                       36730.642         334.322          22.000  
C 6                    144656.939         809.707          24.000                                                                                                                                  
C 7                     28456.939          -0.072          15.000                                                                                                                                  
C 9                     45289.393         263.752          21.000                                                                                                                                  
C10                     33132.778         187.735          20.000                                                                                                                                  
C11                   -691531.703       -2771.136          15.000                                                                                                                                  
C12                    -46724.448        -267.260          24.000                                                                                                                                  
C24                     47914.336         902.270          29.000                                                                                       23046.664         680.400          20.000  
C25                   -255511.409       -1417.478          16.000                                                                                                                                  
C26                    407953.874        2261.604          25.000                                                                                      186907.861        1711.790          22.000  
C34                   -391385.979       -1813.823          25.000                                                                                                                                  
> 2022  1 25  6 54 41.0000000  0 26                     
G 4                    103457.986         387.212          24.000                        6690.082         286.011          23.000  
G 8                   -722649.596       -2623.977          17.000                     -394185.192       -1960.392          15.000  
G16                    182748.517          -0.014          13.000                                                                  
G18                     49360.470         660.706          23.000                       30931.082         486.529          24.000  
G26                    579320.934        2223.945          20.000                                                                  
G27                   -209340.194        -799.555          31.000                      -72802.994        -596.471          25.000  
G31                    532824.245        2805.670          27.000                                                                  
R 3                                                        16.000  
R12                                                        25.000  
R24                                                        29.000  
E 7                    285328.061        1332.456          27.000                      113032.558         997.250          23.000  
E15                   -491437.991       -2687.039          28.000                     -249195.983       -2007.714          16.000  
E30                    102248.864         447.474          11.000                                                                  
E36                    165967.501         915.274          18.000                       59743.852         682.439          11.000  
J 1                    214507.934         776.027          16.000                       32384.027         582.666          12.000  
J 3                    106417.318         450.887          24.000                       38062.516         339.342          19.000  
C 6                    148870.136         809.232          25.000                                                                                                                                  
C 7                     29733.621          -0.072          15.000                                                                                                                                  
C 9                     46666.943         265.984          25.000                                                                                                                                  
C10                     34107.711         187.444          20.000                                                                                                                                  
C11                   -705946.869       -2767.792          12.000                                                                                                                                  
C12                    -48110.929        -266.111          23.000                                                                                                                                  
C24                     52593.442         895.857          30.000                                                                                       25713.788         680.627          22.000  
C25                   -262887.746       -1415.513          13.000                                                                                                                                  
C26                    419737.823        2263.580          25.000                                                                                      193614.306        1702.735          23.000  
C34                   -400849.939       -1820.527          28.000                                                                                                                                  
> 2022  1 25  6 54 42.0000000  0 26                     
G 4                    105494.592         392.712          24.000                        7817.966         292.294          25.000  
G 8                   -736433.478       -2622.489          17.000                     -401881.893       -1961.655          17.000  
G16                    188736.704          -0.014          13.000                                                                  
G18                     52859.739         666.029          23.000                       32865.586         492.642          24.000  
G26                    591019.542        2226.993          20.000                                                                  
G27                   -213550.651        -800.455          29.000                      -75162.896        -595.987          28.000  
G31                    547571.817        2806.107          25.000                                                                  
R 3                                                        14.000  
R12                                                        22.000  
R24                                                        27.000  
E 7                    292313.812        1332.809          23.000                      116950.349         999.425          22.000  
E15                   -505566.141       -2686.933          30.000                     -257074.299       -2008.072          17.000  
E30                    104601.502         447.680           9.000                                                                  
E36                    170806.143         921.297          18.000                       62430.569         685.785          12.000  
J 1                    218592.667         777.317          15.000                       34671.691         584.106          15.000  
J 3                    108788.066         449.260          23.000                       39373.891         334.034          23.000  
C 6                    153074.329         805.145          23.000                                                                                                                                  
C 7                     31001.951          -0.072          18.000                                                                                                                                  
C 9                     48039.716         264.864          22.000                                                                                                                                  
C10                     35075.940         186.552          20.000                                                                                                                                  
C11                   -720352.677       -2763.673          12.000                                                                                                                                  
C12                    -49492.441        -265.052          25.000                                                                                                                                  
C24                     57275.335         897.055          33.000                                                                                       28383.912         679.950          23.000  
C25                   -270263.410           0.009          17.000                                                                                                                                  
C26                    431530.553        2261.723          28.000                                                                                      200330.772        1710.113          25.000  
C34                   -410329.653       -1818.462          26.000                                                                                                                                  
> 2022  1 25  6 54 43.0000000  0 26                     
G 4                    107551.290         390.241          24.000                        8950.885         294.275          24.000  
G 8                   -750213.030       -2621.479          17.000                     -409575.822       -1962.988          19.000  
G16                    194726.278          -0.014          11.000                                                                  
G18                     56360.518         661.646          20.000                       34827.006         499.078          23.000  
G26                    602717.715        2224.944          22.000                                                                  
G27                   -217756.769        -799.055          30.000                      -77515.146        -598.349          27.000  
G31                    562320.645        2805.302          28.000                                                                  
R 3                                                        15.000  
R12                                                        21.000  
R24                                                        25.000  
E 7                    299297.745        1331.434          27.000                      120863.664         998.399          22.000  
E15                   -519686.183       -2687.334          24.000                     -264953.177       -2007.792          18.000  
E30                    106950.765         446.454           8.000                                                                  
E36                    175637.983         916.142          19.000                       65121.891         685.789          11.000  
J 1                    222672.827         775.614          13.000                       36965.956         583.660          14.000  
J 3                    111146.634         448.824          25.000                       40697.135         334.973          24.000  
C 6                    157273.076         809.460          23.000                                                                                                                                  
C 7                     32278.962         245.297          18.000                                                                                                                                  
C 9                     49421.511         266.867          21.000                                                                                                                                  
C10                     36046.756         185.896          19.000                                                                                                                                  
C11                   -734747.095           0.036          15.000                                                                                                                                  
C12                    -50868.762        -263.645          24.000                                                                                                                                  
C24                     61965.032         899.743          32.000                                                                                       31057.682         678.775          23.000  
C25                   -277639.456           0.009          16.000                                                                                                                                  
C26                    443306.081        2261.252          24.000                                                                                      207043.114        1709.004          24.000  
C34                   -419807.237       -1819.915          25.000                                                                                                                                  
> 2022  1 25  6 54 44.0000000  0 26                     
G 4                    109595.919         390.228          29.000                       10093.195         290.563          23.000  
G 8                   -763987.001       -2621.537          16.000                     -417266.948       -1957.343          17.000  
G16                    200709.898          -0.014          14.000                                                                  
G18                     59843.638         660.909          25.000                       36783.731         496.110          27.000  
G26                    614413.050        2227.323          23.000                                                                  
G27                   -221963.395        -801.123          29.000                      -79860.078        -596.389          24.000  
G31                    577064.869        2804.387          25.000                                                                  
R 3                                                        13.000  
R12                                                        26.000  
R24                                                        24.000  
E 7                    306284.413        1332.596          26.000                      124774.895         998.990          23.000  
E15                   -533796.483       -2683.016          17.000                     -272830.368       -2007.766          14.000  
E30                    109298.568         447.071           6.000                                                                  
E36                    180453.475         916.496          20.000                       67810.717         684.533          12.000  
J 1                    226768.675         780.357          14.000                       39257.115         582.037          12.000  
J 3                    113504.612         449.505          28.000                       42020.379         335.092          20.000  
C 6                    161487.623         810.546          24.000                                                                                                                                  
C 7                     33557.436         245.910          21.000                                                                                                                                  
C 9                     50808.359         266.996          24.000                                                                                                                                  
C10                     37014.564         186.986          21.000                                                                                                                                  
C11                   -749137.411           0.036          16.000                                                                                                                                  
C12                    -52234.790        -262.937          27.000                                                                                                                                  
C24                     66664.977         901.266          29.000                                                                                       33720.372         677.823          25.000  
C25                   -285015.192           0.009          16.000                                                                                                                                  
C26                    455092.363        2261.332          25.000                                                                                      213744.405        1704.907          26.000  
C34                   -429286.648       -1819.498          23.000                                                                                                                                  
> 2022  1 25  6 54 45.0000000  0 27                     
G 4                    111641.513         388.498          25.000                       11225.593         288.870          23.000  
G 8                   -777757.925       -2619.382          15.000                     -424946.811       -1956.538          14.000  
G16                    206696.870          -0.014          11.000                                                                  
G18                     63343.593         664.706          23.000                       38737.430         494.214          23.000  
G26                    626116.891        2227.549          23.000                                                                  
G27                   -226170.287        -797.332          29.000                      -82204.403        -597.298          26.000  
G31                    591814.838        2805.883          26.000                                                                  
R 3                                                        14.000  
R12                                                        25.000  
R24                                                        29.000  
E 7                    313275.974        1331.829          24.000                      128676.105         996.123          22.000  
E15                   -547892.671       -2682.234          16.000                     -280707.718       -2007.797          12.000  
E30                    111648.813         447.599           7.000                                                                  
E36                    185277.544         917.740          18.000                       70498.156         686.424          11.000  
J 1                    230861.777         781.593          15.000                       41550.612         585.767          14.000  
J 2                      7611.623          20.070          23.000                                                                  
J 3                    115870.524         450.334          20.000                       43332.761         335.580          20.000  
C 6                    165709.150         812.133          24.000                                                                                                                                  
C 7                     34836.098         243.901          22.000                                                                                                                                  
C 9                     52203.135         267.699          23.000                                                                                                                                  
C10                     37978.837         185.201          19.000                                                                                                                                  
C11                   -763535.155           0.036          18.000                                                                                                                                  
C12                    -53607.725        -264.934          25.000                                                                                                                                  
C24                     71372.047         900.190          26.000                                                                                       36382.415         677.640          22.000  
C25                   -292397.314       -1416.602          17.000                                                                                                                                  
C26                    466866.930        2262.632          25.000                                                                                      220447.999        1707.215          26.000  
C34                   -438768.399       -1820.956          20.000                                                                                                                                  
> 2022  1 25  6 54 46.0000000  0 26                     
G 4                    113671.315         386.344          22.000                       12356.369         289.093          23.000  
G 8                   -791520.374       -2619.528          18.000                     -432628.484       -1957.564          17.000  
G16                    212681.289          -0.014          14.000                                                                  
G18                     66830.048         662.732          20.000                       40705.485         499.459          20.000  
G26                    637821.140        2226.715          26.000                                                                  
G27                   -230368.190        -799.182          27.000                      -84550.103        -597.069          29.000  
G31                    606565.688        2808.366          24.000                                                                  
R 3                                                        12.000  
R12                                                        25.000  
R24                                                        21.000  
E 7                    320268.342        1332.157          23.000                      132584.436         994.162          21.000  
E15                   -561996.714       -2686.583          12.000                     -288577.276       -2003.397          11.000  
E30                    114005.217         449.060           8.000                                                                  
E36                    190100.459         914.552          18.000                       73193.234         686.082          12.000  
J 1                    234979.031         782.788          13.000                       43842.523         582.483          15.000  
J 3                    118242.956         451.224          22.000                       44647.662         332.790          24.000  
C 6                    169938.317         811.607          24.000                                                                                                                                  
C 7                     36106.942         243.793          22.000                                                                                                                                  
C 9                     53595.643         266.465          22.000                                                                                                                                  
C10                     38933.451         181.603          17.000                                                                                                                                  
C11                   -777926.531           0.036          16.000                                                                                                                                  
C12                    -54976.391        -259.898          26.000                                                                                                                                  
C24                     76067.185         901.284          29.000                                                                                       39045.028         679.593          24.000  
C25                   -299778.021       -1418.612          14.000                                                                                                                                  
C26                    478651.753        2261.372          22.000                                                                                      227147.163        1709.306          26.000  
C34                   -448238.545       -1817.950          18.000                                                                                                                                  
> 2022  1 25  6 54 47.0000000  0 27                     
G 4                    115702.569         388.061          21.000                       13480.988         289.769          20.000  
G 8                   -805290.926       -2620.234          16.000                     -440312.086       -1957.555          15.000  
G16                    218665.658          -0.014          15.000                                                                  
G18                     70316.522         664.432          19.000                       42652.980         493.440          19.000  
G26                    649518.258        2225.283          23.000                                                                  
G27                   -234563.617        -798.250          28.000                      -86886.242        -596.175          27.000  
G31                    621321.790        2807.400          20.000                                                                  
R 3                                                        13.000  
R12                                                        23.000  
R24                                                        18.000  
E 7                    327256.930        1331.018          25.000                      136483.808         995.102          19.000  
E15                   -576119.060       -2687.625          10.000                     -296436.448       -2001.141          12.000  
E30                    116365.768         449.097           9.000                                                                  
E36                    194922.623         916.892          18.000                       75882.049         685.293          14.000  
J 1                    239096.616         786.164          11.000                       46134.271         583.814          13.000  
J 3                    120617.829         449.915          23.000                       45951.587         336.839          23.000  
C 1                      1715.745         209.027          26.000                                                                                                                                  
C 6                    174168.551         814.168          22.000                                                                                                                                  
C 7                     37377.533         244.884          22.000                                                                                                                                  
C 9                     54983.237         267.526          21.000                                                                                                                                  
C10                     39891.880         185.073          19.000                                                                                                                                  
C11                   -792314.886           0.036          16.000                                                                                                                                  
C12                    -56325.022        -259.899          23.000                                                                                                                                  
C24                     80759.439         897.938          28.000                                                                                       41703.827         677.349          25.000  
C25                   -307171.038           0.009          16.000                                                                                                                                  
C26                    490431.667        2260.663          22.000                                                                                      233856.090        1713.925          27.000  
C34                   -457710.391       -1819.143          17.000                                                                                                                                  
> 2022  1 25  6 54 48.0000000  0 27                     
G 4                    117740.538         389.674          21.000                       14624.783         295.085          21.000  
G 8                   -819063.909       -2621.784          18.000                     -448000.957       -1960.270          17.000  
G16                    224666.426        1143.587          17.000                                                                  
G18                     73814.746         666.728          16.000                       44584.625         492.749          16.000  
G26                    661216.815        2224.069          23.000                                                                  
G27                   -238762.674        -796.125          34.000                      -89224.870        -594.661          21.000  
G31                    636081.253        2810.423          33.000                                                                  
R 3                                                        12.000  
R12                                                        25.000  
R24                                                        18.000  
E 7                    334233.826        1328.322          23.000                      140388.233         995.508          23.000  
E15                   -590243.116       -2688.249          10.000                     -304284.363       -1996.831          11.000  
E30                    118727.451         449.548          10.000                                                                  
E36                    199734.425         913.167          15.000                       78569.886         683.124          13.000  
J 1                    243203.480         777.957          13.000                                                                  
J 3                    122990.688         450.138          26.000                       47273.487         336.392          17.000  
C 1                      2875.687         227.174          25.000                                                                                                                                  
C 6                    178401.184         811.273          22.000                                                                                                                                  
C 7                     38656.039         246.951          25.000                                                                                                                                  
C 9                     56369.363         265.789          25.000                                                                                                                                  
C10                     40838.557         182.626          20.000                                                                                                                                  
C11                   -806713.328       -2767.006          15.000                                                                                                                                  
C12                    -57685.488        -260.114          25.000                                                                                                                                  
C24                     85437.377         900.391          27.000                                                                                       44350.654         673.353          18.000  
C25                   -314563.937           0.009          15.000                                                                                                                                  
C26                    502215.225        2262.129          24.000                                                                                      240570.914        1707.147          19.000  
C34                   -467177.732       -1819.953          17.000                                                                                                                                  
> 2022  1 25  6 54 49.0000000  0 24                     
G 4                    119794.959         391.629          24.000                       15767.659         290.056          22.000  
G 8                   -832827.971       -2618.834          17.000                     -455685.791       -1956.575          14.000  
G16                    230670.945        1142.134          16.000                                                                  
G18                     77310.378         663.241          16.000                       46515.788         492.831          17.000  
G26                    672899.154        2223.839          21.000                                                                  
G27                   -242926.459        -795.585          25.000                      -91550.066        -593.668          24.000  
G31                    650846.702        2809.706          24.000                                                                  
R 3                                                        13.000  
R12                                                        26.000  
R24                                                        18.000  
E 7                    341242.492        1333.501          24.000                      144281.843         991.827          20.000  
E15                   -604368.885       -2687.435           9.000                                                                  
E30                    121091.669         450.310          12.000                                                                  
E36                    204546.883         921.945          18.000                       81250.433         683.795          12.000  
J 3                    125360.908         452.141          20.000                       48596.138         338.549          18.000  
C 6                    182636.069         813.397          22.000                                                                                                                                  
C 7                     39954.716         250.847          19.000                                                                                                                                  
C 9                     57757.997         266.450          21.000                                                                                                                                  
C10                     41800.058         184.637          19.000                                                                                                                                  
C11                   -821126.770       -2767.277          13.000                                                                                                                                  
C12                    -59036.901        -258.174          24.000                                                                                                                                  
C24                     90138.988         905.712          27.000                                                                                       47005.731         679.376          19.000  
C26                    514010.303        2266.812          21.000                                                                                      247277.375        1715.589          25.000  
C34                   -476644.617       -1817.675          19.000                                                                                                                                  
> 2022  1 25  6 54 50.0000000  0 24                     
G 4                    121854.436         392.282          24.000                       16900.885         283.365          22.000  
G 8                   -846601.582       -2622.896          17.000                     -463362.885       -1955.378          16.000  
G16                    236671.755        1142.544          16.000                                                                  
G18                     80807.605         667.663          18.000                       48457.504         495.909          19.000  
G26                    684587.127        2223.857          23.000                                                                  
G27                   -247100.064        -795.807          26.000                      -93891.920        -594.240          24.000  
G31                    665616.261        2812.713          26.000                                                                  
R 3                                                        15.000  
R12                                                        23.000  
R24                                                        17.000  
E 7                    348244.368        1328.681          23.000                      148188.850         990.973          20.000  
E15                   -618489.351       -2687.040           6.000                                                                  
E30                    123458.081         450.258          12.000                                                                  
E36                    209384.569         923.951          21.000                       83937.864         685.927          14.000  
J 3                    127735.865         454.081          18.000                       49919.886         335.822          17.000  
C 6                    186870.369         812.064          20.000                                                                                                                                  
C 7                     41247.748         245.833          19.000                                                                                                                                  
C 9                     59150.919         267.178          22.000                                                                                                                                  
C10                     42756.155         183.057          18.000                                                                                                                                  
C11                   -835536.175       -2766.422          16.000                                                                                                                                  
C12                    -60387.557        -259.056          24.000                                                                                                                                  
C24                     94843.987         902.623          25.000                                                                                       49673.208         681.684          23.000  
C26                    525799.105        2261.893          24.000                                                                                      253990.239        1715.428          30.000  
C34                   -486109.500       -1816.084          17.000                                                                                                                                  
> 2022  1 25  6 54 51.0000000  0 25                     
G 4                    123915.625         392.672          24.000                       18066.401         299.571          23.000  
G 8                   -860385.802       -2623.297          17.000                     -471031.344       -1952.741          14.000  
G16                    242688.837        1145.577          14.000                                                                  
G18                     84306.688         666.472          20.000                       50407.494         498.122          18.000  
G26                    696280.543        2224.786          22.000                                                                  
G27                   -251271.626        -795.117          24.000                      -96219.334        -592.332          21.000  
G31                    680389.846        2813.488          30.000                                                                  
R 3                                                        13.000  
R12                                                        23.000  
R24                                                        17.000  
E 7                    355245.771        1329.274          24.000                      152087.714         992.298          19.000  
E15                   -632607.472       -2686.102           5.000                                                                  
E30                    125826.295         450.895          12.000                                                                  
E36                    214251.772         926.501          20.000                       86627.800         685.297          14.000  
J 3                    130115.820         450.378          17.000                       51229.166         333.262          14.000  
C 6                    191100.882         811.803          19.000                                                                                                                                  
C 7                     42531.147         243.126          20.000                                                                                                                                  
C 9                     60549.667         268.380          22.000                                                                                                                                  
C10                     43709.509         182.256          19.000                                                                                                                                  
C11                   -849940.178           0.036          17.000                                                                                                                                  
C12                    -61741.022        -258.713          26.000                                                                                                                                  
C24                     99547.679         905.095          24.000                                                                                       52350.232         682.159          21.000  
C25                    -21318.218       -1421.707          16.000                                                                                                                                  
C26                    537580.018        2264.212          26.000                                                                                      260707.997        1713.761          28.000  
C34                   -495564.015       -1815.204          17.000                                                                                                                                  
> 2022  1 25  6 54 52.0000000  0 25                     
G 4                    125978.965         390.786          25.000                       19220.594         290.672          21.000  
G 8                   -874181.251       -2626.930          17.000                     -478687.790       -1949.622          13.000  
G16                    248713.354        1148.888          17.000                                                                  
G18                     87805.846         665.738          19.000                       52361.755         498.730          17.000  
G26                    707973.702        2226.153          20.000                                                                  
G27                   -255453.400        -794.398          28.000                      -98550.742        -593.367          24.000  
G31                    695163.029        2810.201          26.000                                                                  
R 3                                                        14.000  
R12                                                        23.000  
R24                                                        17.000  
E 7                    362251.733        1330.574          28.000                      155993.498         995.487          19.000  
E15                   -646721.394       -2685.567           6.000                                                                  
E30                    128196.519         451.098          12.000                                                                  
E36                    219115.111         923.318          17.000                       89318.178         685.620          11.000  
J 3                    132483.155         452.614          16.000                       52532.200         331.945          13.000  
C 6                    195329.840         813.710          22.000                                                                                                                                  
C 7                     43802.427         241.943          20.000                                                                                                                                  
C 9                     61948.092         267.458          23.000                                                                                                                                  
C10                     44659.866         181.625          20.000                                                                                                                                  
C11                   -864337.790           0.036          15.000                                                                                                                                  
C12                    -63088.224        -257.230          23.000                                                                                                                                  
C24                    104253.040         902.860          23.000                                                                                       55022.414         681.704          20.000  
C25                    -28719.628       -1421.157          15.000                                                                                                                                  
C26                    549367.371        2264.876          22.000                                                                                      267427.661        1718.086          20.000  
C34                   -505009.717       -1813.792          17.000                                                                                                                                  
> 2022  1 25  6 54 53.0000000  0 25                     
G 4                    128063.262         397.486          26.000                       20367.898         291.970          24.000  
G 8                   -887984.386       -2625.309          17.000                     -486338.511       -1950.571          17.000  
G16                    254748.348        1146.936          15.000                                                                  
G18                     91302.729         665.209          17.000                       54320.296         503.484          18.000  
G26                    719671.541        2226.856          18.000                                                                  
G27                   -259617.981        -792.206          29.000                     -100889.791        -590.766          23.000  
G31                    709922.629        2812.729          27.000                                                                  
R 3                                                        14.000  
R12                                                        19.000  
R24                                                        17.000  
E 7                    369263.441        1333.220          25.000                      159919.582        1005.732          19.000  
E15                   -660834.677       -2685.645           6.000                                                                  
E30                    130566.314         450.795          13.000                                                                  
E36                    223966.536         922.823          14.000                       92015.437         688.906          12.000  
J 3                    134879.098         457.365          18.000                       53835.835         332.944          13.000  
C 6                    199567.021         813.500          23.000                                                                                                                                  
C 7                     45070.865         243.964          21.000                                                                                                                                  
C 9                     63342.068         268.010          22.000                                                                                                                                  
C10                     45624.320         185.680          20.000                                                                                                                                  
C11                   -878734.652           0.036          14.000                                                                                                                                  
C12                    -64425.657        -255.242          22.000                                                                                                                                  
C24                    108954.047         906.331          23.000                                                                                       57690.256         678.173          20.000  
C25                    -36120.214       -1419.204          17.000                                                                                                                                  
C26                    561150.415        2268.327          25.000                                                                                      274146.483        1711.682          21.000  
C34                   -514451.436       -1814.280          19.000                                                                                                                                  
> 2022  1 25  6 54 54.0000000  0 25                     
G 4                    130142.474         389.563          26.000                       21514.514         290.975          21.000  
G 8                   -901773.895       -2623.084          17.000                     -493993.409       -1951.224          16.000  
G16                    260779.294        1147.576          20.000                                                                  
G18                     94790.417         663.549          15.000                       56296.695         503.997          15.000  
G26                    731370.573        2227.970          17.000                                                                  
G27                   -263774.142        -792.293          32.000                     -103208.050        -588.830          24.000  
G31                    724697.608        2815.577          30.000                                                                  
R 3                                                        15.000  
R12                                                        17.000  
R24                                                        17.000  
E 7                    376281.922        1333.117          24.000                      163856.867        1002.086          19.000  
E15                   -674945.593       -2684.726           6.000                                                                  
E30                    132936.518         451.201          13.000                                                                  
E36                    228817.864         923.361          16.000                       94718.227         688.710          13.000  
J 3                    137278.374         455.082          17.000                       55130.569         330.532          14.000  
C 6                    203803.074         813.386          24.000                                                                                                                                  
C 7                     46353.346         246.720          21.000                                                                                                                                  
C 9                     64743.347         268.766          24.000                                                                                                                                  
C10                     46593.713         187.296          19.000                                                                                                                                  
C11                   -893136.529           0.036          16.000                                                                                                                                  
C12                    -65755.578        -255.451          29.000                                                                                                                                  
C24                                                                                                                                                     60346.836         677.791          19.000  
C25                    -43501.279       -1415.426          17.000                                                                                                                                  
C26                    572962.572        2270.185          27.000                                                                                      280860.597        1710.571          21.000  
C34                   -523904.988       -1815.878          18.000                                                                                                                                  
> 2022  1 25  6 54 55.0000000  0 17                     
G 4                    132206.973         393.022          25.000                       22666.677         293.374          18.000  
G 8                   -915554.221       -2621.669          17.000                     -501650.367       -1953.272          13.000  
G16                    266805.466        1146.257          17.000                                                                  
G18                     98283.760         667.488          18.000                       58271.422         503.208          16.000  
G26                    743071.123        2226.008          17.000                                                                  
G27                   -267950.213        -790.468          29.000                     -105525.653        -592.026          21.000  
G31                    739471.603        2810.835          27.000                                                                  
R 3                                                        14.000  
R12                                                        20.000  
R24                                                        17.000  
E 7                    383296.798        1336.880          23.000                      167783.527        1000.898          21.000  
E15                   -689053.572       -2684.757           7.000                                                                  
E30                    135307.610         451.513          12.000                                                                  
E36                    233680.424         925.732          15.000                       97421.207         689.262          12.000  
C25                    -50877.724       -1416.795          15.000                                                                                                                                  
C26                    584774.767        2270.216          29.000                                                                                      287568.226        1708.585          24.000  
C34                   -533362.055       -1815.309          17.000                                                                                                                                  
> 2022  1 25  6 54 56.0000000  0 17                     
G 4                    134274.663         394.956          25.000                       23819.430         297.038          22.000  
G 8                   -929327.050       -2620.813          18.000                     -509317.148       -1953.606          17.000  
G16                    272835.716        1147.106          17.000                                                                  
G18                    101795.170         668.453          20.000                       60240.490         501.424          18.000  
G26                    754775.749        2228.865          17.000                                                                  
G27                   -272107.019        -787.094          27.000                     -107841.945        -585.007          22.000  
G31                    754252.218        2813.823          20.000                                                                  
R 3                                                        14.000  
R12                                                        21.000  
R24                                                        17.000  
E 7                    390320.040        1336.348          22.000                      171706.222        1001.309          24.000  
E15                   -703162.655       -2684.760           6.000                                                                  
E30                    137680.572         451.535          12.000                                                                  
E36                    238546.739         926.223          16.000                      100130.805         690.777          14.000  
C25                    -58240.565       -1414.540          14.000                                                                                                                                  
C26                    596593.063        2270.271          25.000                                                                                      294273.571        1707.023          25.000  
C34                   -542819.201       -1815.853          17.000                                                                                                                                  
> 2022  1 25  6 54 57.0000000  0 17                     
G 4                    136351.322         398.205          25.000                       24970.716         293.198          22.000  
G 8                   -943097.399       -2621.304          17.000                     -516989.850       -1956.729          14.000  
G16                    278863.572        1147.049          16.000                                                                  
G18                    105303.911         666.844          17.000                       62205.123         503.267          17.000  
G26                    766483.260        2227.160          17.000                                                                  
G27                   -276250.737        -788.052          29.000                     -110157.748        -592.599          22.000  
G31                    769038.268        2813.195          19.000                                                                  
R 3                                                        15.000  
R12                                                        22.000  
R24                                                        17.000  
E 7                    397338.643        1337.460          23.000                      175643.150        1005.330          23.000  
E15                   -717268.741       -2684.075           5.000                                                                  
E30                    140055.229         452.033          12.000                                                                  
E36                    243415.296         926.528          15.000                      102843.972         692.505          14.000  
C25                    -65597.032       -1411.377          17.000                                                                                                                                  
C26                    608417.127        2265.104          30.000                                                                                      300978.728        1706.538          27.000  
C34                   -552272.174       -1814.233          17.000                                                                                                                                  
> 2022  1 25  6 54 58.0000000  0 19                     
G 4                    138446.205         399.120          21.000                       26135.513         296.951          22.000  
G 8                   -956868.135       -2619.947          15.000                     -524669.739       -1956.698          16.000  
G16                    284893.623        1147.842          16.000                                                                  
G18                    108813.795         667.578          19.000                       64174.056         501.950          17.000  
G26                    778186.867        2226.083          16.000                                                                  
G27                   -280401.857        -789.512          27.000                     -112470.391        -590.136          25.000  
G31                    783824.138        2813.264          18.000                                                                  
R 3                                                        12.000  
R12                                                        20.000  
R24                                                        17.000  
E 7                    404371.984        1340.246          22.000                      179560.361         996.794          20.000  
E15                   -731373.523       -2683.862           6.000                                                                  
E30                    142434.102         452.991          12.000                                                                  
E36                    248285.666         926.492          15.000                      105565.071         693.492          14.000  
C 6                      6878.334         814.379          24.000                                                                                                                                  
C 9                      2311.398         278.954          19.000                                                                                                                                  
C25                    -72945.951       -1411.722          17.000                                                                                                                                  
C26                    620207.962        2266.648          27.000                                                                                      307696.970        1711.842          23.000  
C34                   -561713.255       -1813.186          17.000                                                                                                                                  
> 2022  1 25  6 54 59.0000000  0 18                     
G 4                    140532.754         398.412          23.000                       27291.010         293.738          22.000  
G 8                   -970628.542       -2616.514          17.000                     -532351.092       -1957.916          16.000  
G16                    290923.209        1147.155          17.000                                                                  
G18                    112324.781         667.913          17.000                       66153.060         503.557          18.000  
G26                    789883.018        2226.314          17.000                                                                  
G27                   -284559.078        -791.099          27.000                     -114788.363        -590.121          23.000  
G31                    798605.295        2813.478          17.000                                                                  
R 3                                                        12.000  
R 4                                                        17.000  
R12                                                        19.000  
R24                                                        18.000  
E 7                    411412.291        1341.122          24.000                      183479.531        1001.989          18.000  
E30                    144816.084         453.398          12.000                                                                  
E36                    253153.210         925.974          15.000                      108281.928         691.133          13.000  
C 9                      3735.260         269.569          21.000                                                                                                                                  
C25                    -80298.588       -1412.895          16.000                                                                                                                                  
C26                    632011.628        2266.491          27.000                                                                                      314414.456        1711.985          23.000  
C34                   -571144.550       -1811.798          17.000                                                                                                                                  
> 2022  1 25  6 55  0.0000000  0 17                     
G 4                    142631.684         401.565          24.000                       28449.630         296.381          22.000  
G 8                   -984374.050       -2615.950          17.000                     -540032.684       -1956.961          15.000  
G16                    296950.464        1146.918          16.000                                                                  
G18                    115842.454         670.955          19.000                       68127.781         502.394          18.000  
G26                    801579.594        2225.653          17.000                                                                  
G27                   -288705.683        -786.051          29.000                     -117088.501        -585.787          23.000  
G31                    813389.179        2813.038          17.000                                                                  
R 3                                                        13.000  
R 4                                                        17.000  
R12                                                        17.000  
R24                                                        14.000  
E 7                    418444.811        1341.440          24.000                      187406.918         999.682          20.000  
E30                    147198.858         453.248          12.000                                                                  
E36                    258022.642         926.640          13.000                      110994.265         688.740          13.000  
C25                    -87658.564       -1412.415          17.000                                                                                                                                  
C26                    643824.581        2268.417          24.000                                                                                      321131.479        1708.559          20.000  
C34                   -580571.461       -1808.792          20.000                                                                                                                                  
> 2022  1 25  6 55  1.0000000  0 18                     
G 4                    144740.378         401.631          23.000                       29624.238         303.661          23.000  
G 8                   -998118.600       -2614.916          18.000                     -547712.152       -1955.716          13.000  
G16                    302974.083        1147.620          17.000                                                                  
G18                    119378.468         672.393          19.000                       70099.308         501.827          17.000  
G26                    813274.800        2225.311          17.000                                                                  
G27                   -292851.997        -789.852          22.000                     -119387.869        -586.599          18.000  
G31                    828174.198        2813.910          17.000                                                                  
R 3                                                        14.000  
R 4                                                        17.000  
R12                                                        18.000  
R24                                                        15.000  
E 7                    425475.759        1340.752          25.000                      191328.005        1002.514          19.000  
E30                    149581.680         453.358          12.000                                                                  
E36                    262895.781         927.847          13.000                      113697.860         689.659          12.000  
C 9                      2453.032         270.976          23.000                                                                                                                                  
C25                    -95015.986       -1413.758          17.000                                                                                                                                  
C26                    655640.580        2269.510          23.000                                                                                      327851.821        1708.073          20.000  
C34                   -589988.795       -1808.458          19.000                                                                                                                                  
> 2022  1 25  6 55  2.0000000  0 18                     
G 4                    146840.637         398.588          23.000                       30767.309         290.622          21.000  
G 8                  -1011859.699       -2614.468          16.000                     -555383.755       -1954.196          15.000  
G16                    309008.540        1149.441          17.000                                                                  
G18                    122910.098          -0.011          18.000                       72068.981         501.655          16.000  
G26                    824978.528        2227.429          16.000                                                                  
G27                   -296990.583        -783.944          28.000                     -121689.710        -585.713          25.000  
G31                    842967.179        2815.577          17.000                                                                  
R 3                                                        15.000  
R 4                                                        18.000  
R12                                                        18.000  
R24                                                        18.000  
E 7                    432510.557        1341.581          24.000                      195252.097        1000.913          18.000  
E30                    151965.444         453.576          13.000                                                                  
E36                    267773.925         928.145          14.000                      116409.430         692.374          10.000  
C 9                      3856.182         270.726          21.000                                                                                                                                  
C25                   -102374.183       -1412.516          17.000                                                                                                                                  
C26                    667464.492        2270.625          23.000                                                                                      334586.364        1713.520          23.000  
C34                   -599409.147       -1809.081          17.000                                                                                                                                  
> 2022  1 25  6 55  3.0000000  0 18                     
G 4                    148943.757         402.185          24.000                       31946.547         302.567          21.000  
G 8                  -1025599.143       -2614.230          16.000                     -563046.832       -1951.219          14.000  
G16                    315049.452        1149.573          17.000                                                                  
G18                    126441.176         670.362          17.000                       74041.382         504.271          15.000  
G26                    836681.197        2225.631          15.000                                                                  
G27                   -301110.251        -783.148          29.000                     -123993.536        -585.882          25.000  
G31                    857775.700        2818.089          15.000                                                                  
R 3                                                        14.000  
R 4                                                        18.000  
R12                                                        22.000  
R24                                                        18.000  
E 7                    439546.177        1340.352          23.000                      199177.495        1000.302          18.000  
E30                    154350.904         454.272          12.000                                                                  
E36                    272650.464         927.650          13.000                      119126.203         693.850          10.000  
C 9                      5261.946         270.356          22.000                                                                                                                                  
C25                   -109727.322       -1412.328          15.000                                                                                                                                  
C26                    679286.615        2268.094          21.000                                                                                      341316.120        1711.653          23.000  
C34                   -608829.104       -1809.477          16.000                                                                                                                                  
> 2022  1 25  6 55  4.0000000  0 17                     
G 4                    151062.069         404.398          23.000                       33140.411         305.120          20.000  
G 8                  -1039337.881       -2616.302          17.000                     -570703.461       -1950.563          17.000  
G16                    321091.356        1148.817          17.000                                                                  
G18                    129971.422         672.200          15.000                       76025.825         506.047          15.000  
G26                    848375.010        2224.370          16.000                                                                  
G27                   -305222.754        -784.915          26.000                     -126291.019        -584.631          25.000  
G31                    872584.139        2817.050          16.000                                                                  
R 3                                                        14.000  
R 4                                                        17.000  
R12                                                        18.000  
R24                                                        19.000  
E 7                    446584.056        1343.124          22.000                      203103.302        1000.780          19.000  
E30                    156738.984         454.637          13.000                                                                  
E36                    277522.543         926.648          14.000                      121847.187         692.674          11.000  
C25                   -117089.814       -1413.305          15.000                                                                                                                                  
C26                    691108.980        2269.682          22.000                                                                                      348053.557        1717.075          24.000  
C34                   -618241.454       -1806.358          18.000                                                                                                                                  
> 2022  1 25  6 55  5.0000000  0 17                     
G 4                    153183.821         403.213          20.000                       34331.928         295.046          20.000  
G 8                  -1053085.577          -0.006          17.000                     -578357.188       -1949.161          16.000  
G16                    327140.068        1152.301          17.000                                                                  
G18                    133504.957         672.125          14.000                                                                  
G26                    860061.047        2224.405          16.000                                                                  
G27                   -309338.954        -782.113          27.000                     -128594.298        -583.662          26.000  
G31                    887385.461           0.002          16.000                                                                  
R 3                                                        13.000  
R 4                                                        17.000  
R12                                                        19.000  
R24                                                        17.000  
E 7                    453632.752        1343.471          23.000                      207038.590        1003.461          18.000  
E30                    159129.260         454.739          14.000                                                                  
E36                    282393.772         928.016          15.000                      124564.537         694.304          14.000  
C25                   -124449.391       -1412.730          16.000                                                                                                                                  
C26                    702930.310        2270.739          21.000                                                                                      354788.699        1720.317          24.000  
C34                   -627648.393       -1806.007          16.000                                                                                                                                  
> 2022  1 25  6 55  6.0000000  0 17                     
G 4                    155299.287         403.832          21.000                       35514.736         301.858          21.000  
G 8                  -1066840.328       -2618.128          17.000                     -586006.692       -1949.450          15.000  
G16                    333190.157        1152.899          18.000                                                                  
G18                    137040.471         672.104          16.000                                                                  
G26                    871745.504        2222.926          15.000                                                                  
G27                   -313445.313        -779.558          27.000                     -130887.567        -584.935          23.000  
G31                    902195.168           0.002          16.000                                                                  
R 3                                                        12.000  
R 4                                                        16.000  
R12                                                        19.000  
R24                                                        17.000  
E 7                    460702.362        1340.737          22.000                      210981.979        1004.988          18.000  
E30                    161519.201         454.705          13.000                                                                  
E36                    287269.202         927.817          14.000                      127288.500         695.259          14.000  
C25                   -131816.918       -1415.462          14.000                                                                                                                                  
C26                                                                                                                                                    361523.965        1714.487          18.000  
C34                   -637055.698       -1806.503          15.000                                                                                                                                  
> 2022  1 25  6 55  7.0000000  0 17                     
G 4                    157422.352         403.023          21.000                       36703.344         303.077          20.000  
G 8                  -1080601.517       -2618.931          17.000                     -593651.780       -1946.308          15.000  
G16                    339249.781        1153.262          15.000                                                                  
G18                    140573.825         672.957          16.000                                                                  
G26                    883428.601        2223.233          15.000                                                                  
G27                   -317548.162        -778.867          29.000                     -133179.262        -580.803          21.000  
G31                    917012.939           0.002          17.000                                                                  
R 3                                                        13.000  
R 4                                                        17.000  
R12                                                        21.000  
R24                                                        16.000  
E 7                    467751.140        1338.504          22.000                      214923.800        1003.278          18.000  
E30                    163908.908         454.791          13.000                                                                  
E36                    292150.405         929.764          15.000                      130015.832         695.003          13.000  
C25                   -139186.181           0.009          15.000                                                                                                                                  
C26                                                                                                                                                    368246.900        1714.021          18.000  
C34                   -646457.252       -1804.918          16.000                                                                                                                                  
> 2022  1 25  6 55  8.0000000  0 17                     
G 4                    159548.134         404.673          21.000                       37884.888         297.527          23.000  
G 8                  -1094357.073       -2615.886          17.000                     -601287.325       -1947.097          17.000  
G16                    345313.709        1154.628          15.000                                                                  
G18                    144114.557         675.217          15.000                       83960.834         506.418          15.000  
G26                    895115.019           0.006          17.000                                                                  
G27                   -321655.498        -782.057          25.000                     -135474.489        -585.575          22.000  
G31                    931828.445        2817.679          16.000                                                                  
R 3                                                        15.000  
R 4                                                        16.000  
R12                                                        21.000  
R24                                                        17.000  
E 7                    474801.914        1341.388          21.000                      218855.829        1000.173          18.000  
E30                    166300.184         455.095          17.000                                                                  
E36                    297035.922         930.738          14.000                      132740.967         693.901          12.000  
C25                   -146548.300           0.009          15.000                                                                                                                                  
C26                     30336.762        2274.949          17.000                                                                                      374965.949        1713.760          17.000  
C34                   -655858.193       -1805.093          16.000                                                                                                                                  
> 2022  1 25  6 55  9.0000000  0 17                     
G 4                    161675.190         403.120          23.000                       39072.058         300.138          24.000  
G 8                  -1108097.161       -2612.854          17.000                     -608930.920       -1950.083          16.000  
G16                    351383.863          -0.014          17.000                                                                  
G18                    147660.452         676.318          17.000                       85951.804         507.950          16.000  
G26                    906808.280           0.006          17.000                                                                  
G27                   -325764.468        -778.646          26.000                     -137775.336        -586.377          23.000  
G31                    946627.684        2815.137          16.000                                                                  
R 3                                                        14.000  
R 4                                                        16.000  
R12                                                        17.000  
R24                                                        15.000  
E 7                    481864.694        1343.092          22.000                      222778.903         999.223          16.000  
E30                    168692.561         455.887          16.000                                                                  
E36                    301930.237         932.878          15.000                      135461.873         694.200          12.000  
C25                   -153900.689       -1412.083          16.000                                                                                                                                  
C26                     42185.808        2275.670          17.000                                                                                      381693.465        1715.059          14.000  
C34                   -665258.842       -1805.348          16.000                                                                                                                                  
> 2022  1 25  6 55 10.0000000  0 17                     
G 4                    163802.306         404.088          22.000                       40275.210         307.599          21.000  
G 8                  -1121820.102       -2610.331          17.000                     -616575.907       -1946.737          16.000  
G16                    357451.159        1154.473          16.000                                                                  
G18                    151213.524         676.358          17.000                       87948.108         508.251          17.000  
G26                    918505.067           0.006          16.000                                                                  
G27                   -329854.932        -778.238          24.000                     -140062.512        -581.654          20.000  
G31                    961426.930        2818.089          15.000                                                                  
R 3                                                        14.000  
R 4                                                        19.000  
R12                                                        19.000  
R24                                                        15.000  
E 7                    488930.195        1342.094          23.000                      226702.284        1000.364          19.000  
E30                    171089.957         456.861          14.000                                                                  
E36                    306836.010         934.672          15.000                      138181.600         692.888          12.000  
C25                   -161250.993       -1410.501          16.000                                                                                                                                  
C26                     54044.292        2282.632          17.000                                                                                      388425.635        1716.269          14.000  
C34                   -674661.854       -1807.124          16.000                                                                                                                                  
> 2022  1 25  6 55 11.0000000  0 17                     
G 4                    165938.845         405.703          22.000                       41462.747         305.519          25.000  
G 8                  -1135534.957       -2611.249          16.000                     -624215.300       -1946.379          16.000  
G16                    363522.760        1156.572          14.000                                                                  
G18                    154763.344         675.799          16.000                       89940.759         508.028          16.000  
G26                    930213.173        2228.124          15.000                                                                  
G27                   -333940.629        -776.951          24.000                     -142352.129        -584.445          21.000  
G31                    976232.862        2819.480          17.000                                                                  
R 3                                                        14.000  
R 4                                                        16.000  
R12                                                        20.000  
R24                                                        17.000  
E 7                    495988.820        1343.994          25.000                      230632.404        1007.692          22.000  
E30                    173493.554         457.356          13.000                                                                  
E36                    311745.143         934.350          15.000                      140899.373         691.640          10.000  
C25                   -168594.164       -1410.561          15.000                                                                                                                                  
C26                     65923.679        2280.448          15.000                                                                                      395162.317        1716.233          15.000  
C34                   -684068.097       -1804.201          15.000                                                                                                                                  
> 2022  1 25  6 55 12.0000000  0 17                     
G 4                    168081.902         408.258          24.000                       42654.060         309.011          23.000  
G 8                  -1149252.600       -2609.119          15.000                     -631849.324       -1943.083          15.000  
G16                    369607.841        1158.963          17.000                                                                  
G18                    158318.202         676.295          16.000                       91929.686         505.756          15.000  
G26                    941921.176        2228.677          17.000                                                                  
G27                   -338024.282        -777.309          25.000                     -144626.748        -580.342          21.000  
G31                    991044.112        2817.650          17.000                                                                  
R 3                                                        16.000  
R 4                                                        19.000  
R12                                                        20.000  
R24                                                        17.000  
E 7                    503065.367        1346.501          23.000                      234587.570        1009.358          21.000  
E30                    175900.228         458.338          15.000                                                                  
E36                    316653.896         934.294          13.000                      143609.995         691.413           9.000  
C25                   -175940.331       -1411.076          15.000                                                                                                                                  
C26                     77796.106          -0.008          15.000                                                                                      401899.462        1716.972          14.000  
C34                   -693457.674       -1801.997          16.000                                                                                                                                  
> 2022  1 25  6 55 13.0000000  0 17                     
G 4                    170235.427         409.641          22.000                       43859.331         304.130          22.000  
G 8                  -1162959.522       -2608.150          16.000                     -639480.288       -1945.606          14.000  
G16                    375693.911        1157.594          16.000                                                                  
G18                    161870.412         676.332          17.000                       93913.783         505.759          14.000  
G26                    953643.866        2232.011          16.000                                                                  
G27                   -342106.387        -775.431          24.000                     -146905.021        -581.016          20.000  
G31                   1005850.411        2817.815          16.000                                                                  
R 3                                                        14.000  
R 4                                                        20.000  
R12                                                        19.000  
R24                                                        16.000  
E 7                    510145.906        1348.901          22.000                      238542.744        1007.746          22.000  
E30                    178306.490         457.328          14.000                                                                  
E36                    321567.698         936.082          12.000                      146319.636         690.769          11.000  
C25                   -183290.772       -1410.372          15.000                                                                                                                                  
C26                     89663.323          -0.008          14.000                                                                                      408637.115        1718.227          14.000  
C34                   -702843.553       -1801.131          17.000                                                                                                                                  
> 2022  1 25  6 55 14.0000000  0 17                     
G 4                    172388.131         409.101          22.000                       45056.109         310.950          22.000  
G 8                  -1176662.607       -2606.864          17.000                     -647121.910       -1946.613          15.000  
G16                    381771.756        1156.750          16.000                                                                  
G18                    165432.124         679.014          17.000                       95890.951         505.352          14.000  
G26                    965372.037        2232.696          17.000                                                                  
G27                   -346176.314        -774.337          24.000                     -149179.343        -581.108          22.000  
G31                   1020659.931        2818.773          15.000                                                                  
R 3                                                        17.000  
R 4                                                        19.000  
R12                                                        21.000  
R24                                                        17.000  
E 7                    517235.031        1348.731          24.000                      242503.149        1011.572          20.000  
E30                    180708.314         456.944          15.000                                                                  
E36                    326482.234         935.439          14.000                      149023.019         688.113          11.000  
C25                   -190634.026       -1409.119          16.000                                                                                                                                  
C26                    101518.501          -0.008          13.000                                                                                      415377.021        1718.087          13.000  
C34                   -712228.319       -1802.495          16.000                                                                                                                                  
> 2022  1 25  6 55 15.0000000  0 17                     
G 4                    174533.161         408.713          22.000                       46245.560         303.881          22.000  
G 8                  -1190359.471       -2604.919          18.000                     -654758.774       -1946.928          15.000  
G16                    387854.998        1158.296          15.000                                                                  
G18                    169006.944         681.494          16.000                       97877.207         504.642          16.000  
G26                    977102.583        2231.270          16.000                                                                  
G27                   -350249.788        -775.364          26.000                     -151457.430        -579.508          23.000  
G31                   1035471.655        2818.380          17.000                                                                  
R 3                                                        13.000  
R 4                                                        16.000  
R12                                                        23.000  
R24                                                        17.000  
E 7                    524315.800        1349.326          25.000                      246467.009        1008.976          20.000  
E30                    183110.186         456.802          14.000                                                                  
E36                    331401.837         937.075          10.000                      151721.779         687.479           9.000  
C25                   -197972.530       -1409.946          17.000                                                                                                                                  
C26                    113382.627          -0.008          13.000                                                                                      422130.419        1723.877          14.000  
C34                   -721611.069       -1800.724          16.000                                                                                                                                  
> 2022  1 25  6 55 16.0000000  0 17                     
G 4                    176686.316         413.400          24.000                       47452.114         313.179          20.000  
G 8                  -1204055.265       -2606.425          18.000                     -662393.312       -1944.340          16.000  
G16                    393944.756        1158.539          16.000                                                                  
G18                    172583.857         680.128          17.000                       99861.908         507.049          15.000  
G26                    988829.717        2232.241          17.000                                                                  
G27                   -354320.483        -774.353          25.000                     -153719.918        -576.517          23.000  
G31                   1050288.143        2819.683          17.000                                                                  
R 3                                                        12.000  
R 4                                                        20.000  
R12                                                        22.000  
R24                                                        15.000  
E 7                    531395.327        1349.927          22.000                      250417.300        1010.255          19.000  
E30                    185510.197         456.394          13.000                                                                  
E36                    336329.214         937.494          12.000                      154420.722         687.723          10.000  
C25                   -205312.270       -1408.066          17.000                                                                                                                                  
C26                    125241.221          -0.008          17.000                                                                                      428892.937        1723.083          14.000  
C34                   -730987.414       -1799.896          17.000                                                                                                                                  
> 2022  1 25  6 55 17.0000000  0 17                     
G 4                    178857.953         413.138          23.000                       48677.462         314.735          20.000  
G 8                  -1217759.100       -2608.422          18.000                     -670021.124       -1943.245          15.000  
G16                    400037.011        1159.464          14.000                                                                  
G18                    176154.372         679.110          14.000                      101854.420         506.806          15.000  
G26                   1000557.015        2231.123          15.000                                                                  
G27                   -358385.548        -771.967          25.000                     -155990.154        -577.223          24.000  
G31                   1065109.817        2820.813          17.000                                                                  
R 3                                                        13.000  
R 4                                                        17.000  
R12                                                        23.000  
R24                                                        15.000  
E 7                    538485.343        1352.143          21.000                      254384.089        1011.268          19.000  
E30                    187900.109         453.872          13.000                                                                  
E36                    341256.639         937.355          14.000                      157117.737         688.154          10.000  
C25                   -212643.017       -1407.820          17.000                                                                                                                                  
C26                    137086.513          -0.008          14.000                                                                                      435657.234        1725.204          14.000  
C34                   -740354.433       -1797.998          18.000                                                                                                                                  
> 2022  1 25  6 55 18.0000000  0 17                     
G 4                    181024.876         413.096          21.000                       49892.361         314.040          20.000  
G 8                  -1231461.488       -2607.106          16.000                     -677645.070       -1941.555          15.000  
G16                    406135.196        1160.223          17.000                                                                  
G18                    179729.070         681.847          14.000                      103843.213         508.019          15.000  
G26                   1012277.195        2230.709          16.000                                                                  
G27                   -362438.863        -769.829          27.000                     -158249.341        -575.893          26.000  
G31                   1079934.346        2819.661          16.000                                                                  
R 3                                                        14.000  
R 4                                                        18.000  
R12                                                        22.000  
R24                                                        14.000  
E 7                    545572.344        1345.930          19.000                      258351.715        1013.584          19.000  
E30                    190288.627         455.116          14.000                                                                  
E36                    346183.569         937.629          15.000                                                                  
C25                   -219971.679       -1407.794          17.000                                                                                                                                  
C26                    148938.610        2274.856          16.000                                                                                      442434.725        1728.717          13.000  
C34                   -749720.062       -1798.264          17.000                                                                                                                                  
> 2022  1 25  6 55 19.0000000  0 17                     
G 4                    183197.793         414.509          19.000                       51126.176         314.629          17.000  
G 8                  -1245162.635       -2605.844          16.000                     -685274.335       -1943.791          14.000  
G16                    412236.035        1159.987          17.000                                                                  
G18                    183324.037          -0.011          17.000                      105841.604         511.368          15.000  
G26                   1023995.766        2229.258          17.000                                                                  
G27                   -366491.693        -772.106          26.000                     -160505.436        -574.617          26.000  
G31                   1094754.337        2819.641          15.000                                                                  
R 3                                                        15.000  
R 4                                                        17.000  
R12                                                        21.000  
R24                                                        18.000  
E 7                    552660.860        1351.688          17.000                      262321.815        1011.545          17.000  
E30                    192681.535         455.329          15.000                                                                  
E36                    351113.550         938.437          13.000                                                                  
C25                   -227301.913       -1408.146          16.000                                                                                                                                  
C26                    160788.706        2274.469          16.000                                                                                      449223.872        1731.659          10.000  
C34                   -759082.895       -1796.621          16.000                                                                                                                                  
> 2022  1 25  6 55 20.0000000  0 17                     
G 4                    185386.801         419.377          20.000                       52352.784         312.111          17.000  
G 8                  -1258851.457       -2604.256          17.000                     -692906.193       -1943.565          17.000  
G16                    418337.663        1160.569          18.000                                                                  
G18                    186923.686          -0.011          19.000                      107851.074         512.260          15.000  
G26                   1035712.203        2230.448          15.000                                                                  
G27                   -370537.517        -768.286          28.000                     -162767.784        -573.405          28.000  
G31                   1109571.142        2818.067          14.000                                                                  
R 3                                                        14.000  
R 4                                                        16.000  
R12                                                        23.000  
R24                                                        17.000  
E 7                    559761.517        1351.237          18.000                      266289.490        1009.683          17.000  
E30                    195077.099         456.711          15.000                                                                  
E36                    356047.601         939.054          13.000                                                                  
C25                   -234628.136       -1405.766          16.000                                                                                                                                  
C26                    172635.924        2276.145          14.000                                                                                      456008.874        1728.418          12.000  
C34                   -768441.411       -1797.843          17.000                                                                                                                                  
> 2022  1 25  6 55 21.0000000  0 17                     
G 4                    187576.172         417.266          22.000                       53574.640         309.522          20.000  
G 8                  -1272539.829       -2604.852          20.000                     -700538.355       -1943.300          14.000  
G16                    424426.699        1157.483          16.000                                                                  
G18                    190526.631         684.301          18.000                      109867.316         514.267          15.000  
G26                   1047427.771        2229.589          17.000                                                                  
G27                   -374588.997        -769.515          24.000                                                                  
G31                   1124380.849        2819.110          15.000                                                                  
R 3                                                        17.000  
R 4                                                        18.000  
R12                                                        24.000  
R24                                                        17.000  
E 7                    566864.947        1354.400          21.000                      270254.729        1013.617          18.000  
E30                    197479.221         457.228          15.000                                                                  
E36                    360982.859         939.044          13.000                                                                  
C25                   -241956.032       -1408.960          16.000                                                                                                                                  
C26                    184489.015        2276.501          15.000                                                                                      462796.235        1727.459          10.000  
C34                   -777799.266       -1795.988          16.000                                                                                                                                  
> 2022  1 25  6 55 22.0000000  0 17                     
G 4                    189765.255         416.566          20.000                       54797.721         308.221          20.000  
G 8                  -1286227.324       -2604.618          17.000                     -708175.973       -1946.938          16.000  
G16                    430505.463        1156.492          15.000                                                                  
G18                    194128.007         687.089          15.000                      111888.180         515.812          15.000  
G26                   1059149.621        2231.662          16.000                                                                  
G27                   -378626.173        -767.383          25.000                     -167321.967        -579.344          24.000  
G31                   1139190.152           0.002          15.000                                                                  
R 3                                                        16.000  
R 4                                                        20.000  
R12                                                        22.000  
R24                                                        15.000  
E 7                    573974.029        1353.384          21.000                      274232.581        1014.716          19.000  
E30                    199884.078         457.869          12.000                                                                  
E36                    365920.646         940.370          12.000                                                                  
C25                   -249297.185       -1409.008          17.000                                                                                                                                  
C26                    196348.242        2277.030          15.000                                                                                                                                  
C34                   -787151.411       -1796.730          17.000                                                                                                                                  
> 2022  1 25  6 55 23.0000000  0 17                     
G 4                    191957.599         416.571          24.000                       56024.012         314.865          21.000  
G 8                  -1299906.390       -2602.108          17.000                     -715810.623       -1945.424          14.000  
G16                    436585.523          -0.014          14.000                                                                  
G18                    197744.492         688.567          17.000                      113910.914         516.777          12.000  
G26                   1070881.377        2232.076          17.000                                                                  
G27                   -382662.715        -766.781          26.000                     -169579.570        -572.900          25.000  
G31                   1154004.059           0.002          15.000                                                                  
R 3                                                        15.000  
R 4                                                        20.000  
R12                                                        20.000  
R24                                                        14.000  
E 7                    581085.610        1352.073          23.000                      278208.669        1012.463          17.000  
E30                    202291.519         458.054          12.000                                                                  
E36                    370866.425         941.790          16.000                                                                  
C25                   -256630.625       -1408.073          16.000                                                                                                                                  
C26                    208213.698          -0.008          15.000                                                                                                                                  
C34                   -796509.918       -1795.659          15.000                                                                                                                                  
> 2022  1 25  6 55 24.0000000  0 17                     
G 4                    194167.897         423.324          23.000                       57246.178         306.773          21.000  
G 8                  -1313577.421       -2600.364          15.000                     -723447.384       -1944.769          15.000  
G16                    442667.646          -0.014          16.000                                                                  
G18                    201365.900         688.487          17.000                      115927.849         513.349          14.000  
G26                   1082613.389        2232.036          17.000                                                                  
G27                   -386683.939        -770.269          25.000                     -171833.824        -573.634          25.000  
G31                   1168823.082           0.002          16.000                                                                  
R 3                                                        14.000  
R 4                                                        17.000  
R12                                                        20.000  
R24                                                        16.000  
E 7                    588195.403        1350.290          23.000                      282183.601        1014.358          19.000  
E30                    204699.738         458.205          12.000                                                                  
E36                    375818.352         942.883          15.000                                                                  
C25                   -263960.365       -1406.166          15.000                                                                                                                                  
C26                    220082.374          -0.008          14.000                                                                                                                                  
C34                   -805864.556       -1796.391          14.000                                                                                                                                  
> 2022  1 25  6 55 25.0000000  0 17                     
G 4                    196387.322         422.461          21.000                       58466.126         312.205          23.000  
G 8                  -1327240.891       -2598.954          17.000                     -731074.943       -1942.355          17.000  
G16                    448756.034          -0.014          17.000                                                                  
G18                    204984.617         689.815          18.000                      117958.132         521.615          14.000  
G26                   1094340.092        2231.357          17.000                                                                  
G27                   -390714.806        -764.510          25.000                     -174085.895        -571.621          24.000  
G31                   1183654.352        2823.540          16.000                                                                  
R 3                                                        14.000  
R 4                                                        20.000  
R12                                                        20.000  
R24                                                        16.000  
E 7                    595307.011        1352.623          21.000                      286150.025        1008.981          19.000  
E30                    207110.091         459.018          12.000                                                                  
E36                    380776.032         944.327          15.000                                                                  
C25                   -271277.968       -1405.243          15.000                                                                                                                                  
C26                    231949.145          -0.008          13.000                                                                                                                                  
C34                   -815216.447       -1795.098          16.000                                                                                                                                  
> 2022  1 25  6 55 26.0000000  0 17                     
G 4                    198604.395         421.360          23.000                       59696.491         311.477          22.000  
G 8                  -1340895.595       -2598.447          16.000                     -738697.761       -1943.645          17.000  
G16                    454854.850        1160.798          16.000                                                                  
G18                    208613.929         692.543          21.000                      120002.355         523.000          17.000  
G26                   1106064.447        2231.172          17.000                                                                  
G27                   -394742.930        -769.159          25.000                     -176333.949        -573.120          23.000  
G31                   1198489.511        2824.576          15.000                                                                  
R 3                                                        14.000  
R 4                                                        20.000  
R12                                                        21.000  
R24                                                        14.000  
E 7                    602423.565        1349.992          22.000                      290127.844        1012.148          19.000  
E30                    209521.902         458.674          12.000                                                                  
E36                    385741.728         945.721          14.000                                                                  
C25                   -278594.716       -1406.225          14.000                                                                                                                                  
C26                    243815.872          -0.008          13.000                                                                                                                                  
C34                   -824571.244       -1795.879          17.000                                                                                                                                  
> 2022  1 25  6 55 27.0000000  0 17                     
G 4                    200819.942         419.964          22.000                       60953.446         319.003          21.000  
G 8                  -1354553.465       -2598.787          16.000                     -746319.839       -1941.998          17.000  
G16                    460951.618        1161.209          15.000                                                                  
G18                    212252.014         693.716          22.000                      122051.368         520.796          23.000  
G26                   1117787.900        2232.129          17.000                                                                  
G27                   -398779.311        -767.492          24.000                     -178576.034        -571.649          24.000  
G31                   1213338.601        2825.260          16.000                                                                  
R 3                                                        15.000  
R 4                                                        18.000  
R12                                                        21.000  
R24                                                        16.000  
E 7                    609542.524        1351.852          22.000                      294100.406        1010.161          18.000  
E30                    211933.088         459.107          12.000                                                                  
E36                    390717.194         947.903          15.000                                                                  
C25                   -285911.731       -1405.985          17.000                                                                                                                                  
C26                    255679.122          -0.008          15.000                                                                                                                                  
C34                   -833910.748       -1791.162          17.000                                                                                                                                  
> 2022  1 25  6 55 28.0000000  0 17                     
G 4                    203028.861         419.420          24.000                       62189.328         314.577          23.000  
G 8                  -1368212.473       -2600.352          17.000                     -753935.845       -1941.698          15.000  
G16                    467054.566        1161.602          17.000                                                                  
G18                    215888.736         693.271          18.000                      124080.347         519.640          17.000  
G26                   1129514.152        2231.701          16.000                                                                  
G27                   -402806.421        -765.348          25.000                     -180813.163        -569.407          23.000  
G31                   1228187.972        2825.853          15.000                                                                  
R 3                                                        16.000  
R 4                                                        20.000  
R12                                                        19.000  
R24                                                        16.000  
E 7                    616647.935        1349.433          21.000                      298063.458        1010.039          17.000  
E30                    214346.939         459.094          12.000                                                                  
E36                    395694.962         947.939          15.000                                                                  
C25                   -293233.219       -1406.263          17.000                                                                                                                                  
C26                    267545.366          -0.008          13.000                                                                                                                                  
C34                   -843233.429       -1790.541          17.000                                                                                                                                  
> 2022  1 25  6 55 29.0000000  0 17                     
G 4                    205238.972         420.651          24.000                       63431.171         318.709          23.000  
G 8                  -1381873.251       -2600.636          17.000                     -761547.332       -1938.672          15.000  
G16                    473160.914        1162.563          17.000                                                                  
G18                    219527.528         694.625          19.000                      126125.773         521.103          15.000  
G26                   1141242.957        2230.714          17.000                                                                  
G27                   -406831.951        -762.830          28.000                     -183043.441        -565.877          22.000  
G31                   1243037.905        2826.302          15.000                                                                  
R 3                                                        17.000  
R 4                                                        20.000  
R12                                                        20.000  
R24                                                        15.000  
E 7                    623756.171        1355.362          22.000                      302036.642        1012.089          17.000  
E30                    216761.435         459.801          13.000                                                                  
E36                    400672.771         947.778          17.000                                                                  
C25                   -300555.873       -1407.315          17.000                                                                                                                                  
C26                    279411.844          -0.008          14.000                                                                                                                                  
C34                   -852557.855       -1791.208          17.000                                                                                                                                  
> 2022  1 25  6 55 30.0000000  0 18                     
G 4                    207457.742         422.930          23.000                       64698.985         321.618          23.000  
G 8                  -1395540.489       -2600.590          17.000                     -769150.383       -1938.556          14.000  
G16                    479262.606        1160.260          16.000                                                                  
G18                    223170.893         697.019          19.000                      128180.561         523.655          13.000  
G26                   1152960.377        2230.174          17.000                                                                  
G27                   -410838.999        -763.180          23.000                     -185278.747        -570.369          20.000  
G31                   1257890.717           0.002          14.000                                                                  
R 3                                                        16.000  
R 4                                                        19.000  
R12                                                        23.000  
R24                                                        16.000  
E 7                    630872.011        1352.657          27.000                      306004.068        1010.071          18.000  
E27                    -12773.887       -1060.275          18.000                                                                  
E30                    219180.475         460.644          13.000                                                                  
E36                    405652.184         947.470          16.000                                                                  
C25                   -307881.934       -1406.580          17.000                                                                                                                                  
C26                    291272.389          -0.008          13.000                                                                                                                                  
C34                   -861882.720       -1790.214          19.000                                                                                                                                  
> 2022  1 25  6 55 31.0000000  0 18                     
G 4                    209683.941         424.485          25.000                       65962.307         311.894          23.000  
G 8                  -1409199.123       -2599.556          16.000                     -776752.873       -1937.443          17.000  
G16                    485362.166        1160.540          15.000                                                                  
G18                    226825.674         694.788          17.000                                                                  
G26                   1164682.332        2231.022          17.000                                                                  
G27                   -414838.604        -756.998          26.000                     -187504.654        -563.017          20.000  
G31                   1272746.403           0.002          18.000                                                                  
R 3                                                        17.000  
R 4                                                        22.000  
R12                                                        25.000  
R24                                                        16.000  
E 7                    637995.618        1359.254          23.000                      309975.622        1012.286          19.000  
E27                    -18333.877       -1059.424          15.000                                                                  
E30                    221600.476         460.347          13.000                                                                  
E36                    410630.455         947.587          15.000                                                                  
C25                   -315204.389       -1405.280          16.000                                                                                                                                  
C26                    303128.167          -0.008          15.000                                                                                                                                  
C34                   -871207.007       -1791.064          17.000                                                                                                                                  
> 2022  1 25  6 55 32.0000000  0 18                     
G 4                    211924.093         427.937          24.000                       67218.732         320.483          20.000  
G 8                  -1422858.650       -2598.681          14.000                     -784356.688       -1937.460          16.000  
G16                    491467.936        1163.284          15.000                                                                  
G18                    230480.610         695.785          14.000                                                                  
G26                   1176405.594        2231.416          17.000                                                                  
G27                   -418826.617        -756.450          27.000                     -189727.182        -562.610          24.000  
G31                   1287599.235        2826.750          17.000                                                                  
R 3                                                        16.000  
R 4                                                        20.000  
R12                                                        20.000  
R24                                                        17.000  
E 7                    645139.453        1361.060          24.000                      313944.800        1012.126          19.000  
E27                    -23895.238       -1055.968          17.000                                                                  
E30                    224020.352         460.485          12.000                                                                  
E36                    415616.400         952.287          15.000                                                                  
C25                   -322517.088       -1405.515          16.000                                                                                                                                  
C26                    314979.426          -0.008          14.000                                                                                                                                  
C34                   -880533.281       -1790.515          17.000                                                                                                                                  
