     3.04           OBSERVATION DATA    M: Mixed            RINEX VERSION / TYPE
Higeo_Hi1105        Huawei CBG          20220126 062333 UTC PGM / RUN BY / DATE 
************************************************************COMMENT             
* If you have any problem,                                 *COMMENT             
*     please contact with LBS Technology Group, thanks.    *COMMENT             
*                                                          *COMMENT             
* Version Higeo2RinexV1.1 2020.07.21                       *COMMENT             
* Fuction:  Convert Higeo Log to Rinex file                *COMMENT             
*                                                          *COMMENT             
* Note that the verision support B1C B2A signal            *COMMENT             
*     BDS: C1D L1D D1D S1D indicate BDS B1C                *COMMENT             
*     BDS: C5D L5D D5D S5D indicate BDS B2A                *COMMENT             
*     Reference: RINEX V3.04                               *COMMENT             
*                                                          *COMMENT             
* Copyright(C) Huawei Technologies Co., Ltd. 2019 - 2020   *COMMENT             
*     All rights reserved.                                 *COMMENT             
************************************************************COMMENT             
                                                            MARKER NAME         
                                                            MARKER NUMBER       
                                                            MARKER TYPE         
                                                            OBSERVER / AGENCY   
                                                            REC # / TYPE / VERS 
                                                            ANT # / TYPE        
        0.0000        0.0000        0.0000                  APPROX POSITION XYZ 
        0.0000        0.0000        0.0000                  ANTENNA: DELTA H/E/N
G    8 C1C L1C D1C S1C C5I L5I D5I S5I                      SYS / # / OBS TYPES 
R    4 C1C L1C D1C S1C                                      SYS / # / OBS TYPES 
E    8 C1C L1C D1C S1C C5I L5I D5I S5I                      SYS / # / OBS TYPES 
J    8 C1C L1C D1C S1C C5I L5I D5I S5I                      SYS / # / OBS TYPES 
C   12 C2I L2I D2I S2I C1D L1D D1D S1D C5D L5D D5D S5D      SYS / # / OBS TYPES 
  2022     1    25     4     2   55.0000000     GPS         TIME OF FIRST OBS   
  2022     1    25     4    17   53.0000000     GPS         TIME OF LAST OBS    
G                                                           SYS / PHASE SHIFT   
R                                                           SYS / PHASE SHIFT   
E                                                           SYS / PHASE SHIFT   
J                                                           SYS / PHASE SHIFT   
C                                                           SYS / PHASE SHIFT   
  0                                                         GLONASS SLOT / FRQ #
 C1C    0.000 C1P    0.000 C2C    0.000 C2P    0.000        GLONASS COD/PHS/BIS 
                                                            END OF HEADER       
> 2022  1 25  4  2 55.0000000  0  3                     
G31                      9714.647        1061.899          31.000                                                                  
G32                     20923.044        2524.087          22.000                                                                  
C26                     10353.589        1905.839          31.000                                                                                                                                  
> 2022  1 25  4  2 56.0000000  0  6                     
G16                    -10683.908       -2431.463          22.000                                                                  
G31                     15287.062        1058.419          32.000                                                                  
G32                     34163.915        2516.906          19.000                                                                  
R 2                                                        24.000  
R12                                                        35.000  
C26                     20307.674        1905.773          28.000                                                                                                                                  
> 2022  1 25  4  2 57.0000000  0  8                     
G 3                      -775.601        -249.190          22.000                                                                  
G16                    -23506.604       -2445.996          21.000                                                                  
G31                     20861.860        1058.794          31.000                                                                  
G32                     47383.413        2516.072          30.000                                                                  
R 2                                                        24.000  
R12                                                        32.000  
R22                                                        21.000  
C26                     30271.301        1912.095          32.000                                                                                                                                  
> 2022  1 25  4  2 58.0000000  0  7                     
G 3                     -2097.987        -253.418          27.000                                                                  
G16                    -36381.705       -2451.738          22.000                                                                  
G31                     26428.758        1059.793          31.000                                                                  
G32                     60580.920        2509.059          26.000                                                                  
R12                                                        30.000  
R22                                                        20.000  
C26                     40217.339        1912.171          26.000                                                                                                                                  
> 2022  1 25  4  2 59.0000000  0  9                     
G 3                     -3433.293        -254.851          22.000                                                                  
G16                    -49280.116       -2455.448          30.000                                                                  
G31                     31987.843        1057.328          36.000                                                                  
G32                     73772.778        2510.775          29.000                                                                  
R 3                                                        27.000  
R12                                                        31.000  
R21                                                        20.000  
C 6                      3000.667         308.688          26.000                                                                                                                                  
C26                     50166.206        1909.353          34.000                                                                                       11329.245        1434.783          27.000  
> 2022  1 25  4  3  0.0000000  0  9                     
G 3                     -4771.475        -253.271          21.000                                                                  
G16                    -62193.090       -2457.571          27.000                                                                  
G31                     37539.874        1056.783          32.000                                                                  
G32                     86963.129        2509.681          28.000                                                                  
R 3                                                        18.000  
R12                                                        27.000  
R21                                                        18.000  
C 6                      4625.027         312.063          23.000                                                                                                                                  
C26                     60106.780        1906.590          37.000                                                                                                                                  
> 2022  1 25  4  3  1.0000000  0 11                     
G 3                     -6108.885        -255.260          27.000                                                                  
G16                    -75111.211       -2458.870          21.000                                                                  
G31                     43079.499        1055.494          35.000                                                                  
G32                    100142.666        2509.774          29.000                                                                  
R 2                                                        25.000  
R 3                                                        29.000  
R12                                                        35.000  
R21                                                        16.000  
E 8                       797.407         107.015          28.000                                                                  
C 6                      6228.996         310.755          28.000                                                                                                                                  
C26                     70027.946        1906.629          36.000                                                                                                                                  
> 2022  1 25  4  3  2.0000000  0 11                     
G 3                     -7450.552          -0.025          24.000                       -2994.768        -191.888          18.000  
G16                    -88030.651       -2459.404          26.000                                                                  
G31                     48621.089        1054.249          34.000                                                                  
G32                    113324.628        2509.197          27.000                                                                  
R 2                                                        22.000  
R 3                                                        22.000  
R12                                                        28.000  
R21                                                        24.000  
E 8                      1363.813         107.485          28.000                                                                  
C 6                      7852.308         311.562          27.000                                                                                                                                  
C26                     79952.869        1905.072          35.000                                                                                                                                  
> 2022  1 25  4  3  3.0000000  0 13                     
G 3                     -8796.007          -0.025          24.000                       -3749.214        -192.819          17.000  
G16                   -100961.667       -2461.337          26.000                                                                  
G25                     18721.456        4224.406          18.000                                                                  
G31                     54155.324        1050.300          35.000                                                                  
G32                    126499.826        2506.578          27.000                                                                  
R 2                                                        20.000  
R 3                                                        18.000  
R12                                                        30.000  
R21                                                        20.000  
E 8                      1922.205         106.248          27.000                                                                  
C 6                      9469.201         309.004          27.000                                                                                                                                  
C26                     89870.377        1904.401          35.000                                                                                                                                  
C35                     -5139.503        -597.622          31.000                                                                                                                                  
> 2022  1 25  4  3  4.0000000  0 12                     
G 3                                                                                     -4509.987        -193.833          19.000  
G16                   -113885.855       -2459.043          23.000                                                                  
G31                     59681.273        1051.700          33.000                                                                  
G32                    139675.883        2507.717          27.000                                                                  
R 2                                                        20.000  
R 3                                                        15.000  
R12                                                        29.000  
R21                                                        21.000  
E 8                      2477.498         105.461          25.000                                                                  
C 6                     11077.469         308.024          27.000                                                                                                                                  
C26                     99781.494        1902.801          35.000                                                                                                                                  
C35                     -8226.383        -593.391          34.000                                                                                                                                  
> 2022  1 25  4  3  5.0000000  0 15                     
G 3                                                                                     -5270.071        -191.861          17.000  
G16                   -126815.204       -2461.100          24.000                                                                  
G25                     63097.017        4217.322          17.000                                                                  
G26                     -5474.819        -294.247          18.000                                                                  
G31                     65204.023        1050.042          33.000                                                                  
G32                    152847.766        2504.036          30.000                                                                  
R 3                                                        13.000  
R12                                                        30.000  
R21                                                        20.000  
E 2                      6415.710        1564.179          23.000                                                                  
E 7                    -11719.238       -1807.291          24.000                                                                  
E 8                      3029.417         104.875          24.000                                                                  
C 6                     12678.942         306.890          25.000                                                                                                                                  
C26                    109690.543        1901.534          35.000                                                                                                                                  
C35                    -11319.797        -594.047          34.000                                                                                                                                  
> 2022  1 25  4  3  6.0000000  0 15                     
G 3                    -12840.855        -255.756          22.000                       -6024.045        -192.322          18.000  
G16                   -139751.068       -2460.808          30.000                                                                  
G25                     85280.827        4222.850          18.000                                                                  
G26                     -7016.024        -290.644          20.000                                                                  
G31                     70720.619        1051.381          35.000                                                                  
G32                    166014.581        2505.845          29.000                                                                  
R 3                                                        17.000  
R12                                                        28.000  
R21                                                        17.000  
E 2                     14608.668        1557.817          30.000                                                                  
E 7                    -21194.873       -1804.011          25.000                                                                  
E 8                      3581.124         104.479          25.000                                                                  
C 6                     14272.971         305.964          26.000                                                                                                                                  
C26                    119590.648        1901.032          35.000                                                                                                                                  
C35                    -14417.474        -596.031          34.000                                                                                                                                  
> 2022  1 25  4  3  7.0000000  0 18                     
G 3                    -14192.606        -258.219          28.000                       -6782.899        -194.988          15.000  
G16                   -152707.691          -0.013          22.000                                                                  
G25                    107482.610           0.005          17.000                                                                  
G26                     -8541.840        -292.216          23.000                                                                  
G31                     76234.733        1049.286          35.000                                                                  
G32                    179184.282        2506.493          34.000                                                                  
R 2                                                        22.000  
R 3                                                        32.000  
R12                                                        35.000  
R13                                                        18.000  
R21                                                        21.000  
E 2                     22793.677        1556.729          30.000                                                                  
E 7                    -30680.635       -1805.316          25.000                                                                  
E 8                      4126.533         103.060          26.000                                                                  
J 2                    100392.073        1371.730          28.000                                                                  
C 6                     15862.758         305.214          30.000                                                                                                                                  
C26                    129486.311        1901.077          34.000                                                                                                                                  
C35                    -17519.918        -593.943          34.000                                                                                                                                  
> 2022  1 25  4  3  9.0000000  0 18                     
G 3                    -16056.761        -259.003          28.000                       -7822.307        -194.627          20.000  
G16                   -170350.705       -2466.375          23.000                                                                  
G25                    137705.989           0.005          16.000                                                                  
G26                    -10636.622        -294.185          29.000                                                                  
G31                     83742.219        1052.400          30.000                                                                  
G32                    197109.711        2509.807          29.000                                                                  
R 2                                                        21.000  
R 3                                                        25.000  
R12                                                        30.000  
R21                                                        25.000  
E 2                     33936.528        1557.585          29.000                                                                  
E 7                    -43592.842       -1805.781          25.000                                                                  
E 8                      4870.097         103.879          26.000                                                                  
J 2                    110205.424        1372.979          30.000                                                                  
C 6                     18020.743         304.343          26.000                                                                                                                                  
C 9                       504.201         117.491          26.000                                                                                                                                  
C26                    142950.362        1900.333          33.000                                                                                                                                  
C35                    -21736.606        -596.726          30.000                                                                                                                                  
> 2022  1 25  4  3 10.0000000  0 20                     
G 3                    -17409.316        -256.623          23.000                       -8581.445        -194.246          17.000  
G16                   -183313.105       -2466.776          24.000                                                                  
G25                    159894.684           0.005          16.000                                                                  
G26                    -12185.170        -295.003          25.000                                                                  
G31                     89266.784        1049.155          31.000                                                                  
G32                    210277.736        2507.028          34.000                                                                  
R 2                                                        23.000  
R 3                                                        24.000  
R12                                                        30.000  
R21                                                        20.000  
E 2                     42120.078        1557.127          28.000                                                                  
E 7                    -53085.320       -1807.333          23.000                                                                  
E 8                      5412.581         101.948          21.000                                                                  
J 2                    117414.760        1369.941          29.000                                                                  
C 6                     19598.029         302.982          27.000                                                                                                                                  
C 9                      1120.420         119.257          22.000                                                                                                                                  
C16                     25054.661         303.084          27.000                                                                                                                                  
C24                      -136.347         -12.114          22.000                                                                                                                                  
C26                    152835.363        1898.821          32.000                                                                                                                                  
C35                    -24840.918        -596.304          28.000                                                                                                                                  
> 2022  1 25  4  3 11.0000000  0 20                     
G 3                    -18759.944        -257.461          22.000                       -9345.228        -194.006          18.000  
G16                   -196269.764       -2464.587          22.000                                                                  
G25                    182075.171           0.005          16.000                                                                  
G26                    -13729.672        -293.839          21.000                                                                  
G31                     94769.088        1045.025          27.000                                                                  
G32                    223449.292        2501.593          31.000                                                                  
R 2                                                        20.000  
R 3                                                        23.000  
R12                                                        26.000  
R21                                                        17.000  
E 2                     50299.432        1556.037          25.000                                                                  
E 7                    -62581.020       -1807.232          24.000                                                                  
E 8                      5955.522         105.850          19.000                                                                  
J 2                    124611.339        1369.510          27.000                                                                  
C 6                     21178.381         303.063          24.000                                                                                                                                  
C 9                      1736.561          -0.050          23.000                                                                                                                                  
C16                     26626.113         301.676          24.000                                                                                                                                  
C26                    162715.640        1898.354          27.000                                                                                                                                  
C33                     -2259.909        -705.676          24.000                                                                                                                                  
C35                    -27952.029        -598.282          28.000                                                                                                                                  
> 2022  1 25  4  3 12.0000000  0 21                     
G 3                    -20113.825        -258.314          30.000                      -10106.413        -194.640          17.000  
G16                   -209223.546       -2465.383          23.000                                                                  
G25                    204253.684           0.005          14.000                                                                  
G26                    -15281.543        -297.047          27.000                                                                  
G31                    100263.910        1045.730          35.000                                                                  
G32                    236598.258        2502.353          30.000                                                                  
R 2                                                        23.000  
R 3                                                        28.000  
R12                                                        32.000  
R21                                                        18.000  
E 2                     58472.383        1554.828          32.000                                                                  
E 7                    -72083.010       -1808.766          23.000                                                                  
E 8                      6499.955         101.842          28.000                                                                  
J 2                    131805.854        1369.094          29.000                                                                  
C 6                     22747.243         300.834          30.000                                                                                                                                  
C 9                      2346.781         115.495          28.000                                                                                                                                  
C16                     28187.903         299.076          31.000                                                                                                                                  
C21                     29117.119        4068.372          20.000                                                                                                                                  
C26                    172598.410        1897.685          36.000                                                                                                                                  
C33                     -5922.917        -702.415          29.000                                                                                                                                  
C35                    -31064.155        -595.533          34.000                                                                                                                                  
> 2022  1 25  4  3 13.0000000  0 23                     
G 3                    -21466.344        -259.545          28.000                      -10865.825        -191.482          18.000  
G16                   -222187.130       -2467.206          21.000                                                                  
G25                    226430.778           0.005          16.000                                                                  
G26                    -16842.344        -295.922          25.000                                                                  
G31                    105757.568        1043.417          33.000                                                                  
G32                    249760.154        2503.862          30.000                                                                  
R 2                                                        20.000  
R 3                                                        24.000  
R12                                                        28.000  
R21                                                        23.000  
E 2                     66641.520        1554.440          29.000                                                                  
E 7                    -81591.107       -1810.726          26.000                                                                  
E 8                      7038.369         104.030          22.000                                                                  
J 2                    138996.819        1368.770          29.000                                                                  
C 6                     24312.253         300.550          26.000                                                                                                                                  
C 9                      2948.059         112.551          26.000                                                                                                                                  
C14                      6483.639         838.306          22.000                                                                                                                                  
C16                     29746.898         298.101          29.000                                                                                                                                  
C21                     50300.949        4066.697          19.000                                                                                                                                  
C24                       -36.685         -17.128          33.000                                                                                                                                  
C26                    182479.174        1895.687          35.000                                                                                                                                  
C33                     -9594.943        -707.523          31.000                                                                                                                                  
C35                    -34174.784        -598.819          32.000                                                                                                                                  
> 2022  1 25  4  3 14.0000000  0 23                     
G 3                    -22830.014        -260.602          34.000                      -11626.075        -194.747          24.000  
G25                    248598.683           0.005          17.000                                                                  
G26                    -18389.829        -294.588          23.000                                                                  
G31                    111236.863        1042.886          26.000                                                                  
G32                    262922.943        2502.402          25.000                                                                  
R 2                                                        19.000  
R 3                                                        27.000  
R12                                                        28.000  
R21                                                        23.000  
E 2                     74809.536        1555.678          23.000                                                                  
E 7                    -91109.554       -1811.617          24.000                                                                  
E 8                      7569.422          99.933          23.000                                                                  
E30                    -15673.294        -722.480          21.000                                                                  
J 2                    146174.599        1365.476          24.000                                                                  
C 6                     25876.259         299.474          25.000                                                                                                                                  
C 9                      3535.930          -0.050          21.000                                                                                                                                  
C14                     10837.440         834.368          29.000                                                                                                                                  
C16                     31299.270         297.826          24.000                                                                                                                                  
C21                     71474.173        4064.898          24.000                                                                                                                                  
C24                      -121.733         -17.992          35.000                                                                                                                                  
C26                    192339.810        1890.572          25.000                                                                                                                                  
C33                    -13267.624        -705.355          39.000                                                                                       -1160.482        -530.014          25.000  
C35                    -37287.740        -595.676          29.000                                                                                                                                  
> 2022  1 25  4  3 15.0000000  0 22                     
G 3                    -24205.675        -259.760          36.000                      -12390.216        -194.000          20.000  
G25                    270766.679           0.005          17.000                                                                  
G26                    -19947.774        -300.360          30.000                                                                  
G31                    116725.079        1045.451          34.000                                                                  
G32                    276085.593        2505.950          21.000                                                                  
R 2                                                        24.000  
R 3                                                        33.000  
R12                                                        27.000  
R21                                                        17.000  
E 2                     82977.286        1553.757          23.000                                                                  
E 7                   -100625.624       -1810.363          30.000                                                                  
E 8                      8097.821          99.742          24.000                                                                  
E30                    -19484.816        -725.569          35.000                                                                  
J 2                    153351.481        1367.155          22.000                                                                  
C 6                     27431.023         299.932          23.000                                                                                                                                  
C 9                      4127.380         111.955          29.000                                                                                                                                  
C14                     15184.788         834.305          29.000                                                                                                                                  
C16                     32846.569         297.042          22.000                                                                                                                                  
C21                     92639.764        4063.573          22.000                                                                                                                                  
C24                      -215.348         -19.276          33.000                                                                                         378.640         -13.203          24.000  
C26                    202194.044          -0.009          22.000                                                                                       12486.604        1425.005          20.000  
C33                    -16937.983        -705.311          37.000                                                                                       -3243.588        -532.451          22.000  
> 2022  1 25  4  3 16.0000000  0 24                     
G 3                    -25571.457        -258.059          29.000                      -13150.122        -192.933          17.000  
G16                   -261062.936       -2466.274          28.000                                                                  
G25                    292935.853           0.005          15.000                                                                  
G26                    -21516.409        -294.790          27.000                                                                  
G31                    122219.344        1044.206          29.000                                                                  
G32                    289245.507        2504.310          28.000                                                                  
R 2                                                        20.000  
R 3                                                        31.000  
R12                                                        34.000  
R21                                                        17.000  
E 2                     91140.772        1551.749          19.000                                                                  
E 7                   -110145.274       -1812.778          24.000                                                                  
E 8                      8623.355         100.889          25.000                                                                  
E30                    -23294.074        -726.225          26.000                       -1886.174        -542.436          22.000  
J 2                    160539.812        1367.968          20.000                                                                  
C 6                     28994.218         301.059          19.000                                                                                                                                  
C 9                      4714.685         112.453          21.000                                                                                                                                  
C14                     19537.591         835.703          28.000                                                                                                                                  
C16                     34393.384         296.509          20.000                                                                                                                                  
C21                    113801.476        4064.563          17.000                                                                                                                                  
C24                      -315.408         -19.439          27.000                                                                                         318.420         -11.786          20.000  
C26                    212062.259        1894.863          25.000                                                                                       18091.050        1428.116          17.000  
C29                     42087.130        1450.328          14.000                                                                                                                                  
C33                    -20607.214        -702.805          29.000                                                                                       -5321.360        -528.600          18.000  
> 2022  1 25  4  3 17.0000000  0 25                     
G 3                    -26934.337        -258.364          20.000                      -13910.789        -193.383          28.000  
G16                   -274008.645          -0.013          20.000                                                                  
G25                    315109.994           0.005          14.000                                                                  
G26                    -23053.158        -294.634          23.000                                                                  
G31                    127720.380        1045.059          28.000                                                                  
G32                    302402.733        2507.866          28.000                                                                  
R 2                                                        23.000  
R 3                                                        33.000  
R12                                                        27.000  
R21                                                        16.000  
E 2                     99308.866        1556.052          22.000                        6924.295        1165.728          18.000  
E 7                   -119663.587       -1809.847          25.000                                                                  
E 8                      9152.331         100.438          29.000                                                                  
E30                    -27112.443        -727.384          20.000                       -4003.552        -536.895          16.000  
J 2                    167733.305        1366.065          18.000                                                                  
C 6                     30559.354         300.482          23.000                                                                                                                                  
C 9                      5295.098         112.806          28.000                                                                                                                                  
C10                      -834.135        -123.247          22.000                                                                                                                                  
C14                     23889.348         836.291          25.000                                                                                                                                  
C16                     35937.828         296.516          23.000                                                                                                                                  
C21                    134964.509        4061.520          14.000                                                                                                                                  
C24                      -411.605         -19.175          37.000                                                                                         262.609         -13.096          26.000  
C26                    221934.634        1896.099          23.000                                                                                       23693.618        1428.677          16.000  
C29                     49636.750        1450.248          13.000                                                                                                                                  
C33                    -24279.710        -704.889          28.000                                                                                       -7399.728        -531.029          23.000  
> 2022  1 25  4  3 18.0000000  0 27                     
G 3                    -28295.676        -259.578          29.000                      -14674.306        -196.127          26.000  
G16                   -286958.796          -0.013          28.000                                                                  
G25                    337279.043           0.005          15.000                                                                  
G26                    -24608.005        -296.881          31.000                                                                  
G29                     14966.774         881.470          20.000                                                                  
G31                    133216.653        1044.907          33.000                                                                  
G32                    315563.148        2501.930          24.000                                                                  
R 2                                                        20.000  
R 3                                                        33.000  
R12                                                        32.000  
R21                                                        16.000  
E 2                    107474.273        1553.664          24.000                       11496.163        1162.366          16.000  
E 7                   -129178.329       -1812.018          36.000                       -1740.635       -1354.497          23.000  
E 8                      9683.155         102.055          22.000                                                                  
E30                    -30933.201        -727.259          25.000                                                                  
J 2                    174895.728        1363.428          17.000                                                                  
C 6                     32114.613         298.936          19.000                                                                                                                                  
C 9                      5870.815         108.680          25.000                                                                                                                                  
C10                     -1484.461        -124.105          18.000                                                                                                                                  
C14                     28241.198         835.488          29.000                                                                                                                                  
C16                     37481.338         296.092          20.000                                                                                                                                  
C21                    156135.287          -0.013          16.000                                                                                                                                  
C24                                                                                                                                                       212.078         -13.405          20.000  
C26                    231812.143        1896.857          27.000                                                                                       29298.200        1426.066          14.000  
C29                     57202.060        1454.371          12.000                                                                                                                                  
C33                    -27951.138        -705.858          36.000                                                                                       -9479.478        -525.826          20.000  
C35                     -9588.569        -594.891          19.000                                                                                                                                  
> 2022  1 25  4  3 19.0000000  0 27                     
G 3                    -29652.186        -256.916          28.000                      -15435.720        -194.475          25.000  
G16                   -299898.698       -2461.279          27.000                                                                  
G25                    359437.754           0.005          14.000                                                                  
G26                    -26170.280        -290.326          26.000                                                                  
G29                     19603.556         881.950          24.000                                                                  
G31                    138710.097        1043.480          28.000                                                                  
G32                    328717.306        2503.573          23.000                                                                  
R 2                                                        23.000  
R 3                                                        29.000  
R12                                                        26.000  
R21                                                        17.000  
E 2                    115645.479        1556.335          23.000                       16055.652        1163.477          21.000  
E 7                   -138695.012       -1811.022          33.000                       -7045.605       -1352.566          23.000  
E 8                     10212.141          98.779          23.000                                                                  
E30                    -34758.034        -727.070          26.000                                                                  
J 2                    182060.650        1363.094          19.000                                                                  
C 6                     33684.243         303.699          23.000                                                                                                                                  
C 7                      -861.472        -119.853          21.000                                                                                                                                  
C 9                      6441.208          -0.050          23.000                                                                                                                                  
C10                     -2142.212        -126.056          20.000                                                                                                                                  
C14                     32584.956         834.621          29.000                                                                                                                                  
C16                     39025.899         298.431          20.000                                                                                                                                  
C21                    177321.376          -0.013          18.000                                                                                                                                  
C24                                                                                                                                                       156.058         -15.351          18.000  
C26                    241689.013        1896.056          25.000                                                                                       34896.959        1428.313          18.000  
C29                     64784.464        1459.699          12.000                                                                                                                                  
C33                    -31605.386        -701.630          33.000                                                                                      -11556.025        -530.340          24.000  
> 2022  1 25  4  3 20.0000000  0 27                     
G 3                    -31004.394        -258.684          23.000                                                                  
G16                   -312850.858       -2465.068          20.000                                                                  
G26                    -27716.042        -297.193          28.000                                                                  
G29                     24234.656         882.544          25.000                                                                  
G31                    144202.681        1047.872          26.000                                                                  
G32                    341883.248        2504.546          24.000                                                                  
R 2                                                        22.000  
R 3                                                        28.000  
R12                                                        29.000  
R21                                                        17.000  
E 2                    123823.149        1557.623          20.000                       20608.605        1154.030          19.000  
E 7                   -148211.585       -1810.791          26.000                      -12345.219       -1350.012          20.000  
E 8                     10732.014          97.154          24.000                                                                  
E25                     32066.025        3116.043          14.000                                                                  
E30                    -38579.336        -730.739          30.000                      -10366.219        -543.289          19.000  
J 2                    189229.603        1367.139          23.000                                                                  
C 6                     35263.576         303.448          24.000                                                                                                                                  
C 9                      7022.220         115.052          25.000                                                                                                                                  
C10                     -2800.230        -129.055          23.000                                                                                                                                  
C14                     36928.342         834.740          27.000                                                                                                                                  
C16                     40574.552         297.947          23.000                                                                                                                                  
C21                    198499.426          -0.013          18.000                                                                                                                                  
C24                                                                                                                                                        88.920         -16.953          19.000  
C26                    251561.827        1900.391          25.000                                                                                       40495.110        1427.949          19.000  
C29                     72376.451        1458.362          12.000                                                                                                                                  
C33                    -35269.102        -705.022          36.000                                                                                      -13639.372        -528.262          23.000  
C35                    -15788.593        -594.145          19.000                                                                                                                                  
> 2022  1 25  4  3 21.0000000  0 24                     
G 3                    -32362.651        -257.696          20.000                      -17005.262        -197.448          17.000  
G16                   -325810.104       -2459.388          26.000                                                                  
G26                    -29278.581        -297.205          30.000                                                                  
G29                     28866.417         882.284          25.000                                                                  
G31                    149697.480        1044.287          28.000                                                                  
G32                    355044.990        2504.209          22.000                                                                  
R 2                                                        22.000  
R 3                                                        35.000  
R12                                                        28.000  
R21                                                        17.000  
E 2                    131987.880        1557.533          24.000                       25161.182        1162.807          20.000  
E 7                   -157728.238       -1809.720          32.000                      -17649.747       -1351.961          24.000  
E 8                     11251.276         102.428          26.000                         922.857          77.537          22.000  
E30                    -42407.760        -731.302          30.000                      -12497.694        -544.105          20.000  
J 2                    196406.635        1365.355          21.000                                                                  
C 6                     36831.290         302.525          23.000                                                                                                                                  
C 7                      -912.809        -119.903          20.000                                                                                                                                  
C 9                      7618.163         114.438          25.000                                                                                                                                  
C16                     42119.197         296.759          24.000                                                                                                                                  
C21                    219661.742        4065.093          20.000                                                                                                                                  
C24                                                                                                                                                        18.744         -17.701          19.000  
C26                    261451.585        1897.964          23.000                                                                                       46105.035        1430.479          20.000  
C33                    -38936.255        -703.303          29.000                                                                                      -15732.383        -530.741          24.000  
C35                    -18890.400        -595.435          23.000                                                                                                                                  
> 2022  1 25  4  3 22.0000000  0 24                     
G 3                    -33720.065          -0.025          19.000                      -17780.725        -196.227          15.000  
G16                   -338743.629       -2458.937          25.000                                                                  
G26                    -30844.910        -296.347          27.000                                                                  
G29                     33506.658         884.609          25.000                                                                  
G31                    155198.993        1056.616          26.000                                                                  
G32                    368207.913        2504.330          25.000                                                                  
R 2                                                        23.000  
R 3                                                        35.000  
R12                                                        26.000  
R21                                                        19.000  
E 2                    140166.866        1559.022          24.000                       29721.395        1163.223          19.000  
E 7                   -167241.934       -1809.619          25.000                      -22945.574       -1347.896          20.000  
E 8                     11786.546         104.516          25.000                        1223.056          75.877          21.000  
E30                    -46241.806        -733.188          27.000                      -14625.913        -542.885          20.000  
J 2                    203581.438        1367.353          20.000                                                                  
C 6                     38390.505         299.342          25.000                                                                                                                                  
C 7                     -1534.623        -117.364          23.000                                                                                                                                  
C 9                      8215.413         115.319          24.000                                                                                                                                  
C16                     43661.117         297.873          24.000                                                                                                                                  
C21                    240840.268        4068.168          20.000                                                                                                                                  
C24                                                                                                                                                       -53.360         -17.675          18.000  
C26                    271320.899        1896.758          25.000                                                                                       51724.469        1431.503          19.000  
C33                    -42588.117        -700.675          33.000                                                                                      -17807.838        -530.346          23.000  
C35                    -21983.021        -589.856          23.000                                                                                                                                  
> 2022  1 25  4  3 23.0000000  0 24                     
G 3                    -35086.530        -261.651          21.000                      -18546.463        -193.756          15.000  
G16                   -351662.218       -2456.093          30.000                                                                  
G26                    -32405.165        -297.923          30.000                                                                  
G29                     38145.901         881.688          20.000                                                                  
G31                    160717.817        1048.072          31.000                                                                  
G32                    381361.902        2504.509          26.000                                                                  
R 2                                                        23.000  
R 3                                                        30.000  
R12                                                        28.000  
R21                                                        16.000  
E 2                    148346.128        1557.106          28.000                       34295.646        1165.401          18.000  
E 7                   -176753.351       -1809.719          28.000                      -28248.372       -1348.730          19.000  
E 8                     12319.900         101.830          29.000                        1543.102          80.879          20.000  
E30                    -50077.372        -730.481          26.000                      -16759.537        -544.461          23.000  
J 2                    210761.446        1366.036          20.000                       12325.685        1020.294          17.000  
C 6                     39954.530         297.354          24.000                                                                                                                                  
C 9                      8797.770         106.815          26.000                                                                                                                                  
C14                      5511.472         833.200          24.000                                                                                                                                  
C16                     45207.997         296.482          25.000                                                                                                                                  
C21                    262017.328        4065.973          18.000                                                                                                                                  
C24                                                                                                                                                      -118.778         -16.139          16.000  
C26                    281199.063        1902.000          24.000                                                                                       57345.429        1434.111          19.000  
C33                    -46248.002        -704.036          33.000                                                                                      -19887.825        -531.148          20.000  
C35                    -25070.815           0.027          24.000                                                                                                                                  
> 2022  1 25  4  3 24.0000000  0 24                     
G 3                    -36460.599        -260.520          18.000                      -19306.107        -191.897          14.000  
G16                   -364585.140       -2454.986          28.000                                                                  
G26                    -33970.176        -301.993          29.000                        -865.423        -229.697          20.000  
G29                     42768.805          -0.008          23.000                                                                  
G31                    166218.371        1049.905          28.000                                                                  
G32                    394523.060        2505.014          27.000                                                                  
R 2                                                        22.000  
R 3                                                        32.000  
R12                                                        28.000  
R21                                                        17.000  
E 2                    156520.134        1555.599          25.000                       38857.417        1160.155          20.000  
E 7                   -186268.799       -1808.976          24.000                      -33542.454       -1349.232          17.000  
E 8                     12854.382         103.464          25.000                        1841.176          71.589          22.000  
E30                    -53902.519        -730.374          30.000                      -18902.130        -550.085          23.000  
J 2                    217929.884        1363.254          20.000                       16328.438        1021.278          17.000  
C 6                     41505.889         298.348          24.000                                                                                                                                  
C 9                      9375.205         115.047          25.000                                                                                                                                  
C14                      9856.756         835.332          27.000                                                                                                                                  
C16                     46749.931         294.996          25.000                                                                                                                                  
C21                    283192.287        4066.445          18.000                                                                                                                                  
C24                                                                                                                                                      -186.397         -17.862          14.000  
C26                    291088.400        1896.250          25.000                                                                                       62969.636        1433.340          19.000  
C33                    -49894.990        -700.266          27.000                                                                                      -21972.568        -533.116          21.000  
C35                    -28156.856        -593.892          20.000                                                                                                                                  
> 2022  1 25  4  3 25.0000000  0 26                     
G 3                    -37819.512        -256.108          17.000                                                                  
G16                   -377507.408       -2455.829          30.000                                                                  
G26                    -35540.715        -297.464          28.000                       -1760.377        -228.832          23.000  
G29                     47403.613         883.501          22.000                                                                  
G31                    171722.377        1047.871          28.000                                                                  
G32                    407692.564        2506.363          25.000                                                                  
R 2                                                        22.000  
R 3                                                        28.000  
R12                                                        27.000  
R21                                                        18.000  
E 2                    164693.476        1558.042          24.000                       43406.444        1159.680          19.000  
E 7                   -195778.723       -1811.034          22.000                      -38839.081       -1350.325          17.000  
E 8                     13392.350         104.507          25.000                        2143.208          77.733          22.000  
E30                    -57725.104        -730.254          27.000                      -21044.235        -550.112          20.000  
J 2                    225105.195        1366.110          19.000                       20333.558        1022.087          16.000  
C 6                     43053.689         297.529          24.000                                                                                                                                  
C 7                     -1650.290        -124.317          19.000                                                                                                                                  
C 9                      9955.192         109.172          27.000                                                                                                                                  
C10                     -1409.871        -127.631          20.000                                                                                                                                  
C14                     14206.399         834.445          24.000                                                                                                                                  
C16                     48294.287         297.187          24.000                                                                                                                                  
C21                    304363.751        4065.887          21.000                                                                                                                                  
C24                                                                                                                                                      -262.180         -18.024          13.000  
C26                    300968.973        1905.895          24.000                                                                                       68590.969        1431.658          17.000  
C33                    -53545.872        -700.269          20.000                                                                                      -24071.184        -533.840          17.000  
C35                    -31255.118           0.027          20.000                                                                                                                                  
> 2022  1 25  4  3 26.0000000  0 26                     
G 3                    -39161.645          -0.025          16.000                                                                  
G16                   -390427.352       -2459.774          23.000                                                                  
G26                    -37110.705        -299.894          27.000                       -2636.793        -224.203          22.000  
G29                     52042.839         882.616          21.000                                                                  
G31                    177225.123        1046.125          28.000                                                                  
G32                    420867.113        2507.292          28.000                                                                  
R 2                                                        19.000  
R 3                                                        27.000  
R12                                                        27.000  
R21                                                        17.000  
E 2                    172863.243        1555.531          23.000                       47963.215        1163.458          18.000  
E 7                   -205299.478       -1810.587          27.000                      -44139.510       -1349.924          17.000  
E 8                     13924.924          99.293          24.000                        2445.688          79.654          19.000  
E30                    -61552.740        -730.323          25.000                      -23184.101        -542.474          17.000  
J 2                    232285.868        1364.491          19.000                       24349.003        1023.283          14.000  
C 6                     44600.997         299.419          23.000                                                                                                                                  
C 7                     -2283.041        -120.921          18.000                                                                                                                                  
C 9                     10534.287          -0.050          24.000                                                                                                                                  
C10                     -2059.803        -124.135          19.000                                                                                                                                  
C14                     18568.415         836.948          25.000                                                                                                                                  
C16                     49837.471         295.041          24.000                                                                                                                                  
C21                    325512.814        4062.087          17.000                                                                                                                                  
C24                                                                                                                                                      -328.234         -13.991          12.000  
C26                    310865.652        1898.477          24.000                                                                                       74209.254        1431.701          17.000  
C33                    -57195.366        -699.920          21.000                                                                                      -26166.043        -532.078          12.000  
C35                    -34358.354        -595.585          21.000                                                                                                                                  
> 2022  1 25  4  3 27.0000000  0 25                     
G 3                    -40494.085          -0.025          15.000                                                                  
G16                   -403354.308       -2459.253          23.000                                                                  
G26                    -38669.241        -296.147          26.000                       -3517.737        -227.273          22.000  
G29                     56679.514         883.482          20.000                                                                  
G31                    182726.811        1044.485          27.000                                                                  
G32                    434041.887        2507.676          24.000                                                                  
R 2                                                        20.000  
R 3                                                        26.000  
R12                                                        24.000  
R21                                                        17.000  
E 2                    181029.831        1552.184          21.000                       52528.339        1162.565          17.000  
E 7                   -214817.436       -1810.381          25.000                                                                  
E 8                     14457.829         100.329          22.000                        2756.107          76.696          19.000  
E30                    -65377.697        -729.978          25.000                      -25312.550        -543.599          18.000  
J 2                    239450.391        1362.605          19.000                       28364.564        1021.084          15.000  
C 6                     46155.260         296.501          23.000                                                                                                                                  
C 7                     -2920.492        -122.521          18.000                                                                                                                                  
C 9                     11118.116         112.038          24.000                                                                                                                                  
C10                     -2712.158        -125.654          20.000                                                                                                                                  
C14                     22934.708         837.632          23.000                                                                                                                                  
C16                     51378.614         295.138          22.000                                                                                                                                  
C21                    346672.559          -0.013          17.000                                                                                                                                  
C26                    320737.700        1895.523          26.000                                                                                       79826.390        1430.780          17.000  
C33                    -60839.958        -700.269          17.000                                                                                                                                  
C35                    -37454.541        -594.451          20.000                                                                                                                                  
> 2022  1 25  4  3 28.0000000  0 24                     
G 3                    -41826.437          -0.025          16.000                                                                  
G16                   -416269.324       -2455.365          20.000                                                                  
G26                    -40231.625        -301.111          27.000                       -4391.124        -223.125          23.000  
G29                     61322.387         885.296          19.000                                                                  
G31                    188231.845        1056.995          28.000                                                                  
G32                    447210.680        2507.684          25.000                                                                  
R 2                                                        20.000  
R 3                                                        28.000  
R12                                                        25.000  
R21                                                        17.000  
E 2                    189194.514        1560.319          23.000                       57090.340        1160.519          18.000  
E 7                   -224337.990       -1811.651          25.000                      -54729.387       -1349.711          19.000  
E 8                     14989.345         102.421          24.000                        3056.056          75.340          20.000  
E30                    -69204.442        -730.814          21.000                      -27448.875        -546.057          19.000  
J 2                    246611.810        1361.997          19.000                       32372.853        1021.145          17.000  
C 6                     47700.141         299.233          22.000                                                                                                                                  
C 7                     -3561.680        -123.385          19.000                                                                                                                                  
C 9                     11684.710         110.966          25.000                                                                                                                                  
C14                     27294.434         837.283          26.000                                                                                                                                  
C16                     52917.316         295.079          23.000                                                                                                                                  
C21                    367844.068          -0.013          18.000                                                                                                                                  
C26                    330610.769        1900.698          24.000                                                                                       85442.583        1430.247          18.000  
C33                    -64490.872        -701.183          17.000                                                                                                                                  
C35                    -40554.474        -594.759          23.000                                                                                                                                  
> 2022  1 25  4  3 29.0000000  0 24                     
G 3                    -43167.395          -0.025          17.000                                                                  
G16                   -429190.886       -2460.724          24.000                                                                  
G26                    -41788.819        -297.677          27.000                       -5266.908        -226.425          24.000  
G29                     65966.107          -0.008          22.000                                                                  
G31                    193751.535        1047.849          26.000                                                                  
G32                    460387.247        2504.790          25.000                                                                  
R 2                                                        23.000  
R 3                                                        30.000  
R12                                                        25.000  
R21                                                        17.000  
E 2                    197377.703        1553.868          22.000                       61642.265        1156.860          19.000  
E 7                   -233855.814       -1810.894          27.000                      -60035.095       -1353.844          19.000  
E 8                     15528.835         101.728          25.000                        3364.991          78.564          20.000  
E30                                                                                    -29584.365        -544.704          18.000  
J 2                    253770.340        1362.049          18.000                       36375.795        1019.454          17.000  
C 6                     49254.212         298.517          22.000                                                                                                                                  
C 7                     -4202.333        -124.384          20.000                                                                                                                                  
C 9                     12259.984         109.503          25.000                                                                                                                                  
C14                     31656.148         837.132          23.000                                                                                                                                  
C16                     54454.341         297.854          22.000                                                                                                                                  
C21                    389008.670          -0.013          17.000                                                                                                                                  
C26                    340496.262        1898.305          25.000                                                                                       91055.473        1428.470          20.000  
C33                    -68134.505           0.000          17.000                                                                                                                                  
C35                    -43648.065        -593.793          22.000                                                                                                                                  
> 2022  1 25  4  3 30.0000000  0 24                     
G 3                    -44516.434          -0.025          17.000                                                                  
G16                   -442115.743       -2457.289          21.000                                                                  
G26                    -43356.828        -301.107          27.000                       -6144.027        -223.413          22.000  
G29                     70613.583         884.168          22.000                                                                  
G31                    199251.912        1049.062          28.000                                                                  
G32                    473546.582        2504.884          26.000                                                                  
R 2                                                        20.000  
R 3                                                        34.000  
R12                                                        25.000  
R21                                                        17.000  
E 2                    205548.392        1556.802          21.000                       66190.619        1158.462          18.000  
E 7                   -243372.246       -1811.135          25.000                      -65336.819       -1349.807          17.000  
E 8                     16074.891         101.085          25.000                        3667.998          73.930          20.000  
E30                                                                                    -31719.800        -546.208          17.000  
J 2                    260934.103        1364.065          20.000                       40374.412        1017.812          17.000  
C 6                     50808.082         298.382          23.000                                                                                                                                  
C 7                     -4844.162        -122.136          18.000                                                                                                                                  
C 9                     12826.049         103.797          25.000                                                                                                                                  
C10                     -1501.642        -130.519          22.000                                                                                                                                  
C14                     36014.196         837.090          21.000                                                                                                                                  
C16                     56002.091         295.515          22.000                                                                                                                                  
C21                    410159.360          -0.013          16.000                                                                                                                                  
C26                    350378.212        1896.978          25.000                                                                                       96667.697        1428.894          18.000  
C33                    -71768.864           0.000          17.000                                                                                                                                  
> 2022  1 25  4  3 31.0000000  0 23                     
G 3                    -45856.897          -0.025          17.000                                                                  
G16                   -455030.735       -2457.281          23.000                                                                  
G26                    -44902.929        -292.159          28.000                       -7023.580        -227.502          22.000  
G29                     75266.917          -0.008          24.000                                                                  
G31                    204759.820        1044.641          27.000                                                                  
G32                    486709.165        2505.817          27.000                                                                  
R 2                                                        20.000  
R 3                                                        32.000  
R12                                                        25.000  
R21                                                        17.000  
E 2                    213725.457        1558.466          22.000                       70743.142        1158.855          19.000  
E 7                   -252888.738       -1811.136          24.000                      -70634.791       -1350.909          18.000  
E 8                     16611.550         100.127          26.000                        3960.635          72.444          20.000  
E30                                                                                    -33854.925        -543.431          13.000  
J 2                    268096.881        1362.965          22.000                       44373.025        1017.019          17.000  
C 6                     52361.935         297.713          21.000                                                                                                                                  
C 7                     -5481.413        -122.278          19.000                                                                                                                                  
C 9                     13385.835         110.382          25.000                                                                                                                                  
C14                     40375.675         837.297          23.000                                                                                                                                  
C16                     57537.861         294.674          22.000                                                                                                                                  
C21                    431300.939        4061.817          18.000                                                                                                                                  
C26                    360249.906        1898.129          25.000                                                                                      102279.176        1430.780          18.000  
C33                    -75398.159           0.000          15.000                                                                                                                                  
> 2022  1 25  4  3 32.0000000  0 23                     
G 3                    -47199.170          -0.025          16.000                                                                  
G16                   -467947.044       -2456.138          24.000                                                                  
G26                    -46432.757        -290.625          28.000                       -7904.822        -220.911          23.000  
G31                    210252.582        1044.190          28.000                                                                  
G32                    499877.953        2507.777          26.000                                                                  
R 2                                                        20.000  
R 3                                                        36.000  
R12                                                        28.000  
R21                                                        16.000  
E 2                    221908.581        1553.047          22.000                       75295.986        1157.882          19.000  
E 7                   -262418.564       -1812.484          19.000                      -75935.809       -1351.907          16.000  
E 8                     17149.877         100.871          26.000                        4258.364          70.868          19.000  
E30                    -84521.510        -725.842          17.000                      -35982.760        -544.066          15.000  
J 2                    275261.908        1364.590          21.000                       48369.487        1018.848          17.000  
C 6                     53903.189         295.103          22.000                                                                                                                                  
C 7                     -6113.523        -120.902          19.000                                                                                                                                  
C 9                     13951.515         105.480          25.000                                                                                                                                  
C14                     44744.825         838.732          24.000                                                                                                                                  
C16                     59078.266         295.508          21.000                                                                                                                                  
C21                    452451.511        4062.848          19.000                                                                                                                                  
C26                    370127.498        1896.404          24.000                                                                                      107887.296        1427.206          19.000  
C33                    -79032.568           0.000          14.000                                                                                                                                  
C35                    -52939.957        -591.783          24.000                                                                                                                                  
> 2022  1 25  4  3 33.0000000  0 24                     
G 3                    -48547.428          -0.025          16.000                                                                  
G16                   -480867.712       -2457.873          19.000                                                                  
G26                    -47966.283        -290.529          28.000                       -8771.313        -226.027          21.000  
G29                     84587.653          -0.008          24.000                                                                  
G31                    215744.773        1048.692          27.000                                                                  
G32                    513057.689        2504.271          25.000                                                                  
R 2                                                        20.000  
R 3                                                        34.000  
R12                                                        26.000  
R21                                                        16.000  
E 2                    230082.371        1557.062          22.000                       79844.869        1159.000          18.000  
E 7                   -271936.579       -1810.050          19.000                      -81240.213       -1351.284          14.000  
E 8                     17689.058         101.059          24.000                        4562.520          77.400          20.000  
E30                    -88333.365        -724.765          14.000                      -38109.403        -542.414          12.000  
J 2                    282424.441        1361.715          22.000                       52363.521        1017.459          17.000  
C 6                     55441.845         296.706          20.000                                                                                                                                  
C 7                     -6747.914        -122.020          21.000                                                                                                                                  
C 9                     14503.228          -0.050          24.000                                                                                                                                  
C10                     -1403.576        -129.349          23.000                                                                                                                                  
C14                     49124.483         840.810          22.000                                                                                                                                  
C16                     60614.900         294.979          20.000                                                                                                                                  
C21                    473601.916        4062.399          19.000                                                                                                                                  
C26                    380004.546        1896.600          26.000                                                                                      113491.088        1428.134          18.000  
C33                    -82672.383           0.000          17.000                                                                                                                                  
> 2022  1 25  4  3 34.0000000  0 22                     
G16                   -493800.792       -2462.074          19.000                                                                  
G26                    -49507.957        -300.855          31.000                       -9625.325        -221.657          21.000  
G29                     89253.558         891.923          21.000                                                                  
G31                    221255.238        1045.061          29.000                                                                  
G32                    526232.469        2507.462          21.000                                                                  
R 2                                                        20.000  
R 3                                                        28.000  
R12                                                        28.000  
R21                                                        15.000  
E 2                    238274.065        1557.224          23.000                       84401.717        1161.438          17.000  
E 7                   -281458.487       -1812.938          13.000                      -86545.917       -1352.996          10.000  
E 8                     18231.649         100.874          25.000                        4863.943          73.710          18.000  
E30                    -92152.136        -728.947          10.000                      -40235.883        -541.417          11.000  
J 2                    289580.409        1362.028          22.000                       56355.824        1015.371          16.000  
C 6                     56992.272         297.957          24.000                                                                                                                                  
C 7                     -7383.059        -122.228          19.000                                                                                                                                  
C 9                     15062.867         105.723          27.000                                                                                                                                  
C10                     -2077.651        -132.149          23.000                                                                                                                                  
C14                     53495.723          -0.010          24.000                                                                                                                                  
C16                     62165.230         299.367          23.000                                                                                                                                  
C21                    494754.745        4062.376          17.000                                                                                                                                  
C26                    389884.512        1895.516          24.000                                                                                      119093.977        1427.321          17.000  
> 2022  1 25  4  3 35.0000000  0 21                     
G16                   -506738.750       -2459.502          21.000                                                                  
G26                    -51030.403        -292.256          29.000                      -10495.211        -222.974          22.000  
G29                     93931.456         890.925          23.000                                                                  
G31                    226757.631        1041.526          28.000                                                                  
G32                    539412.010        2509.514          24.000                                                                  
R 3                                                        25.000  
R12                                                        30.000  
R21                                                        14.000  
E 2                    246452.947        1557.158          21.000                       88957.046        1161.804          17.000  
E 7                                                                                    -91861.214       -1355.522          11.000  
E 8                     18775.147         102.236          24.000                        5161.670          78.696          20.000  
E30                    -95977.784        -728.223          11.000                                                                  
J 2                    296740.446        1361.415          19.000                       60344.088        1017.744          17.000  
C 6                     58549.271         299.036          25.000                                                                                                                                  
C 7                     -8022.578        -123.117          20.000                                                                                                                                  
C 9                     15608.701         104.667          25.000                                                                                                                                  
C10                     -2757.619        -130.857          25.000                                                                                                                                  
C14                     57864.214         837.065          22.000                                                                                                                                  
C16                     63713.594         296.438          24.000                                                                                                                                  
C21                    515904.069        4062.101          19.000                                                                                                                                  
C26                    399756.846        1894.326          24.000                                                                                      124698.181        1428.617          19.000  
> 2022  1 25  4  3 36.0000000  0 24                     
G 3                    -52582.364        -258.081          17.000                                                                  
G16                   -519656.452       -2458.210          18.000                                                                  
G26                    -52567.080        -293.447          28.000                      -11350.183        -217.527          21.000  
G29                     98599.819         884.634          24.000                                                                  
G31                    232232.903        1042.734          26.000                                                                  
G32                    552593.720        2507.502          24.000                                                                  
R 2                                                        20.000  
R 3                                                        25.000  
R12                                                        27.000  
R21                                                        15.000  
E 2                    254632.989        1552.541          22.000                       93516.863        1159.881          19.000  
E 7                                                                                    -97177.905       -1357.410          12.000  
E 8                     19325.204         102.266          23.000                        5466.330          74.921          22.000  
E30                    -99801.938        -727.511          11.000                                                                  
J 2                    303894.031        1359.572          21.000                       64341.051        1019.355          17.000  
C 6                     60109.185         297.644          23.000                                                                                                                                  
C 7                     -8658.191        -122.103          23.000                                                                                                                                  
C 9                     16164.277         106.663          24.000                                                                                                                                  
C10                     -3420.344        -126.760          23.000                                                                                                                                  
C14                     62236.522         840.167          22.000                                                                                                                                  
C16                     65247.789         291.437          22.000                                                                                                                                  
C21                    537052.965        4060.760          17.000                                                                                                                                  
C26                    409614.439        1894.251          24.000                                                                                      130302.569        1427.900          22.000  
C33                                                                                                                                                     -6433.828        -529.070          16.000  
> 2022  1 25  4  3 37.0000000  0 23                     
G 3                    -53934.367        -257.360          15.000                                                                  
G16                   -532580.591       -2458.820          18.000                                                                  
G26                    -54088.964        -290.527          30.000                      -12204.162        -217.832          24.000  
G29                    103244.973         886.586          24.000                                                                  
G31                    237721.398        1046.593          28.000                                                                  
G32                    565775.845        2511.985          25.000                                                                  
R 2                                                        20.000  
R 3                                                        25.000  
R12                                                        24.000  
R21                                                        13.000  
E 2                    262799.630        1551.852          24.000                       98072.462        1160.707          18.000  
E 8                     19861.932         101.538          25.000                        5760.185          74.214          19.000  
E30                   -103627.126        -728.399          11.000                                                                  
J 2                    311041.053        1361.056          20.000                       68342.062        1018.071          17.000  
C 6                     61656.156         296.475          22.000                                                                                                                                  
C 7                     -9293.146        -122.731          22.000                                                                                                                                  
C 9                     16719.150         106.183          22.000                                                                                                                                  
C10                     -4077.897        -127.514          26.000                                                                                                                                  
C14                     66610.669         839.024          21.000                                                                                                                                  
C16                     66768.972         292.509          23.000                                                                                                                                  
C21                    558189.949        4060.838          17.000                                                                                                                                  
C26                    419475.069        1895.523          24.000                                                                                      135904.218        1426.398          18.000  
C33                                                                                                                                                     -8511.621        -532.270          14.000  
> 2022  1 25  4  3 38.0000000  0 24                     
G 3                    -55282.096        -256.372          15.000                                                                  
G16                   -545494.285       -2456.741          19.000                                                                  
G26                    -55617.199        -292.779          31.000                      -13063.797        -221.204          23.000  
G29                    107908.565         889.677          25.000                                                                  
G31                    243211.803        1045.031          26.000                                                                  
G32                    578962.804        2509.150          25.000                                                                  
R 2                                                        20.000  
R 3                                                        22.000  
R12                                                        25.000  
R21                                                        13.000  
E 2                    270969.679        1554.046          25.000                      102627.282        1159.529          18.000  
E 8                     20405.105         103.176          23.000                        6063.436          72.180          20.000  
E25                    107856.822        3118.813          14.000                                                                  
E30                   -107456.237        -729.127          13.000                                                                  
J 2                    318197.641        1361.110          19.000                       72334.871        1016.297          16.000  
C 6                     63195.434         294.656          23.000                                                                                                                                  
C 7                     -9925.172        -120.609          23.000                                                                                                                                  
C 9                     17264.253         104.332          21.000                                                                                                                                  
C10                     -4721.564        -123.116          22.000                                                                                                                                  
C14                     70985.546         839.845          23.000                                                                                                                                  
C16                     68292.544         292.587          24.000                                                                                                                                  
C21                    579331.522        4058.814          16.000                                                                                                                                  
C26                    429343.316        1897.505          24.000                                                                                      141507.873        1426.634          20.000  
C33                                                                                                                                                    -10596.322        -533.129          15.000  
> 2022  1 25  4  3 39.0000000  0 24                     
G 3                    -56626.033          -0.025          16.000                                                                  
G16                   -558410.813       -2459.057          19.000                                                                  
G26                    -57142.274        -292.400          28.000                      -13926.432        -219.293          24.000  
G29                    112586.787         890.111          24.000                                                                  
G31                    248706.182        1049.544          25.000                                                                  
G32                    592143.045        2510.578          25.000                                                                  
R 3                                                        24.000  
R12                                                        28.000  
R21                                                        15.000  
E 2                    279138.667        1552.787          25.000                      107185.658        1161.235          18.000  
E 8                     20947.664         101.849          24.000                        6369.343          76.507          20.000  
E25                    124246.737        3119.231          15.000                                                                  
E30                   -111287.019        -729.259           9.000                                                                  
J 2                    325344.665        1360.389          20.000                       76330.391        1018.169          17.000  
C 6                     64729.969         294.930          23.000                                                                                                                                  
C 7                    -10553.171        -121.010          21.000                                                                                                                                  
C 9                     17819.429         105.798          23.000                                                                                                                                  
C10                     -5375.582        -127.919          20.000                                                                                                                                  
C14                     75358.672         840.351          23.000                                                                                                                                  
C16                     69822.603         293.755          22.000                                                                                                                                  
C21                    600461.849        4056.553          18.000                                                                                                                                  
C24                      -529.629         -20.161          18.000                                                                                                                                  
C26                    439220.036        1892.951          26.000                                                                                      147113.287        1429.556          19.000  
C33                                                                                                                                                    -12686.151        -532.229          14.000  
> 2022  1 25  4  3 40.0000000  0 25                     
G 3                    -57973.596          -0.025          16.000                                                                  
G16                   -571338.492       -2459.506          20.000                                                                  
G26                    -58668.508        -288.525          25.000                      -14778.872        -214.683          23.000  
G29                    117272.361         892.139          27.000                                                                  
G31                    254213.437        1046.957          29.000                                                                  
G32                    605340.483        2512.499          24.000                                                                  
R 2                                                        20.000  
R 3                                                        19.000  
R12                                                        29.000  
R21                                                        15.000  
E 2                    287305.689        1556.487          21.000                      111759.022        1168.366          19.000  
E 8                     21484.444         100.467          25.000                        6669.481          75.844          21.000  
E25                    140638.586        3119.285          13.000                                                                  
E30                   -115118.083        -728.995           9.000                                                                  
J 2                    332495.969        1360.043          20.000                       80318.235        1014.513          16.000  
C 6                     66258.938         293.396          23.000                                                                                                                                  
C 7                    -11180.581        -119.998          19.000                                                                                                                                  
C 9                     18371.360         105.215          26.000                                                                                                                                  
C10                     -6037.647        -129.013          23.000                                                                                                                                  
C14                     79754.790         843.520          23.000                                                                                                                                  
C16                     71346.058         295.333          24.000                                                                                                                                  
C21                    621585.521        4057.004          17.000                                                                                                                                  
C24                      -637.385         -19.828          18.000                                                                                                                                  
C26                    449075.744        1894.998          25.000                                                                                      152720.495        1428.980          18.000  
C33                                                                                                                                                    -14764.411        -527.581          13.000  
> 2022  1 25  4  3 41.0000000  0 25                     
G 3                    -59312.785          -0.025          16.000                                                                  
G16                   -584257.496          -0.013          19.000                                                                  
G26                    -60196.149        -295.851          26.000                      -15633.179        -221.791          24.000  
G29                    121961.276         891.388          25.000                                                                  
G31                    259710.238        1047.363          26.000                                                                  
G32                    618545.842        2512.890          22.000                                                                  
R 2                                                        17.000  
R 3                                                        19.000  
R12                                                        28.000  
R21                                                        15.000  
E 2                    295490.140        1558.106          22.000                      116331.487        1167.333          19.000  
E 8                     22034.286         105.264          25.000                        6972.127          75.744          23.000  
E25                    157030.505        3120.159          13.000                                                                  
E30                   -118947.836        -728.753          10.000                                                                  
J 2                    339646.484        1359.505          22.000                       84301.765        1015.989          18.000  
C 6                     67799.986         299.450          25.000                                                                                                                                  
C 7                    -11812.947        -123.389          22.000                                                                                                                                  
C 9                     18914.162         102.494          24.000                                                                                                                                  
C10                     -6716.990        -131.626          25.000                                                                                                                                  
C14                     84161.567         843.529          21.000                                                                                                                                  
C16                     72861.326         289.612          22.000                                                                                                                                  
C21                    642712.964        4056.786          17.000                                                                                                                                  
C24                      -755.402         -23.123          19.000                                                                                                                                  
C26                    458952.447        1900.673          24.000                                                                                      158330.210        1430.191          18.000  
C33                                                                                                                                                    -16840.904        -531.372          15.000  
> 2022  1 25  4  3 42.0000000  0 25                     
G 3                    -60644.875          -0.025          16.000                                                                  
G16                   -597163.549          -0.013          20.000                                                                  
G26                    -61744.312        -293.338          25.000                      -16489.843        -213.460          19.000  
G29                    126641.250         890.143          22.000                                                                  
G31                    265213.320        1047.036          27.000                                                                  
G32                    631742.503        2511.268          22.000                                                                  
R 2                                                        18.000  
R 3                                                        21.000  
R12                                                        27.000  
R21                                                        15.000  
E 2                    303683.190        1556.736          23.000                      120903.126        1162.470          17.000  
E 8                     22588.933         104.148          24.000                        7264.773          71.038          20.000  
E25                    173430.051        3120.948          14.000                                                                  
E30                   -122776.465        -728.574           9.000                                                                  
J 2                    346785.008        1358.621          20.000                       88288.504        1014.603          17.000  
C 6                     69350.519         294.898          24.000                                                                                                                                  
C 7                    -12442.954        -120.941          19.000                                                                                                                                  
C 9                     19454.618          -0.050          24.000                                                                                                                                  
C10                     -7397.737        -131.458          23.000                                                                                                                                  
C14                     88553.622         843.924          24.000                                                                                                                                  
C16                     74375.215         290.912          23.000                                                                                                                                  
C21                    663846.923        4059.777          15.000                                                                                                                                  
C24                      -862.216         -18.979          17.000                                                                                                                                  
C26                    468843.499        1897.625          25.000                                                                                      163937.954        1427.398          18.000  
C33                                                                                                                                                    -18927.882        -532.116          16.000  
> 2022  1 25  4  3 43.0000000  0 25                     
G 3                    -61985.188          -0.025          14.000                                                                  
G16                   -610063.866       -2453.168          20.000                                                                  
G26                    -63282.090        -293.040          25.000                      -17337.307        -214.438          20.000  
G29                    131323.689         892.262          23.000                                                                  
G31                    270713.948        1041.928          29.000                                                                  
G32                    644943.608        2509.699          20.000                                                                  
R 2                                                        17.000  
R 3                                                        21.000  
R12                                                        26.000  
R21                                                        15.000  
E 2                    311855.294        1553.369          23.000                      125465.371        1162.626          19.000  
E 8                     23142.376         106.018          22.000                        7559.938          72.478          21.000  
E25                    189831.639        3121.276          13.000                                                                  
E30                   -126605.601        -728.791           9.000                                                                  
J 2                    353925.147        1358.210          19.000                       92271.776        1014.208          17.000  
C 6                     70886.143         296.144          23.000                                                                                                                                  
C 7                    -13080.420        -123.328          20.000                                                                                                                                  
C 9                     19992.198         103.687          23.000                                                                                                                                  
C10                     -8075.083        -132.049          24.000                                                                                                                                  
C14                     92943.422         841.445          22.000                                                                                                                                  
C16                     75891.861         290.723          25.000                                                                                                                                  
C21                    684989.121        4059.792          17.000                                                                                                                                  
C24                      -973.100         -21.242          17.000                                                                                                                                  
C26                    478719.194        1893.089          27.000                                                                                      169543.522        1430.093          20.000  
C33                                                                                                                                                    -21008.929        -529.496          14.000  
> 2022  1 25  4  3 44.0000000  0 25                     
G 3                    -63329.653          -0.025          14.000                                                                  
G16                   -622969.335       -2457.892          18.000                                                                  
G26                    -64812.323        -290.285          24.000                      -18177.063        -213.671          16.000  
G29                    136010.402         891.826          23.000                                                                  
G31                    276203.233        1043.740          29.000                                                                  
G32                    658129.536        2509.549          19.000                                                                  
R 2                                                        17.000  
R 3                                                        19.000  
R12                                                        24.000  
R21                                                        17.000  
E 2                    320031.699        1552.135          24.000                      130028.929        1160.276          19.000  
E 8                     23690.392         105.510          22.000                        7856.837          73.327          21.000  
E25                    206234.110        3121.192          12.000                                                                  
E30                   -130433.053        -728.363           7.000                                                                  
J 2                    361067.768        1358.307          19.000                       96248.701        1012.080          17.000  
C 6                     72432.259         299.031          24.000                                                                                                                                  
C 7                    -13721.033        -122.807          18.000                                                                                                                                  
C 9                     20542.958         105.575          21.000                                                                                                                                  
C10                     -8749.194        -130.173          23.000                                                                                                                                  
C14                     97333.733         844.260          22.000                                                                                                                                  
C16                     77414.536         293.590          25.000                                                                                                                                  
C21                    706133.005        4060.285          16.000                                                                                                                                  
C24                     -1080.602         -22.040          18.000                                                                                                                                  
C26                    488582.393        1894.995          25.000                                                                                      175160.397        1427.902          20.000  
C33                                                                                                                                                    -23080.780        -525.815          12.000  
> 2022  1 25  4  3 45.0000000  0 26                     
G 3                    -64676.758          -0.025          16.000                                                                  
G16                   -635881.617       -2456.295          17.000                                                                  
G26                    -66339.256        -289.916          32.000                      -19017.331        -215.090          20.000  
G29                    140692.164         890.988          22.000                                                                  
G31                    281696.568        1044.031          25.000                                                                  
G32                    671325.777        2511.384          17.000                                                                  
R 2                                                        17.000  
R 3                                                        19.000  
R12                                                        24.000  
R21                                                        17.000  
E 2                    328201.657        1556.553          24.000                      134584.250        1160.451          19.000  
E 8                     24240.915         105.051          21.000                        8149.957          75.377          17.000  
E25                    222634.630        3121.513          13.000                                                                  
E30                   -134258.893        -727.845           7.000                                                                  
J 1                    122395.555         462.344          13.000                                                                  
J 2                    368206.903        1357.983          32.000                      100231.126        1015.419          21.000  
C 6                     73968.338         296.318          24.000                                                                                                                                  
C 7                    -14357.334        -124.784          27.000                                                                                                                                  
C 9                     21094.142         107.109          21.000                                                                                                                                  
C10                     -9432.871        -131.304          27.000                                                                                                                                  
C14                    101726.929         844.538          24.000                                                                                                                                  
C16                     78932.263         290.627          25.000                                                                                                                                  
C21                    727282.387        4062.142          14.000                                                                                                                                  
C24                     -1197.098         -21.924          16.000                                                                                                                                  
C26                    498443.804        1895.696          30.000                                                                                      180771.502        1432.938          21.000  
C33                                                                                                                                                    -25142.153        -524.380          13.000  
> 2022  1 25  4  3 46.0000000  0 26                     
G 3                    -66013.223          -0.025          16.000                                                                  
G16                   -648788.036       -2455.288          16.000                                                                  
G26                    -67852.768        -286.782          27.000                      -19865.874        -217.999          24.000  
G29                    145369.180         888.608          23.000                                                                  
G31                    287174.297        1043.057          27.000                                                                  
G32                    684516.040        2511.687          15.000                                                                  
R 2                                                        19.000  
R 3                                                        18.000  
R12                                                        30.000  
R21                                                        17.000  
E 2                    336380.147        1556.323          26.000                      139148.644        1163.361          20.000  
E 8                     24787.070         104.995          23.000                        8449.734          76.129          17.000  
E25                    239036.372        3121.242          12.000                                                                  
E30                   -138081.040        -727.000           9.000                                                                  
J 1                    124838.162         467.001          13.000                                                                  
J 2                    375350.872        1361.404          30.000                      104215.532        1012.887          20.000  
C 6                     75503.801         295.300          24.000                                                                                                                                  
C 7                    -15007.211        -121.894          34.000                                                                                                                                  
C 9                     21643.116          -0.050          22.000                                                                                                                                  
C10                    -10113.699        -129.599          30.000                                                                                                                                  
C14                    106122.112         842.514          23.000                                                                                                                                  
C16                     80450.991         292.962          27.000                                                                                                                                  
C21                    748437.454        4062.513          14.000                                                                                                                                  
C24                     -1310.257         -21.959          17.000                                                                                                                                  
C26                    508312.883        1895.068          30.000                                                                                      186376.659        1430.088          20.000  
C33                                                                                                                                                    -27203.782        -526.189          13.000  
> 2022  1 25  4  3 47.0000000  0 24                     
G 3                    -67350.465          -0.025          15.000                                                                  
G16                   -661695.197       -2457.857          16.000                                                                  
G26                    -69357.583        -286.902          27.000                      -20719.246        -218.544          20.000  
G29                    150035.412         888.926          20.000                                                                  
G31                    292660.309        1043.187          24.000                                                                  
G32                    697718.271        2513.140          16.000                                                                  
R 2                                                        19.000  
R 3                                                        18.000  
R12                                                        24.000  
R21                                                        23.000  
E 2                    344558.801        1554.853          20.000                      143703.964        1160.334          17.000  
E 8                     25344.281         105.815          20.000                        8758.845          80.222          18.000  
E25                    255434.490        3120.379          11.000                                                                  
E30                   -141901.682        -726.900           8.000                                                                  
J 2                    382501.014        1358.732          24.000                      108197.192        1014.430          19.000  
C 6                     77041.384         294.464          20.000                                                                                                                                  
C 7                    -15643.720        -123.922          22.000                                                                                                                                  
C 9                     22181.829          -0.050          20.000                                                                                                                                  
C10                    -10789.721        -130.659          30.000                                                                                                                                  
C14                    110518.938         846.642          25.000                                                                                                                                  
C16                     81980.966         295.084          23.000                                                                                                                                  
C21                    769586.948          -0.013          15.000                                                                                                                                  
C24                     -1423.724         -21.788          16.000                                                                                                                                  
C26                    518185.734        1895.699          22.000                                                                                      191984.590        1429.333          18.000  
> 2022  1 25  4  3 48.0000000  0 25                     
G 3                    -68697.583          -0.025          17.000                                                                  
G16                   -674604.735       -2456.197          14.000                                                                  
G26                    -70867.056        -289.781          23.000                      -21578.938        -218.258          19.000  
G29                    154705.183         888.704          20.000                                                                  
G31                    298135.914        1042.459          30.000                                                                  
G32                    710927.597        2513.547          17.000                                                                  
R 2                                                        18.000  
R 3                                                        18.000  
R12                                                        22.000  
R21                                                        24.000  
E 2                    352733.498        1556.129          21.000                      148264.675        1163.021          15.000  
E 7                    -20300.754       -1816.735          17.000                                                                  
E 8                     25900.498         107.570          27.000                        9076.403          81.673          17.000  
E25                    271832.792        3120.394           9.000                                                                  
E30                   -145722.529        -726.846          11.000                                                                  
J 2                    389637.303        1359.426          20.000                      112178.741        1014.923          17.000  
C 6                     78572.720         293.881          20.000                                                                                                                                  
C 7                    -16284.762        -122.152          26.000                                                                                                                                  
C 9                     22720.523          -0.050          20.000                                                                                                                                  
C10                    -11464.241        -129.754          26.000                                                                                                                                  
C14                    114922.863         847.282          28.000                                                                                                                                  
C16                     83503.684         290.337          23.000                                                                                                                                  
C21                    790739.090          -0.013          14.000                                                                                                                                  
C24                     -1542.413         -22.631          16.000                                                                                                                                  
C26                    528055.898        1895.494          21.000                                                                                      197603.983        1431.217          16.000  
> 2022  1 25  4  3 49.0000000  0 24                     
G16                   -687519.490          -0.013          14.000                                                                  
G26                    -72374.206        -285.885          29.000                      -22426.226        -212.700          19.000  
G29                    159391.165         893.305          22.000                                                                  
G31                    303618.631        1041.050          24.000                                                                  
G32                    724126.596        2512.022          18.000                                                                  
R 2                                                        17.000  
R 3                                                        17.000  
R12                                                        26.000  
R21                                                        20.000  
E 2                    360923.721        1560.097          23.000                      152824.372        1161.653          18.000  
E 7                    -29838.791       -1814.081          16.000                                                                  
E 8                     26480.832         111.856          23.000                        9387.774          77.964          18.000  
E25                    288233.425        3120.940          11.000                                                                  
E30                   -149541.289        -726.644          10.000                                                                  
J 2                    396781.119        1359.066          21.000                      116167.263        1016.250          17.000  
C 6                     80108.562         294.045          21.000                                                                                                                                  
C 7                    -16908.282        -121.371          25.000                                                                                                                                  
C 9                     23266.648          -0.050          19.000                                                                                                                                  
C10                    -12129.969        -127.583          25.000                                                                                                                                  
C14                    119327.148         843.820          25.000                                                                                                                                  
C16                     85020.325         291.534          23.000                                                                                                                                  
C21                    811888.612          -0.013          17.000                                                                                                                                  
C24                     -1653.742         -23.012          18.000                                                                                                                                  
C26                    537927.426        1895.421          26.000                                                                                      203222.945        1433.176          17.000  
> 2022  1 25  4  3 50.0000000  0 25                     
G16                   -700438.571          -0.013          14.000                                                                  
G26                    -73885.680        -290.687          30.000                      -23260.243        -216.969          22.000  
G29                    164088.125         897.304          24.000                                                                  
G31                    309109.769        1049.749          28.000                                                                  
G32                    737332.070        2512.784          17.000                                                                  
R 2                                                        17.000  
R 3                                                        18.000  
R12                                                        26.000  
R21                                                        20.000  
R22                                                        20.000  
E 2                    369103.446        1556.569          26.000                      157388.024        1162.196          20.000  
E 7                    -39374.740       -1814.078          12.000                                                                  
E 8                     27049.656         106.364          21.000                        9690.186          76.756          18.000  
E25                    304633.128        3120.399           9.000                                                                  
E30                   -153358.511        -726.163           9.000                                                                  
J 2                    403923.517        1358.321          26.000                      120153.781        1012.952          20.000  
C 6                     81634.436         291.847          27.000                                                                                                                                  
C 7                    -17542.378        -123.339          28.000                                                                                                                                  
C 9                     23807.635         104.839          23.000                                                                                                                                  
C10                    -12807.990        -130.299          28.000                                                                                                                                  
C14                    123722.821         841.390          23.000                                                                                                                                  
C16                     86533.762         289.201          29.000                                                                                                                                  
C21                    833033.365        4060.172          15.000                                                                                                                                  
C24                     -1772.455         -22.287          23.000                                                                                                                                  
C26                    547787.849        1893.887          28.000                                                                                      208844.893        1432.303          17.000  
> 2022  1 25  4  3 51.0000000  0 25                     
G16                   -713364.626          -0.013          14.000                                                                  
G26                    -75409.620        -289.500          24.000                      -24102.340        -214.870          21.000  
G29                    168783.911         891.985          20.000                                                                  
G31                    314610.495        1045.655          27.000                                                                  
G32                    750544.932        2513.414          16.000                                                                  
R 2                                                        17.000  
R 3                                                        18.000  
R12                                                        23.000  
R21                                                        22.000  
E 2                    377285.077        1557.407          23.000                      161956.622        1166.363          18.000  
E 7                    -48906.103       -1814.100          14.000                                                                  
E 8                     27618.262         106.743          21.000                        9997.509          80.077          17.000  
E25                    321029.889        3119.703          12.000                                                                  
E30                   -157174.155        -725.867          10.000                                                                  
J 2                    411068.164        1358.942          19.000                      124138.274        1014.851          17.000  
C 6                     83146.761         291.680          21.000                                                                                                                                  
C 7                    -18160.428        -117.313          25.000                                                                                                                                  
C 9                     24348.408         103.049          24.000                                                                                                                                  
C10                    -13489.220        -131.178          29.000                                                                                                                                  
C14                    128128.429         847.686          21.000                                                                                                                                  
C16                     88058.594         292.578          21.000                                                                                                                                  
C21                    854171.776        4059.262          12.000                                                                                                                                  
C24                     -1889.052         -22.158          21.000                                                                                                                                  
C26                    557635.953        1887.939          25.000                                                                                      214458.166        1428.696          17.000  
C33                    -10202.267        -700.229          17.000                                                                                                                                  
> 2022  1 25  4  3 52.0000000  0 25                     
G16                   -726301.644          -0.013          13.000                                                                  
G26                    -76918.321        -284.851          26.000                      -24953.765        -213.210          20.000  
G29                    173473.867         892.791          22.000                                                                  
G31                    320102.991        1047.502          26.000                                                                  
G32                    763745.666        2512.673          20.000                                                                  
R 2                                                        17.000  
R 3                                                        17.000  
R12                                                        26.000  
R21                                                        20.000  
E 2                    385464.814        1553.100          26.000                      166537.261        1166.964          17.000  
E 7                    -58440.291       -1814.482          15.000                                                                  
E 8                     28178.476         105.744          21.000                       10307.495          76.858          18.000  
E25                    337423.756        3119.429          12.000                                                                  
E30                   -160985.887        -725.537          12.000                                                                  
J 2                    418218.446        1360.085          21.000                      128111.227        1011.212          17.000  
C 6                     84665.407         291.406          24.000                                                                                                                                  
C 7                    -18772.197        -118.490          24.000                                                                                                                                  
C 9                     24880.464         101.276          21.000                                                                                                                                  
C10                    -14160.214        -130.341          27.000                                                                                                                                  
C14                    132543.777         846.481          24.000                                                                                                                                  
C16                     89573.398         289.270          24.000                                                                                                                                  
C21                    875301.160        4056.098          15.000                                                                                                                                  
C24                     -1995.047         -19.950          20.000                                                                                                                                  
C26                    567469.576        1889.753          25.000                                                                                      220061.119        1428.631          17.000  
C33                    -13845.397        -698.354          17.000                                                                                                                                  
> 2022  1 25  4  3 53.0000000  0 25                     
G16                   -739224.041          -0.013          16.000                                                                  
G26                    -78419.738        -287.805          30.000                      -25796.362        -216.890          23.000  
G29                    178163.799         894.608          25.000                                                                  
G31                    325595.163        1040.602          27.000                                                                  
G32                    776949.904        2512.813          22.000                                                                  
R 2                                                        18.000  
R 3                                                        17.000  
R12                                                        30.000  
R21                                                        17.000  
E 2                    393640.562        1558.959          23.000                      171112.104        1164.532          18.000  
E 7                    -67976.113       -1814.598          15.000                                                                  
E 8                     28737.468         105.327          22.000                       10604.284          74.022          19.000  
E25                    353822.167        3121.286          13.000                                                                  
E30                   -164801.214        -726.222          12.000                                                                  
J 2                    425347.946        1354.799          21.000                      132088.301        1014.099          17.000  
C 6                     86184.506         291.720          22.000                                                                                                                                  
C 7                    -19396.483        -120.854          20.000                                                                                                                                  
C 9                     25415.897         106.797          23.000                                                                                                                                  
C10                    -14831.482        -129.584          25.000                                                                                                                                  
C14                    136952.882         847.409          22.000                                                                                                                                  
C16                     91080.319         287.189          20.000                                                                                                                                  
C21                    896426.093          -0.013          14.000                                                                                                                                  
C24                     -2102.332         -21.071          23.000                                                                                                                                  
C26                    577326.327        1895.316          25.000                                                                                      225664.223        1427.100          16.000  
C33                    -17479.034        -696.278          19.000                                                                                                                                  
> 2022  1 25  4  3 54.0000000  0 25                     
G16                   -752143.672          -0.013          17.000                                                                  
G26                    -79921.825        -285.514          29.000                      -26647.178        -217.516          22.000  
G29                    182867.379         892.732          28.000                                                                  
G31                    331076.727        1045.242          27.000                                                                  
G32                    790159.762        2514.372          18.000                                                                  
R 2                                                        18.000  
R 3                                                        15.000  
R12                                                        25.000  
R21                                                        18.000  
E 2                    401822.314        1555.571          22.000                      175680.022        1162.117          17.000  
E 7                    -77509.809       -1813.484          15.000                                                                  
E 8                     29297.967         106.346          24.000                       10901.274          75.267          19.000  
E25                    370223.747        3119.883          13.000                                                                  
E30                   -168617.336        -726.320          12.000                                                                  
J 2                                                                                    136062.405        1012.811          17.000  
C 6                     87704.479         292.822          24.000                                                                                                                                  
C 7                    -20033.231        -123.859          22.000                                                                                                                                  
C 9                     25967.995         105.168          23.000                                                                                                                                  
C10                    -15504.160        -130.446          24.000                                                                                                                                  
C14                    141374.515         849.416          20.000                                                                                                                                  
C16                     92586.705         290.426          20.000                                                                                                                                  
C21                    917555.162          -0.013          13.000                                                                                                                                  
C24                     -2208.529         -19.642          21.000                                                                                                                                  
C26                    587186.652        1892.782          23.000                                                                                      231267.024        1426.283          17.000  
C33                    -21092.850        -693.376          20.000                                                                                                                                  
> 2022  1 25  4  3 55.0000000  0 25                     
G16                   -765054.031          -0.013          16.000                                                                  
G26                    -81408.148        -283.324          26.000                      -27486.015        -215.402          20.000  
G29                    187557.151         891.243          25.000                                                                  
G31                    336565.883        1041.118          29.000                                                                  
G32                    803379.137        2514.755          17.000                                                                  
R 2                                                        18.000  
R 3                                                        17.000  
R12                                                        29.000  
R21                                                        19.000  
E 2                    409993.412        1555.028          24.000                      180238.528        1160.309          17.000  
E 7                    -87041.871       -1814.343          15.000                                                                  
E 8                     29867.577         106.095          22.000                       11202.153          77.596          17.000  
E25                    386614.102        3118.286          12.000                                                                  
E30                   -172431.911        -725.820          11.000                                                                  
J 2                    439596.558        1357.277          23.000                      140031.764        1010.087          17.000  
C 6                     89231.385         293.388          24.000                                                                                                                                  
C 7                    -20672.018        -123.585          22.000                                                                                                                                  
C 9                     26508.185         103.111          21.000                                                                                                                                  
C10                    -16182.903        -130.215          25.000                                                                                                                                  
C14                    145788.899         848.514          18.000                                                                                                                                  
C16                     94098.931         288.940          23.000                                                                                                                                  
C21                    938670.727          -0.013          15.000                                                                                                                                  
C24                     -2315.917         -21.301          22.000                                                                                                                                  
C26                    597037.727        1890.044          24.000                                                                                      236857.078        1424.761          17.000  
C33                    -24704.828        -694.212          20.000                                                                                                                                  
> 2022  1 25  4  3 56.0000000  0 26                     
G16                   -777963.575       -2457.659          15.000                                                                  
G26                    -82895.678        -282.372          25.000                      -28332.649        -216.712          20.000  
G29                    192244.201         893.536          26.000                                                                  
G31                    342043.585        1044.516          27.000                                                                  
G32                    816599.434        2516.885          17.000                                                                  
R 2                                                        18.000  
R 3                                                        18.000  
R12                                                        29.000  
R21                                                        19.000  
E 2                    418164.674        1556.289          23.000                      184796.479        1162.537          18.000  
E 7                    -96575.433       -1814.210          17.000                                                                  
E 8                     30432.984         109.552          22.000                       11509.278          76.203          19.000  
E25                    402998.105        3117.222          13.000                                                                  
E30                   -176243.479        -724.966          12.000                                                                  
J 2                    446724.380        1357.665          22.000                      144003.321        1012.686          17.000  
C 6                     90759.706         292.615          22.000                                                                                                                                  
C 7                    -21312.256        -124.129          22.000                                                                                                                                  
C 9                     27040.091         101.639          23.000                                                                                                                                  
C10                    -16854.951        -129.993          26.000                                                                                                                                  
C14                    150198.632         846.074          19.000                                                                                                                                  
C16                     95611.592         290.348          24.000                                                                                                                                  
C21                    959787.915          -0.013          13.000                                                                                                                                  
C24                     -2426.321           0.001          24.000                                                                                                                                  
C26                    606884.406        1889.805          27.000                                                                                      242455.750        1427.247          17.000  
C33                    -28321.888        -694.630          18.000                                                                                                                                  
C35                     -1508.655        -592.458          24.000                                                                                                                                  
> 2022  1 25  4  3 57.0000000  0 25                     
G16                   -790879.098       -2458.542          14.000                                                                  
G26                    -84377.213        -282.525          24.000                      -29170.725        -212.392          19.000  
G29                    196944.827         889.321          26.000                                                                  
G31                    347536.104        1043.157          27.000                                                                  
G32                    829823.398        2516.240          15.000                                                                  
R 2                                                        17.000  
R 3                                                        20.000  
R12                                                        25.000  
R21                                                        19.000  
E 2                    426341.383        1554.726          25.000                      189354.375        1161.601          20.000  
E 8                     31008.671         107.829          22.000                       11815.485          79.916          21.000  
E25                    419377.296        3116.530          13.000                                                                  
E30                   -180051.198        -724.755          12.000                                                                  
J 2                    453852.522        1358.376          18.000                      147978.197        1013.728          17.000  
C 6                     92288.688         295.949          24.000                                                                                                                                  
C 7                    -21953.975        -122.863          20.000                                                                                                                                  
C 9                     27574.653         103.366          21.000                                                                                                                                  
C10                    -17517.594        -127.587          27.000                                                                                                                                  
C14                    154609.972         849.141          20.000                                                                                                                                  
C16                     97119.938         288.539          25.000                                                                                                                                  
C21                    980904.090          -0.013          12.000                                                                                                                                  
C24                     -2529.386           0.001          23.000                                                                                                                                  
C26                    616717.881        1888.882          20.000                                                                                      248062.948        1429.723          17.000  
C33                    -31929.885        -692.756          17.000                                                                                                                                  
C35                     -4593.964        -593.638          27.000                                                                                                                                  
> 2022  1 25  4  3 58.0000000  0 25                     
G16                   -803802.333       -2458.316          15.000                                                                  
G26                    -85870.493        -285.056          24.000                      -29997.631        -211.442          18.000  
G29                    201638.305         891.470          24.000                                                                  
G31                    353003.504        1039.703          26.000                                                                  
G32                    843050.299        2517.055          16.000                                                                  
R 2                                                        18.000  
R 3                                                        20.000  
R12                                                        27.000  
R21                                                        20.000  
E 2                    434513.483        1553.705          25.000                      193920.929        1164.406          20.000  
E 8                     31578.563         107.853          22.000                       12132.130          78.724          21.000  
E25                    435751.949        3115.770          12.000                                                                  
E30                   -183859.378        -725.128          11.000                                                                  
J 2                    460986.746        1357.385          22.000                      151961.296        1014.460          16.000  
C 6                     93828.361         293.920          24.000                                                                                                                                  
C 7                    -22592.823        -122.250          22.000                                                                                                                                  
C 9                     28112.132         102.206          23.000                                                                                                                                  
C10                    -18176.674        -128.109          25.000                                                                                                                                  
C14                    159040.789         849.746          18.000                                                                                                                                  
C16                     98621.230         288.599          23.000                                                                                                                                  
C21                   1002021.876          -0.013          14.000                                                                                                                                  
C24                     -2626.694         -18.125          27.000                                                                                                                                  
C26                    626570.360        1892.332          26.000                                                                                      253676.656        1430.593          17.000  
C33                    -35538.172        -693.257          17.000                                                                                                                                  
C35                     -7683.719        -593.414          22.000                                                                                                                                  
> 2022  1 25  4  3 59.0000000  0 15                     
G16                   -816721.778          -0.013          13.000                                                                  
G26                    -87364.232        -283.613          20.000                      -30826.098        -211.587          16.000  
G29                    206333.818         893.420          30.000                                                                  
G31                    358499.991        1044.074          25.000                                                                  
G32                    856282.583        2517.052          17.000                                                                  
R 2                                                        19.000  
R 3                                                        17.000  
R12                                                        29.000  
R21                                                        17.000  
E 2                    442695.814        1559.278          23.000                      198485.934        1162.270          18.000  
E 8                     32142.461         106.637          25.000                       12454.394          79.492          19.000  
E30                   -187670.037        -725.236          10.000                                                                  
J 2                    468118.384        1357.375          19.000                      155937.297        1011.344          16.000  
C24                     -2734.026         -22.002          28.000                                                                                         227.975         -14.380          23.000  
C26                    636439.365        1895.651          25.000                                                                                      259286.827        1428.953          17.000  
> 2022  1 25  4  4  0.0000000  0 16                     
G16                   -829643.743          -0.013          15.000                                                                  
G26                    -88845.738        -282.687          18.000                      -31658.520        -212.436          14.000  
G29                    211051.067         898.247          24.000                                                                  
G31                    364000.635        1047.069          30.000                                                                  
G32                    869502.961        2516.130          16.000                                                                  
R 2                                                        18.000  
R 3                                                        18.000  
R12                                                        29.000  
R21                                                        18.000  
E 2                    450884.289        1560.044          23.000                      203042.602        1159.887          18.000  
E 8                     32699.983         107.713          26.000                       12777.294          82.084          19.000  
E30                   -191479.292        -725.153          11.000                                                                  
J 2                    475253.326        1356.438          20.000                      159908.689        1011.621          17.000  
C 6                       876.493         293.086          25.000                                                                                                                                  
C24                     -2838.583         -20.726          25.000                                                                                         171.385         -15.140          22.000  
C26                    646296.097        1893.636          29.000                                                                                      264890.953        1426.937          17.000  
> 2022  1 25  4  4  1.0000000  0 19                     
G16                   -842567.049          -0.013          13.000                                                                  
G26                    -90316.599        -279.628          21.000                      -32499.259        -215.576          14.000  
G29                    215763.611         895.274          24.000                                                                  
G31                    369491.956        1041.392          30.000                                                                  
G32                    882721.997        2514.890          16.000                                                                  
R 2                                                        18.000  
R 3                                                        23.000  
R12                                                        30.000  
R21                                                        17.000  
E 2                    459071.571        1555.645          23.000                      207593.351        1160.323          17.000  
E 7                    -44949.279       -1814.920          16.000                                                                  
E 8                     33272.175         109.465          25.000                       13097.806          79.212          20.000  
E30                   -195286.877        -724.453          12.000                                                                  
J 2                    482380.646        1356.107          22.000                      163883.422        1011.970          17.000  
C 6                      2402.293         294.815          25.000                                                                                                                                  
C 9                       677.836         101.036          24.000                                                                                                                                  
C10                      -349.496        -130.633          26.000                                                                                                                                  
C24                     -2942.828         -21.395          28.000                                                                                         110.731         -14.727          25.000  
C26                    656156.805        1893.237          26.000                                                                                      270492.266        1426.390          20.000  
> 2022  1 25  4  4  2.0000000  0 17                     
G16                   -855503.868          -0.013          12.000                                                                  
G26                    -91795.609        -282.771          18.000                      -33344.249        -214.802          16.000  
G29                    220479.135         898.793          26.000                                                                  
G31                    374968.842        1045.586          27.000                                                                  
G32                    895938.476        2515.665          16.000                                                                  
R 2                                                        19.000  
R 3                                                        23.000  
R12                                                        29.000  
R21                                                        20.000  
E 2                    467247.008        1557.316          24.000                      212150.883        1164.253          20.000  
E 7                    -54488.660       -1815.475          15.000                                                                  
E 8                     33852.875         109.609          25.000                       13405.193          74.628          21.000  
E30                   -199092.023        -724.006          12.000                                                                  
J 2                    489510.491        1357.771          22.000                      167863.011        1014.112          18.000  
C24                     -3046.059         -18.920          28.000                                                                                          57.989         -15.533          23.000  
C26                    666020.876        1899.087          28.000                                                                                      276096.245        1428.700          22.000  
C33                    -13981.891        -689.699          29.000                                                                                                                                  
> 2022  1 25  4  4  3.0000000  0 16                     
G16                   -868438.713          -0.013          14.000                                                                  
G26                    -93270.312        -280.220          17.000                      -34185.905        -213.050          12.000  
G29                    225202.002         895.619          25.000                                                                  
G31                    380467.326        1048.626          25.000                                                                  
G32                    909163.292        2515.400          17.000                                                                  
R 2                                                        20.000  
R 3                                                        29.000  
R12                                                        28.000  
R21                                                        20.000  
E 2                    475432.384        1557.966          24.000                      216714.253        1159.298          20.000  
E 8                     34421.032         107.628          24.000                       13721.473          82.933          21.000  
E30                   -202896.081        -724.153          12.000                                                                  
J 2                    496634.243        1354.143          20.000                      171839.794        1013.865          17.000  
C24                     -3147.310         -20.329          31.000                                                                                          -0.589         -18.013          23.000  
C26                    675900.979        1899.096          26.000                                                                                      281698.350        1428.450          21.000  
C33                    -17583.063        -693.777          34.000                                                                                                                                  
> 2022  1 25  4  4  4.0000000  0 19                     
G16                   -881362.064          -0.013          14.000                                                                  
G26                    -94735.274        -278.295          17.000                      -35012.915        -210.087          15.000  
G29                    229911.017         897.253          29.000                                                                  
G31                    385958.185        1043.930          27.000                                                                  
G32                    922384.623        2516.377          16.000                                                                  
R 1                                                        20.000  
R 2                                                        19.000  
R 3                                                        25.000  
R12                                                        23.000  
R21                                                        20.000  
E 2                    483623.685        1560.875          27.000                      221273.930        1160.838          20.000  
E 8                     34996.142         109.135          25.000                                                                  
E30                   -206699.959        -723.980          12.000                                                                  
J 2                    503753.086        1354.713          22.000                      175814.330        1013.354          19.000  
C 6                      1911.930         293.407          25.000                                                                                                                                  
C 9                       935.663         101.836          23.000                                                                                                                                  
C24                     -3243.918         -20.828          30.000                                                                                         -63.587         -22.883          22.000  
C26                    685776.847        1893.164          24.000                                                                                      287309.297        1432.568          21.000  
C33                    -21185.171        -694.147          29.000                                                                                                                                  
> 2022  1 25  4  4  5.0000000  0 18                     
G16                   -894284.998          -0.013          14.000                                                                  
G26                    -96201.062        -280.610          18.000                      -35832.588        -209.852          13.000  
G29                    234622.865         896.545          26.000                                                                  
G31                    391461.084        1049.678          29.000                                                                  
G32                    935609.864        2516.304          16.000                                                                  
R 1                                                        24.000  
R 2                                                        20.000  
R 3                                                        21.000  
R12                                                        27.000  
R21                                                        22.000  
E 2                    491817.723        1559.330          24.000                      225846.648        1164.789          18.000  
E 8                     35578.563         112.079          24.000                       14360.016          82.721          18.000  
E30                   -210504.165        -724.003          12.000                                                                  
J 2                    510874.188        1357.960          21.000                      179787.487        1011.272          17.000  
C24                     -3334.555         -19.402          30.000                                                                                        -140.288         -20.448          22.000  
C26                    695638.026        1892.583          24.000                                                                                      292918.593        1431.199          19.000  
C33                    -24803.552        -692.585          34.000                                                                                                                                  
C35                    -10866.595        -593.838          29.000                                                                                                                                  
> 2022  1 25  4  4  6.0000000  0 17                     
G26                    -97676.161        -281.925          19.000                      -36658.800        -209.957          12.000  
G29                    239338.615         895.316          29.000                                                                  
G31                    396949.777        1039.929          25.000                                                                  
G32                    948824.709        2514.585          17.000                                                                  
R 1                                                        19.000  
R 2                                                        17.000  
R 3                                                        19.000  
R12                                                        26.000  
R21                                                        23.000  
E 2                    500004.549        1556.346          24.000                      230411.216        1160.380          20.000  
E 8                     36170.722         111.736          25.000                       14683.191          82.823          19.000  
E30                   -214305.902        -723.479          12.000                                                                  
J 2                    518002.645        1354.577          19.000                      183754.668        1009.902          19.000  
C24                     -3432.338         -20.259          30.000                                                                                        -220.309         -22.186          21.000  
C26                    705494.473        1892.033          24.000                                                                                      298530.740        1425.900          19.000  
C33                    -28401.138        -695.452          27.000                                                                                                                                  
C35                    -13953.909        -595.223          25.000                                                                                                                                  
> 2022  1 25  4  4  7.0000000  0 18                     
G26                    -99151.484        -279.679          18.000                      -37481.193        -210.017          13.000  
G29                    244035.501         890.223          28.000                                                                  
G31                    402439.659        1046.102          28.000                                                                  
G32                    962045.680        2515.989          15.000                                                                  
R 1                                                        23.000  
R 2                                                        19.000  
R 3                                                        23.000  
R12                                                        26.000  
R21                                                        22.000  
E 2                    508188.892        1556.485          28.000                      234958.822        1160.670          21.000  
E 7                    -45202.007       -1815.293          15.000                                                                  
E 8                     36751.532         110.943          24.000                       15007.193          83.649          19.000  
E30                   -218107.247        -723.127          11.000                                                                  
J 2                    525125.876        1355.607          20.000                      187717.674        1010.992          19.000  
C24                     -3543.324         -20.064          32.000                                                                                        -299.105         -19.678          20.000  
C26                    715350.639        1894.201          25.000                                                                                      304130.530        1428.525          20.000  
C33                    -32023.838        -692.513          30.000                                                                                                                                  
C35                    -17050.075        -592.399          27.000                                                                                                                                  
> 2022  1 25  4  4  8.0000000  0 19                     
G26                   -100623.341        -279.307          17.000                      -38310.141        -212.575          10.000  
G29                    248754.913         899.379          27.000                                                                  
G31                    407928.005        1043.777          26.000                                                                  
G32                    975271.173        2518.482          17.000                                                                  
R 1                                                        20.000  
R 2                                                        18.000  
R 3                                                        24.000  
R12                                                        30.000  
R21                                                        23.000  
E 2                    516381.436        1559.285          25.000                      239496.672        1154.554          19.000  
E 7                    -54742.917       -1816.154          17.000                                                                  
E 8                     37315.690         109.620          24.000                       15319.709          80.106          20.000  
E30                   -221907.127        -722.903          12.000                                                                  
J 2                    532254.911        1354.923          23.000                      191688.494        1013.410          17.000  
C 6                      2638.859         293.781          20.000                                                                                                                                  
C24                     -3667.701         -20.319          30.000                                                                                        -364.812         -19.438          22.000  
C26                    725201.576        1889.135          26.000                                                                                      309730.847        1428.876          20.000  
C33                    -35618.017        -689.740          32.000                                                                                                                                  
C35                    -20135.769        -593.187          31.000                                                                                                                                  
> 2022  1 25  4  4  9.0000000  0 19                     
G26                   -102089.232        -277.306          17.000                                                                  
G29                    253479.164         895.634          30.000                                                                  
G31                    413409.065        1043.497          28.000                                                                  
G32                    988507.745        2518.613          18.000                                                                  
R 1                                                        20.000  
R 2                                                        17.000  
R 3                                                        20.000  
R12                                                        29.000  
R21                                                        25.000  
E 2                    524572.160        1559.365          25.000                      244037.142        1156.574          21.000  
E 7                    -64290.571       -1817.799          15.000                                                                  
E 8                     37898.197         110.334          22.000                       15639.915          79.891          21.000  
E30                   -225703.713        -722.242          12.000                                                                  
J 2                    539368.671        1353.178          22.000                      195672.919        1015.671          17.000  
C 6                      4161.910         291.856          23.000                                                                                                                                  
C24                     -3772.730         -19.149          32.000                                                                                        -438.398         -19.479          21.000  
C26                    735043.045        1890.031          25.000                                                                                      315325.955        1427.072          21.000  
C33                    -39201.680        -690.601          36.000                                                                                                                                  
C35                    -23240.611        -598.597          26.000                                                                                                                                  
> 2022  1 25  4  4 10.0000000  0 19                     
G26                   -103547.469        -279.342          20.000                                                                  
G29                    258226.763         905.747          25.000                                                                  
G31                    418893.433        1041.567          27.000                                                                  
G32                   1001751.396        2521.439          15.000                                                                  
R 1                                                        20.000  
R 2                                                        17.000  
R 3                                                        21.000  
R12                                                        29.000  
R21                                                        20.000  
E 2                    532759.241        1557.829          26.000                      248602.286        1165.868          20.000  
E 7                    -73841.399       -1817.984          15.000                                                                  
E 8                     38475.238         109.464          27.000                       15949.978          75.359          19.000  
E25                     41446.010        3107.861          15.000                                                                  
E30                   -229499.500        -722.743          11.000                                                                  
J 2                    546489.540        1356.093          24.000                      199654.858        1015.346          21.000  
C24                     -3871.117         -19.701          31.000                                                                                        -512.562         -16.511          21.000  
C26                    744895.160        1892.487          25.000                                                                                      320927.846        1426.492          21.000  
C33                    -42801.507        -692.262          32.000                                                                                                                                  
C35                    -26328.185        -591.203          25.000                                                                                                                                  
> 2022  1 25  4  4 11.0000000  0 19                     
G26                   -105016.177        -278.121          21.000                                                                  
G29                    262985.469         900.349          32.000                                                                  
G31                    424387.973        1050.755          27.000                                                                  
G32                   1014993.510        2518.990          17.000                                                                  
R 1                                                        20.000  
R 2                                                        17.000  
R 3                                                        19.000  
R12                                                        30.000  
R21                                                        23.000  
E 2                    540945.122        1558.828          25.000                      253160.151        1159.931          20.000  
E 7                    -83396.292       -1818.638          16.000                                                                  
E 8                     39058.638         111.639          26.000                       16269.087          85.750          22.000  
E25                     57795.320        3111.630          17.000                                                                  
E30                   -233296.056        -722.510          11.000                                                                  
J 2                    553612.346        1355.741          22.000                      203629.944        1012.475          19.000  
C24                     -3978.067         -22.076          31.000                                                                                        -578.733         -15.885          21.000  
C26                    754753.621        1895.400          25.000                                                                                      326525.239        1426.571          23.000  
C33                    -46395.775        -688.604          30.000                                                                                       -6638.726        -518.677          20.000  
C35                    -29405.480        -590.699          27.000                                                                                       -3383.139        -445.962          20.000  
> 2022  1 25  4  4 12.0000000  0 19                     
G26                   -106471.052        -276.863          17.000                                                                  
G29                    267713.593         896.940          29.000                                                                  
G31                    429892.185        1049.463          28.000                                                                  
G32                   1028233.507          -0.011          16.000                                                                  
R 1                                                        20.000  
R 2                                                        15.000  
R 3                                                        21.000  
R12                                                        29.000  
R21                                                        23.000  
E 2                    549138.971        1558.505          24.000                      257723.175        1165.464          25.000  
E 7                    -92954.679       -1818.611          17.000                                                                  
E 8                     39646.896         110.618          26.000                       16595.999          84.576          23.000  
E25                     74145.117        3112.213          17.000                                                                  
E30                   -237090.523        -721.669          11.000                                                                  
J 2                    560725.241        1352.711          22.000                      207602.212        1012.516          20.000  
C24                     -4098.840         -24.248          27.000                                                                                        -643.342         -16.509          20.000  
C26                    764615.795        1889.151          27.000                                                                                      332121.455        1425.932          24.000  
C33                    -49973.147        -687.021          31.000                                                                                       -8684.016        -523.300          23.000  
C35                    -32476.813        -588.238          33.000                                                                                       -5122.481        -442.346          25.000  
> 2022  1 25  4  4 13.0000000  0 20                     
G26                   -107923.576        -276.356          19.000                                                                  
G29                    272471.874         907.876          29.000                                                                  
G31                    435389.552        1044.750          27.000                                                                  
G32                   1041478.742          -0.011          15.000                                                                  
R 1                                                        20.000  
R 2                                                        13.000  
R 3                                                        23.000  
R12                                                        27.000  
R21                                                        19.000  
E 2                    557324.566        1554.880          24.000                      262290.094        1164.816          23.000  
E 7                   -102511.283       -1818.963          21.000                                                                  
E 8                     40234.384         111.986          24.000                       16928.796          85.980          24.000  
E25                     90474.860        3107.681          18.000                                                                  
E30                   -240881.863        -721.395          11.000                                                                  
J 2                                                                                    211578.630        1011.680          21.000  
C21                     69812.548        4055.261          19.000                                                                                                                                  
C24                     -4213.249         -19.318          22.000                                                                                        -697.221         -16.496          18.000  
C26                    774464.515        1892.965          28.000                                                                                      337713.974        1426.995          24.000  
C33                    -53555.191        -686.677          28.000                                                                                      -10721.940        -520.591          25.000  
C35                    -35531.596        -586.084          36.000                                                                                       -6857.696        -440.694          28.000  
> 2022  1 25  4  4 14.0000000  0 20                     
G26                   -109371.286        -275.341          17.000                                                                  
G29                    277228.564         902.661          30.000                                                                  
G31                    440884.364        1040.456          24.000                                                                  
G32                   1054725.017          -0.011          17.000                                                                  
R 1                                                        23.000  
R 2                                                        12.000  
R 3                                                        24.000  
R12                                                        26.000  
R21                                                        17.000  
E 2                    565508.078        1556.168          27.000                      266852.757        1163.095          22.000  
E 7                   -112066.161       -1819.302          22.000                                                                  
E 8                     40826.317         116.022          23.000                       17253.286          84.173          22.000  
E25                    106804.539        3107.580          18.000                                                                  
E30                   -244670.646        -720.637          12.000                                                                  
J 2                    574920.433        1350.412          19.000                      215551.110        1012.278          19.000  
C21                     90927.743        4047.963          18.000                                                                                                                                  
C24                     -4298.272         -15.341          21.000                                                                                        -758.387         -16.211          17.000  
C26                    784309.062        1890.990          27.000                                                                                      343305.270        1427.654          20.000  
C33                    -57134.077        -684.543          28.000                                                                                      -12755.296        -516.542          24.000  
C35                    -38582.442        -587.218          36.000                                                                                       -8591.128        -440.461          25.000  
> 2022  1 25  4  4 15.0000000  0 20                     
G26                   -110823.034        -276.201          17.000                                                                  
G29                    281966.847         903.499          24.000                                                                  
G31                    446370.431        1044.483          29.000                                                                  
G32                   1067978.388        2521.379          15.000                                                                  
R 1                                                        20.000  
R 2                                                        12.000  
R 3                                                        22.000  
R12                                                        29.000  
R21                                                        17.000  
E 2                    573699.594        1559.302          24.000                      271425.639        1163.392          20.000  
E 7                   -121613.395       -1819.034          23.000                                                                  
E 8                     41419.722         112.143          25.000                       17583.195          83.910          23.000  
E25                    123135.704        3108.941          18.000                                                                  
E30                   -248454.776        -720.025          15.000                                                                  
J 2                    582020.611        1353.034          18.000                      219521.655        1013.040          17.000  
C21                    112008.160        4049.153          15.000                                                                                                                                  
C24                     -4379.382         -15.668          18.000                                                                                        -823.545         -16.930          14.000  
C26                    794163.805        1892.891          25.000                                                                                      348904.635        1428.215          19.000  
C33                    -60701.231        -689.112          28.000                                                                                      -14789.648        -516.206          22.000  
C35                    -41638.517        -587.379          32.000                                                                                      -10327.180        -440.226          24.000  
> 2022  1 25  4  4 16.0000000  0 20                     
G26                   -112275.057        -276.506          18.000                                                                  
G29                    286711.717         904.213          28.000                                                                  
G31                    451843.221        1040.968          23.000                                                                  
G32                   1081224.462        2519.162          17.000                                                                  
R 1                                                        20.000  
R 2                                                        12.000  
R 3                                                        20.000  
R12                                                        24.000  
R21                                                        19.000  
E 2                                                                                    275989.480        1164.896          18.000  
E 7                   -131180.679       -1821.723          20.000                                                                  
E 8                     42015.497         112.182          25.000                       17910.069          84.003          22.000  
E25                    139462.123        3106.535          18.000                                                                  
E30                   -252239.234        -720.392          14.000                                                                  
J 2                    589133.295        1353.279          18.000                      223491.086        1010.255          16.000  
C21                    133090.088        4050.602          17.000                                                                                                                                  
C24                     -4474.742           0.001          18.000                                                                                        -894.118         -17.256          12.000  
C26                    804017.446        1891.901          25.000                                                                                      354493.042        1422.865          18.000  
C33                    -64281.466        -685.894          37.000                                                                                      -16817.877        -516.030          20.000  
C35                    -44694.975        -587.583          26.000                                                                                      -12057.110        -441.536          19.000  
> 2022  1 25  4  4 17.0000000  0 19                     
G26                   -113728.487        -276.557          18.000                                                                  
G29                    291472.680         910.580          30.000                                                                  
G31                    457327.349        1044.488          33.000                                                                  
G32                   1094464.639        2520.390          19.000                                                                  
R 1                                                        22.000  
R 3                                                        20.000  
R12                                                        24.000  
R21                                                        20.000  
E 2                    590079.558        1559.383          24.000                      280553.306        1163.641          20.000  
E 7                   -140735.707       -1813.949          18.000                                                                  
E 8                     42604.275         112.187          31.000                       18239.295          83.919          21.000  
E25                    155792.274        3108.992          16.000                                                                  
E30                   -256024.827        -720.481          13.000                                                                  
J 2                    596234.520        1351.333          21.000                      227456.204        1010.592          18.000  
C21                    154177.615        4050.415          16.000                                                                                                                                  
C24                     -4559.235         -15.791          23.000                                                                                        -967.152         -18.545          15.000  
C26                    813866.152        1889.401          24.000                                                                                      360090.016        1428.236          22.000  
C33                    -67852.735        -682.148          25.000                                                                                      -18850.829        -515.762          25.000  
C35                    -47744.461        -583.412          23.000                                                                                      -13788.213        -439.581          19.000  
> 2022  1 25  4  4 18.0000000  0 19                     
G26                   -115184.767        -277.767          17.000                                                                  
G29                    296269.369         910.465          31.000                                                                  
G31                    462829.923        1048.393          34.000                                                                  
G32                   1107702.533        2519.481          19.000                                                                  
R 1                                                        19.000  
R 3                                                        22.000  
R12                                                        24.000  
R21                                                        20.000  
E 2                    598273.799        1561.593          23.000                      285117.600        1163.205          18.000  
E 7                   -150278.079       -1818.248          20.000                                                                  
E 8                     43194.211         112.090          27.000                       18567.726          83.257          18.000  
E25                    172132.993        3111.407          16.000                                                                  
E30                   -259809.092        -719.943          14.000                                                                  
J 2                    603340.401        1353.075          19.000                      231429.602        1014.601          17.000  
C21                    175265.053        4050.979          14.000                                                                                                                                  
C24                     -4643.380           0.001          19.000                                                                                       -1045.482         -21.737          13.000  
C26                    823706.515        1888.515          26.000                                                                                      365689.485        1427.298          21.000  
C33                    -71419.113        -684.023          29.000                                                                                      -20867.181        -516.382          20.000  
C35                    -50783.622        -583.584          25.000                                                                                      -15520.005        -440.080          17.000  
> 2022  1 25  4  4 19.0000000  0 20                     
G26                   -116641.877        -276.157          19.000                                                                  
G29                    301053.663         914.030          33.000                                                                  
G31                    468334.668        1043.297          29.000                                                                  
G32                   1120950.117        2522.735          19.000                                                                  
R 1                                                        15.000  
R 3                                                        18.000  
R12                                                        25.000  
R21                                                        20.000  
E 2                    606469.876        1559.706          26.000                      289682.849        1165.529          23.000  
E 7                   -159846.297       -1820.149          27.000                                                                  
E 8                     43790.522         114.285          18.000                       18887.756          80.628          16.000  
E25                    188477.218        3109.864          17.000                                                                  
E30                   -263592.543        -719.854          14.000                                                                  
J 2                    610448.944        1350.320          20.000                      235411.711        1014.843          18.000  
C 6                      3939.786         289.524          25.000                                                                                                                                  
C21                    196376.194        4054.970          15.000                                                                                                                                  
C24                     -4733.511           0.001          23.000                                                                                       -1125.966         -19.800          13.000  
C26                    833550.309        1892.370          25.000                                                                                      371289.443        1429.133          21.000  
C33                    -74978.391        -683.572          21.000                                                                                      -22891.121        -515.402          17.000  
C35                    -53831.880           0.027          24.000                                                                                      -17250.680        -441.011          15.000  
> 2022  1 25  4  4 20.0000000  0 20                     
G26                   -118092.943        -276.597          19.000                                                                  
G29                    305839.746         910.011          32.000                                                                  
G31                    473843.480        1049.703          24.000                                                                  
G32                   1134204.970        2521.677          17.000                                                                  
R 1                                                        20.000  
R 3                                                        25.000  
R12                                                        22.000  
R21                                                        18.000  
E 2                    614661.644        1558.422          23.000                      294252.710        1164.885          22.000  
E 7                   -169412.515       -1820.812          22.000                                                                  
E 8                     44389.549         114.821          18.000                       19203.707          80.614          13.000  
E25                    204825.175        3113.076          18.000                                                                  
E30                   -267373.090        -719.413          17.000                                                                  
J 2                    617544.300        1350.015          20.000                      239387.249        1011.964          17.000  
C 6                      5439.923         288.230          25.000                                                                                                                                  
C21                    217498.323        4057.103          13.000                                                                                                                                  
C24                     -4829.751         -17.432          21.000                                                                                                                                  
C26                    843410.860        1893.066          28.000                                                                                      376889.879        1428.158          25.000  
C33                    -78539.386           0.000          21.000                                                                                      -24914.653        -515.559          14.000  
C35                    -56896.926        -586.431          23.000                                                                                      -18985.321        -440.651          15.000  
> 2022  1 25  4  4 21.0000000  0 19                     
G26                   -119545.573        -274.620          20.000                                                                  
G29                    310635.840         907.552          27.000                                                                  
G31                    479341.586        1044.868          27.000                                                                  
G32                   1147453.302        2520.270          20.000                                                                  
R 1                                                        18.000  
R 3                                                        26.000  
R12                                                        25.000  
R21                                                        20.000  
E 2                    622858.332        1559.693          27.000                      298819.379        1164.951          27.000  
E 7                   -178981.096       -1821.364          21.000                                                                  
E 8                     45001.382         118.211          14.000                       19526.680          83.340          15.000  
E25                    221184.703        3113.545          19.000                                                                  
E30                   -271153.810        -719.600          17.000                                                                  
J 2                    624644.941        1351.398          21.000                      243356.145        1010.962          19.000  
C21                    238623.142        4057.143          14.000                                                                                                                                  
C24                     -4912.305         -15.906          21.000                                                                                                                                  
C26                    853270.151        1896.354          25.000                                                                                      382490.765        1428.912          23.000  
C33                    -82105.805           0.000          18.000                                                                                      -26938.201        -514.334          14.000  
C35                    -59949.710        -587.240          25.000                                                                                                                                  
> 2022  1 25  4  4 22.0000000  0 19                     
G26                   -120990.311        -275.171          23.000                      -49634.668        -203.010          17.000  
G29                    315422.895         913.440          27.000                                                                  
G31                    484847.709        1049.661          26.000                                                                  
G32                   1160702.931        2521.686          20.000                                                                  
R 1                                                        21.000  
R 3                                                        23.000  
R12                                                        20.000  
R21                                                        19.000  
E 2                    631053.762        1559.835          24.000                      303391.477        1168.577          20.000  
E 7                   -188552.728       -1822.388          16.000                                                                  
E 8                     45618.564         116.092          13.000                       19848.710          82.177          13.000  
E25                    237545.664        3111.732          19.000                                                                  
E30                   -274935.849        -719.909          18.000                                                                  
J 2                    631739.649        1349.973          21.000                      247313.317        1007.340          18.000  
C21                    259748.454          -0.013          15.000                                                                                                                                  
C24                     -4996.253         -13.651          23.000                                                                                                                                  
C26                    863142.754        1896.038          24.000                                                                                      388074.642        1424.322          20.000  
C33                    -85667.864           0.000          17.000                                                                                      -28962.986        -516.643          13.000  
C35                    -63013.855        -589.577          33.000                                                                                                                                  
> 2022  1 25  4  4 23.0000000  0 19                     
G26                   -122433.593           0.002          19.000                      -50434.888        -202.133          16.000  
G29                    320181.863         898.756          26.000                                                                  
G31                    490349.471        1044.380          28.000                                                                  
G32                   1173960.379        2521.585          20.000                                                                  
R 1                                                        21.000  
R 3                                                        25.000  
R12                                                        19.000  
R21                                                        20.000  
E 2                    639257.463        1560.655          23.000                      307964.238        1165.639          24.000  
E 7                   -198119.823       -1818.160          17.000                                                                  
E 8                     46216.582         112.327          17.000                       20170.473          83.020          11.000  
E25                    253906.275        3113.147          17.000                                                                  
E30                   -278719.288        -720.267          18.000                                                                  
J 2                    638826.400        1348.548          21.000                      251267.228        1008.026          18.000  
C21                    280869.381          -0.013          16.000                                                                                                                                  
C24                     -5073.372         -15.376          22.000                                                                                                                                  
C26                    873002.964        1891.414          24.000                                                                                      393664.654        1426.470          18.000  
C33                    -89230.894           0.000          17.000                                                                                      -31000.473        -517.703          12.000  
C35                                                                                                                                                    -24178.520        -437.781          21.000  
> 2022  1 25  4  4 24.0000000  0 19                     
G26                   -123880.846        -276.300          20.000                      -51225.790        -200.454          16.000  
G29                    324930.626         911.457          33.000                                                                  
G31                    495852.646        1048.012          25.000                                                                  
G32                   1187213.035        2522.601          19.000                                                                  
R 1                                                        20.000  
R 3                                                        20.000  
R12                                                        18.000  
R21                                                        23.000  
E 2                    647462.874        1562.117          25.000                      312531.217        1165.258          23.000  
E 7                   -207691.310       -1823.726          18.000                                                                  
E 8                     46808.297         110.576          18.000                       20491.802          79.549          11.000  
E25                    270274.264        3117.029          18.000                                                                  
E30                   -282498.874        -718.204          19.000                                                                  
J 2                                                                                    255213.551        1003.027          20.000  
C21                    301995.663          -0.013          15.000                                                                                                                                  
C24                     -5157.214         -16.544          22.000                                                                                                                                  
C26                    882858.950        1893.827          22.000                                                                                      399259.165        1426.034          17.000  
C33                    -92794.573           0.000          18.000                                                                                      -33040.105        -521.337          15.000  
C35                                                                                                                                                    -25898.280        -439.503          19.000  
> 2022  1 25  4  4 25.0000000  0 19                     
G26                   -125333.378        -277.088          18.000                      -52017.023        -200.930          15.000  
G29                    329730.982         916.678          26.000                                                                  
G31                    501358.751        1046.935          29.000                                                                  
G32                   1200464.191        2520.153          20.000                                                                  
R 1                                                        20.000  
R 3                                                        25.000  
R12                                                        21.000  
R21                                                        20.000  
E 2                    655666.169        1559.862          22.000                      317097.306        1163.485          19.000  
E 7                   -217255.611       -1820.739          17.000                                                                  
E 8                     47401.305         113.178          16.000                       20801.467          77.769          12.000  
E25                    286659.086        3119.650          18.000                                                                  
E30                   -286276.219        -718.930          20.000                                                                  
J 2                    653003.707        1348.427          19.000                      259167.982        1010.402          19.000  
C21                    323120.849          -0.013          17.000                                                                                                                                  
C24                     -5243.574         -16.041          23.000                                                                                                                                  
C26                    892718.061        1892.363          24.000                                                                                      404856.947        1427.113          19.000  
C33                    -96360.650           0.000          18.000                                                                                      -35084.186        -520.649          13.000  
C35                                                                                                                                                    -27621.772        -438.775          19.000  
> 2022  1 25  4  4 26.0000000  0 18                     
G26                   -126782.254        -275.819          21.000                      -52805.932        -200.667          15.000  
G29                    334532.907         911.211          29.000                                                                  
G31                    506862.989        1047.336          27.000                                                                  
G32                   1213710.621        2522.074          21.000                                                                  
R 1                                                        21.000  
R 3                                                        31.000  
R12                                                        19.000  
R21                                                        19.000  
E 2                    663866.313        1564.342          20.000                      321661.168        1163.808          17.000  
E 7                   -226819.619       -1819.423          16.000                                                                  
E 8                     47993.193         114.134          15.000                       21098.936          73.955          11.000  
E25                    303029.779        3114.287          20.000                                                                  
E30                   -290053.212        -719.923          22.000                                                                  
J 2                    660098.399        1349.395          24.000                      263130.830        1008.351          18.000  
C24                     -5334.397         -19.967          25.000                                                                                                                                  
C26                    902577.411        1892.488          24.000                                                                                      410460.496        1429.740          18.000  
C33                    -99922.519           0.000          18.000                                                                                                                                  
C35                                                                                                                                                    -29346.543        -439.485          17.000  
> 2022  1 25  4  4 27.0000000  0 17                     
G26                   -128226.040        -274.201          22.000                      -53600.488        -202.013          14.000  
G29                    339317.888         908.190          25.000                                                                  
G31                    512362.851        1047.327          23.000                                                                  
G32                   1226965.330        2522.085          20.000                                                                  
R 1                                                        20.000  
R 3                                                        26.000  
R12                                                        20.000  
R21                                                        18.000  
E 2                    672088.015        1563.859          18.000                      326230.259        1166.756          15.000  
E 7                   -236391.470       -1823.640          15.000                                                                  
E 8                     48584.750         113.750          16.000                       21377.777          70.411          12.000  
E25                    319384.070        3110.028          18.000                                                                  
E30                   -293838.546        -719.137          24.000                                                                  
J 2                    667191.075        1349.323          22.000                      267087.699        1012.179          18.000  
C24                     -5444.756         -21.070          19.000                                                                                                                                  
C26                    912435.650        1892.446          25.000                                                                                      416072.970        1430.581          19.000  
C35                     -3907.590        -589.699          31.000                                                                                      -31069.341        -438.967          17.000  
> 2022  1 25  4  4 28.0000000  0 18                     
G16                    -15281.576       -2456.567          25.000                                                                  
G26                   -129669.253        -275.581          24.000                      -54394.930        -204.384          18.000  
G29                    344099.529         912.262          27.000                                                                  
G31                    517859.398        1045.865          23.000                                                                  
G32                   1240220.178        2522.135          21.000                                                                  
R 1                                                        20.000  
R 3                                                        30.000  
R12                                                        21.000  
R21                                                        18.000  
E 2                    680307.314        1564.115          18.000                      330805.164        1166.223          13.000  
E 7                   -245951.805       -1818.258          17.000                                                                  
E 8                     49178.218         113.236          15.000                                                                  
E25                    335734.621        3115.174          18.000                                                                  
E30                   -297604.623        -716.883          25.000                                                                  
J 2                    674289.764        1350.024          20.000                      271056.209        1011.054          17.000  
C24                     -5548.233         -17.415          29.000                                                                                                                                  
C26                    922285.362        1892.630          27.000                                                                                      421678.695        1427.618          19.000  
C35                                                                                                                                                    -32792.401        -439.344          17.000  
> 2022  1 25  4  4 29.0000000  0 22                     
G 3                     -1532.421        -227.842          22.000                                                                  
G16                    -28183.108       -2456.259          25.000                                                                  
G25                     34177.919        4212.192          19.000                                                                  
G26                   -131106.482        -272.562          25.000                      -55189.435        -202.909          22.000  
G29                    348906.966         912.281          25.000                                                                  
G31                    523354.966        1046.074          24.000                                                                  
G32                   1253482.215        2522.441          20.000                                                                  
R 1                                                        20.000  
R 3                                                        25.000  
R12                                                        19.000  
R21                                                        18.000  
E 2                    688506.806        1555.776          17.000                      335387.853        1167.958          14.000  
E 7                   -255512.611       -1820.244          15.000                                                                  
E 8                     49773.046         113.433          15.000                                                                  
E25                    352096.902        3113.326          18.000                                                                  
E30                   -301374.542        -717.311          24.000                                                                  
J 2                    681390.251        1351.711          23.000                      275017.865        1010.507          17.000  
C 7                      -963.606        -123.082          18.000                                                                                                                                  
C14                      7231.441         863.059          22.000                                                                                                                                  
C24                     -5634.674         -17.173          24.000                                                                                                                                  
C26                    932145.054        1893.418          25.000                                                                                      427279.299        1427.996          17.000  
C35                                                                                                                                                    -34516.967        -439.709          18.000  
> 2022  1 25  4  4 30.0000000  0 20                     
G16                    -41076.885       -2453.792          22.000                                                                  
G26                   -132541.018        -272.746          26.000                      -55985.275        -202.971          20.000  
G29                    353707.490         912.919          29.000                                                                  
G31                    528855.120        1046.715          20.000                                                                  
G32                   1266749.158        2525.469          22.000                                                                  
R 1                                                        20.000  
R 3                                                        24.000  
R12                                                        21.000  
R21                                                        20.000  
E 2                    696688.730        1557.763          16.000                      339972.219        1169.392          16.000  
E 7                   -265057.713       -1817.456          14.000                                                                  
E 8                     50370.667         114.101          15.000                                                                  
E25                    368457.581        3113.764          18.000                                                                  
E30                   -305140.721        -717.031          26.000                                                                  
J 2                    688488.269        1350.545          22.000                      278976.834        1007.719          21.000  
C 9                      1336.200          95.779          19.000                                                                                                                                  
C14                     11728.506         862.629          19.000                                                                                                                                  
C24                     -5717.360         -15.143          21.000                                                                                                                                  
C26                                                                                                                                                    432879.127        1427.635          17.000  
C35                                                                                                                                                    -36244.634        -437.576          16.000  
> 2022  1 25  4  4 31.0000000  0 20                     
G16                    -53971.531       -2453.477          22.000                                                                  
G26                   -133979.671        -273.831          25.000                      -56777.721        -200.881          23.000  
G29                    358499.010         913.214          27.000                                                                  
G31                    534353.553        1044.319          19.000                                                                  
G32                   1280020.959        2525.262          20.000                                                                  
R 1                                                        20.000  
R 3                                                        24.000  
R12                                                        20.000  
R21                                                        18.000  
E 2                    704877.262        1557.077          15.000                      344568.799        1174.979          13.000  
E 7                   -274609.165       -1819.857          16.000                                                                  
E 8                     50969.810         114.580          13.000                                                                  
E25                    384802.945        3110.292          15.000                                                                  
E30                   -308905.683        -717.221          26.000                                                                  
J 1                    233948.030         458.450          25.000                                                                  
J 2                    695591.118        1350.624          23.000                      282940.456        1011.058          17.000  
C 9                      1829.914          95.390          17.000                                                                                                                                  
C24                     -5801.524         -16.258          25.000                                                                                                                                  
C26                                                                                                                                                    438482.624        1427.817          17.000  
C35                                                                                                                                                    -37959.755        -438.907          16.000  
> 2022  1 25  4  4 32.0000000  0 18                     
G16                    -66863.920       -2452.582          20.000                                                                  
G26                   -135407.681        -272.523          32.000                      -57567.437        -201.245          24.000  
G29                    363293.402         915.299          28.000                                                                  
G31                    539837.669        1045.644          19.000                                                                  
G32                   1293297.933        2525.778          26.000                                                                  
R 1                                                        26.000  
R 3                                                        30.000  
R12                                                        20.000  
R21                                                        20.000  
E 2                    713061.626        1557.677          14.000                      349176.087        1173.743          14.000  
E 7                   -284158.020       -1818.007          18.000                                                                  
E 8                     51575.202         115.453          16.000                                                                  
E25                    401144.738        3110.309          17.000                                                                  
E30                   -312672.165        -714.554          21.000                                                                  
J 2                    702684.507        1351.336          23.000                      286900.728        1005.508          20.000  
C24                     -5882.169         -15.250          25.000                                                                                                                                  
C26                                                                                                                                                    444090.071        1429.673          19.000  
C35                                                                                                                                                    -39682.677        -440.088          15.000  
> 2022  1 25  4  4 33.0000000  0 20                     
G26                   -136814.236        -267.259          35.000                      -58360.206        -203.119          24.000  
G29                    368105.286         914.207          30.000                                                                  
G31                    545333.209        1043.672          19.000                                                                  
G32                   1306564.618        2525.588          22.000                                                                  
R 1                                                        24.000  
R 3                                                        26.000  
R12                                                        19.000  
R21                                                        22.000  
E 2                    721250.658        1558.354          15.000                      353780.982        1172.620          11.000  
E 7                   -293725.843       -1824.160          15.000                                                                  
E 8                     52184.539         116.257          15.000                                                                  
E25                    417485.195        3106.909          18.000                                                                  
E30                   -316432.591        -715.573          20.000                                                                  
J 1                    238782.768         458.660          30.000                                                                  
J 2                    709782.895        1350.228          24.000                      290856.662        1008.342          17.000  
C 6                      8312.492         285.896          16.000                                                                                                                                  
C24                     -5971.041         -18.683          26.000                                                                                                                                  
C26                                                                                                                                                    449700.974        1430.109          17.000  
C33                     -7538.226        -682.584          23.000                                                                                                                                  
C35                                                                                                                                                    -41403.720        -438.912          14.000  
> 2022  1 25  4  4 34.0000000  0 21                     
G 3                     -4688.280        -224.707          23.000                                                                  
G16                    -15784.925       -2455.185          20.000                                                                  
G25                     82803.454        4207.974          20.000                                                                  
G26                   -138227.684        -269.015          31.000                      -59140.839        -198.657          19.000  
G29                    372923.784         919.279          25.000                                                                  
G31                    550816.220        1043.089          18.000                                                                  
G32                   1319845.068        2526.834          28.000                                                                  
R 1                                                        22.000  
R 3                                                        27.000  
R12                                                        19.000  
R21                                                        20.000  
E 2                    729439.938        1558.763          14.000                      358379.663        1170.292          15.000  
E 7                   -303302.409       -1821.789          17.000                                                                  
E 8                     52797.909         117.195          15.000                                                                  
E25                    433836.244        3112.708          18.000                                                                  
E30                   -320188.220        -713.743          27.000                                                                  
J 2                    716876.625        1348.738          23.000                      294815.190        1007.082          19.000  
C24                     -6056.817         -15.120          23.000                                                                                                                                  
C26                                                                                                                                                    455308.131        1427.369          19.000  
C33                    -11088.909        -681.709          20.000                                                                                                                                  
C35                    -10480.402        -585.642          23.000                                                                                      -43128.230        -440.321          14.000  
> 2022  1 25  4  4 35.0000000  0 21                     
G 3                     -5873.644        -224.326          21.000                                                                  
G16                    -28678.600       -2452.253          18.000                                                                  
G25                    104923.455        4207.963          19.000                                                                  
G26                   -139630.664        -269.974          26.000                      -59936.440        -202.540          23.000  
G29                    377730.267         914.999          30.000                                                                  
G31                    556302.505        1044.447          19.000                                                                  
G32                   1333119.767        2524.985          27.000                                                                  
R 1                                                        23.000  
R 3                                                        27.000  
R12                                                        20.000  
R21                                                        22.000  
E 2                    737636.953        1560.570          14.000                                                                  
E 7                   -312864.614       -1818.316          18.000                                                                  
E 8                     53414.764         117.383          14.000                                                                  
E25                    450200.721        3116.606          15.000                                                                  
E30                   -323949.463        -714.605          22.000                                                                  
J 2                    723969.686        1349.853          22.000                      298770.660        1007.618          19.000  
C24                     -6139.809         -16.199          23.000                                                                                                                                  
C26                     17541.556        1882.202          27.000                                                                                      460899.117        1420.646          20.000  
C33                    -14631.766        -678.796          20.000                                                                                                                                  
C35                    -13519.110        -581.423          23.000                                                                                      -44854.046        -440.376          13.000  
> 2022  1 25  4  4 36.0000000  0 20                     
G 3                     -7047.741        -223.302          18.000                                                                  
G25                    127036.178        4207.987          16.000                                                                  
G26                   -141046.417        -270.931          25.000                      -60730.557        -206.592          26.000  
G29                    382559.733         923.255          28.000                                                                  
G31                    561789.176        1045.067          18.000                                                                  
G32                   1346405.971        2530.554          39.000                                                                  
R 1                                                        23.000  
R 3                                                        31.000  
R12                                                        21.000  
R21                                                        17.000  
E 2                    745833.922        1560.268          14.000                                                                  
E 7                   -322426.054       -1819.773          18.000                                                                  
E 8                     54029.523         116.849          15.000                                                                  
E25                    466575.278        3118.113          17.000                                                                  
E30                   -327709.973        -714.835          28.000                                                                  
J 2                    731065.495        1351.688          25.000                      302729.292        1007.905          20.000  
C24                     -6223.586         -16.582          23.000                                                                                                                                  
C26                     27377.897        1892.584          27.000                                                                                      466494.037        1427.836          20.000  
C33                    -18166.905        -679.858          22.000                                                                                                                                  
C35                    -16552.633           0.027          22.000                                                                                      -46577.658        -438.339          14.000  
