     3.04           OBSERVATION DATA    M: Mixed            RINEX VERSION / TYPE
Higeo_Hi1105        Huawei CBG          20220126 062241 UTC PGM / RUN BY / DATE 
************************************************************COMMENT             
* If you have any problem,                                 *COMMENT             
*     please contact with LBS Technology Group, thanks.    *COMMENT             
*                                                          *COMMENT             
* Version Higeo2RinexV1.1 2020.07.21                       *COMMENT             
* Fuction:  Convert Higeo Log to Rinex file                *COMMENT             
*                                                          *COMMENT             
* Note that the verision support B1C B2A signal            *COMMENT             
*     BDS: C1D L1D D1D S1D indicate BDS B1C                *COMMENT             
*     BDS: C5D L5D D5D S5D indicate BDS B2A                *COMMENT             
*     Reference: RINEX V3.04                               *COMMENT             
*                                                          *COMMENT             
* Copyright(C) Huawei Technologies Co., Ltd. 2019 - 2020   *COMMENT             
*     All rights reserved.                                 *COMMENT             
************************************************************COMMENT             
                                                            MARKER NAME         
                                                            MARKER NUMBER       
                                                            MARKER TYPE         
                                                            OBSERVER / AGENCY   
                                                            REC # / TYPE / VERS 
                                                            ANT # / TYPE        
        0.0000        0.0000        0.0000                  APPROX POSITION XYZ 
        0.0000        0.0000        0.0000                  ANTENNA: DELTA H/E/N
G    8 C1C L1C D1C S1C C5I L5I D5I S5I                      SYS / # / OBS TYPES 
R    4 C1C L1C D1C S1C                                      SYS / # / OBS TYPES 
E    8 C1C L1C D1C S1C C5I L5I D5I S5I                      SYS / # / OBS TYPES 
J    8 C1C L1C D1C S1C C5I L5I D5I S5I                      SYS / # / OBS TYPES 
C   12 C2I L2I D2I S2I C1D L1D D1D S1D C5D L5D D5D S5D      SYS / # / OBS TYPES 
  2022     1    25     3    14   40.0000000     GPS         TIME OF FIRST OBS   
  2022     1    25     3    33    3.0000000     GPS         TIME OF LAST OBS    
G                                                           SYS / PHASE SHIFT   
R                                                           SYS / PHASE SHIFT   
E                                                           SYS / PHASE SHIFT   
J                                                           SYS / PHASE SHIFT   
C                                                           SYS / PHASE SHIFT   
  0                                                         GLONASS SLOT / FRQ #
 C1C    0.000 C1P    0.000 C2C    0.000 C2P    0.000        GLONASS COD/PHS/BIS 
                                                            END OF HEADER       
> 2022  1 25  3 14 40.0000000  0  4                     
G25                     28708.759        3622.063          32.000                                                                  
G29                     -5488.476        -750.953          22.000                                                                  
G32                      9755.946        1004.205          33.000                                                                  
C26                      9762.989        1452.938          32.000                                                                                                                                  
> 2022  1 25  3 14 41.0000000  0  7                     
G25                     47740.447        3621.420          33.000                       16129.401        2703.625          24.000  
G29                     -9439.987        -751.542          20.000                                                                  
G31                      3379.169         467.274          32.000                                                                  
G32                     15028.919        1002.260          37.000                                                                  
R12                                                        20.000  
C 6                      3739.719         330.368          28.000                                                                                                                                  
C26                     17328.298        1453.595          33.000                                                                                                                                  
> 2022  1 25  3 14 42.0000000  0 10                     
G10                     19587.225        4329.933          19.000                                                                  
G25                     66754.862        3617.753          35.000                       26733.767        2702.099          24.000  
G26                    -14202.435       -1763.682          22.000                                                                  
G29                    -13390.608        -752.178          25.000                                                                  
G31                      5832.344         467.426          29.000                                                                  
G32                     20297.380        1003.017          36.000                                                                  
R 2                                                        27.000  
R12                                                        25.000  
C 6                      5437.144         330.905          17.000                                                                                                                                  
C26                     24896.762        1451.842          25.000                                                                                                                                  
> 2022  1 25  3 14 43.0000000  0 11                     
G10                     42340.075        4328.559          20.000                                                                  
G25                     85768.807        3618.248          35.000                       37335.592        2701.132          25.000  
G26                    -23449.102       -1757.061          19.000                                                                  
G29                    -17340.202        -750.539          25.000                                                                  
G31                      8281.435         465.378          31.000                                                                  
G32                     25561.532        1000.062          37.000                                                                  
R 1                                                        23.000  
R 2                                                        25.000  
R12                                                        25.000  
C 6                      7135.213         322.930          24.000                                                                                                                                  
C26                     32448.810        1449.121          27.000                                                                                                                                  
> 2022  1 25  3 14 44.0000000  0 11                     
G10                     65073.841        4325.468          23.000                                                                  
G25                    104774.045        3616.213          33.000                       47934.461        2700.677          28.000  
G26                    -32688.691       -1757.100          19.000                                                                  
G29                    -21287.427        -751.583          23.000                                                                  
G31                     10715.061         460.653          29.000                                                                  
G32                     30819.802         999.981          38.000                                                                  
R 1                                                        20.000  
R 2                                                        27.000  
R12                                                        19.000  
C 6                      8807.535         318.580          26.000                                                                                                                                  
C26                     39990.934        1447.615          26.000                                                                                                                                  
> 2022  1 25  3 14 45.0000000  0 11                     
G10                     87798.820        4323.688          25.000                                                                  
G25                    123778.143        3616.935          32.000                       58529.584        2699.737          30.000  
G26                    -41923.614       -1756.074          21.000                                                                  
G29                    -25236.243        -752.714          25.000                                                                  
G31                     13142.023         461.489          29.000                                                                  
G32                     36070.742         998.293          37.000                                                                  
R 1                                                        18.000  
R 2                                                        24.000  
R12                                                        20.000  
C 6                     10469.059         318.330          27.000                                                                                                                                  
C26                     47534.908        1451.021          31.000                                                                                                                                  
> 2022  1 25  3 14 46.0000000  0 11                     
G10                    110516.238        4323.279          23.000                                                                  
G25                    142783.460        3615.424          31.000                       69122.977        2699.573          29.000  
G26                    -51162.394       -1758.234          25.000                                                                  
G29                    -29195.092        -752.658          27.000                                                                  
G31                     15570.147         463.071          28.000                                                                  
G32                     41320.813         999.893          38.000                                                                  
R 1                                                        18.000  
R 2                                                        25.000  
R12                                                        19.000  
C 6                     12128.444         318.914          25.000                                                                                                                                  
C26                     55075.819        1447.173          29.000                                                                                                                                  
> 2022  1 25  3 14 47.0000000  0 11                     
G10                    133229.649        4321.961          25.000                                                                  
G25                    161779.678        3612.482          32.000                       79713.860        2698.589          28.000  
G26                    -60402.961       -1759.820          24.000                                                                  
G29                    -33159.374        -754.615          28.000                                                                  
G31                     17999.987         462.187          27.000                                                                  
G32                     46567.480         998.398          38.000                                                                  
R 1                                                        19.000  
R 2                                                        26.000  
R12                                                        18.000  
C 6                     13781.179         316.515          25.000                                                                                                                                  
C26                     62606.256        1446.249          29.000                                                                                                                                  
> 2022  1 25  3 14 48.0000000  0 13                     
G10                    155940.499        4321.309          24.000                                                                  
G25                    180770.330        3613.178          31.000                       90302.712        2698.073          31.000  
G26                    -69651.331       -1760.563          24.000                                                                  
G29                    -37129.476        -754.597          26.000                                                                  
G31                     20427.143         460.814          25.000                                                                  
G32                     51810.328         996.492          37.000                                                                  
R 1                                                        21.000  
R 2                                                        23.000  
R12                                                        20.000  
E25                     15683.585        2859.251          30.000                                                                  
C 6                     15433.615         318.598          27.000                                                                                                                                  
C 9                      2271.579         236.625          26.000                                                                                                                                  
C26                     70134.785        1446.447          33.000                                                                                                                                  
> 2022  1 25  3 14 49.0000000  0 15                     
G10                    178638.137        4317.087          24.000                                                                  
G25                    199758.364        3613.660          33.000                      100890.017        2698.079          30.000  
G26                    -78901.137       -1758.630          23.000                                                                  
G29                    -41099.968        -757.858          28.000                                                                  
G31                     22847.792         460.079          27.000                                                                  
G32                     57050.247         997.822          38.000                                                                  
R 1                                                        20.000  
R 2                                                        23.000  
R12                                                        19.000  
E25                     30730.892        2865.855          30.000                                                                  
J 1                      3013.519         178.699          23.000                                                                  
J 2                     81311.587        1431.418          34.000                                                                  
C 6                     17088.977         317.766          25.000                                                                                                                                  
C 9                      3548.655         256.432          26.000                                                                                                                                  
C26                     77661.259        1446.069          30.000                                                                                                                                  
> 2022  1 25  3 14 51.0000000  0 16                     
G10                    204143.482        4318.376          25.000                                                                  
G25                    221092.074        3610.871          31.000                      112787.982        2697.520          28.000  
G26                    -89298.976       -1760.970          26.000                                                                  
G29                    -45574.488        -756.102          29.000                                                                  
G31                     25562.039         460.040          28.000                                                                  
G32                     62938.254         996.135          39.000                                                                  
R 1                                                        24.000  
R 2                                                        25.000  
R12                                                        27.000  
E 8                     -6148.086        -817.920          23.000                                                                  
E25                     47651.866        2865.005          30.000                                                                  
J 1                      4063.667         175.492          28.000                                                                  
J 2                     89756.646        1430.011          36.000                                                                  
C 6                     18939.817         315.497          21.000                                                                                                                                  
C 9                      5005.581         239.650          26.000                                                                                                                                  
C26                     86111.660        1442.937          25.000                                                                                                                                  
> 2022  1 25  3 14 52.0000000  0 19                     
G10                    226833.767        4316.350          25.000                                                                  
G25                    240070.923        3611.619          32.000                      123371.801        2696.727          27.000  
G26                    -98557.694       -1761.437          26.000                                                                  
G29                    -49555.137        -759.437          29.000                                                                  
G31                     27967.189         457.547          22.000                                                                  
G32                     68171.575         997.356          39.000                                                                  
R 1                                                        23.000  
R 2                                                        24.000  
R12                                                        22.000  
E 2                     13012.156         624.740          29.000                                                                  
E 8                    -10463.224        -822.706          24.000                                                                  
E25                     62700.995        2863.922          27.000                                                                  
J 1                      4990.371         176.568          25.000                                                                  
J 2                     97266.446        1428.325          34.000                                                                  
C 6                     20577.717         314.024          22.000                                                                                                                                  
C10                     -1141.332        -386.574          21.000                                                                                                                                  
C21                     12733.222        3488.111          24.000                                                                                                                                  
C24                     -2326.306        -657.520          22.000                                                                                                                                  
C26                     93617.875        1442.190          25.000                                                                                                                                  
> 2022  1 25  3 14 53.0000000  0 20                     
G10                    249517.973        4316.695          24.000                                                                  
G25                    259049.326        3610.936          36.000                      133954.792        2696.950          29.000  
G26                   -107820.321       -1762.874          28.000                                                                  
G29                    -53541.820        -758.438          29.000                                                                  
G31                     30380.347         460.579          19.000                                                                  
G32                     73407.121         995.829          39.000                                                                  
R 1                                                        20.000  
R 2                                                        23.000  
R12                                                        21.000  
E 2                     16290.255         623.147          27.000                                                                  
E 8                    -14786.502        -823.061          23.000                                                                  
E25                     77747.873        2863.007          32.000                       30496.242        2137.575          26.000  
J 1                      5915.207         175.126          26.000                                                                  
J 2                    104777.378        1426.806          36.000                                                                  
C 1                      4524.059         731.633          27.000                                                                                                                                  
C 6                     22208.354         312.359          20.000                                                                                                                                  
C 9                      1590.797         230.800          23.000                                                                                                                                  
C10                     -3160.198        -388.765          22.000                                                                                                                                  
C21                     30891.461        3486.750          24.000                                                                                                                                  
C26                    101139.651        1445.501          21.000                                                                                                                                  
> 2022  1 25  3 14 54.0000000  0 21                     
G10                    272206.024        4317.520          24.000                                                                  
G25                    278027.100        3610.636          35.000                      144535.772        2696.442          30.000  
G26                   -117088.350       -1761.734          26.000                                                                  
G29                    -57516.203        -755.567          29.000                                                                  
G31                     32792.671         458.807          18.000                                                                  
G32                     78640.202         995.235          39.000                                                                  
R 1                                                        18.000  
R 2                                                        23.000  
R12                                                        24.000  
E 2                     19565.579         622.459          26.000                                                                  
E 8                    -19111.229        -822.801          23.000                                                                  
E25                     92788.840        2861.961          28.000                       38882.733        2105.239          27.000  
J 1                      6827.881         174.101          25.000                                                                  
J 2                    112276.908        1427.765          35.000                                                                  
C 1                      8293.477         733.978          26.000                                                                                                                                  
C 6                     23834.953         312.573          19.000                                                                                                                                  
C 9                      2789.576         229.894          23.000                                                                                                                                  
C10                     -5177.304        -386.018          23.000                                                                                                                                  
C14                     -8379.027        -705.754          23.000                                                                                                                                  
C21                     49049.209        3486.026          23.000                                                                                                                                  
C26                    108653.469        1440.872          18.000                                                                                                                                  
> 2022  1 25  3 14 55.0000000  0 23                     
G10                    294903.635        4318.395          24.000                                                                  
G25                    297004.440        3610.104          29.000                      155116.225        2696.730          28.000  
G26                   -126347.013       -1761.604          22.000                                                                  
G29                    -61496.381        -758.022          29.000                                                                  
G31                     35192.173         455.575          20.000                                                                  
G32                     83870.472         994.093          38.000                                                                  
R 1                                                        19.000  
R 2                                                        24.000  
R12                                                        25.000  
E 2                     22839.565         622.919          26.000                                                                  
E 8                    -23437.851        -822.651          20.000                                                                  
E25                    107827.038        2861.499          28.000                       47033.393        2082.682          26.000  
E30                    -18116.543       -1516.580          20.000                                                                  
J 1                      7747.657         174.230          24.000                                                                  
J 2                    119780.436        1427.895          33.000                                                                  
C 1                     12170.039         742.966          27.000                                                                                                                                  
C 6                     25473.746         315.906          18.000                                                                                                                                  
C 9                      3985.278         228.914          23.000                                                                                                                                  
C10                     -7199.014        -389.336          22.000                                                                                                                                  
C14                    -12055.354        -705.787          24.000                                                                                                                                  
C21                     67201.679        3484.339          24.000                                                                                                                                  
C24                    -12654.217        -661.572          19.000                                                                                                                                  
C26                    116151.003        1440.221          23.000                                                                                                                                  
> 2022  1 25  3 14 56.0000000  0 25                     
G10                    317582.266        4314.037          22.000                                                                  
G25                    315973.327        3608.777          32.000                      165692.805        2692.821          23.000  
G26                   -135611.937       -1764.109          24.000                                                                  
G29                    -65492.887        -759.420          26.000                                                                  
G31                     37582.324         455.732          33.000                                                                  
G32                     89097.439         994.514          34.000                        3985.259         744.317          21.000  
R 1                                                        27.000  
R 2                                                        26.000  
R12                                                        25.000  
E 2                     26108.936         621.751          26.000                                                                  
E 8                    -27766.769        -823.402          28.000                                                                  
E25                    122861.867        2860.857          33.000                       55360.413        2140.620          26.000  
E30                    -26085.218       -1517.452          18.000                                                                  
J 1                      8659.687         173.165          31.000                                                                  
J 2                    127275.548        1427.684          30.000                                                                  
C 1                     16076.520         745.439          30.000                                                                                                                                  
C 6                     27096.704         310.457          25.000                                                                                                                                  
C 7                     -7220.161        -438.592          23.000                                                                                                                                  
C 9                      5176.744         228.734          30.000                                                                                                                                  
C10                     -9226.161        -389.292          20.000                                                                                                                                  
C14                    -15731.871        -706.250          19.000                                                                                                                                  
C21                     85347.835        3483.659          33.000                                                                                                                                  
C24                    -16108.209        -664.502          25.000                                                                                                                                  
C26                    123651.359        1441.170          28.000                                                                                                                                  
C33                    -45529.307       -1871.258          21.000                                                                                                                                  
> 2022  1 25  3 14 57.0000000  0 25                     
G10                    340255.989        4315.015          19.000                                                                  
G25                    334947.099        3613.411          33.000                      176270.393        2693.505          27.000  
G26                   -144878.321       -1762.318          24.000                                                                  
G29                    -69479.602        -757.715          27.000                                                                  
G31                     39991.676         456.652          26.000                                                                  
G32                     94332.493         998.930          34.000                        6904.737         747.776          24.000  
R 1                                                        21.000  
R 2                                                        23.000  
R12                                                        18.000  
E 2                     29389.561         625.068          23.000                                                                  
E 8                    -32095.722        -823.019          24.000                                                                  
E25                    137902.263        2862.626          29.000                       63855.121        2173.908          27.000  
E30                    -34066.478       -1517.661          18.000                                                                  
J 1                      9563.275         171.776          25.000                                                                  
J 2                    134774.838        1429.515          29.000                                                                  
C 1                     20020.030         760.711          25.000                                                                                                                                  
C 6                     28713.578         311.757          20.000                                                                                                                                  
C 7                     -9503.609        -438.044          18.000                                                                                                                                  
C 9                      6382.893         229.246          25.000                                                                                                                                  
C10                    -11253.269        -388.829          17.000                                                                                                                                  
C14                    -19404.201        -704.674          20.000                                                                                                                                  
C21                    103498.256        3488.559          22.000                                                                                                                                  
C24                    -19556.506        -660.797          19.000                                                                                                                                  
C26                    131160.605        1442.889          25.000                                                                                                                                  
C33                    -55272.569       -1870.837          22.000                                                                                                                                  
> 2022  1 25  3 14 58.0000000  0 25                     
G10                    362934.459        4317.673          17.000                                                                  
G25                    353914.892        3610.359          25.000                      186836.156        2696.587          21.000  
G26                   -154144.755       -1765.013          20.000                                                                  
G29                    -73464.685        -757.218          29.000                                                                  
G31                     42392.324         456.292          33.000                                                                  
G32                     99575.207         993.873          25.000                        9818.264         743.900          24.000  
R 1                                                        18.000  
R 2                                                        24.000  
R12                                                        18.000  
E 8                    -36427.662        -824.856          20.000                                                                  
E25                    152940.849        2860.302          27.000                       72339.091        2148.985          25.000  
E30                    -42049.844       -1518.945          24.000                                                                  
J 1                     10456.912         170.014          24.000                                                                  
J 2                    142268.769        1424.779          23.000                        2667.427        1064.455          26.000  
C 1                     23936.442         747.467          23.000                                                                                                                                  
C 6                     30324.478         309.084          20.000                                                                                                                                  
C 7                    -11788.101        -441.384          15.000                                                                                                                                  
C 9                      7573.949         226.888          24.000                                                                                                                                  
C10                    -13284.038        -391.370          17.000                                                                                                                                  
C14                    -23072.070        -705.957          20.000                                                                                                                                  
C21                    121646.953        3484.403          24.000                                                                                                                                  
C24                    -23005.305        -661.275          20.000                                                                                                                                  
C26                    138668.794        1440.493          27.000                                                                                                                                  
C33                    -65015.460       -1871.451          23.000                                                                                                                                  
C35                    -10667.781       -1322.046          25.000                                                                                                                                  
> 2022  1 25  3 14 59.0000000  0 26                     
G10                    385617.519        4314.508          17.000                                                                  
G25                    372884.535        3610.862          23.000                      197411.425        2694.008          20.000  
G26                   -163416.074       -1763.596          24.000                                                                  
G29                    -77458.573        -761.382          28.000                                                                  
G31                     44782.432         453.470          31.000                                                                  
G32                    104801.130         995.310          21.000                       12733.801         741.454          23.000  
R 1                                                        20.000  
R 2                                                        25.000  
R12                                                        17.000  
E 3                     93722.503        1708.399          24.000                                                                  
E 8                    -40765.406        -823.461          18.000                                                                  
E25                    167970.933        2860.091          29.000                       80675.858        2168.408          26.000  
E30                    -50038.111       -1519.700          21.000                                                                  
J 1                     11352.934         170.619          27.000                                                                  
J 2                    149754.064        1421.163          17.000                        6842.238        1063.913          24.000  
C 1                     27886.876         764.227          24.000                                                                                                                                  
C 6                     31929.339         308.295          22.000                                                                                                                                  
C 7                    -14083.189        -442.006          16.000                                                                                                                                  
C 9                      8756.037         226.655          27.000                                                                                                                                  
C10                    -15322.556        -392.490          14.000                                                                                                                                  
C14                    -26754.251        -706.482          24.000                                                                                                                                  
C21                    139796.097        3485.602          27.000                                                                                                                                  
C24                    -26453.769           0.001          17.000                                                                                                                                  
C26                    146171.857        1439.631          26.000                                                                                                                                  
C33                    -74768.486       -1873.933          20.000                                                                                                                                  
C35                    -17545.163       -1320.718          23.000                                                                                                                                  
> 2022  1 25  3 15  0.0000000  0 28                     
G10                    408286.648        4313.772          23.000                                                                  
G25                    391855.542        3611.668          26.000                      207984.807        2695.945          27.000  
G26                   -172681.515       -1763.644          26.000                                                                  
G29                    -81447.165        -758.497          30.000                                                                  
G31                     47156.589         451.673          29.000                                                                  
G32                    110024.227         996.487          26.000                       15656.754         746.208          19.000  
R 1                                                        27.000  
R 2                                                        25.000  
R12                                                        24.000  
E 2                     39243.090         620.841          24.000                                                                  
E 3                    102691.947        1706.654          31.000                                                                  
E 8                    -45103.919        -826.188          26.000                                                                  
E25                    182994.021        2858.858          30.000                       88852.397        2106.588          26.000  
E30                    -58018.470       -1519.245          20.000                                                                  
J 1                     12243.915         167.300          28.000                                                                  
J 2                    157224.419        1422.709          25.000                       11008.286        1058.743          21.000  
C 1                     31922.357         765.163          26.000                                                                                                                                  
C 6                     33533.011         309.154          23.000                                                                                                                                  
C 7                    -16390.420        -443.932          17.000                                                                                                                                  
C 9                      9927.194         223.927          25.000                                                                                                                                  
C10                    -17363.904        -390.856          17.000                                                                                                                                  
C14                    -30429.294        -705.685          23.000                                                                                                                                  
C21                    157942.003        3483.986          35.000                                                                                                                                  
C24                    -29895.726           0.001          17.000                                                                                                                                  
C26                    153662.800        1439.321          34.000                                                                                                                                  
C29                      4520.307         114.156          16.000                                                                                                                                  
C33                    -84526.571       -1873.769          21.000                                                                                                                                  
C35                    -24427.818       -1323.382          31.000                                                                                                                                  
> 2022  1 25  3 15  1.0000000  0 28                     
G10                    430950.123        4309.600          18.000                                                                  
G25                    410828.508        3609.925          28.000                      218562.308        2694.864          29.000  
G26                   -181952.083       -1763.518          18.000                                                                  
G29                    -85438.153        -760.480          29.000                                                                  
G31                     49542.808         454.942          29.000                                                                  
G32                    115261.196         997.956          32.000                       18581.692         744.972          17.000  
R 1                                                        24.000  
R 2                                                        23.000  
R12                                                        18.000  
E 2                     42511.748         622.506          27.000                                                                  
E 3                    111672.904        1708.914          23.000                                                                  
E 8                    -49434.904        -825.470          20.000                                                                  
E25                    198023.123        2859.924          28.000                       97241.773        2087.335          26.000  
E30                    -66007.169       -1521.494          18.000                                                                  
J 1                     13145.622         173.592          25.000                                                                  
J 2                    164702.647        1423.874          29.000                       15180.999        1064.384          20.000  
C 1                     35830.643         746.983          26.000                                                                                                                                  
C 6                     35141.556         308.910          19.000                                                                                                                                  
C 7                    -18695.360        -441.084          17.000                                                                                                                                  
C 9                     11105.721         226.299          27.000                                                                                                                                  
C10                    -19394.999        -390.834          19.000                                                                                                                                  
C14                    -34098.111        -705.785          18.000                                                                                                                                  
C21                    176087.411        3484.627          30.000                                                                                                                                  
C24                    -33338.602        -661.769          27.000                                                                                                                                  
C26                    161162.066        1441.417          25.000                                                                                                                                  
C29                      5117.416         114.333          13.000                                                                                                                                  
C33                    -94293.839          -0.000          17.000                                                                                                                                  
C35                    -31324.584       -1323.884          29.000                                                                                                                                  
> 2022  1 25  3 15  2.0000000  0 28                     
G10                    453602.933        4312.766          19.000                                                                  
G25                    429783.082        3606.583          28.000                      229139.298        2696.308          22.000  
G26                   -191215.967           0.002          21.000                                                                  
G29                    -89423.835        -758.021          29.000                                                                  
G31                     51937.249         454.794          24.000                                                                  
G32                    120489.899         993.846          24.000                       21499.092         741.789          17.000  
R 1                                                        29.000  
R 2                                                        23.000  
R12                                                        24.000  
E 2                     45778.083         621.374          24.000                                                                  
E 3                    120648.109        1708.052          30.000                                                                  
E 8                    -53758.607        -822.369          20.000                                                                  
E25                    213047.380        2859.071          28.000                      105657.540        2148.548          25.000  
E30                    -73996.853       -1519.450          18.000                                                                  
J 1                     14047.356         170.761          27.000                                                                  
J 2                    172176.928        1423.434          26.000                       19355.440        1064.017          19.000  
C 1                     39642.369         734.358          27.000                                                                                                                                  
C 6                     36750.464         308.288          21.000                                                                                                                                  
C 7                    -20988.034        -440.036          18.000                                                                                                                                  
C 9                     12282.838         227.328          25.000                                                                                                                                  
C10                    -21433.071        -391.527          18.000                                                                                                                                  
C14                    -37768.774        -703.154          17.000                                                                                                                                  
C21                    194226.956        3482.338          33.000                                                                                                                                  
C24                    -36787.344        -663.687          25.000                                                                                                                                  
C26                    168658.937        1439.396          34.000                                                                                                                                  
C29                      5718.720         119.183          15.000                                                                                                                                  
C33                   -104076.266          -0.000          18.000                                                                                                                                  
C35                    -38207.799       -1319.830          25.000                                                                                                                                  
> 2022  1 25  3 15  3.0000000  0 28                     
G10                    476265.864        4312.726          22.000                                                                  
G25                    448747.894        3610.608          36.000                      239716.686        2694.584          24.000  
G26                   -200478.955       -1763.391          26.000                                                                  
G29                    -93399.591        -755.913          33.000                                                                  
G31                     54319.651         454.260          32.000                                                                  
G32                    125714.094         994.312          31.000                       24410.974         743.389          20.000  
R 1                                                        28.000  
R 2                                                        23.000  
R12                                                        22.000  
E 2                     49043.278         621.052          27.000                                                                  
E 3                    129623.206        1708.137          27.000                                                                  
E 8                    -58096.376        -826.539          30.000                                                                  
E25                    228069.862        2858.651          29.000                      113973.490        2134.009          28.000  
E30                    -81989.935       -1524.124          17.000                                                                  
J 1                     14941.916         170.374          25.000                                                                  
J 2                    179657.756        1421.846          28.000                       23526.953        1062.665          24.000  
C 1                     43476.523         738.057          27.000                                                                                                                                  
C 6                     38350.003         305.898          30.000                                                                                                                                  
C 7                    -23288.335        -443.924          20.000                                                                                                                                  
C 9                     13454.909         222.927          30.000                                                                                                                                  
C10                    -23469.273        -390.983          20.000                                                                                                                                  
C14                    -41440.187        -706.935          19.000                                                                                                                                  
C21                    212366.147        3484.568          27.000                                                                                                                                  
C24                    -40241.304        -661.705          28.000                                                                                                                                  
C26                    176150.205        1438.620          35.000                                                                                                                                  
C29                      6329.368         117.548          17.000                                                                                                                                  
C33                   -113849.639       -1876.609          18.000                                                                                                                                  
C35                    -45087.556       -1323.661          31.000                                                                                                                                  
> 2022  1 25  3 15  4.0000000  0 27                     
G10                    498930.148        4312.040          22.000                                                                  
G25                    467718.791        3607.785          29.000                      250289.639        2694.166          21.000  
G26                   -209748.282       -1764.947          24.000                                                                  
G29                    -97386.532        -760.313          32.000                                                                  
G31                     56709.097         453.074          26.000                                                                  
G32                    130939.767         992.295          33.000                       27323.955         741.594          20.000  
R 1                                                        30.000  
R 2                                                        27.000  
R12                                                        20.000  
E 2                     52301.240         618.807          20.000                                                                  
E 3                    138594.604        1707.018          34.000                                                                  
E 8                    -62441.840        -828.101          23.000                                                                  
E25                    243087.614        2857.636          33.000                      122112.048        2087.868          27.000  
E30                    -89993.101       -1523.514          15.000                                                                  
J 1                     15838.665         170.185          29.000                                                                  
J 2                    187122.901        1420.856          29.000                       27699.824        1063.387          23.000  
C 1                     47337.581         739.822          29.000                                                                                                                                  
C 6                     39939.493         305.207          23.000                                                                                                                                  
C 7                    -25587.077        -439.484          20.000                                                                                                                                  
C 9                     14615.790         221.006          19.000                                                                                                                                  
C10                    -25507.452        -391.488          19.000                                                                                                                                  
C21                    230501.287        3483.406          31.000                                                                                                                                  
C24                    -43691.683        -663.844          29.000                                                                                                                                  
C26                    183641.227        1438.163          30.000                                                                                                                                  
C29                      6947.293         118.616          17.000                                                                                                                                  
C33                   -123621.794       -1876.703          22.000                                                                                                                                  
C35                    -51992.217       -1324.723          23.000                                                                                                                                  
> 2022  1 25  3 15  5.0000000  0 28                     
G10                    521586.787        4312.740          20.000                                                                  
G25                    486679.454        3608.126          36.000                      260862.287        2694.498          25.000  
G26                   -219026.469       -1764.790          25.000                                                                  
G29                   -101375.434        -758.295          32.000                                                                  
G31                     59085.613         452.192          30.000                                                                  
G32                    136166.653         996.885          35.000                       30238.745         742.192          20.000  
R 1                                                        29.000  
R 2                                                        23.000  
R12                                                        19.000  
E 2                     55560.821         620.702          30.000                                                                  
E 3                    147565.096        1707.144          26.000                                                                  
E 8                    -66790.317        -827.493          28.000                                                                  
E25                    258103.259        2857.106          31.000                      130237.449        2062.349          27.000  
E30                    -97998.575       -1522.804          16.000                                                                  
J 1                     16736.543         169.435          26.000                                                                  
J 2                    194591.123        1420.272          28.000                       31863.470        1061.262          24.000  
C 1                     51208.126         744.606          27.000                                                                                                                                  
C 6                     41526.923         304.817          27.000                                                                                                                                  
C 7                    -27867.176        -438.915          19.000                                                                                                                                  
C 9                     15769.986         222.624          28.000                                                                                                                                  
C10                    -27561.831        -395.191          20.000                                                                                                                                  
C14                     -5430.081        -700.023          18.000                                                                                                                                  
C21                    248633.845        3484.318          28.000                                                                                                                                  
C24                    -47154.960        -668.106          26.000                                                                                                                                  
C26                    191130.802        1438.092          35.000                                                                                                                                  
C29                      7559.605         116.316          15.000                                                                                                                                  
C33                   -133398.069       -1878.327          21.000                                                                                                                                  
C35                    -58890.856       -1324.193          28.000                                                                                                                                  
> 2022  1 25  3 15  6.0000000  0 28                     
G10                    544242.839        4309.654          17.000                                                                  
G25                    505641.238        3609.066          29.000                      271435.568        2693.975          30.000  
G26                   -228290.982       -1762.680          17.000                                                                  
G29                   -105362.509        -757.903          26.000                                                                  
G31                     61473.896         454.900          24.000                                                                  
G32                    141395.070         996.910          34.000                       33157.314         743.342          17.000  
R 1                                                        25.000  
R 2                                                        27.000  
R12                                                        22.000  
E 2                     58825.901         621.394          27.000                                                                  
E 3                    156539.209        1707.432          31.000                                                                  
E 8                    -71136.206        -826.120          23.000                                                                  
E25                    273120.196        2857.156          30.000                      138390.607        2059.209          26.000  
E30                   -106006.469       -1524.161          15.000                                                                  
J 1                     17628.491         168.894          29.000                                                                  
J 2                    202053.676        1418.484          26.000                       36036.675        1063.178          17.000  
C 1                     55101.562         728.953          27.000                                                                                                                                  
C 6                     43112.723         304.419          25.000                                                                                                                                  
C 7                    -30157.015        -442.058          19.000                                                                                                                                  
C 9                     16931.290         223.680          28.000                                                                                                                                  
C10                    -29626.647        -398.169          17.000                                                                                                                                  
C14                     -9075.646        -700.603          20.000                                                                                                                                  
C21                    266778.678        3484.977          30.000                                                                                                                                  
C24                    -50611.485        -661.853          20.000                                                                                                                                  
C26                    198622.472        1437.283          27.000                                                                                                                                  
C29                      8166.392         116.375          15.000                                                                                                                                  
C33                   -143164.472       -1876.187          20.000                                                                                                                                  
C35                    -65786.436       -1325.056          27.000                                                                                                                                  
> 2022  1 25  3 15  7.0000000  0 28                     
G10                    566888.111        4309.796          20.000                                                                  
G25                    524607.906        3608.215          35.000                      282006.532        2695.456          23.000  
G26                   -237559.203       -1764.941          16.000                                                                  
G29                   -109346.765        -759.166          21.000                                                                  
G31                     63857.316         451.943          34.000                                                                  
G32                    146626.569         995.289          31.000                       36065.940         741.420          18.000  
R 1                                                        19.000  
R 2                                                        26.000  
R12                                                        23.000  
E 2                     62088.848         621.813          25.000                                                                  
E 3                    165510.158        1706.566          20.000                                                                  
E 8                    -75487.724        -827.580          32.000                                                                  
E25                    288126.796        2855.954          28.000                                                                  
E30                   -114016.627       -1524.659          15.000                                                                  
J 1                     18510.732         167.433          21.000                                                                  
J 2                    209511.562        1420.351          23.000                       40210.358        1063.183          17.000  
C 1                     58925.305         733.944          22.000                                                                                                                                  
C 6                     44693.079         303.895          29.000                                                                                                                                  
C 7                    -32452.137        -439.520          16.000                                                                                                                                  
C 9                     18084.835         222.228          28.000                                                                                                                                  
C10                    -31695.180        -395.779          16.000                                                                                                                                  
C14                    -12741.969        -706.787          23.000                                                                                                                                  
C21                    284921.418        3482.557          20.000                                                                                                                                  
C24                    -54062.202        -663.498          23.000                                                                                                                                  
C26                    206110.695        1437.999          33.000                                                                                                                                  
C29                      8761.139           0.008          12.000                                                                                                                                  
C33                   -152941.656       -1877.287          33.000                                                                                                                                  
C35                    -72678.226       -1322.337          23.000                                                                                                                                  
> 2022  1 25  3 15  8.0000000  0 28                     
G10                    589541.112        4312.590          17.000                                                                  
G25                    543573.307        3604.853          30.000                      292568.464        2690.203          22.000  
G26                   -246824.961       -1762.237          20.000                                                                  
G29                   -113335.417        -761.008          30.000                                                                  
G31                     66225.691         453.467          27.000                                                                  
G32                    151856.367         998.955          31.000                       38977.458         741.038          24.000  
R 1                                                        24.000  
R 2                                                        20.000  
R12                                                        23.000  
E 2                     65356.779         620.792          21.000                                                                  
E 3                    174485.990        1710.239          24.000                                                                  
E 8                    -79831.672        -826.273          29.000                                                                  
E25                    303140.420        2851.393          27.000                                                                  
E30                   -122020.918       -1522.469          20.000                                                                  
J 1                     19399.367         169.398          26.000                                                                  
J 2                    216972.398        1420.684          27.000                       44370.337        1058.370          24.000  
C 1                     62763.860         738.267          26.000                                                                                                                                  
C 6                     46277.526         302.457          22.000                                                                                                                                  
C 7                    -34757.035        -443.746          17.000                                                                                                                                  
C 9                     19242.796         221.338          25.000                                                                                                                                  
C10                    -33753.074        -395.424          16.000                                                                                                                                  
C14                    -16420.637        -705.145          29.000                                                                                                                                  
C21                    303066.571        3485.527          29.000                                                                                                                                  
C24                    -57513.792        -656.652          25.000                                                                                                                                  
C26                    213609.089        1438.958          23.000                                                                                                                                  
C29                      9354.597           0.008          13.000                                                                                                                                  
C33                   -162706.867       -1875.801          26.000                                                                                                                                  
C35                    -79576.122       -1325.110          25.000                                                                                                                                  
> 2022  1 25  3 15  9.0000000  0 28                     
G10                    612198.032        4311.519          17.000                                                                  
G25                    562528.061        3609.630          26.000                      303132.182        2695.063          21.000  
G26                   -256080.482       -1761.157          21.000                                                                  
G29                   -117333.224        -759.783          29.000                                                                  
G31                     68601.790         452.736          25.000                                                                  
G32                    157086.703         995.686          37.000                       41891.890         743.084          25.000  
R 1                                                        24.000  
R 2                                                        22.000  
R12                                                        22.000  
E 2                     68622.569         622.400          22.000                                                                  
E 3                    183462.131        1707.742          24.000                                                                  
E 8                    -84175.003        -826.209          27.000                                                                  
E25                    318136.462        2856.189          23.000                                                                  
E30                   -130018.153       -1521.274          18.000                                                                  
J 1                     20298.051         170.087          33.000                                                                  
J 2                    224432.296        1418.806          29.000                       48531.865        1060.790          26.000  
C 1                     66680.420         757.209          27.000                                                                                                                                  
C 6                     47859.029         304.721          20.000                                                                                                                                  
C 7                    -37054.196        -440.640          19.000                                                                                                                                  
C 9                     20392.639         223.612          24.000                                                                                                                                  
C10                    -35820.640        -398.412          18.000                                                                                                                                  
C14                    -20102.295        -703.602          28.000                                                                                                                                  
C21                    321214.032        3488.895          32.000                                                                                                                                  
C24                    -60957.776        -661.420          23.000                                                                                                                                  
C26                    221101.022        1442.512          24.000                                                                                                                                  
C29                      9938.979           0.008          13.000                                                                                                                                  
C33                   -172472.933       -1875.592          24.000                                                                                                                                  
C35                    -86475.464       -1322.898          29.000                                                                                                                                  
> 2022  1 25  3 15 10.0000000  0 28                     
G10                    634845.691        4307.610          19.000                                                                  
G25                    581484.610        3606.837          26.000                      313696.144        2693.702          24.000  
G26                   -265335.228       -1762.129          23.000                                                                  
G29                   -121315.831        -759.510          37.000                                                                  
G31                     70977.816         453.166          24.000                                                                  
G32                    162310.707         994.910          34.000                       44809.310         743.343          28.000  
R 1                                                        22.000  
R 2                                                        18.000  
R12                                                        24.000  
E 2                     71881.572         618.709          21.000                                                                  
E 3                    192442.317        1707.490          28.000                                                                  
E 8                    -88530.361        -828.527          26.000                                                                  
E25                    333134.244        2853.534          23.000                                                                  
E30                   -138014.586       -1522.017          22.000                                                                  
J 1                     21197.093         167.465          30.000                                                                  
J 2                    231887.778        1418.092          27.000                       52690.309        1059.852          28.000  
C 1                     70588.231         740.349          30.000                                                                                                                                  
C 6                     49448.058         305.376          19.000                                                                                                                                  
C 7                    -39346.950        -439.390          20.000                                                                                                                                  
C 9                     21563.180         223.482          22.000                                                                                                                                  
C10                    -37874.687        -394.241          23.000                                                                                                                                  
C14                    -23757.698        -703.369          27.000                                                                                                                                  
C21                    339386.303        3488.701          31.000                                                                                                                                  
C24                    -64414.028        -667.232          25.000                                                                                                                                  
C26                    228602.841        1436.732          23.000                                                                                        6508.513        1083.383          20.000  
C29                     10523.521           0.008          16.000                                                                                                                                  
C33                   -182242.193       -1875.916          30.000                                                                                                                                  
C35                    -93365.852       -1323.040          27.000                                                                                                                                  
> 2022  1 25  3 15 11.0000000  0 28                     
G10                    657486.700        4309.034          20.000                                                                  
G25                    600437.161        3612.566          23.000                      324262.725        2694.795          24.000  
G26                   -274595.226       -1761.879          28.000                                                                  
G29                   -125317.059        -760.838          34.000                                                                  
G31                     73358.260         446.537          26.000                                                                  
G32                    167553.134         998.006          35.000                       47718.132         743.838          27.000  
R 1                                                        24.000  
R 2                                                        20.000  
R12                                                        20.000  
E 2                     75134.686         618.705          19.000                                                                  
E 3                    201417.084        1707.709          26.000                       11304.656        1284.620          20.000  
E 8                    -92878.046        -826.954          25.000                                                                  
E25                    348128.113        2855.996          24.000                                                                  
E30                   -146010.499       -1521.156          22.000                                                                  
J 1                     22071.431         167.627          32.000                        1008.277         126.187          25.000  
J 2                    239344.469        1419.902          29.000                       56843.915        1060.367          28.000  
C 1                     74529.091         753.400          30.000                                                                                                                                  
C 6                     51033.393         304.665          20.000                                                                                                                                  
C 7                    -41631.218        -438.829          24.000                                                                                                                                  
C 9                     22724.511         224.158          19.000                                                                                                                                  
C10                    -39921.904        -391.967          20.000                                                                                                                                  
C14                    -27428.133        -705.941          22.000                                                                                                                                  
C21                    357558.198        3487.149          27.000                                                                                        2794.397        2626.679          27.000  
C24                    -67894.442        -667.703          29.000                                                                                       -3769.972        -500.699          18.000  
C26                    236081.767        1434.057          29.000                                                                                       10754.000        1085.073          19.000  
C29                     11104.614           0.008          14.000                                                                                                                                  
C33                   -192016.542       -1874.561          28.000                                                                                      -12069.123       -1409.152          19.000  
C35                   -100265.917       -1326.407          29.000                                                                                                                                  
> 2022  1 25  3 15 12.0000000  0 28                     
G10                    680130.419        4308.180          23.000                                                                  
G25                    619388.999        3603.564          26.000                      334820.022        2691.770          22.000  
G26                   -283862.225       -1765.087          30.000                                                                  
G29                   -129307.017        -756.333          34.000                                                                  
G31                     75715.645         453.071          25.000                                                                  
G32                    172783.946         994.211          34.000                       50635.371         744.475          25.000  
R 1                                                        23.000  
R 2                                                        17.000  
R12                                                        20.000  
E 2                     78393.472         621.071          22.000                                                                  
E 3                    210381.737        1705.734          29.000                       16312.077        1269.865          20.000  
E 8                    -97209.682        -823.691          19.000                                                                  
E25                    363127.414        2853.895          24.000                                                                  
E30                   -153999.206       -1522.750          26.000                                                                  
J 1                     22973.560         171.800          28.000                        1508.775         128.273          23.000  
J 2                    246811.493        1420.361          25.000                       61007.855        1059.520          25.000  
C 1                     78350.001         729.756          28.000                                                                                                                                  
C 6                     52615.390         302.260          22.000                                                                                                                                  
C 7                    -43912.754        -439.024          22.000                                                                                                                                  
C 9                     23885.951         221.869          19.000                                                                                                                                  
C10                    -41962.516        -393.043          22.000                                                                                                                                  
C14                    -31106.995        -706.931          21.000                                                                                                                                  
C21                    375724.622        3487.064          28.000                                                                                       13120.201        2626.265          24.000  
C24                    -71350.030        -660.398          22.000                                                                                       -5737.574        -501.357          17.000  
C26                    243549.665        1434.064          26.000                                                                                       15012.640        1083.140          19.000  
C29                     11681.326         110.477          15.000                                                                                                                                  
C33                   -201770.803       -1875.140          26.000                                                                                      -17602.730       -1414.146          17.000  
C35                   -107156.733       -1322.801          22.000                                                                                                                                  
> 2022  1 25  3 15 13.0000000  0 28                     
G10                    702767.514        4307.337          23.000                                                                  
G25                    638325.625        3605.345          27.000                      345383.288        2692.216          24.000  
G26                   -293124.426       -1760.793          28.000                       -6668.135       -1319.646          20.000  
G29                   -133298.015        -758.273          27.000                                                                  
G31                     78092.559         451.611          22.000                                                                  
G32                    178026.563         998.414          28.000                       53556.159         743.822          21.000  
R 1                                                        25.000  
R 2                                                        17.000  
R12                                                        22.000  
E 2                     81663.776         623.784          22.000                                                                  
E 3                    219365.884        1710.653          28.000                       21314.138        1273.849          21.000  
E 8                   -101551.856        -830.608          21.000                                                                  
E25                    378131.877        2856.698          23.000                                                                  
E30                   -161996.052       -1523.222          31.000                                                                  
J 1                     23862.183         169.055          31.000                        2002.532         123.666          21.000  
J 2                    254269.421        1417.183          23.000                       65177.879        1063.050          20.000  
C 1                     82165.916         724.637          27.000                                                                                                                                  
C 6                     54187.889         302.377          23.000                                                                                                                                  
C 7                    -46202.243        -441.696          21.000                                                                                                                                  
C 9                     25043.538         222.036          18.000                                                                                                                                  
C10                    -44012.487        -394.209          21.000                                                                                                                                  
C14                    -34785.475        -708.117          19.000                                                                                                                                  
C21                    393896.385        3489.355          24.000                                                                                       23434.023        2626.073          25.000  
C24                    -74799.464        -663.768          25.000                                                                                       -7704.638        -501.540          15.000  
C26                    251015.230        1433.507          28.000                                                                                       19271.039        1084.687          18.000  
C29                     12262.218         111.970          16.000                                                                                                                                  
C33                   -211530.882       -1873.069          29.000                                                                                      -23154.548       -1415.562          18.000  
C35                   -114047.525       -1322.908          20.000                                                                                                                                  
> 2022  1 25  3 15 14.0000000  0 26                     
G10                    725398.305        4309.583          20.000                                                                  
G25                    657270.666        3607.317          28.000                      355955.532        2691.142          20.000  
G26                   -302378.512       -1760.456          25.000                      -11830.572       -1316.392          20.000  
G29                   -137289.435        -758.389          30.000                                                                  
G31                     80461.844         450.942          25.000                                                                  
G32                    183254.049         996.001          32.000                       56471.608         743.573          21.000  
R 1                                                        23.000  
R 2                                                        17.000  
R12                                                        22.000  
E 2                     84929.051         622.129          22.000                                                                  
E 3                    228347.998        1709.327          27.000                       26313.089        1274.438          20.000  
E 8                   -105916.416        -827.279          20.000                                                                  
E25                    393128.707        2853.916          25.000                                                                  
E30                   -169988.195       -1517.393          22.000                                                                  
J 1                     24749.030         166.720          30.000                        2498.542         125.266          21.000  
J 2                    261724.042        1419.708          26.000                       69332.834        1057.406          22.000  
C 1                     85988.437         730.671          27.000                                                                                                                                  
C 6                     55762.899         303.135          23.000                                                                                                                                  
C 7                    -48499.342        -442.192          26.000                                                                                                                                  
C 9                     26202.870         223.137          18.000                                                                                                                                  
C10                    -46062.478        -395.036          26.000                                                                                                                                  
C14                    -38461.573        -704.216          23.000                                                                                                                                  
C21                    412060.345        3486.367          28.000                                                                                       33747.130        2626.664          22.000  
C24                    -78252.672        -663.941          23.000                                                                                       -9665.090        -500.288          17.000  
C26                    258497.178        1435.572          25.000                                                                                       23530.662        1084.283          17.000  
C33                   -221282.819       -1871.962          23.000                                                                                      -28702.789       -1411.857          19.000  
> 2022  1 25  3 15 15.0000000  0 27                     
G10                    748039.809        4307.169          22.000                                                                  
G25                    676201.721        3600.640          27.000                      366516.501        2691.982          24.000  
G26                   -311613.619       -1755.273          27.000                      -16994.900       -1315.689          23.000  
G29                   -141285.164        -753.813          29.000                                                                  
G31                     82829.442         452.182          23.000                                                                  
G32                    188503.998         998.881          30.000                       59387.645         743.108          20.000  
R 1                                                        21.000  
R 2                                                        17.000  
R12                                                        21.000  
E 2                     88209.177         625.073          22.000                        6432.660         464.401          16.000  
E 3                    237337.531        1708.888          22.000                       31320.745        1277.013          21.000  
E 8                   -110272.173        -829.169          21.000                                                                  
E25                    408124.049        2853.832          25.000                                                                  
E30                   -177955.052       -1515.445          19.000                                                                  
J 1                     25638.720         171.234          30.000                        2982.395         120.325          21.000  
J 2                    269181.160        1419.438          24.000                       73484.955        1057.466          21.000  
C 1                     89771.837         732.034          27.000                                                                                                                                  
C 6                     57333.796         300.189          20.000                                                                                                                                  
C 7                    -50812.652        -443.459          24.000                                                                                                                                  
C 9                     27362.400         221.529          20.000                                                                                                                                  
C10                    -48107.588        -392.244          26.000                                                                                                                                  
C14                    -42131.340        -704.143          20.000                                                                                                                                  
C21                    430205.143        3486.196          30.000                                                                                       44053.829        2625.197          22.000  
C24                    -81727.911        -668.484          27.000                                                                                      -11627.076        -499.598          18.000  
C26                    265975.703        1438.985          24.000                                                                                       27788.948        1085.888          18.000  
C33                   -231029.104       -1871.884          23.000                                                                                      -34245.232       -1411.878          17.000  
C35                    -12028.875       -1320.777          17.000                                                                                                                                  
> 2022  1 25  3 15 16.0000000  0 26                     
G10                    770677.287          -0.020          19.000                                                                  
G25                    695131.259        3605.125          34.000                      377090.585        2696.314          21.000  
G26                   -320828.314       -1754.149          28.000                      -22134.643       -1312.583          21.000  
G29                   -145276.530        -759.171          34.000                                                                  
G31                     85204.843         450.780          22.000                                                                  
G32                    193735.372         995.207          38.000                       62315.937         745.998          21.000  
R 1                                                        28.000  
R 2                                                        16.000  
R12                                                        20.000  
E 2                     91488.447         623.147          30.000                        8252.555         462.106          20.000  
E 3                    246320.718        1708.407          31.000                       36346.181        1276.315          26.000  
E 8                   -114622.771        -828.500          21.000                                                                  
E25                    423132.114        2853.387          26.000                                                                  
E30                   -185915.771       -1516.434          24.000                                                                  
J 1                     26540.420         169.698          32.000                        3477.368         126.149          23.000  
J 2                    276636.358        1416.731          33.000                       77634.718        1058.172          20.000  
C 1                     93599.437         745.680          25.000                                                                                                                                  
C 6                     58901.453         300.014          20.000                                                                                                                                  
C 7                    -53126.357        -442.744          22.000                                                                                                                                  
C 9                     28507.370         219.216          21.000                                                                                                                                  
C10                    -50139.002        -389.533          23.000                                                                                                                                  
C14                    -45799.346        -704.656          21.000                                                                                                                                  
C21                    448360.781        3488.100          30.000                                                                                       54361.138        2620.482          21.000  
C24                    -85213.235        -668.273          26.000                                                                                      -13588.828        -500.100          16.000  
C26                    273469.522        1438.341          23.000                                                                                       32051.774        1084.070          17.000  
C33                   -240776.340       -1872.417          20.000                                                                                      -39786.087       -1412.700          17.000  
> 2022  1 25  3 15 17.0000000  0 26                     
G10                    793313.488        4306.200          21.000                                                                  
G25                    714074.358        3604.705          29.000                      387655.667        2695.623          24.000  
G26                   -330063.767       -1756.167          29.000                      -27281.746       -1312.552          21.000  
G29                   -149258.744        -758.594          36.000                                                                  
G31                     87577.206         453.404          24.000                                                                  
G32                    198972.833         999.212          37.000                       65244.518         745.688          24.000  
R 1                                                        27.000  
R 2                                                        17.000  
R12                                                        20.000  
E 2                     94766.153         624.338          30.000                       10085.648         465.956          22.000  
E 3                    255302.535        1709.539          32.000                       41354.504        1277.631          23.000  
E 8                   -118990.521        -828.638          20.000                                                                  
E25                    438121.135        2851.237          24.000                                                                  
E30                   -193906.160       -1521.284          24.000                                                                  
J 1                     27431.952         170.580          29.000                        3964.856         120.280          20.000  
J 2                    284083.688        1419.428          30.000                       81789.843        1058.679          22.000  
C 1                     97427.086         734.944          27.000                                                                                                                                  
C 6                     60470.855         301.920          19.000                                                                                                                                  
C 7                    -55423.876        -439.732          22.000                                                                                                                                  
C 9                     29651.324         220.099          20.000                                                                                                                                  
C10                    -52168.078        -390.200          20.000                                                                                                                                  
C14                    -49467.725        -704.499          21.000                                                                                                                                  
C21                    466518.918        3487.747          27.000                                                                                       64669.804        2629.421          19.000  
C24                    -88694.512        -668.479          21.000                                                                                      -15543.724        -496.814          17.000  
C26                    280954.261        1437.610          27.000                                                                                       36306.121        1083.838          17.000  
C33                   -250525.819       -1874.617          16.000                                                                                      -45322.258       -1410.183          16.000  
> 2022  1 25  3 15 18.0000000  0 27                     
G10                    815943.357        4306.866          22.000                                                                  
G25                    733022.961        3612.068          29.000                      398221.027        2693.987          24.000  
G26                   -339289.876       -1754.645          25.000                      -32437.049       -1315.447          21.000  
G29                   -153252.677        -757.085          28.000                                                                  
G31                     89955.592         452.645          23.000                                                                  
G32                    204224.505         997.986          32.000                       68171.759         749.119          21.000  
R 1                                                        24.000  
R 2                                                        17.000  
R12                                                        20.000  
E 2                     98061.456         627.792          20.000                       11903.552         462.588          17.000  
E 3                    264290.235        1711.152          25.000                       46381.966        1277.043          20.000  
E 8                   -123333.323        -827.204          19.000                                                                  
E25                    453107.197        2853.098          24.000                       27791.288        2126.582          19.000  
E30                   -201910.477       -1525.591          24.000                                                                  
J 1                     28325.614         170.695          27.000                        4443.497         122.539          17.000  
J 2                    291539.629        1417.220          24.000                       85950.425        1050.957          21.000  
C 1                    101278.718         748.206          25.000                                                                                                                                  
C 6                     62037.947         299.762          21.000                                                                                                                                  
C 7                    -57720.676        -442.117          21.000                                                                                                                                  
C 9                     30793.867         217.661          19.000                                                                                                                                  
C10                    -54207.974        -394.592          25.000                                                                                                                                  
C14                    -53129.030        -703.912          19.000                                                                                                                                  
C21                    484687.703        3490.698          29.000                                                                                       74988.094        2631.100          21.000  
C24                    -92177.193        -668.589          21.000                                                                                      -17497.398        -498.902          17.000  
C26                    288457.704        1441.208          22.000                                                                                       40558.939        1083.634          17.000  
C33                   -260291.234       -1874.101          20.000                                                                                      -50854.378       -1409.049          19.000  
C35                    -32671.141       -1320.879          14.000                                                                                                                                  
> 2022  1 25  3 15 19.0000000  0 28                     
G10                    838582.203        4309.727          26.000                                                                  
G25                    751982.668        3607.022          29.000                      408775.926        2687.528          20.000  
G26                   -348510.831       -1756.384          27.000                      -37584.322       -1308.721          23.000  
G29                   -157240.037        -758.828          29.000                                                                  
G31                     92335.131         453.301          22.000                                                                  
G32                    209470.530         997.788          32.000                       71083.530         738.884          21.000  
R 1                                                        23.000  
R 2                                                        16.000  
R12                                                        20.000  
E 2                    101343.048         623.274          23.000                       13725.668         464.516          18.000  
E 3                    273274.592        1708.778          27.000                       51389.091        1274.050          20.000  
E 8                   -127682.312        -828.156          18.000                                                                  
E25                    468105.070        2853.646          24.000                       36138.621        2126.531          19.000  
E30                   -209893.326       -1515.317          23.000                      -16324.044       -1126.648          20.000  
J 1                     29207.069         167.909          26.000                        4943.268         132.156          22.000  
J 2                    298992.361        1417.093          27.000                       90104.742        1061.442          21.000  
C 1                    105125.884         729.500          24.000                                                                                                                                  
C 6                     63591.448         297.582          18.000                                                                                                                                  
C 7                    -60015.725        -438.867          24.000                                                                                                                                  
C 9                     31931.118         219.901          17.000                                                                                                                                  
C10                    -56244.325        -388.017          25.000                                                                                                                                  
C14                    -56793.086        -702.510          19.000                                                                                                                                  
C21                    502855.215        3489.278          29.000                                                                                       85305.564        2630.923          20.000  
C24                    -95650.077        -665.377          25.000                                                                                      -19461.075        -500.686          15.000  
C26                    295955.842        1437.641          20.000                                                                                       44815.013        1084.573          17.000  
C29                      3104.539         114.882          17.000                                                                                                                                  
C33                   -270050.184       -1873.767          22.000                                                                                      -56381.915       -1409.421          18.000  
C35                    -39576.154       -1331.489          14.000                                                                                                                                  
> 2022  1 25  3 15 20.0000000  0 28                     
G10                    861234.082        4312.221          25.000                                                                  
G25                    770932.022        3606.427          33.000                      419334.891        2691.910          22.000  
G26                   -357732.187       -1752.084          28.000                      -42731.786       -1312.911          22.000  
G29                   -161227.823        -757.482          30.000                                                                  
G31                     94714.137         451.926          22.000                                                                  
G32                    214725.224         994.664          38.000                       74018.320         745.214          24.000  
R 1                                                        26.000  
R 2                                                        17.000  
R12                                                        20.000  
E 2                    104615.936         621.656          25.000                       15546.221         463.985          19.000  
E 3                    282259.563        1711.354          30.000                       56401.375        1274.770          24.000  
E 8                   -132030.433        -827.204          22.000                                                                  
E25                    483093.362        2850.751          29.000                       44486.174        2127.857          18.000  
E30                   -217854.845       -1515.132          23.000                      -20751.924       -1130.581          20.000  
J 1                     30091.174         168.476          27.000                        5436.072         126.212          23.000  
J 2                    306437.179        1415.116          30.000                       94255.922        1053.602          22.000  
C 1                    108996.526         733.153          29.000                                                                                                                                  
C 6                     65155.642         300.802          19.000                                                                                                                                  
C 7                    -62294.148        -436.406          23.000                                                                                                                                  
C 9                     33078.463         219.105          21.000                                                                                                                                  
C10                    -58283.816        -393.022          23.000                                                                                                                                  
C14                    -60445.802        -701.652          25.000                                                                                                                                  
C21                    521009.941        3481.507          26.000                                                                                       95626.664        2628.947          19.000  
C24                    -99112.171        -664.599          23.000                                                                                      -21421.591        -499.924          17.000  
C26                    303437.202        1435.190          24.000                                                                                       49076.575        1087.235          17.000  
C29                      3705.285         114.925          15.000                                                                                                                                  
C33                   -279799.102       -1870.259          19.000                                                                                      -61916.950       -1413.630          14.000  
C35                    -46484.602       -1323.540          15.000                                                                                                                                  
> 2022  1 25  3 15 21.0000000  0 28                     
G10                    883890.370        4312.165          19.000                                                                  
G25                    789888.135        3608.034          30.000                      429898.879        2692.629          26.000  
G26                   -366947.471       -1753.363          30.000                      -47877.512       -1309.392          21.000  
G29                   -165208.120        -757.283          25.000                                                                  
G31                     97082.118         447.438          20.000                                                                  
G32                    219969.921        1000.390          38.000                       76949.509         751.049          22.000  
R 1                                                        29.000  
R 2                                                        16.000  
R12                                                        23.000  
E 2                    107897.206         625.555          27.000                       17375.929         462.612          21.000  
E 3                    291242.370        1709.675          31.000                       61410.511        1276.547          26.000  
E 8                   -136370.500        -824.373          20.000                                                                  
E25                    498083.754        2853.278          24.000                       52844.943        2133.561          21.000  
E30                   -225826.948       -1518.229          20.000                      -25190.255       -1131.628          17.000  
J 1                     30967.495         168.893          35.000                        5929.398         125.804          26.000  
J 2                    313881.205        1416.927          33.000                       98407.403        1058.915          20.000  
C 1                    112756.063         728.666          28.000                                                                                                                                  
C 6                     66721.841         300.709          17.000                                                                                                                                  
C 7                    -64570.205        -436.395          23.000                                                                                                                                  
C 9                     34216.679         218.631          17.000                                                                                                                                  
C10                    -60331.844        -392.452          20.000                                                                                                                                  
C14                    -64094.206        -700.094          21.000                                                                                                                                  
C21                    539159.566        3491.258          30.000                                                                                      105946.623        2627.495          21.000  
C24                   -102580.365        -667.991          20.000                                                                                      -23390.650        -501.977          17.000  
C26                    310916.249        1437.920          23.000                                                                                       53345.667        1087.278          17.000  
C29                      4291.254         110.683          16.000                                                                                                                                  
C33                   -289526.664       -1867.473          17.000                                                                                      -67466.034       -1415.769          14.000  
C35                    -53380.312       -1324.247          13.000                                                                                                                                  
> 2022  1 25  3 15 22.0000000  0 29                     
G10                    906539.429        4309.162          25.000                                                                  
G25                    808845.786        3608.364          25.000                      440467.841        2690.476          25.000  
G26                   -376169.305       -1755.163          22.000                      -53010.031       -1310.351          20.000  
G29                   -169181.655        -756.543          32.000                                                                  
G31                     99465.237         454.977          18.000                                                                  
G32                    225231.371        1003.175          36.000                       79873.321         743.550          23.000  
R 1                                                        23.000  
R 2                                                        17.000  
R12                                                        19.000  
E 2                    111196.507         628.162          22.000                       19220.852         470.466          17.000  
E 3                    300234.474        1711.274          29.000                       66428.381        1277.724          20.000  
E 8                   -140708.705        -824.789          19.000                                                                  
E25                    513079.618        2853.459          31.000                       61205.567        2129.168          24.000  
E30                   -233799.059       -1514.092          18.000                      -29627.813       -1131.369          16.000  
J 1                     31860.855         169.453          26.000                        6429.167         125.407          21.000  
J 2                    321340.863        1418.376          28.000                      102566.559        1054.690          22.000  
C 1                    116611.834         747.314          24.000                                                                                                                                  
C 6                     68291.243         300.921          24.000                                                                                                                                  
C 7                    -66846.261        -437.208          19.000                                                                                                                                  
C 9                     35360.542         218.886          21.000                                                                                                                                  
C10                    -62372.913        -392.045          19.000                                                                                                                                  
C13                     75772.396        2641.325          16.000                                                                                                                                  
C14                    -67741.619        -701.069          19.000                                                                                                                                  
C21                    557313.825        3485.947          25.000                                                                                      116268.404        2629.487          17.000  
C24                   -106041.446        -664.919          18.000                                                                                      -25360.453        -501.084          16.000  
C26                    318398.948        1436.177          30.000                                                                                       57615.684        1086.470          16.000  
C29                      4882.048         116.013          17.000                                                                                                                                  
C33                   -299258.103       -1872.808          20.000                                                                                      -73014.130       -1412.381          20.000  
C35                    -60276.401       -1325.571          14.000                                                                                                                                  
> 2022  1 25  3 15 23.0000000  0 29                     
G10                    929198.823        4316.539          30.000                                                                  
G25                    827818.917        3609.488          24.000                                                                  
G26                   -385386.813       -1750.819          30.000                      -58148.860       -1307.967          26.000  
G29                   -173146.471        -758.326          35.000                                                                  
G31                    101852.687         455.336          20.000                                                                  
G32                    230487.604         999.912          31.000                       82803.051         746.529          24.000  
R 1                                                        21.000  
R 2                                                        17.000  
R12                                                        21.000  
E 2                    114488.559         625.290          22.000                       21059.052         468.724          22.000  
E 3                    309221.807        1709.500          26.000                       71433.575        1274.836          21.000  
E 8                   -145032.172        -823.016          20.000                                                                  
E25                    528077.370        2852.827          23.000                       69565.548        2130.567          20.000  
E30                   -241755.381       -1513.368          23.000                      -34060.025       -1128.845          22.000  
J 1                     32750.288         171.764          27.000                        6924.607         126.328          24.000  
J 2                    328789.281        1418.076          25.000                      106719.484        1059.174          24.000  
C 1                    120447.733         736.986          25.000                                                                                                                                  
C 6                     69861.759         301.129          18.000                                                                                                                                  
C 7                    -69131.093        -436.072          23.000                                                                                                                                  
C 9                     36502.961         221.006          19.000                                                                                                                                  
C10                    -64414.799        -391.172          25.000                                                                                                                                  
C13                     89529.510        2637.003          14.000                                                                                                                                  
C14                    -71392.291        -699.626          24.000                                                                                                                                  
C21                    575474.479        3491.599          31.000                                                                                      126585.342        2630.672          23.000  
C24                   -109495.184        -660.770          18.000                                                                                      -27323.220        -499.078          17.000  
C26                    325873.038        1439.822          21.000                                                                                       61879.694        1087.863          16.000  
C29                      5466.208         111.847          16.000                                                                                                                                  
C33                   -309005.704       -1871.022          26.000                                                                                      -78566.390       -1413.156          18.000  
C35                    -67173.704           0.027          16.000                                                                                                                                  
> 2022  1 25  3 15 24.0000000  0 29                     
G10                    951860.913        4311.869          28.000                                                                  
G25                    846789.640        3609.915          22.000                      461598.007        2692.637          19.000  
G26                   -394599.427       -1743.701          29.000                      -63289.494       -1304.629          25.000  
G29                   -177114.578        -755.809          27.000                                                                  
G31                    104237.088         452.080          20.000                                                                  
G32                    235742.696        1002.391          29.000                       85730.314         745.302          21.000  
R 1                                                        23.000  
R 2                                                        17.000  
R12                                                        20.000  
E 2                    117776.167         626.334          23.000                       22892.228         463.904          20.000  
E 3                    318209.023        1711.495          27.000                       76433.027        1273.288          23.000  
E 8                   -149357.908        -824.011          18.000                                                                  
E25                    543088.653        2857.345          20.000                       77922.499        2125.787          19.000  
E30                   -249720.906       -1512.843          26.000                      -38496.224       -1130.351          24.000  
J 1                     33647.714         169.603          24.000                        7419.282         123.794          22.000  
J 2                    336235.758        1417.526          24.000                      110886.989        1062.143          22.000  
C 1                    124345.987         740.214          24.000                                                                                                                                  
C 6                     71426.170         300.261          17.000                                                                                                                                  
C 7                    -71404.964        -437.747          25.000                                                                                                                                  
C 9                     37657.478         221.045          19.000                                                                                                                                  
C10                    -66453.068        -386.988          25.000                                                                                                                                  
C13                    103259.597        2634.957          15.000                                                                                                                                  
C14                    -75036.286        -699.112          22.000                                                                                                                                  
C21                    593643.767        3488.197          29.000                                                                                      136902.667        2627.288          21.000  
C24                   -112938.582        -660.943          22.000                                                                                      -29277.845        -499.414          17.000  
C26                    333380.201        1441.352          21.000                                                                                       66143.224        1084.526          16.000  
C29                      6051.781         112.657          12.000                                                                                                                                  
C33                   -318746.636       -1869.612          20.000                                                                                      -84113.971       -1413.851          16.000  
C35                    -74067.917           0.027          15.000                                                                                                                                  
> 2022  1 25  3 15 25.0000000  0 30                     
G10                    974535.849        4314.617          30.000                       31111.710        3224.524          24.000  
G25                    865775.996        3612.846          22.000                      472163.863        2688.773          19.000  
G26                   -403786.435       -1750.017          29.000                      -68425.009       -1307.241          24.000  
G29                   -181093.941        -758.655          29.000                                                                  
G31                    106624.054         454.599          20.000                                                                  
G32                    240998.966        1001.877          34.000                       88666.750         747.491          21.000  
R 1                                                        24.000  
R 2                                                        16.000  
R12                                                        20.000  
E 2                    121065.721         623.949          23.000                       24732.308         467.877          17.000  
E 3                    327202.020        1711.702          26.000                       81439.982        1275.097          24.000  
E 5                     75015.408        3268.304          18.000                                                                  
E 8                   -153697.569        -828.363          19.000                                                                  
E25                    558093.265        2854.751          19.000                       86268.964        2128.388          18.000  
E30                   -257678.128       -1512.338          25.000                      -42934.960       -1129.029          24.000  
J 1                     34532.986         168.788          27.000                        7909.114         125.210          25.000  
J 2                    343677.198        1417.802          25.000                      115039.317        1054.968          23.000  
C 1                    128147.784         724.877          23.000                                                                                                                                  
C 6                     72998.450         302.756          17.000                                                                                                                                  
C 7                    -73683.636        -437.083          25.000                                                                                                                                  
C 9                     38810.438         221.189          17.000                                                                                                                                  
C10                    -68481.131        -392.209          28.000                                                                                                                                  
C13                    116996.149        2638.996          15.000                                                                                                                                  
C14                    -78675.612        -699.122          20.000                                                                                                                                  
C21                    611800.814        3488.167          29.000                                                                                      147213.172        2627.173          22.000  
C24                   -116384.694        -663.587          19.000                                                                                      -31238.271        -499.249          14.000  
C26                    340883.043        1441.135          24.000                                                                                       70402.678        1084.818          17.000  
C29                      6651.060           0.008          16.000                                                                                                                                  
C33                   -328480.855       -1868.206          18.000                                                                                      -89659.472       -1412.523          13.000  
C35                    -80971.281           0.027          16.000                                                                                                                                  
> 2022  1 25  3 15 26.0000000  0 30                     
G10                    997210.195        4316.549          34.000                       43753.066        3223.264          23.000  
G25                    884766.711        3614.789          18.000                      482712.126        2688.690          20.000  
G26                   -412990.997       -1748.635          32.000                      -73554.103       -1306.547          23.000  
G29                   -185060.242        -757.392          33.000                                                                  
G31                    109014.751         455.051          21.000                                                                  
G32                    246260.169        1004.359          32.000                       91604.093         747.674          23.000  
R 1                                                        23.000  
R 2                                                        14.000  
R12                                                        19.000  
E 2                    124348.312         627.091          23.000                       26568.527         466.148          20.000  
E 3                    336191.916        1709.135          23.000                       86454.910        1274.725          24.000  
E 5                     92185.772        3266.688          24.000                                                                  
E 8                   -158044.405        -826.556          19.000                                                                  
E25                    573098.597        2855.540          19.000                       94623.486        2129.915          19.000  
E30                   -265631.918       -1515.051          25.000                      -47364.300       -1127.702          23.000  
J 1                     35417.172         167.213          23.000                        8395.568         125.815          25.000  
J 2                    351126.576        1418.746          23.000                      119192.419        1060.108          23.000  
C 1                    131927.109         718.058          23.000                                                                                                                                  
C 6                     74574.136         300.840          19.000                                                                                                                                  
C 7                    -75966.797        -439.015          25.000                                                                                                                                  
C 9                     39958.198         219.309          17.000                                                                                                                                  
C10                    -70517.782        -392.170          28.000                                                                                                                                  
C13                    130736.670        2639.017          17.000                                                                                                                                  
C14                    -82314.476        -698.289          23.000                                                                                                                                  
C21                    629974.152        3492.734          31.000                                                                                      157526.751        2626.947          23.000  
C24                   -119830.769        -661.674          20.000                                                                                      -33189.927        -496.127          16.000  
C26                    348375.945        1437.568          24.000                                                                                       74659.889        1084.485          18.000  
C29                      7264.293           0.008          15.000                                                                                                                                  
C33                   -338207.240       -1868.599          19.000                                                                                      -95204.316       -1411.562          15.000  
C35                    -87871.829       -1325.413          17.000                                                                                                                                  
> 2022  1 25  3 15 27.0000000  0 30                     
G10                   1019899.844        4314.255          27.000                       56388.252        3218.063          20.000  
G25                    903745.882        3608.930          21.000                      493268.623        2691.472          18.000  
G26                   -422202.486       -1750.404          34.000                      -78697.009       -1311.595          22.000  
G29                   -189029.789        -759.763          30.000                                                                  
G31                    111407.642         455.675          20.000                                                                  
G32                    251524.672        1000.178          30.000                       94528.772         743.770          22.000  
R 1                                                        24.000  
R 2                                                        17.000  
R12                                                        22.000  
E 2                    127644.080         628.441          24.000                       28413.013         466.775          20.000  
E 3                    345178.480        1711.072          28.000                       91449.209        1273.862          23.000  
E 5                    109348.908        3265.187          19.000                                                                  
E 8                   -162385.317        -823.433          23.000                                                                  
E25                    588118.196        2857.919          18.000                      102980.244        2129.627          15.000  
E30                   -273597.143       -1512.979          28.000                      -51796.663       -1132.240          23.000  
J 1                     36296.232         167.220          25.000                        8883.728         126.743          25.000  
J 2                    358573.419        1417.379          24.000                      123345.469        1055.075          22.000  
C 1                    135689.692         712.983          24.000                                                                                                                                  
C 6                     76137.631         302.366          19.000                                                                                                                                  
C 7                    -78252.488        -437.330          24.000                                                                                                                                  
C 9                     41110.190         220.865          19.000                                                                                                                                  
C10                    -72556.358        -388.493          30.000                                                                                                                                  
C13                    144470.630        2635.218          13.000                                                                                                                                  
C14                    -85951.792        -696.384          24.000                                                                                                                                  
C21                    648145.184        3490.694          29.000                                                                                      167839.387        2625.622          23.000  
C24                   -123275.019        -660.538          23.000                                                                                      -35140.311        -498.921          15.000  
C26                    355860.474        1437.907          23.000                                                                                       78917.084        1085.229          15.000  
C29                      7876.729         116.975          14.000                                                                                                                                  
C33                   -347940.068       -1870.178          20.000                                                                                     -100742.092       -1410.295          14.000  
C35                    -94778.751       -1326.673          12.000                                                                                                                                  
> 2022  1 25  3 15 28.0000000  0 30                     
G10                   1042557.091        4307.513          28.000                       69022.772        3219.768          18.000  
G25                    922713.496        3608.538          19.000                      503833.712        2693.351          17.000  
G26                   -431404.236       -1752.703          35.000                      -83833.183       -1306.729          25.000  
G29                   -192999.999        -755.532          28.000                                                                  
G31                    113801.554         456.343          22.000                                                                  
G32                    256791.691        1003.917          33.000                       97459.940         749.799          21.000  
R 1                                                        26.000  
R 2                                                        17.000  
R12                                                        21.000  
E 2                    130943.503         627.468          26.000                       30253.135         470.284          19.000  
E 3                    354170.750        1712.011          25.000                       96462.040        1275.864          24.000  
E 5                    126528.457        3273.156          18.000                                                                  
E 8                   -166699.793        -822.079          19.000                                                                  
E25                    603132.284        2858.498          17.000                      111340.030        2132.126          20.000  
E30                   -281557.066       -1513.364          30.000                      -56223.864       -1127.782          26.000  
J 1                     37171.660         165.377          26.000                        9380.559         124.545          26.000  
J 2                    366017.286        1416.955          22.000                      127490.533        1056.979          21.000  
C 1                    139379.995         708.205          24.000                                                                                                                                  
C 6                     77706.243         301.346          17.000                                                                                                                                  
C 7                    -80529.186        -436.653          22.000                                                                                                                                  
C 9                     42253.843         218.327          19.000                                                                                                                                  
C10                    -74588.483        -390.570          28.000                                                                                                                                  
C13                    158202.419        2639.784          16.000                                                                                                                                  
C14                    -89584.908        -698.063          20.000                                                                                                                                  
C21                    666308.941        3488.895          30.000                                                                                      178149.604        2624.082          21.000  
C24                   -126714.727        -659.348          21.000                                                                                      -37100.725        -499.318          13.000  
C26                    363343.206        1438.030          25.000                                                                                       83185.528        1088.828          14.000  
C29                      8476.847         115.773          16.000                                                                                                                                  
C33                   -357674.385       -1867.820          19.000                                                                                     -106272.215       -1407.238          12.000  
C35                   -101686.550       -1325.430          15.000                                                                                                                                  
> 2022  1 25  3 15 29.0000000  0 30                     
G10                   1065219.239        4318.598          30.000                       81665.208        3222.866          17.000  
G25                    941682.785        3610.832          18.000                      514408.410        2695.863          17.000  
G26                   -440607.659       -1750.750          30.000                      -88950.632       -1306.445          25.000  
G29                   -196959.461        -752.151          24.000                                                                  
G31                    116194.837         455.205          21.000                                                                  
G32                    262064.726        1003.576          27.000                      100406.865         746.245          20.000  
R 1                                                        27.000  
R 2                                                        17.000  
R12                                                        19.000  
E 2                    134236.037         625.139          21.000                       32101.470         471.387          18.000  
E 3                    363165.870        1711.634          27.000                      101478.953        1277.214          27.000  
E 5                    143738.966        3274.334          14.000                                                                  
E 8                   -171022.027        -822.897          20.000                                                                  
E25                    618147.275        2857.531          18.000                      119705.994        2131.028          18.000  
E30                   -289520.433       -1513.871          31.000                      -60649.102       -1127.197          20.000  
J 1                     38039.929         167.631          25.000                        9877.362         123.801          23.000  
J 2                    373460.455        1417.215          22.000                      131645.164        1056.207          20.000  
C 1                    143114.533         708.982          23.000                                                                                                                                  
C 6                     79284.220         304.845          18.000                                                                                                                                  
C 7                    -82806.764        -438.981          28.000                                                                                                                                  
C 9                     43393.603         219.649          17.000                                                                                                                                  
C10                    -76631.247        -391.347          29.000                                                                                                                                  
C13                    171949.090        2642.100          17.000                                                                                                                                  
C14                    -93212.195        -695.868          23.000                                                                                                                                  
C21                    684487.251        3489.209          32.000                                                                                      188462.055        2627.349          20.000  
C24                   -130150.155        -661.126          20.000                                                                                      -39057.978        -499.093          16.000  
C26                    370838.091        1440.308          20.000                                                                                       87457.225        1088.691          16.000  
C29                      9090.221         119.188          16.000                                                                                                                                  
C33                   -367404.621          -0.000          18.000                                                                                     -111788.349       -1405.156          16.000  
C35                   -108588.788           0.027          14.000                                                                                                                                  
> 2022  1 25  3 15 30.0000000  0 29                     
G10                   1087909.821        4316.554          24.000                       94310.035        3220.667          18.000  
G25                    960651.293        3609.293          22.000                      524990.131        2697.822          15.000  
G26                   -449800.615       -1748.937          34.000                      -94082.455       -1305.490          27.000  
G29                   -200927.414        -755.255          22.000                                                                  
G31                    118591.881         456.715          24.000                                                                  
G32                    267332.508        1001.602          28.000                      103338.448         750.352          20.000  
R 1                                                        29.000  
R 2                                                        19.000  
R12                                                        20.000  
E 2                    137521.042         626.035          22.000                       33946.676         469.447          17.000  
E 3                    372163.837        1712.621          29.000                      106492.544        1278.361          25.000  
E 5                    160955.850        3273.832          16.000                                                                  
E 8                   -175347.313        -825.614          20.000                                                                  
E25                    633162.298        2855.458          20.000                      128069.372        2131.427          18.000  
E30                   -297472.427       -1512.576          34.000                      -65083.101       -1128.246          22.000  
J 1                     38924.758         169.975          25.000                       10375.701         127.070          24.000  
J 2                    380909.542        1419.292          23.000                      135796.520        1060.660          22.000  
C 6                     80862.175         303.090          17.000                                                                                                                                  
C 7                    -85084.762        -435.909          27.000                                                                                                                                  
C 9                     44539.657         219.599          18.000                                                                                                                                  
C10                    -78657.033        -388.895          26.000                                                                                                                                  
C13                    185704.787           0.016          17.000                                                                                                                                  
C14                    -96838.524        -695.997          23.000                                                                                                                                  
C21                    702654.461        3489.721          34.000                                                                                      198780.881        2629.964          20.000  
C24                   -133596.507        -660.826          22.000                                                                                      -41010.735        -497.746          14.000  
C26                    378341.888        1440.686          20.000                                                                                       91723.383        1085.819          16.000  
C29                      9706.008           0.008          16.000                                                                                                                                  
C33                   -377143.100       -1869.313          19.000                                                                                     -117297.206       -1402.982          14.000  
C35                   -115497.788           0.027          17.000                                                                                                                                  
> 2022  1 25  3 15 31.0000000  0 29                     
G10                   1110586.057        4311.457          24.000                      106954.947        3221.530          19.000  
G25                    979615.060        3607.571          28.000                      535568.062        2694.537          19.000  
G26                   -459034.106       -1760.791          23.000                      -99214.443       -1311.997          19.000  
G29                   -204897.788        -755.438          23.000                                                                  
G31                    120988.505         456.550          26.000                                                                  
G32                    272602.637        1004.873          30.000                      106281.975         748.426          20.000  
R 1                                                        22.000  
R 2                                                        20.000  
R12                                                        19.000  
E 2                    140805.159         624.435          19.000                       35790.005         471.520          17.000  
E 3                    381168.586        1713.406          30.000                      111507.308        1276.857          19.000  
E 5                    178145.941        3270.677          14.000                                                                  
E 8                   -179685.142        -824.714          21.000                                                                  
E25                    648160.006        2854.227          28.000                      136436.616        2131.589          18.000  
E30                   -305422.812       -1515.026          20.000                      -69515.211       -1132.513          17.000  
J 1                     39820.209         171.211          25.000                       10869.386         125.479          18.000  
J 2                    388359.882        1415.415          27.000                      139948.223        1058.108          19.000  
C 6                     82439.239         302.558          21.000                                                                                                                                  
C 7                    -87354.416        -437.075          21.000                                                                                                                                  
C 9                     45684.983         219.298          21.000                                                                                                                                  
C10                    -80686.577           0.002          20.000                                                                                                                                  
C13                    199473.178           0.016          15.000                                                                                                                                  
C14                   -100466.808        -698.624          24.000                                                                                                                                  
C21                    720823.480        3490.591          29.000                                                                                      209102.477        2629.296          22.000  
C24                   -137033.674        -662.590          20.000                                                                                      -42961.143        -498.705          16.000  
C26                    385828.343        1436.027          25.000                                                                                       95981.229        1084.212          19.000  
C29                     10316.608           0.008          15.000                                                                                                                                  
C33                   -386877.713       -1870.349          17.000                                                                                     -122797.020       -1401.418          11.000  
C35                   -122400.748       -1325.477          16.000                                                                                                                                  
> 2022  1 25  3 15 32.0000000  0 29                     
G10                   1133239.515        4310.848          27.000                      119598.332        3223.983          20.000  
G25                    998580.344        3611.557          27.000                      546144.238        2692.953          20.000  
G26                   -468274.889       -1756.219          21.000                     -104361.134       -1311.765          16.000  
G29                   -208866.099        -756.289          25.000                                                                  
G31                    123387.886         457.737          26.000                                                                  
G32                    277870.566        1001.555          28.000                      109228.421         750.209          17.000  
R 1                                                        23.000  
R 2                                                        17.000  
R12                                                        22.000  
E 2                    144103.385         627.855          18.000                       37635.166         470.372          17.000  
E 3                    390168.276        1711.752          25.000                      116521.350        1277.050          19.000  
E 5                    195333.847        3270.823          15.000                                                                  
E 8                   -184012.046        -822.121          22.000                                                                  
E25                    663154.001        2853.565          26.000                      144802.535        2131.315          17.000  
E30                   -313392.295       -1516.654          19.000                      -73959.763       -1131.834          14.000  
J 1                     40710.880         168.664          25.000                       11365.716         126.486          19.000  
J 2                    395794.554        1414.246          25.000                      144094.454        1055.168          17.000  
C 6                     84010.696         302.192          21.000                                                                                                                                  
C 7                    -89630.499        -436.827          19.000                                                                                                                                  
C 9                     46822.544         218.947          22.000                                                                                                                                  
C10                    -82730.653        -392.631          20.000                                                                                                                                  
C13                    213244.668           0.016          17.000                                                                                                                                  
C14                   -104106.637        -697.319          20.000                                                                                                                                  
C21                    738993.857        3487.797          25.000                                                                                      219418.019        2629.386          23.000  
C24                   -140487.527        -662.281          21.000                                                                                      -44912.912        -497.043          16.000  
C26                    393336.435        1444.139          20.000                                                                                      100228.235        1081.286          17.000  
C29                     10926.373           0.008          15.000                                                                                                                                  
C33                   -396622.289       -1870.484          13.000                                                                                     -128289.255       -1398.338          11.000  
C35                   -129309.227       -1327.302          15.000                                                                                                                                  
> 2022  1 25  3 15 33.0000000  0 31                     
G10                   1155902.559        4310.643          25.000                      132242.781        3224.483          19.000  
G25                   1017560.434        3610.571          26.000                      556724.653        2695.629          23.000  
G26                   -477503.222       -1755.585          21.000                     -109502.101       -1309.853          14.000  
G29                   -212832.128        -752.543          26.000                                                                  
G31                    125784.132         455.230          23.000                                                                  
G32                    283134.710        1003.353          27.000                      112166.346         746.381          20.000  
R 1                                                        22.000  
R 2                                                        18.000  
R 8                                                        24.000  
R12                                                        19.000  
E 2                    147407.521         629.692          20.000                       39479.722         467.815          17.000  
E 3                    399165.895        1712.874          24.000                      121532.107        1276.319          18.000  
E 5                    212517.006        3269.419          19.000                                                                  
E 8                   -188339.722        -825.453          18.000                                                                  
E25                    678155.824        2855.031          24.000                      153166.494        2131.318          16.000  
E30                   -321370.273       -1519.135          19.000                      -78400.937       -1133.096          15.000  
J 1                     41591.429         169.552          28.000                       11858.347         124.547          20.000  
J 2                    403229.292        1414.745          23.000                      148245.277        1057.942          19.000  
C 1                    158426.902         737.422          25.000                                                                                                                                  
C 6                     85579.602         300.931          22.000                                                                                                                                  
C 7                    -91917.230        -442.093          20.000                                                                                                                                  
C 9                     47959.323         218.875          23.000                                                                                                                                  
C10                    -84777.511        -393.007          19.000                                                                                                                                  
C13                    227007.293           0.016          16.000                                                                                                                                  
C14                   -107730.656        -695.139          19.000                                                                                                                                  
C21                    757153.568        3487.764          21.000                                                                                      229747.364        2630.709          16.000  
C24                   -143934.264        -661.520          24.000                                                                                      -46866.041        -499.526          12.000  
C26                    400845.453        1439.958          35.000                                                                                      104474.077        1080.780          16.000  
C29                     11538.711           0.008          18.000                                                                                                                                  
C33                   -406358.652          -0.000          15.000                                                                                                                                  
C35                   -136222.493       -1328.578          14.000                                                                                                                                  
> 2022  1 25  3 15 34.0000000  0 31                     
G10                   1178564.333        4313.621          33.000                      144888.629        3223.552          23.000  
G25                   1036529.871        3608.701          27.000                      567300.668        2696.357          19.000  
G26                   -486732.812       -1754.638          22.000                     -114633.053       -1306.442          17.000  
G29                   -216777.884        -749.259          23.000                                                                  
G31                    128173.842         453.632          25.000                                                                  
G32                    288409.710        1003.982          31.000                      115109.784         755.209          22.000  
R 1                                                        22.000  
R 2                                                        19.000  
R 8                                                        20.000  
R12                                                        21.000  
E 2                    150717.130         628.238          19.000                       41311.823         465.534          18.000  
E 3                    408163.676        1710.646          27.000                      126551.599        1282.052          23.000  
E 5                    229700.874        3273.148          20.000                                                                  
E 8                   -192666.466        -822.454          26.000                                                                  
E25                    693158.188        2854.172          24.000                      161536.137        2134.288          17.000  
E30                   -329351.988       -1518.132          16.000                      -82850.324       -1134.447          17.000  
J 1                     42478.151         167.654          25.000                       12349.997         126.642          21.000  
J 2                    410674.079        1415.928          26.000                      152399.335        1059.811          21.000  
C 1                    162292.024         736.194          24.000                                                                                                                                  
C 6                     87140.912         299.553          20.000                                                                                                                                  
C 7                    -94213.654        -439.444          23.000                                                                                                                                  
C 9                     49098.915         217.516          22.000                                                                                                                                  
C10                    -86837.463        -394.770          19.000                                                                                                                                  
C13                    240752.689           0.016          16.000                                                                                                                                  
C14                   -111351.012        -695.185          20.000                                                                                                                                  
C21                    775318.056        3488.841          23.000                                                                                      240072.791        2631.140          21.000  
C24                   -147377.876        -660.218          24.000                                                                                      -48830.767        -501.377          14.000  
C26                    408338.671        1437.376          26.000                                                                                      108718.252        1081.653          17.000  
C29                     12157.774         118.125          15.000                                                                                                                                  
C33                   -416092.571          -0.000          13.000                                                                                                                                  
C35                   -143138.867           0.027          12.000                                                                                                                                  
> 2022  1 25  3 15 35.0000000  0 31                     
G10                   1201236.804        4312.518          34.000                      157539.313        3224.660          20.000  
G25                   1055511.638        3615.444          25.000                      577880.403        2699.691          20.000  
G26                   -495945.727       -1751.599          28.000                     -119758.784       -1306.888          19.000  
G29                   -220722.440        -750.338          29.000                                                                  
G31                    130558.487         451.825          24.000                                                                  
G32                    293682.557         998.929          30.000                      118067.978         752.169          22.000  
R 1                                                        23.000  
R 2                                                        17.000  
R 8                                                        19.000  
R12                                                        18.000  
E 2                    154017.129         627.130          20.000                       43142.683         465.800          17.000  
E 3                    417166.589        1711.330          24.000                      131578.652        1284.351          21.000  
E 5                    246903.426        3273.916          20.000                                                                  
E 8                   -196987.288        -823.254          20.000                                                                  
E25                    708164.172        2858.285          22.000                      169910.879        2133.980          18.000  
E30                   -337326.535       -1517.339          23.000                      -87294.329       -1128.242          20.000  
J 1                     43365.164         167.849          31.000                       12847.795         124.553          21.000  
J 2                    418107.832        1415.378          27.000                      156566.892        1065.353          20.000  
C 1                    166141.812         748.858          24.000                                                                                                                                  
C 6                     88712.396         303.674          19.000                                                                                                                                  
C 7                    -96499.603        -438.268          26.000                                                                                                                                  
C 9                     50239.527         219.015          19.000                                                                                                                                  
C10                    -88894.180        -396.511          20.000                                                                                                                                  
C13                    254494.360           0.016          16.000                                                                                                                                  
C14                   -114965.994        -694.201          20.000                                                                                                                                  
C21                    793486.268        3490.723          30.000                                                                                      250391.322        2626.515          23.000  
C24                   -150818.230        -660.826          24.000                                                                                      -50800.794        -501.625          15.000  
C26                    415832.138        1439.443          23.000                                                                                      112969.793        1084.637          15.000  
C29                     12782.589         120.956          15.000                                                                                                                                  
C33                   -425819.718          -0.000          14.000                                                                                                                                  
C35                   -150056.663           0.027          14.000                                                                                                                                  
> 2022  1 25  3 15 36.0000000  0 31                     
G10                   1223917.511        4314.376          26.000                      170180.567        3219.880          21.000  
G25                   1074512.196        3618.417          22.000                      588476.874        2704.141          20.000  
G26                   -505143.176       -1749.903          30.000                     -124873.803       -1305.956          20.000  
G29                   -224667.808        -742.775          25.000                                                                  
G31                    132935.656         453.135          24.000                                                                  
G32                    298965.290        1006.254          33.000                      121006.645         751.601          25.000  
R 1                                                        25.000  
R 2                                                        17.000  
R 8                                                        20.000  
R12                                                        19.000  
E 2                    157322.415         629.539          20.000                       44979.860         469.125          17.000  
E 3                    426176.523        1715.332          27.000                      136599.332        1280.568          21.000  
E 5                    264104.926        3275.734          17.000                                                                  
E 8                   -201307.044        -821.386          20.000                                                                  
E25                    723178.432        2856.575          22.000                      178279.658        2131.980          20.000  
E30                   -345279.828       -1514.491          24.000                      -91717.665       -1131.484          24.000  
J 1                     44243.944         167.095          32.000                       13341.444         123.839          22.000  
J 2                    425550.279        1418.133          28.000                      160741.752        1059.011          22.000  
C 1                    169972.679         732.076          30.000                                                                                                                                  
C 6                     90287.688         301.637          20.000                                                                                                                                  
C 7                    -98778.417        -439.884          24.000                                                                                                                                  
C 9                     51378.057         220.023          18.000                                                                                                                                  
C10                    -90943.869        -393.248          29.000                                                                                                                                  
C13                    268238.338           0.016          14.000                                                                                                                                  
C14                   -118586.022        -695.763          20.000                                                                                                                                  
C21                    811669.236        3490.534          29.000                                                                                      260702.662        2631.093          27.000  
C24                   -154254.980        -659.794          20.000                                                                                      -52761.974        -499.567          17.000  
C26                    423341.044        1443.852          23.000                                                                                      117230.146        1085.332          16.000  
C29                     13409.064         119.677          14.000                                                                                                                                  
C33                   -435555.309          -0.000          15.000                                                                                                                                  
C35                   -156990.168           0.027          12.000                                                                                                                                  
> 2022  1 25  3 15 37.0000000  0 31                     
G10                   1246588.924        4311.030          29.000                      182827.521        3218.789          22.000  
G25                   1093505.658        3609.795          25.000                      599061.959        2696.599          23.000  
G26                   -514322.896       -1748.432          32.000                     -130008.475       -1309.626          20.000  
G29                   -228589.867        -746.258          21.000                                                                  
G31                    135333.484         458.929          23.000                                                                  
G32                    304262.689        1009.812          37.000                      123963.702         753.018          25.000  
R 1                                                        20.000  
R 2                                                        18.000  
R 8                                                        17.000  
R12                                                        20.000  
E 2                    160633.307         631.318          18.000                       46825.926         469.847          18.000  
E 3                    435182.411        1715.150          26.000                      141621.518        1282.615          19.000  
E 5                    281291.045        3266.975          14.000                                                                  
E 8                   -205627.114        -822.277          20.000                                                                  
E25                    738183.495        2857.445          22.000                      186645.720        2135.481          20.000  
E30                   -353230.721       -1516.636          28.000                                                                  
J 1                     45133.146         169.099          27.000                       13850.839         125.817          20.000  
J 2                    432989.519        1416.192          28.000                      164891.590        1055.823          23.000  
C 1                    173790.957         723.606          30.000                                                                                                                                  
C 6                     91856.327         301.072          22.000                                                                                                                                  
C 7                   -101063.538        -440.176          25.000                                                                                                                                  
C 9                     52512.960         216.868          18.000                                                                                                                                  
C10                    -92959.478        -388.860          26.000                                                                                                                                  
C13                    281988.784           0.016          16.000                                                                                                                                  
C14                   -122207.363        -697.572          20.000                                                                                                                                  
C21                    829860.504        3491.757          32.000                                                                                      271030.003        2633.220          22.000  
C24                   -157679.834        -656.969          18.000                                                                                      -54714.974        -496.064          17.000  
C26                    430854.528        1440.626          24.000                                                                                      121490.426        1087.712          17.000  
C29                     14036.471         120.603          16.000                                                                                                                                  
C33                   -445294.620          -0.000          12.000                                                                                                                                  
C35                   -163920.004           0.027          11.000                                                                                                                                  
> 2022  1 25  3 15 38.0000000  0 30                     
G10                   1269249.287        4311.585          27.000                      195491.657        3228.043          19.000  
G25                   1112476.187        3613.071          34.000                      609653.181        2700.960          20.000  
G26                   -523491.401       -1744.316          24.000                     -135147.286       -1308.848          18.000  
G29                   -232526.198        -750.741          24.000                                                                  
G31                    137741.919         457.414          28.000                                                                  
G32                    309547.275        1006.696          38.000                      126897.302         743.075          18.000  
R 1                                                        27.000  
R 2                                                        20.000  
R 8                                                        19.000  
R12                                                        25.000  
E 2                    163943.671         630.386          29.000                       48671.032         470.520          21.000  
E 3                    444182.098        1713.731          29.000                      146651.166        1279.455          20.000  
E 5                    298468.134        3268.750          18.000                                                                  
E 8                   -209944.984        -821.814          27.000                                                                  
E25                    753191.305        2855.244          32.000                      195022.268        2131.655          20.000  
E30                   -361179.203       -1513.984          24.000                     -100559.202       -1130.394          18.000  
J 1                     46022.178         168.466          29.000                       14343.419         125.928          19.000  
J 2                    440436.482        1415.754          32.000                      169033.741        1051.902          18.000  
C 1                    177575.241         740.354          26.000                                                                                                                                  
C 6                     93418.203         299.174          28.000                                                                                                                                  
C 7                   -103342.401        -438.775          22.000                                                                                                                                  
C 9                     53636.910         216.276          25.000                                                                                                                                  
C10                    -94979.035        -388.644          22.000                                                                                                                                  
C13                    295739.085           0.016          16.000                                                                                                                                  
C14                   -125828.269        -694.314          27.000                                                                                                                                  
C21                    848032.821        3489.846          29.000                                                                                      281358.396        2630.398          19.000  
C24                   -161101.143        -659.180          24.000                                                                                      -56662.290        -496.324          16.000  
C26                    438355.906        1440.746          29.000                                                                                      125756.071        1086.308          17.000  
C29                     14663.114         120.925          16.000                                                                                                                                  
C35                   -170842.787           0.027          15.000                                                                                                                                  
> 2022  1 25  3 15 39.0000000  0 29                     
G10                   1291908.232        4313.016          35.000                      208140.534        3221.074          24.000  
G25                   1131479.819        3617.996          25.000                      620238.618        2697.220          26.000  
G26                   -532683.858       -1747.033          27.000                     -140279.461       -1309.019          23.000  
G29                   -236461.436        -747.326          28.000                                                                  
G31                    140145.214         456.975          23.000                                                                  
G32                    314834.354        1008.317          28.000                      129824.764         749.860          24.000  
R 1                                                        26.000  
R 2                                                        19.000  
R 8                                                        26.000  
R12                                                        23.000  
E 2                    167269.354         633.100          26.000                       50527.663         472.722          19.000  
E 3                    453193.331        1713.905          23.000                      151673.778        1280.645          21.000  
E 5                    315648.002        3266.449          15.000                                                                  
E 8                   -214256.530        -819.826          22.000                                                                  
E25                    768199.828        2856.406          23.000                      203396.192        2133.983          24.000  
E30                   -369129.922       -1514.698          29.000                     -104991.144       -1129.490          22.000  
J 1                     46908.523         166.418          27.000                       14845.695         126.528          20.000  
J 2                    447874.997        1413.684          23.000                      173175.143        1056.940          23.000  
C 1                    181470.576         747.779          27.000                                                                                                                                  
C 6                     94988.658         302.501          21.000                                                                                                                                  
C 7                   -105634.357        -440.111          25.000                                                                                                                                  
C 9                     54774.610         220.492          20.000                                                                                                                                  
C10                    -97003.288        -389.783          23.000                                                                                                                                  
C13                    309492.084           0.016          17.000                                                                                                                                  
C14                   -129449.615        -695.514          22.000                                                                                                                                  
C21                    866211.625        3487.635          30.000                                                                                      291685.791        2632.305          20.000  
C24                   -164522.080        -657.706          24.000                                                                                      -58608.089        -496.142          17.000  
C26                    445871.129        1445.524          25.000                                                                                      130035.033        1089.312          20.000  
C29                     15294.809         122.121          16.000                                                                                                                                  
> 2022  1 25  3 15 40.0000000  0 29                     
G10                   1314596.515        4312.520          29.000                      220793.768        3220.177          25.000  
G25                   1150483.893        3616.501          22.000                      630826.732        2700.552          22.000  
G26                   -541854.576       -1747.678          33.000                     -145400.619       -1300.331          24.000  
G29                   -240404.948        -744.734          28.000                                                                  
G31                    142547.078         458.546          22.000                                                                  
G32                    320126.168        1008.213          32.000                      132778.056         752.777          27.000  
R 1                                                        23.000  
R 2                                                        18.000  
R 8                                                        29.000  
R12                                                        22.000  
E 2                    170584.267         630.073          21.000                       52377.691         473.061          20.000  
E 3                    462201.348        1717.031          29.000                      156709.364        1284.587          18.000  
E 5                    332811.013        3265.716          14.000                                                                  
E 8                   -218575.558        -821.246          22.000                                                                  
E25                    783214.322        2860.257          23.000                      211762.354        2133.893          20.000  
E30                   -377078.233       -1514.059          25.000                     -109402.009       -1122.857          25.000  
J 1                     47802.948         167.690          31.000                       15347.413         126.349          24.000  
J 2                    455316.426        1416.665          28.000                      177325.081        1058.754          25.000  
C 1                    185359.100         741.375          27.000                                                                                                                                  
C 6                     96557.980         302.075          22.000                                                                                                                                  
C 7                   -107919.936        -436.736          22.000                                                                                                                                  
C 9                     55917.714         218.383          18.000                                                                                                                                  
C10                    -99033.203        -391.098          25.000                                                                                                                                  
C13                    323240.905           0.016          14.000                                                                                                                                  
C14                   -133061.430        -694.006          20.000                                                                                                                                  
C21                    884397.780        3491.602          34.000                                                                                      302015.427        2630.165          20.000  
C24                   -167938.348        -655.821          22.000                                                                                      -60557.402        -497.008          17.000  
C26                    453390.367        1442.795          23.000                                                                                      134312.332        1090.798          17.000  
C29                     15927.418         120.672          17.000                                                                                                                                  
> 2022  1 25  3 15 41.0000000  0 27                     
G10                   1337276.120        4314.986          30.000                      233437.804        3218.311          27.000  
G25                   1169482.518        3618.242          26.000                      641414.268        2701.242          22.000  
G26                   -551049.570       -1751.244          29.000                     -150520.574       -1307.376          22.000  
G29                   -244353.904        -749.165          33.000                                                                  
G31                    144958.670         456.593          24.000                                                                  
G32                    325430.839        1007.627          36.000                      135713.907         748.847          24.000  
R 1                                                        23.000  
R 2                                                        17.000  
R 8                                                        24.000  
R12                                                        20.000  
E 2                    173904.542         632.307          25.000                       54244.522         476.014          20.000  
E 3                    471226.003        1717.838          25.000                      161736.408        1278.290          20.000  
E 8                   -222892.471        -821.786          18.000                                                                  
E25                    798244.655        2860.777          23.000                      220120.228        2128.245          23.000  
E30                   -385016.922       -1514.167          25.000                     -113823.833       -1125.273          23.000  
J 1                     48688.047         167.714          26.000                       15832.242         125.289          19.000  
J 2                    462760.941        1416.398          27.000                      181490.770        1061.015          26.000  
C 1                    189180.365         716.647          27.000                                                                                                                                  
C 6                     98124.412         300.977          20.000                                                                                                                                  
C 7                   -110199.844        -439.929          25.000                                                                                                                                  
C 9                     57056.156         218.656          17.000                                                                                                                                  
C10                   -101061.352        -391.701          22.000                                                                                                                                  
C14                   -136670.389        -694.108          21.000                                                                                                                                  
C21                    902591.285        3492.681          34.000                                                                                      312336.241        2631.619          21.000  
C24                   -171355.589        -657.380          21.000                                                                                      -62505.652        -496.067          17.000  
C26                    460903.649        1443.597          29.000                                                                                      138587.302        1088.697          17.000  
C29                     16561.372         122.605          17.000                                                                                                                                  
> 2022  1 25  3 15 42.0000000  0 27                     
G10                   1359961.822        4313.679          29.000                      246079.830        3220.645          20.000  
G25                   1188500.103        3618.348          24.000                      652018.743        2702.207          22.000  
G26                   -560246.688       -1751.162          29.000                     -155646.101       -1310.398          23.000  
G29                   -248280.357        -747.154          28.000                                                                  
G31                    147358.569         454.805          23.000                                                                  
G32                    330738.519        1007.219          37.000                      138664.702         754.578          24.000  
R 1                                                        22.000  
R 2                                                        17.000  
R 8                                                        29.000  
R12                                                        21.000  
E 2                    177223.922         630.111          23.000                       56085.305         471.384          20.000  
E 3                    480246.076        1716.479          29.000                      166762.606        1284.046          21.000  
E 8                   -227204.007        -819.770          20.000                                                                  
E25                    813257.338        2858.455          22.000                      228495.755        2137.320          23.000  
E30                   -392953.380       -1512.443          22.000                     -118256.788       -1128.211          24.000  
J 1                     49574.286         168.621          32.000                       16325.728         126.075          23.000  
J 2                    470202.146        1417.454          27.000                      185653.936        1059.493          27.000  
C 1                    192909.924         715.974          26.000                                                                                                                                  
C 6                     99699.530         302.851          20.000                                                                                                                                  
C 7                   -112488.643        -439.864          26.000                                                                                                                                  
C 9                     58197.787         219.416          20.000                                                                                                                                  
C10                   -103079.615        -389.544          24.000                                                                                                                                  
C14                   -140275.325        -692.762          22.000                                                                                                                                  
C21                    920781.956        3492.616          29.000                                                                                      322660.291        2631.130          24.000  
C24                   -174788.121        -661.362          20.000                                                                                      -64446.351        -493.211          17.000  
C26                    468431.618        1446.657          25.000                                                                                      142858.222        1086.757          17.000  
C29                     17200.721         122.920          15.000                                                                                                                                  
> 2022  1 25  3 15 43.0000000  0 18                     
G10                   1382634.087        4313.550          31.000                      258724.943        3223.434          20.000  
G25                   1207504.902        3619.488          27.000                      662602.379        2701.531          23.000  
G26                   -569407.773       -1742.644          26.000                     -160757.105       -1302.594          24.000  
G29                   -252198.685        -744.997          24.000                                                                  
G31                    149759.175         458.367          24.000                                                                  
G32                    336058.547        1013.567          31.000                      141631.786         758.160          24.000  
R 1                                                        24.000  
R 2                                                        15.000  
R 8                                                        23.000  
R12                                                        22.000  
E 2                    180540.749         631.763          24.000                       57941.861         474.133          18.000  
E25                    828265.646        2857.282          27.000                      236860.653        2130.372          23.000  
E30                   -400896.327       -1513.303          25.000                     -122677.328       -1127.789          20.000  
J 1                     50463.375         171.476          28.000                       16834.520         130.170          21.000  
J 2                    477639.017        1416.110          26.000                      189795.192        1053.902          21.000  
C21                    938973.869        3489.128          27.000                                                                                      332997.411        2638.794          23.000  
C24                                                                                                                                                    -66381.706        -492.231          18.000  
C26                    475957.160        1444.438          28.000                                                                                      147120.350        1085.606          19.000  
> 2022  1 25  3 15 44.0000000  0 19                     
G10                   1405296.577        4313.831          34.000                      271372.155        3224.039          18.000  
G25                   1226513.751        3615.708          29.000                      673195.102        2699.312          20.000  
G26                   -578565.909       -1743.868          26.000                     -165847.611       -1295.275          19.000  
G29                   -256125.727        -744.777          28.000                                                                  
G31                    152161.823         454.829          26.000                                                                  
G32                    341363.167        1006.455          30.000                      144584.966         753.105          24.000  
R 1                                                        25.000  
R 2                                                        16.000  
R 8                                                        20.000  
R12                                                        19.000  
E 2                    183871.591         633.886          19.000                       59790.735         469.978          20.000  
E 8                     -7832.625        -821.308          19.000                                                                  
E25                    843280.056        2859.492          25.000                      245229.627        2135.581          22.000  
E30                   -408828.069       -1509.406          22.000                     -127090.264       -1131.269          21.000  
J 1                     51362.134         169.119          26.000                       17330.048         127.440          21.000  
J 2                    485088.657        1416.931          27.000                      193948.126        1058.629          24.000  
C21                    957173.047        3493.686          28.000                                                                                      343332.174        2632.405          21.000  
C24                     -6458.650        -658.704          23.000                                                                                      -68315.670        -494.747          18.000  
C26                    483481.006        1445.925          22.000                                                                                      151390.080        1090.008          19.000  
> 2022  1 25  3 15 45.0000000  0 19                     
G10                   1427974.954        4315.235          33.000                      284013.544        3221.115          25.000  
G25                   1245522.762        3619.304          27.000                      683772.709        2698.344          20.000  
G26                   -587725.369       -1746.326          29.000                     -170942.508       -1302.037          20.000  
G29                   -260033.406        -743.773          32.000                                                                  
G31                    154552.822         456.263          21.000                                                                  
G32                    346660.217        1010.385          30.000                      147542.991         755.219          24.000  
R 1                                                        24.000  
R 2                                                        17.000  
R 8                                                        19.000  
R12                                                        21.000  
E 2                    187203.412         633.912          20.000                       61662.228         477.795          18.000  
E 8                    -12136.710        -818.859          20.000                                                                  
E25                    858299.683        2860.162          24.000                      253595.765        2125.295          19.000  
E30                   -416757.771       -1511.520          22.000                     -131515.823       -1127.200          20.000  
J 1                     52243.496         168.557          28.000                       17824.801         124.819          21.000  
J 2                    492531.937        1417.602          24.000                      198108.528        1057.876          23.000  
C21                    975371.523        3495.111          32.000                                                                                      353665.518        2631.587          24.000  
C24                     -9896.111        -660.984          20.000                                                                                      -70249.381        -493.392          17.000  
C26                    491000.220        1443.616          25.000                                                                                      155664.184        1088.809          18.000  
> 2022  1 25  3 15 46.0000000  0 19                     
G10                   1450652.982        4316.968          30.000                      296668.040        3224.266          23.000  
G25                   1264531.820        3616.898          26.000                      694364.840        2699.157          17.000  
G26                   -596868.671       -1736.934          27.000                     -176055.532       -1301.682          24.000  
G29                   -263960.385        -742.487          34.000                                                                  
G31                    156954.089         458.217          23.000                                                                  
G32                    351957.446        1010.521          29.000                      150522.693         757.549          23.000  
R 1                                                        24.000  
R 2                                                        17.000  
R 8                                                        21.000  
R12                                                        21.000  
E 2                    190536.339         637.026          20.000                       63530.353         472.000          20.000  
E 8                    -16440.100        -818.328          23.000                                                                  
E25                    873329.932        2860.157          24.000                      261957.508        2133.448          22.000  
E30                   -424694.987       -1511.895          24.000                     -135936.413       -1129.143          23.000  
J 1                     53145.568         174.335          31.000                       18327.132         127.523          23.000  
J 2                    499990.373        1420.097          24.000                      202260.396        1058.564          23.000  
C21                    993573.977        3496.221          35.000                                                                                      363999.970        2635.615          24.000  
C24                    -13332.243        -660.477          20.000                                                                                      -72183.666        -493.042          17.000  
C26                    498514.843        1443.984          24.000                                                                                      159931.693        1086.785          18.000  
> 2022  1 25  3 15 47.0000000  0 20                     
G10                   1473330.461        4316.305          35.000                      309317.725        3221.755          22.000  
G25                   1283547.258        3618.658          25.000                      704962.755        2701.019          17.000  
G26                   -606050.882       -1750.314          30.000                     -181170.784       -1303.041          24.000  
G29                   -267876.641        -745.783          27.000                                                                  
G31                    159358.833         457.983          20.000                                                                  
G32                    357280.485        1012.026          30.000                      153486.115         754.954          24.000  
R 1                                                        24.000  
R 2                                                        16.000  
R 8                                                        20.000  
R12                                                        21.000  
E 2                    193873.912         633.631          20.000                       65377.125         472.042          19.000  
E 5                     84383.601        3276.061          21.000                                                                  
E 8                    -20745.003        -818.303          22.000                                                                  
E25                    888350.507        2859.895          22.000                      270339.803        2139.139          21.000  
E30                   -432633.268       -1511.433          22.000                     -140359.928       -1128.036          23.000  
J 1                     54049.833         172.545          30.000                       18826.539         128.293          24.000  
J 2                    507435.051        1417.351          28.000                      206405.126        1058.901          25.000  
C21                   1011780.831        3498.228          29.000                                                                                      374335.174        2634.936          26.000  
C24                    -16759.177        -658.540          23.000                                                                                      -74127.480        -496.618          16.000  
C26                    506034.259        1441.546          28.000                                                                                      164192.665        1084.574          19.000  
> 2022  1 25  3 15 48.0000000  0 22                     
G10                   1496014.367        4312.045          30.000                      321967.942        3224.896          19.000  
G25                   1302570.648        3617.364          33.000                      715563.151        2701.941          18.000  
G26                   -615210.648       -1742.143          30.000                     -186275.764       -1300.564          24.000  
G29                   -271803.671        -745.365          35.000                                                                  
G31                    161773.851         459.915          23.000                                                                  
G32                    362599.046        1013.008          33.000                      156450.785         754.964          23.000  
R 1                                                        25.000  
R 2                                                        17.000  
R 8                                                        18.000  
R12                                                        20.000  
E 2                    197198.727         631.886          20.000                       67235.310         474.879          20.000  
E 5                    101609.148        3277.768          21.000                                                                  
E 8                    -25052.824        -819.992          19.000                                                                  
E25                    903396.045        2860.788          28.000                      278731.138        2135.383          19.000  
E30                   -440571.180       -1513.330          21.000                     -144786.080       -1122.927          20.000  
J 1                     54952.996         172.066          23.000                       19319.192         121.529          20.000  
J 2                    514895.814        1419.895          27.000                      210552.612        1053.424          22.000  
C 6                      2517.659         300.499          20.000                                                                                                                                  
C21                   1029994.391        3498.573          27.000                                                                                      384668.362        2631.243          24.000  
C24                    -20184.120        -656.953          24.000                                                                                      -76071.430        -494.746          17.000  
C26                    513559.681        1445.845          25.000                                                                                      168448.956        1088.566          20.000  
C33                    -25147.487       -1864.860          18.000                                                                                                                                  
> 2022  1 25  3 15 49.0000000  0 23                     
G10                   1518698.781        4317.617          25.000                      334616.718        3224.280          17.000  
G25                   1321571.116        3615.772          30.000                      726160.539        2700.234          18.000  
G26                   -624360.289       -1741.923          25.000                     -191379.818       -1300.698          21.000  
G29                   -275696.366        -742.415          31.000                                                                  
G31                    164193.284          -0.007          20.000                                                                  
G32                    367921.477        1013.469          34.000                      159414.013         752.127          21.000  
R 1                                                        26.000  
R 2                                                        16.000  
R 8                                                        16.000  
R12                                                        19.000  
E 2                    200535.824         635.469          20.000                       69091.662         472.268          19.000  
E 5                    118842.006        3280.224          25.000                                                                  
E 8                    -29358.211        -819.968          18.000                                                                  
E25                    918421.818        2857.305          29.000                      287110.430        2134.220          18.000  
E30                   -448516.226       -1513.446          24.000                     -149202.603       -1123.427          20.000  
J 1                     55852.988         176.381          26.000                       19822.836         127.032          22.000  
J 2                    522348.388        1419.354          29.000                      214701.953        1057.453          22.000  
C 6                      4084.617         303.052          20.000                                                                                                                                  
C21                   1048206.631        3498.841          28.000                                                                                      395017.519        2638.962          25.000  
C24                    -23603.463        -655.066          23.000                                                                                      -78012.213        -493.864          16.000  
C26                    521097.038        1445.852          26.000                                                                                      172719.917        1086.702          20.000  
C33                    -34859.079       -1861.847          17.000                                                                                                                                  
C35                    -38377.309       -1325.120          17.000                                                                                                                                  
> 2022  1 25  3 15 50.0000000  0 23                     
G10                   1541383.726        4318.505          26.000                                                                  
G25                   1340570.543        3616.550          31.000                      736757.823        2699.836          18.000  
G26                   -633532.954       -1746.392          25.000                     -196493.295       -1300.719          19.000  
G29                   -279593.212        -740.848          33.000                                                                  
G31                    166620.878         462.651          20.000                                                                  
G32                    373260.191        1016.155          35.000                      162372.118         750.462          20.000  
R 1                                                        26.000  
R 2                                                        12.000  
R 8                                                        14.000  
R12                                                        20.000  
E 2                    203873.760         636.130          20.000                       70947.282         473.900          19.000  
E 5                    136080.469        3280.431          30.000                                                                  
E 8                    -33664.097        -817.269          19.000                                                                  
E25                    933443.657        2857.873          27.000                      295488.691        2135.745          18.000  
E30                   -456466.950       -1513.534          21.000                     -153614.962       -1124.146          15.000  
J 1                     56759.901         172.203          24.000                       20329.749         132.326          21.000  
J 2                    529798.486        1419.068          27.000                      218866.507        1063.117          21.000  
C 6                      5658.948         303.849          19.000                                                                                                                                  
C21                   1066427.352        3503.328          31.000                                                                                      405363.663        2637.519          23.000  
C24                    -27018.674        -656.295          24.000                                                                                      -79950.654        -493.996          15.000  
C26                    528626.615        1445.365          25.000                                                                                      176996.113        1088.690          19.000  
C33                    -44548.691       -1858.862          19.000                                                                                                                                  
C35                    -45269.715       -1321.898          17.000                                                                                                                                  
> 2022  1 25  3 15 51.0000000  0 23                     
G10                   1564069.225        4314.470          24.000                      359924.173        3224.981          19.000  
G25                   1359591.423        3618.953          30.000                      747349.767        2699.843          20.000  
G26                   -642705.880       -1746.513          22.000                     -201602.637       -1303.223          17.000  
G29                   -283482.788        -741.151          30.000                                                                  
G31                    169053.086         464.313          20.000                                                                  
G32                    378589.601        1013.865          28.000                      165339.099         760.308          22.000  
R 1                                                        25.000  
R 2                                                        12.000  
R 8                                                        15.000  
R12                                                        19.000  
E 2                    207216.413         635.467          20.000                       72805.359         473.148          17.000  
E 5                    153321.200        3283.509          23.000                                                                  
E 8                    -37945.808        -814.466          18.000                                                                  
E25                    948462.693        2857.289          27.000                      303864.901        2135.050          19.000  
E30                   -464409.159       -1507.297          21.000                     -158028.820       -1124.690          13.000  
J 1                     57666.328         173.798          25.000                       20839.390         130.235          22.000  
J 2                    537265.315        1423.046          24.000                      223024.112        1059.880          23.000  
C 6                      7233.773         302.058          19.000                                                                                                                                  
C21                   1084652.821        3499.394          28.000                                                                                      415714.146        2638.072          22.000  
C24                    -30432.509        -655.445          21.000                                                                                      -81893.682        -493.550          16.000  
C26                    536151.293        1444.064          24.000                                                                                      181249.691        1079.285          19.000  
C33                    -54226.137       -1858.547          19.000                                                                                                                                  
C35                    -52164.244       -1324.530          16.000                                                                                                                                  
> 2022  1 25  3 15 52.0000000  0 22                     
G10                   1586746.560        4316.082          24.000                      372590.847        3229.336          20.000  
G25                   1378611.651        3619.634          27.000                      757943.194        2697.919          19.000  
G26                   -651879.374       -1745.511          25.000                     -206710.274       -1301.512          17.000  
G29                   -287381.260        -747.855          28.000                                                                  
G31                    171492.574         464.463          20.000                                                                  
G32                    383934.437        1023.889          30.000                      168312.117         755.253          21.000  
R 1                                                        24.000  
R 2                                                        15.000  
R 8                                                        14.000  
R12                                                        19.000  
E 2                    210557.941         641.414          22.000                       74658.315         471.612          18.000  
E 5                    170565.748        3282.754          18.000                                                                  
E 8                    -42210.602        -810.271          17.000                                                                  
E25                    963495.899        2860.531          28.000                      312238.543        2131.639          19.000  
E30                   -472336.335       -1510.461          20.000                     -162440.229       -1122.718          15.000  
J 1                     58577.851         173.623          24.000                       21354.128         130.571          22.000  
J 2                    544731.260        1418.194          27.000                      227188.532        1061.659          22.000  
C 6                      8804.803         299.669          19.000                                                                                                                                  
C21                   1102861.557        3492.799          30.000                                                                                      426069.867        2639.857          20.000  
C24                    -33851.038        -655.536          22.000                                                                                      -83821.181        -489.904          16.000  
C26                    543669.378        1443.205          24.000                                                                                      185506.931        1086.355          18.000  
C33                    -63907.928       -1859.646          19.000                                                                                                                                  
> 2022  1 25  3 15 53.0000000  0 22                     
G10                   1609429.137        4313.551          30.000                      385259.558        3230.962          20.000  
G25                   1397640.211        3618.713          34.000                      768534.357        2700.754          21.000  
G26                   -661041.997       -1741.784          24.000                     -211815.611       -1302.208          19.000  
G29                   -291272.480        -737.399          30.000                                                                  
G31                    173930.718         464.759          24.000                                                                  
G32                    389297.990        1018.098          33.000                      171296.025         766.140          23.000  
R 1                                                        26.000  
R 2                                                        16.000  
R 8                                                        14.000  
R12                                                        21.000  
E 2                    213916.082         637.902          21.000                       76502.885         469.344          17.000  
E 5                    187821.683        3286.202          18.000                                                                  
E 8                    -46464.867        -810.357          17.000                                                                  
E25                    978538.374        2861.014          29.000                      320606.173        2132.536          21.000  
E30                   -480265.689       -1509.300          21.000                     -166846.736       -1123.896          15.000  
J 1                     59490.482         176.112          25.000                       21866.453         134.203          25.000  
J 2                    552193.254        1421.389          28.000                      231345.989        1056.893          23.000  
C 6                     10361.958         297.582          18.000                                                                                                                                  
C21                   1121079.223        3497.844          30.000                                                                                      436411.315        2629.573          22.000  
C24                    -37259.268        -653.586          22.000                                                                                      -85746.984        -489.952          17.000  
C26                    551194.513        1447.854          20.000                                                                                      189777.786        1089.077          18.000  
C33                    -73581.828       -1856.745          18.000                                                                                                                                  
> 2022  1 25  3 15 54.0000000  0 23                     
G10                   1632107.729        4314.114          25.000                      397924.715        3228.020          22.000  
G25                   1416663.390        3619.481          33.000                      779131.908        2696.167          23.000  
G26                   -670188.283       -1741.725          23.000                     -216916.639       -1298.212          18.000  
G29                   -295171.844        -741.587          27.000                                                                  
G31                    176366.284         463.803          21.000                                                                  
G32                    394639.605        1020.881          30.000                      174278.279         761.938          24.000  
R 1                                                        25.000  
R 2                                                        15.000  
R 8                                                        15.000  
R12                                                        19.000  
E 2                    217267.563         639.689          20.000                       78351.891         472.090          17.000  
E 5                    205086.214        3288.139          18.000                                                                  
E 8                    -50726.028        -809.589          18.000                                                                  
E25                    993574.133        2859.103          31.000                      328978.994        2135.488          19.000  
E30                   -488202.596       -1510.677          20.000                     -171255.825       -1123.890          18.000  
J 1                     60398.011         169.042          28.000                       22385.386         130.395          25.000  
J 2                    559659.749        1421.811          29.000                      235502.987        1059.979          23.000  
C 6                     11916.089         299.479          17.000                                                                                                                                  
C21                   1139305.328        3501.501          27.000                                                                                      446753.171        2639.541          24.000  
C24                    -40655.550        -650.627          22.000                                                                                      -87664.643        -488.273          18.000  
C26                    558726.394        1446.291          21.000                                                                                      194048.672        1087.550          14.000  
C33                    -83257.886       -1858.762          19.000                                                                                                                                  
C35                    -72822.963       -1318.688          15.000                                                                                                                                  
> 2022  1 25  3 15 55.0000000  0 23                     
G10                   1654797.244        4322.985          27.000                      410594.745        3230.818          24.000  
G25                   1435702.010        3620.044          32.000                                                                  
G26                   -679334.391       -1738.158          21.000                     -222011.947       -1299.096          17.000  
G29                   -299050.175        -737.370          31.000                                                                  
G31                    178795.553         462.618          22.000                                                                  
G32                    399999.173        1021.050          33.000                      177258.351         760.575          23.000  
R 1                                                        26.000  
R 2                                                        13.000  
R 8                                                        14.000  
R12                                                        19.000  
E 2                    220631.289         638.309          20.000                       80208.671         474.027          18.000  
E 5                    222357.674        3284.660          16.000                                                                  
E 8                    -54970.598        -807.231          16.000                                                                  
E25                   1008605.192        2858.785          21.000                      337362.148        2134.725          17.000  
E30                   -496117.969       -1501.997          18.000                     -175668.190       -1123.718          17.000  
J 1                     61314.287         178.128          26.000                       22900.232         129.547          25.000  
J 2                    567114.621        1418.293          28.000                      239659.322        1057.288          23.000  
C 6                     13482.228         302.442          17.000                                                                                                                                  
C21                   1157528.637        3501.562          29.000                                                                                      457110.850        2642.986          24.000  
C24                    -44044.115        -651.132          23.000                                                                                      -89582.230        -487.298          17.000  
C26                    566267.159        1449.721          19.000                                                                                      198324.157        1090.845          15.000  
C33                    -92934.958       -1857.034          18.000                                                                                                                                  
C35                    -79694.042       -1317.443          16.000                                                                                                                                  
> 2022  1 25  3 15 56.0000000  0 23                     
G10                   1677502.552        4317.093          29.000                      423261.560        3229.691          23.000  
G25                   1454732.025        3619.512          30.000                      800315.797        2702.448          21.000  
G26                   -688472.453       -1739.833          23.000                     -227108.876       -1298.314          19.000  
G29                   -302924.581        -739.107          29.000                                                                  
G31                    181232.822         466.509          18.000                                                                  
G32                    405349.133        1016.144          29.000                      180241.391         762.359          22.000  
R 1                                                        27.000  
R 2                                                        14.000  
R 8                                                        14.000  
R12                                                        20.000  
E 2                    223983.499         640.821          23.000                       82074.549         477.472          19.000  
E 5                    239617.967        3283.878          15.000                                                                  
E 8                    -59222.478        -812.497          18.000                                                                  
E25                   1023642.345        2862.677          21.000                      345743.822        2136.232          17.000  
E30                   -504018.276       -1504.879          18.000                     -180081.842       -1125.690          17.000  
J 1                     62232.209         173.290          25.000                       23413.670         132.550          23.000  
J 2                    574576.481        1418.615          27.000                      243817.460        1055.696          22.000  
C 6                     15061.798         303.915          15.000                                                                                                                                  
C21                   1175764.387        3504.818          30.000                                                                                      467462.372        2642.049          25.000  
C24                    -47442.445        -654.130          25.000                                                                                      -91495.223        -488.088          19.000  
C26                    573818.326        1449.476          19.000                                                                                                                                  
C33                   -102610.312       -1857.816          19.000                                                                                                                                  
C35                    -86568.816       -1320.046          15.000                                                                                                                                  
> 2022  1 25  3 15 57.0000000  0 23                     
G10                   1700206.324        4328.718          31.000                      435922.784        3227.449          21.000  
G25                   1473749.977        3618.225          24.000                      810931.734        2706.416          19.000  
G26                   -697619.924       -1740.342          26.000                     -232206.295       -1298.500          20.000  
G29                   -306814.307        -738.621          24.000                                                                  
G31                    183684.353         466.774          18.000                                                                  
G32                    410693.877        1019.708          34.000                      183222.665         761.560          22.000  
R 1                                                        25.000  
R 2                                                        15.000  
R 8                                                        15.000  
R12                                                        17.000  
E 2                    227356.659         646.297          20.000                       83945.407         473.554          19.000  
E 5                    256877.837        3283.089          12.000                                                                  
E 8                    -63493.864        -812.963          16.000                                                                  
E25                   1038686.193        2865.367          18.000                      354125.497        2136.877          13.000  
E30                   -511926.705       -1506.942          19.000                     -184502.471       -1126.551          16.000  
J 1                     63144.958         173.432          25.000                       23934.351         132.203          20.000  
J 2                    582029.877        1419.939          27.000                      247975.450        1060.960          22.000  
C 6                     16645.361         304.347          15.000                                                                                                                                  
C21                   1194005.375        3503.147          26.000                                                                                      477802.253        2636.492          20.000  
C24                    -50838.390        -649.508          23.000                                                                                      -93411.980        -484.832          19.000  
C26                    581356.883        1449.557          19.000                                                                                                                                  
C33                   -112292.467       -1858.088          20.000                                                                                                                                  
C35                    -93448.827       -1322.295          14.000                                                                                                                                  
> 2022  1 25  3 15 58.0000000  0 22                     
G10                   1722931.287        4326.087          28.000                      448575.722        3226.135          19.000  
G25                   1492764.037        3618.782          24.000                      821547.741        2704.039          17.000  
G26                   -706765.598       -1739.616          27.000                     -237305.371       -1298.980          18.000  
G29                   -310691.955        -740.387          31.000                                                                  
G31                    186134.060         466.707          18.000                                                                  
G32                    416045.259        1022.281          28.000                      186212.912         761.169          22.000  
R 1                                                        24.000  
R 2                                                        15.000  
R 8                                                        15.000  
R12                                                        17.000  
E 2                    230740.979         642.813          24.000                       85806.672         475.410          18.000  
E 5                    274130.629        3283.252          14.000                                                                  
E 8                    -67786.204        -818.517          17.000                                                                  
E25                   1053735.484        2862.613          18.000                                                                  
E30                   -519843.370       -1506.069          21.000                     -188921.558       -1125.286          17.000  
J 1                     64062.380         178.993          28.000                       24430.763         126.562          21.000  
J 2                    589495.307        1420.719          24.000                      252133.020        1063.383          23.000  
C21                   1212249.426        3508.274          29.000                                                                                      488149.962        2635.726          22.000  
C24                    -54222.737        -650.385          24.000                                                                                      -95320.984        -487.760          16.000  
C26                    588902.405        1449.748          18.000                                                                                                                                  
C33                   -121970.757       -1856.362          19.000                                                                                                                                  
C35                   -100345.531       -1325.306          13.000                                                                                                                                  
> 2022  1 25  3 15 59.0000000  0 22                     
G10                   1745641.051        4327.022          25.000                      461234.367        3230.958          22.000  
G25                   1511793.313        3622.643          20.000                      832162.120        2705.045          16.000  
G26                   -715909.713       -1737.663          25.000                     -242404.742       -1297.277          17.000  
G29                   -314564.591        -737.406          33.000                                                                  
G31                    188575.939         464.882          18.000                                                                  
G32                    421411.967        1023.053          32.000                      189196.705         762.282          23.000  
R 1                                                        25.000  
R 2                                                        15.000  
R 8                                                        14.000  
R12                                                        19.000  
E 2                    234098.695         638.448          20.000                       87675.928         477.031          18.000  
E 5                    291385.742        3284.107          14.000                                                                  
E 8                    -72075.954        -813.068          17.000                                                                  
E25                   1068790.910        2867.004          17.000                                                                  
E30                   -527756.239       -1506.271          19.000                     -193341.431       -1125.780          17.000  
J 1                     64990.309         173.644          26.000                       24931.652         129.958          22.000  
J 2                    596958.744        1419.264          29.000                      256289.326        1059.567          24.000  
C21                   1230497.695        3505.563          31.000                                                                                      498505.527        2636.925          23.000  
C24                    -57607.826        -647.150          20.000                                                                                                                                  
C26                    596445.629        1450.543          18.000                                                                                                                                  
C33                   -131640.014       -1855.554          17.000                                                                                                                                  
C35                   -107235.165           0.027          15.000                                                                                                                                  
> 2022  1 25  3 16  0.0000000  0 22                     
G10                   1768355.577        4320.614          28.000                      473899.610        3229.445          24.000  
G25                   1530838.983        3624.707          21.000                      842779.892        2706.343          16.000  
G26                   -725029.246       -1733.436          23.000                     -247496.213       -1294.591          18.000  
G29                   -318430.363        -738.304          33.000                                                                  
G31                    191024.874         466.751          19.000                                                                  
G32                    426778.909        1020.791          33.000                      192189.929         760.107          23.000  
R 1                                                        25.000  
R 2                                                        15.000  
R 8                                                        15.000  
R12                                                        19.000  
E 2                    237454.720         639.298          22.000                       89545.234         473.783          20.000  
E 5                    308642.745        3283.921          12.000                                                                  
E 8                    -76341.570        -811.982          17.000                                                                  
E25                   1083843.200        2863.349          17.000                                                                  
E30                   -535679.182       -1506.702          20.000                     -197754.410       -1122.193          17.000  
J 1                     65905.383         178.150          25.000                       25432.551         129.636          24.000  
J 2                    604409.164        1416.854          27.000                      260444.823        1053.218          23.000  
C21                   1248746.384        3505.817          28.000                                                                                      508860.292        2639.586          23.000  
C24                    -60989.139        -650.520          21.000                                                                                                                                  
C26                    603997.384        1451.343          19.000                                                                                                                                  
C33                   -141309.729       -1858.482          23.000                                                                                                                                  
C35                   -114105.887           0.027          15.000                                                                                                                                  
> 2022  1 25  3 16  1.0000000  0 22                     
G10                   1791055.896        4324.302          32.000                      486561.146        3229.346          23.000  
G25                   1549887.812        3625.436          20.000                      853392.354        2701.897          16.000  
G26                   -734142.537       -1733.320          25.000                     -252574.833       -1293.549          19.000  
G29                   -322306.067        -740.078          31.000                                                                  
G31                    193472.700         467.349          21.000                                                                  
G32                    432144.278        1025.157          32.000                      195183.465         761.831          24.000  
R 1                                                        23.000  
R 2                                                        15.000  
R 8                                                        11.000  
R12                                                        18.000  
E 2                    240822.711         641.441          20.000                       91403.073         477.310          18.000  
E 5                    325901.588        3284.098          11.000                                                                  
E 8                    -80619.884        -814.621          17.000                                                                  
E25                   1098883.632        2861.254          18.000                                                                  
E30                   -543586.816       -1503.469          23.000                     -202157.409       -1120.800          19.000  
J 1                     66818.521         169.345          30.000                       25948.376         132.228          23.000  
J 2                    611863.541        1419.425          24.000                      264600.220        1061.240          23.000  
C21                   1266982.822        3494.011          30.000                                                                                      519216.205        2639.794          23.000  
C24                    -64364.248        -646.765          19.000                                                                                                                                  
C26                    611551.740        1450.090          19.000                                                                                                                                  
C33                   -150983.923       -1854.965          20.000                                                                                                                                  
C35                   -120970.511           0.027          13.000                                                                                                                                  
> 2022  1 25  3 16  2.0000000  0 22                     
G10                   1813767.193        4316.745          26.000                      499230.597        3231.396          20.000  
G25                   1568928.099        3622.711          20.000                      863995.403        2702.764          14.000  
G26                   -743257.648       -1736.484          21.000                     -257653.318       -1295.721          17.000  
G29                   -326186.784        -736.734          30.000                                                                  
G31                    195926.513         466.435          20.000                                                                  
G32                    437502.842        1015.903          26.000                      198185.525         768.310          17.000  
R 1                                                        21.000  
R 2                                                        14.000  
R 8                                                        14.000  
R12                                                        17.000  
E 2                    244202.820         644.135          19.000                       93278.111         477.720          17.000  
E 5                    343160.775        3284.407           8.000                                                                  
E 8                    -84901.590        -814.509          17.000                                                                  
E25                   1113912.103        2860.189          18.000                                                                  
E30                   -551482.954       -1502.091          18.000                     -206557.366       -1121.984          18.000  
J 1                     67711.750         172.022          26.000                       26460.191         130.065          21.000  
J 2                    619315.061        1419.754          24.000                      268759.567        1062.505          18.000  
C21                   1285207.261        3501.334          28.000                                                                                      529580.166        2643.368          21.000  
C24                    -67734.141        -648.137          17.000                                                                                                                                  
C26                    619101.804        1451.569          18.000                                                                                                                                  
C33                   -160646.914       -1853.434          18.000                                                                                                                                  
C35                   -127824.360           0.027          12.000                                                                                                                                  
