     3.04           OBSERVATION DATA    M: Mixed            RINEX VERSION / TYPE
Higeo_Hi1105        Huawei CBG          20220209 110521 UTC PGM / RUN BY / DATE 
************************************************************COMMENT             
* If you have any problem,                                 *COMMENT             
*     please contact with LBS Technology Group, thanks.    *COMMENT             
*                                                          *COMMENT             
* Version Higeo2RinexV1.1 2020.07.21                       *COMMENT             
* Fuction:  Convert Higeo Log to Rinex file                *COMMENT             
*                                                          *COMMENT             
* Note that the verision support B1C B2A signal            *COMMENT             
*     BDS: C1D L1D D1D S1D indicate BDS B1C                *COMMENT             
*     BDS: C5D L5D D5D S5D indicate BDS B2A                *COMMENT             
*     Reference: RINEX V3.04                               *COMMENT             
*                                                          *COMMENT             
* Copyright(C) Huawei Technologies Co., Ltd. 2019 - 2020   *COMMENT             
*     All rights reserved.                                 *COMMENT             
************************************************************COMMENT             
                                                            MARKER NAME         
                                                            MARKER NUMBER       
                                                            MARKER TYPE         
                                                            OBSERVER / AGENCY   
                                                            REC # / TYPE / VERS 
                                                            ANT # / TYPE        
        0.0000        0.0000        0.0000                  APPROX POSITION XYZ 
        0.0000        0.0000        0.0000                  ANTENNA: DELTA H/E/N
G    8 C1C L1C D1C S1C C5I L5I D5I S5I                      SYS / # / OBS TYPES 
R    4 C1C L1C D1C S1C                                      SYS / # / OBS TYPES 
E    8 C1C L1C D1C S1C C5I L5I D5I S5I                      SYS / # / OBS TYPES 
J    8 C1C L1C D1C S1C C5I L5I D5I S5I                      SYS / # / OBS TYPES 
C   12 C2I L2I D2I S2I C1D L1D D1D S1D C5D L5D D5D S5D      SYS / # / OBS TYPES 
  2021    12     8     2    48   47.0000000     GPS         TIME OF FIRST OBS   
  2021    12     8     3     3   19.0000000     GPS         TIME OF LAST OBS    
G                                                           SYS / PHASE SHIFT   
R                                                           SYS / PHASE SHIFT   
E                                                           SYS / PHASE SHIFT   
J                                                           SYS / PHASE SHIFT   
C                                                           SYS / PHASE SHIFT   
  0                                                         GLONASS SLOT / FRQ #
 C1C    0.000 C1P    0.000 C2C    0.000 C2P    0.000        GLONASS COD/PHS/BIS 
                                                            END OF HEADER       
> 2021 12  8  2 48 47.0000000  0  1                     
G10  21176148.289       -8686.152       -1780.856          24.000                                                                  
> 2021 12  8  2 48 48.0000000  0  1                     
G10  21175809.729      -18050.578       -1782.403          29.000                                                                  
> 2021 12  8  2 48 49.0000000  0  1                     
G10  21175470.881      -27412.983       -1781.623          29.000                                                                  
> 2021 12  8  2 48 50.0000000  0  2                     
G10  21175131.858      -36774.635       -1782.676          28.000                                                                  
R 8  20286719.621                                          26.000  
> 2021 12  8  2 48 51.0000000  0  3                     
G10  21174792.626      -46136.350       -1781.924          26.000                                                                  
G23  20223732.239        4229.738         269.498          20.000                                                                  
R 8  20286658.492                                          28.000  
> 2021 12  8  2 48 52.0000000  0  4                     
G10  21174452.269      -55507.526       -1784.098          26.000                                                                  
G23  20223782.459        5653.210         274.118          19.000                                                                  
G32  22749631.734      -32456.008       -1621.899          18.000                                                                  
R 8  20286596.631                                          28.000  
> 2021 12  8  2 48 53.0000000  0  4                     
G10  21174112.880      -64875.550       -1780.871          27.000                                                                  
G23  20223832.906        7091.936         274.612          22.000                                                                  
G32  22749323.406      -40972.860       -1619.436          18.000                                                                  
R 8  20286533.113                                          30.000  
> 2021 12  8  2 48 55.0000000  0  4                     
G10  21173773.647      -74231.405       -1781.981          28.000                                                                  
G23  20223894.696        8529.166         273.496          20.000                                                                  
G32  22739413.694      -49504.313       -1627.069          20.000                                                                  
R 8  20286469.210                                          30.000  
> 2021 12  8  2 48 56.0000000  0  4                     
G10  21173435.088      -83605.349       -1784.057          23.000                                                                  
G23  20223948.702        9966.196         272.945          22.000                                                                  
G32  22739067.917      -58068.695       -1631.545          18.000                                                                  
R 8  20286405.918                                          25.000  
> 2021 12  8  2 48 57.0000000  0  7                     
G10  21173095.769      -92979.064       -1784.604          25.000                                                                  
G23  20224006.845       11391.570         270.179          22.000                                                                  
G32  22738764.090      -66655.437       -1635.279          17.000                                                                  
R 8  20286342.399                                          27.000  
R 9  21368239.028                                          17.000  
C 8  36269006.684        2592.969        1221.587          27.000                                                                                                                                  
C13  35965306.983        3734.343        1015.858          24.000                                                                                                                                  
> 2021 12  8  2 48 58.0000000  0  7                     
G10  21172741.599     -102786.441       -1787.758          29.000                                                                  
G23  20224056.297       12875.329         270.332          22.000                                                                  
G32  22738456.074      -75617.153       -1631.787          22.000                                                                  
R 8  20286272.703                                          24.000  
R 9  21376915.426                                          18.000  
C 8  36269249.531        9238.068        1221.342          24.000                                                                                                                                  
C13  35965509.528        9254.579        1013.760          23.000                                                                                                                                  
> 2021 12  8  2 48 59.0000000  0  7                     
G10  21172402.576     -112177.446       -1786.703          19.000                                                                  
G23  20224109.641       14296.306         270.332          20.000                                                                  
G32  22738147.606      -84188.954       -1631.255          18.000                                                                  
R 8  20286209.097                                          29.000  
R 9  21377301.740                                          18.000  
C 8  36269484.543       15595.798        1220.443          24.000                                                                                                                                  
C13  35965704.573       14538.991        1016.187          17.000                                                                                                                                  
> 2021 12  8  2 49  0.0000000  0  6                     
G10  21172062.560     -121569.111       -1789.020          18.000                                                                  
G23  20224159.599       15717.242         271.618          20.000                                                                  
G32  22737836.939      -92768.646       -1632.836          16.000                                                                  
R 8  20286142.926                                          29.000  
R 9  21377687.548                                          20.000  
C 8  36269719.626       21961.543        1223.752          25.000                                                                                                                                  
> 2021 12  8  2 49  1.0000000  0 11                     
G10  21171722.368     -130965.052       -1787.745          23.000                                                                  
G23  20224209.750       17147.407         272.581          19.000                                                                  
G32  22737526.568     -101340.752       -1631.273          17.000                                                                  
R 8  20286079.250                                          29.000  
R 9  21378069.062                                          20.000  
R24  22356707.656                                          18.000  
E33  24624799.532        4318.478        1007.994          22.000                                                                  
C 8  36269954.742       28328.776        1222.154          24.000                                                                                                                                  
C 9  36675715.822        1554.476         257.712          23.000                                                                                                                                  
C13  35966100.997        7246.602        1014.055          21.000                                                                                                                                  
C20  25598243.542       11575.276        2429.755          22.000                                                                                                                                  
> 2021 12  8  2 49  2.0000000  0 11                     
G10  21171373.539     -140353.637       -1786.213          28.000                                                                  
G23  20224261.908       18579.926         272.761          22.000                                                                  
G32  22737205.570     -109911.293       -1630.803          20.000                                                                  
R 8  20286014.824                                          28.000  
R 9  21378452.165                                          19.000  
R24  22356568.875                                          18.000  
E33  24625002.565        9617.294        1008.717          22.000                                                                  
C 8  36270189.579       34686.606        1220.993          24.000                                                                                                                                  
C 9  36675772.825        2893.580         257.449          25.000                                                                                                                                  
C13  35966293.477       12530.950        1014.364          22.000                                                                                                                                  
C20  25598713.179       24229.362        2431.344          20.000                                                                                                                                  
> 2021 12  8  2 49  3.0000000  0 10                     
G10  21171038.477     -149743.207       -1785.939          31.000                                                                  
G23  20224315.338       20007.984         272.357          22.000                                                                  
R 8  20285950.712                                          31.000  
R 9  21378849.892                                          18.000  
R24  22356427.406                                          17.000  
E33  24625186.787       14917.998        1008.597          28.000                                                                  
C 8  36270423.858       41041.783        1220.205          24.000                                                                                                                                  
C 9  36675825.883        4236.657         258.843          24.000                                                                                                                                  
C13  35966487.122       17811.555        1014.160          24.000                                                                                                                                  
C20  25599176.587       36883.101        2427.932          24.000                                                                                                                                  
> 2021 12  8  2 49  4.0000000  0 13                     
G10  21170698.661     -159125.819       -1785.373          25.000    21170700.268       -5991.770       -1334.562          19.000  
G23  20224367.845       21438.387         273.254          20.000                                                                  
G32  22736420.570     -127053.481       -1630.191          28.000                                                                  
R 8  20285886.966                                          30.000  
R 9  21379234.583                                          18.000  
R24  22356285.677                                          14.000  
E33  24625378.600       20218.561        1008.755          20.000                                                                  
C 6  36078015.075        1048.020         345.140          24.000                                                                                                                                  
C 8  36270658.084       47388.703        1219.275          22.000                                                                                                                                  
C 9  36675877.824        5586.796         258.739          26.000                                                                                                                                  
C13  35966681.735       23086.042        1012.868          21.000                                                                                                                                  
C20  25599639.664       49523.532        2425.802          25.000                                                                                                                                  
C36  22653517.435       -7980.854       -1776.923          21.000                                                                                                                                  
> 2021 12  8  2 49  5.0000000  0 14                     
G10  21170357.492     -168507.157       -1785.015          27.000    21170361.873      -11225.315       -1330.555          18.000  
G23  20224420.299       22871.124         270.678          19.000                                                                  
G24  20795222.101       63979.764        2256.210          14.000                                                                  
G32  22736111.230     -135617.531       -1631.270          19.000                                                                  
R 8  20285822.138                                          21.000  
R 9  21379619.901                                          18.000  
R24  22356142.795                                          13.000  
E33  24625570.568       25521.313        1008.733          22.000                                                                  
C 6  36078079.761        2849.859         347.048          20.000                                                                                                                                  
C 8  36270892.328       53736.172        1218.971          22.000                                                                                                                                  
C 9  36675927.707        6938.303         260.389          25.000                                                                                                                                  
C13  35966876.413       28365.404        1014.730          24.000                                                                                                                                  
C20  25600104.695       62163.926        2427.736          25.000                                                                                                                                  
C36  22653168.692      -17246.730       -1780.970          25.000                                                                                                                                  
> 2021 12  8  2 49  6.0000000  0 14                     
G10  21170018.399     -177888.706       -1787.354          31.000    21170022.554      -16446.419       -1331.853          19.000  
G23  20224473.537       24296.112         271.064          22.000                                                                  
G24  20795651.202       75829.513        2253.666          15.000                                                                  
G32  22735801.626     -144196.114       -1632.655          19.000                                                                  
R 8  20285759.791                                          25.000  
R 9  21380009.391                                          17.000  
R24  22356001.675                                          13.000  
E33  24625765.696        4659.837        1008.607          24.000                                                                  
C 6  36078147.448        4661.358         345.638          21.000                                                                                                                                  
C 8  36271126.206       60086.847        1219.197          24.000                                                                                                                                  
C 9  36675977.973        8289.198         257.636          26.000                                                                                                                                  
C13  35967070.848       33648.395        1013.362          20.000                                                                                                                                  
C20  25600570.039       74799.453        2426.882          24.000                                                                                                                                  
C36  22652830.612      -26523.941       -1779.901          26.000                                                                                                                                  
> 2021 12  8  2 49  7.0000000  0 15                     
G10  21169681.986     -187279.499       -1787.779          32.000    21169681.726      -21682.107       -1334.279          20.000  
G12  23894918.023      -42630.599       -2352.783          17.000                                                                  
G23  20224528.225       25722.004         270.005          23.000                                                                  
G24  20796080.285       87677.752        2254.393          16.000                                                                  
G32  22735492.529     -152766.386          -0.006          21.000                                                                  
R 8  20285696.708                                          26.000  
R 9  21380396.490                                          16.000  
R24  22355860.817                                          12.000  
E33  24625955.537        9960.760        1008.612          25.000                                                                  
C 6  36078211.210        6455.756         344.379          23.000                                                                                                                                  
C 8  36271359.699       66429.966        1217.593          24.000                                                                                                                                  
C 9  36676027.698        9630.842         258.271          26.000                                                                                                                                  
C13  35967265.173       38917.880        1010.259          17.000                                                                                                                                  
C20  25601035.631       87436.559        2426.784          24.000                                                                                                                                  
C36  22652488.099      -35800.746       -1781.383          26.000                                                                                                                                  
> 2021 12  8  2 49  8.0000000  0 16                     
G10  21169343.173     -196668.760       -1785.450          33.000    21169341.656      -26917.448       -1332.614          20.000  
G12  23894479.740      -55005.731       -2355.355          17.000                                                                  
G23  20224579.842       27149.390         272.639          24.000                                                                  
G24  20796505.704       99514.655        2253.341          14.000                                                                  
G32  22735183.502     -161332.974          -0.006          19.000                                                                  
R 8  20285633.852                                          27.000  
R 9  21380783.799                                          15.000  
R24  22355702.233                                          14.000  
E33  24626146.756       15261.555        1008.684          28.000                                                                  
C 6  36078278.409        8243.630         342.666          21.000                                                                                                                                  
C 8  36271593.436       72768.500        1217.006          24.000                                                                                                                                  
C 9  36676076.935       10974.959         258.010          25.000                                                                                                                                  
C13  35967459.363       44183.208        1011.996          17.000                                                                                                                                  
C20  25601501.621      100069.523        2426.177          25.000                                                                                                                                  
C22  22737705.023       -5334.665       -1206.488          24.000                                                                                                                                  
C36  22652146.040      -45075.951       -1781.339          25.000                                                                                                                                  
> 2021 12  8  2 49  9.0000000  0 16                     
G10  21169004.743     -206051.502       -1782.915          33.000    21169001.796      -32149.513       -1333.686          20.000  
G12  23894045.927      -67385.156       -2356.536          19.000                                                                  
G23  20224632.942       28578.788         273.555          24.000                                                                  
G24  20796934.421      111352.708        2253.643          15.000                                                                  
G32  22734875.959     -169903.831          -0.006          15.000                                                                  
R 8  20285571.241                                          25.000  
R 9  21381172.992                                          19.000  
R24  22355561.235                                          13.000  
E33  24626338.866       20563.038        1008.930          27.000                                                                  
C 6  36078344.683       10026.322         342.429          22.000                                                                                                                                  
C 8  36271826.948       79106.696        1216.859          22.000                                                                                                                                  
C 9  36676125.631       12307.206         254.485          25.000                                                                                                                                  
C13  35967651.948       49455.997        1012.731          18.000                                                                                                                                  
C20  25601967.874      112711.256        2428.528          25.000                                                                                                                                  
C22  22737470.684      -11626.242       -1208.912          25.000                                                                                                                                  
C36  22651803.476      -54351.287       -1781.509          23.000                                                                                                                                  
> 2021 12  8  2 49 10.0000000  0 15                     
G10  21168663.207     -215442.887       -1789.392          31.000    21168661.761      -37387.633       -1334.447          18.000  
G12  23893616.582      -79763.681       -2355.659          17.000                                                                  
G23  20224685.343       30000.199         268.432          20.000                                                                  
G24  20797372.160      123194.544        2253.007          17.000                                                                  
G32  22734565.414     -178481.185          -0.006          17.000                                                                  
R 8  20285507.042                                          24.000  
R 9  21381562.411                                          18.000  
R24  22355419.958                                          13.000  
E33  24626530.016       25865.662        1009.895          20.000                                                                  
C 8  36272060.930       85443.962        1217.617          21.000                                                                                                                                  
C 9  36676174.301       13635.749         255.127          22.000                                                                                                                                  
C13  35967849.296       54728.823        1012.940          23.000                                                                                                                                  
C20  25602434.283      125349.328        2425.257          22.000                                                                                                                                  
C22  22737240.743      -17920.117       -1208.237          24.000                                                                                                                                  
C36  22651461.819      -63617.790       -1779.679          23.000                                                                                                                                  
> 2021 12  8  2 49 11.0000000  0 15                     
G10  21168324.613     -224835.597       -1787.335          33.000    21168322.102      -42622.418       -1332.898          17.000  
G12  23893168.352      -92142.445       -2354.811          15.000                                                                  
G23  20224736.889       31414.476         269.849          20.000                                                                  
G24  20797798.635      135041.094        2254.163          17.000                                                                  
G32  22734268.898     -187060.970          -0.006          19.000                                                                  
R 8  20285440.888                                          27.000  
R 9  21381951.744                                          17.000  
R24  22355278.961                                          17.000  
E33  24626722.649       31167.235        1008.420          22.000                                                                  
C 8  36272294.999       91790.896        1218.862          21.000                                                                                                                                  
C 9  36676223.468       14969.022         254.041          21.000                                                                                                                                  
C13  35968048.215       60001.023        1012.376          26.000                                                                                                                                  
C20  25602900.535      137991.116        2426.365          17.000                                                                                                                                  
C22  22737007.486      -24217.274       -1210.388          25.000                                                                                                                                  
C36  22651119.707      -72889.679       -1781.991          25.000                                                                                                                                  
> 2021 12  8  2 49 12.0000000  0 13                     
G10  21167984.718     -234232.506       -1785.794          32.000    21167984.911      -47853.406       -1332.160          16.000  
G12  23892726.233     -104518.734          -0.010          12.000                                                                  
G23  20224783.515       32839.083         271.396          25.000                                                                  
G24  20798227.754      146892.249        2257.497          17.000                                                                  
R 8  20285375.938                                          23.000  
R 9  21382341.984                                          18.000  
R24  22355137.982                                          17.000  
E33  24626913.257       36456.338        1007.299          19.000                                                                  
C 6  36078550.710        3665.845         341.063          21.000                                                                                                                                  
C 8  36272528.982       98133.454        1220.077          20.000                                                                                                                                  
C 9  36676273.769       16293.965         255.133          29.000                                                                                                                                  
C13  35968242.366       65264.599        1012.712          26.000                                                                                                                                  
C20  25603366.561      150626.938        2427.229          15.000                                                                                                                                  
> 2021 12  8  2 49 13.0000000  0 14                     
G10  21167646.236     -243620.465       -1787.295          36.000    21167645.819      -53081.503       -1330.598          15.000  
G12  23892278.108     -116894.119          -0.010          13.000                                                                  
G23  20224834.747       34267.092         272.341          23.000                                                                  
G24  20798669.803      158742.877        2253.672          19.000                                                                  
R 8  20285311.495                                          26.000  
R 9  21382727.983                                          20.000  
R24  22354986.043                                          17.000  
E33  24627104.407       41765.368        1009.268          20.000                                                                  
C 6  36078610.144        5444.944         341.776          21.000                                                                                                                                  
C 8  36272763.138      104483.721        1219.005          21.000                                                                                                                                  
C 9  36676323.460       17627.212         255.970          27.000                                                                                                                                  
C13  35968435.928       70531.466        1009.900          27.000                                                                                                                                  
C20  25603833.721      163273.254          -0.003          11.000                                                                                                                                  
C22  22736523.382       -5159.594       -1209.966          33.000                                                                    22736521.704       -4475.691        -911.346          20.000  
> 2021 12  8  2 49 14.0000000  0 15                     
G10  21167305.922     -253010.070       -1786.440          34.000    21167307.075      -58302.668       -1329.702          15.000  
G12  23891829.794     -129274.071          -0.010          13.000                                                                  
G23  20224885.596       35696.558         272.514          19.000                                                                  
G24  20799075.869      170584.809        2252.536          18.000                                                                  
R 8  20285246.318                                          23.000  
R 9  21383112.935                                          19.000  
R24  22354845.010                                          14.000  
E33  24627296.255       47064.457        1008.673          25.000                                                                  
C 6  36078669.036        7217.862         340.536          22.000                                                                                                                                  
C 8  36272997.451      110821.095        1217.236          25.000                                                                                                                                  
C 9  36676373.195       18954.548         254.742          25.000                                                                                                                                  
C13  35968629.877       75795.998        1010.771          26.000                                                                                                                                  
C20  25604300.514      175930.262          -0.003          12.000                                                                                                                                  
C22  22736292.760      -11454.979       -1208.958          33.000                                                                    22736290.192       -8042.168        -909.416          20.000  
C36  22650095.870      -12433.344       -1779.844          25.000                                                                                                                                  
> 2021 12  8  2 49 15.0000000  0 14                     
G10  21166964.675     -262403.009       -1786.871          35.000    21166967.556      -63531.612       -1334.806          14.000  
G23  20224937.841       37123.958         271.774          22.000                                                                  
G24  20799506.052      182417.968        2252.239          20.000                                                                  
R 8  20285183.340                                          32.000  
R 9  21383490.350                                          16.000  
R24  22354701.133                                          15.000  
E33  24627488.137       52372.582        1010.065          20.000                                                                  
C 6  36078734.298        8985.739         337.011          17.000                                                                                                                                  
C 8  36273231.486      117169.165        1218.913          24.000                                                                                                                                  
C 9  36676422.309       20284.944         254.190          17.000                                                                                                                                  
C13  35968824.015       81069.016        1012.185          25.000                                                                                                                                  
C20  25604766.801      188580.467          -0.003          14.000                                                                                                                                  
C22  22736062.050      -17744.715       -1206.984          31.000                                                                    22736058.017      -11616.583        -913.820          19.000  
C36  22649754.840      -21707.161       -1782.020          19.000                                                                                                                                  
> 2021 12  8  2 49 16.0000000  0 13                     
G10  21166624.867     -271790.428       -1786.572          33.000    21166619.790      -68765.025       -1333.679          15.000  
G23  20224992.004       38559.473         273.359          24.000                                                                  
G24  20799936.095      194256.857        2252.136          20.000                                                                  
R 8  20285118.216                                          28.000  
R 9  21383875.721                                          16.000  
R24  22354559.405                                          16.000  
E33  24627680.439       57695.306        1015.137          18.000                                                                  
C 8  36273465.346      123510.391        1216.210          24.000                                                                                                                                  
C 9  36676471.441       21616.589         257.488          15.000                                                                                                                                  
C13  35969018.480       86335.324        1010.319          24.000                                                                                                                                  
C20  25605233.420      201232.268          -0.003          16.000                                                                                                                                  
C22  22735830.503      -24039.651       -1210.453          31.000                                                                    22735825.580      -15196.833        -911.281          17.000  
C36  22649412.763      -30982.826       -1780.070          17.000                                                                                                                                  
> 2021 12  8  2 49 17.0000000  0 14                     
G10  21166283.959     -281181.238       -1787.846          30.000    21166280.418      -73991.826       -1333.259          13.000  
G23  20225044.476       39996.894         273.299          24.000                                                                  
G24  20800363.922      206093.462        2252.774          18.000                                                                  
R 8  20285054.924                                          27.000  
R 9  21384264.443                                          16.000  
R24  22354417.814                                          17.000  
E33  24627873.176       63023.566        1011.285          20.000                                                                  
C 8  36273699.276      129844.575        1214.789          19.000                                                                                                                                  
C 9  36676520.722       22951.911         255.375          20.000                                                                                                                                  
C13  35969213.630       91600.746        1010.760          28.000                                                                                                                                  
C19  22305682.916       29407.675         971.172          20.000                                                                                                                                  
C20  25605699.725      213875.662          -0.003          19.000                                                                                                                                  
C22  22735599.026      -30336.346       -1210.731          28.000                                                                    22735593.143      -18768.993        -910.444          17.000  
C36  22649070.792      -40256.117       -1780.667          21.000                                                                                                                                  
> 2021 12  8  2 49 18.0000000  0 15                     
G10  21165945.784     -290571.157       -1787.152          32.000                                                                  
G23  20225096.371       41433.363         272.309          24.000                                                                  
G24  20800792.569      217930.275        2251.996          15.000                                                                  
R 8  20284989.974                                          25.000  
R 9  21384654.962                                          15.000  
R24  22354275.996                                          18.000  
E33  24628063.890       68333.550        1010.479          24.000                                                                  
C 6  36078949.000        5251.751         339.389          29.000                                                                                                                                  
C 8  36273932.124      136156.845        1210.544          17.000                                                                                                                                  
C 9  36676569.680       24273.533         253.014          25.000                                                                                                                                  
C13  35969407.418       96855.156        1012.281          27.000                                                                                                                                  
C19  22305869.110       34455.366         966.584          16.000                                                                                                                                  
C20  25606158.875      226500.609        2422.510          20.000                                                                                                                                  
C22  22735367.252      -36632.581       -1208.863          25.000                                                                    22735363.097      -22339.970        -909.826          19.000  
C36  22648715.016      -49528.453       -1780.171          26.000                                                                                                                                  
> 2021 12  8  2 49 19.0000000  0 15                     
G10  21165603.371     -299962.618       -1786.667          31.000                                                                  
G23  20225148.704       42860.011         272.571          21.000                                                                  
G24  20801224.497      229759.481        2250.228          15.000                                                                  
R 8  20284929.248                                          31.000  
R 9  21385044.940                                          18.000  
R24  22354137.336                                          17.000  
E33  24628256.645       73631.857        1009.920          26.000                                                                  
C 6  36079003.496        7017.423         341.181          27.000                                                                                                                                  
C 8  36274165.007      142470.721        1214.370          19.000                                                                                                                                  
C 9  36676618.498       25593.111         253.565          24.000                                                                                                                                  
C13  35969601.765      102121.876        1011.584          25.000                                                                                                                                  
C19  22306054.693       39487.259         966.130          15.000                                                                                                                                  
C20  25606619.997      239118.158        2422.280          19.000                                                                                                                                  
C22  22735135.252      -42929.933       -1210.818          28.000                                                                    22735130.607      -25913.528        -910.270          19.000  
C36  22648373.483      -58793.214       -1777.744          30.000                                                                                                                                  
> 2021 12  8  2 49 20.0000000  0 15                     
G10  21165262.840     -309351.725       -1784.717          31.000                                                                  
G23  20225199.831       44293.223         273.812          20.000                                                                  
G24  20801652.429      241576.536        2248.396          11.000                                                                  
R 8  20284863.582                                          28.000  
R 9  21385437.937                                          16.000  
R24  22353997.108                                          17.000  
E33  24628448.999       78945.139        1011.387          23.000                                                                  
C 6  36079069.229        8800.786         344.567          19.000                                                                                                                                  
C 8  36274396.807      148800.270        1216.401          17.000                                                                                                                                  
C 9  36676667.769       26915.980         255.041          19.000                                                                                                                                  
C13  35969795.397      107386.089        1010.999          27.000                                                                                                                                  
C19  22306237.362       44529.508         968.309          16.000                                                                                                                                  
C20  25607085.481      251739.305        2423.033          17.000                                                                                                                                  
C22  22734903.391      -49229.967       -1210.761          28.000                                                                    22734898.502      -29483.143        -909.828          19.000  
C36  22648031.720      -68065.090       -1782.684          26.000                                                                    22648035.016       -9881.564       -1342.991          17.000  
> 2021 12  8  2 49 21.0000000  0 15                     
G10  21164924.358     -318744.918       -1788.298          33.000    21164914.535      -94947.957       -1335.051          19.000  
G23  20225251.185       45715.717         271.911          19.000                                                                  
G24  20802080.448      253394.673        2247.618          12.000                                                                  
R 8  20284799.854                                          27.000  
R 9  21385830.969                                          17.000  
R24  22353857.070                                          16.000  
E33  24628640.515       84257.614        1010.709          22.000    24628642.331        6285.400         757.243          17.000  
C 6  36079135.082       10585.842         343.608          17.000                                                                                                                                  
C 8  36274630.196      155128.255        1215.271          20.000                                                                                                                                  
C 9  36676716.570       28247.500         254.573          19.000                                                                                                                                  
C13  35969989.391      112648.910        1010.362          25.000                                                                                                                                  
C19  22306423.468       49574.928         969.543          17.000                                                                                                                                  
C20  25607550.530      264355.717        2421.492          17.000                                                                                                                                  
C22  22734671.408      -55536.348       -1211.248          30.000                                                                    22734666.815      -33056.099        -910.692          17.000  
C36  22647688.998      -77342.310       -1780.547          24.000                                                                    22647693.672      -15147.693       -1342.236          17.000  
> 2021 12  8  2 49 22.0000000  0 14                     
G10  21164583.590     -328135.386       -1787.398          33.000    21164573.279     -100193.914       -1338.583          19.000  
G23  20225303.081       47152.805         275.628          18.000                                                                  
R 8  20303448.642                                          30.000  
R 9  21386218.959                                          18.000  
R24  22353709.668                                          14.000  
E33  24628833.270       89581.036        1014.588          21.000    24628836.168        9252.531         753.869          16.000  
C 6  36079197.831       12352.829         339.053          20.000                                                                                                                                  
C 8  36274868.279      161452.786        1215.108          23.000                                                                                                                                  
C 9  36676765.964       29579.039         256.091          23.000                                                                                                                                  
C13  35970182.883      117915.368        1011.438          25.000                                                                                                                                  
C19  22306609.697       54623.167         969.394          15.000                                                                                                                                  
C20  25608015.473      276962.530        2420.566          15.000                                                                                                                                  
C22  22734440.663      -61833.876       -1209.515          29.000                                                                    22734434.693      -36631.658        -912.487          19.000  
C36  22647347.061      -86614.710       -1782.636          19.000                                                                    22647350.095      -20414.236       -1341.338          17.000  
> 2021 12  8  2 49 23.0000000  0 14                     
G10  21164244.271     -337525.505       -1786.832          34.000    21164234.430     -105437.297       -1336.572          18.000  
G23  20225355.552       48600.883         274.142          17.000                                                                  
R 8  20303385.699                                          29.000  
R 9  21386609.320                                          17.000  
R24  22353569.962                                          12.000  
E33  24629025.641       94902.189        1012.205          22.000    24629027.213       12212.280         752.293          17.000  
C 6  36079258.870       14111.652         338.278          23.000                                                                                                                                  
C 8  36275106.449      167780.321        1215.081          24.000                                                                                                                                  
C 9  36676815.270       30908.958         253.936          20.000                                                                                                                                  
C13  35970377.352      123184.647        1010.533          23.000                                                                                                                                  
C19  22306797.828       59673.371          -0.007          15.000                                                                                                                                  
C20  25608483.226      289572.526        2421.086          15.000                                                                                                                                  
C22  22734209.919      -68133.289       -1209.630          33.000                                                                    22734200.633      -40216.742        -916.505          17.000  
C36  22647005.141      -95891.834       -1781.634          20.000                                                                    22647008.629      -25674.106       -1339.733          17.000  
> 2021 12  8  2 49 24.0000000  0 14                     
G10  21163903.547     -346914.812       -1789.933          34.000    21163895.783     -110674.739       -1336.283          19.000  
G23  20225407.709       50039.295         273.755          17.000                                                                  
G24  20803368.309      288829.875        2248.830          16.000                                                                  
R 8  20303321.814                                          31.000  
R 9  21387001.113                                          16.000  
E33  24629217.995      100223.740        1012.759          21.000    24629218.799       15161.516         750.055          17.000  
C 6  36079318.252       15869.204         337.395          21.000                                                                                                                                  
C 8  36275338.093      174107.015        1215.453          24.000                                                                                                                                  
C 9  36676864.262       32227.931         253.811          21.000                                                                                                                                  
C13  35970571.315      128451.909        1011.188          23.000                                                                                                                                  
C19  22306983.673       64712.154          -0.007          17.000                                                                                                                                  
C20  25608948.606      302191.139        2424.382          16.000                                                                                                                                  
C22  22733978.843      -74434.399       -1210.907          30.000                                                                    22733969.871      -43804.897        -911.434          19.000  
C36  22646663.258     -105166.416       -1779.758          19.000                                                                    22646667.496      -30933.233       -1341.841          16.000  
> 2021 12  8  2 49 25.0000000  0 14                     
G10  21163565.327     -356304.736       -1786.378          22.000    21163556.516     -115912.319       -1334.090          16.000  
G23  20225460.583       51492.460         275.648          16.000                                                                  
G24  20803796.345      300648.689        2249.841          15.000                                                                  
R 8  20303261.000                                          28.000  
R 9  21387393.797                                          15.000  
E33                                                                  24767817.892       18114.649         754.996          14.000  
C 6  36079385.660       17634.362         340.083          23.000                                                                                                                                  
C 8  36275571.308      180443.851        1217.103          22.000                                                                                                                                  
C 9  36676913.011       33549.485         254.845          17.000                                                                                                                                  
C13  35970766.007      133724.386        1013.462          20.000                                                                                                                                  
C19  22307168.470       69743.289         966.752          17.000                                                                                                                                  
C20  25609413.916      314807.601        2421.121          17.000                                                                                                                                  
C22  22733746.110      -80749.556       -1212.377          18.000                                                                                                                                  
C36  22646321.810     -114431.713       -1779.761          24.000                                                                    22646325.402      -36199.822       -1340.294          17.000  
> 2021 12  8  2 49 26.0000000  0 12                     
G10  21163224.647     -365696.988       -1786.897          23.000                                                                  
G23  20225512.931       52938.632         274.789          12.000                                                                  
G24  20804224.469      312471.027        2249.202          15.000                                                                  
R 8  20303195.544                                          29.000  
C 6  36079453.051       19403.692         339.471          23.000                                                                                                                                  
C 8  36275804.853      186783.544        1217.875          22.000                                                                                                                                  
C 9  36676962.222       34875.237         256.142          17.000                                                                                                                                  
C13  35970960.672      138998.019        1012.746          19.000                                                                                                                                  
C19  22307353.635       74781.056         968.261          17.000                                                                                                                                  
C20  25609877.813      327419.370        2423.247          15.000                                                                                                                                  
C22  22733513.114      -87068.521           0.006          16.000                                                                                                                                  
C36  22645980.135     -123697.664       -1778.431          24.000                                                                    22645984.617      -41460.861       -1342.911          15.000  
> 2021 12  8  2 49 27.0000000  0 13                     
G10  21162886.723     -375086.510       -1786.090          24.000                                                                  
G23  20225565.141       54380.265          -0.007          12.000                                                                  
G24  20804649.085      324293.523          -0.002          15.000                                                                  
R 8  20303131.903                                          29.000  
R24  22353003.949                                          15.000  
C 6  36079518.749       21174.163         339.970          22.000                                                                                                                                  
C 8  36276038.835      193125.577        1217.587          20.000                                                                                                                                  
C 9  36677011.354       36205.985         255.159          17.000                                                                                                                                  
C13  35971155.054      144268.170        1011.696          18.000                                                                                                                                  
C19  22307539.480       79820.180         967.709          17.000                                                                                                                                  
C20  25610343.228      340038.769        2424.295          15.000                                                                                                                                  
C22  22733283.417      -93381.502           0.006          13.000                                                                                                                                  
C36  22645638.896     -132958.066       -1778.590          26.000                                                                    22645643.046      -46722.660       -1338.848          16.000  
> 2021 12  8  2 49 28.0000000  0 13                     
G10  21162547.501     -384472.103       -1785.985          23.000                                                                  
G23  20225617.211       55817.424          -0.007          14.000                                                                  
G24  20805077.400      336121.523          -0.002          15.000                                                                  
R 8  20284352.869                                          26.000  
R24  22352864.227                                          15.000  
C 6  36079583.994       22940.661         339.555          20.000                                                                                                                                  
C 8  36276272.015      199456.126        1215.017          21.000                                                                                                                                  
C 9  36677060.626       37526.130         251.833          15.000                                                                                                                                  
C13  35971345.042      149542.635        1013.565          17.000                                                                                                                                  
C19  22307724.748       84861.688         969.686          17.000                                                                                                                                  
C20  25610806.548      352654.818        2420.802          17.000                                                                                                                                  
C22  22733060.792      -99689.764           0.005          14.000                                                                                                                                  
C36  22645297.604     -142220.395       -1778.079          20.000                                                                    22645301.214      -51973.110       -1336.696          15.000  
> 2021 12  8  2 49 29.0000000  0 14                     
G10  21162205.459     -393863.239       -1787.605          24.000                                                                  
G23  20225669.333       57256.024          -0.007          15.000                                                                  
G24  20805505.978      347956.627          -0.002          13.000                                                                  
G32  22728813.645       -8669.102       -1633.094          22.000                                                                  
R 8  20284289.525                                          25.000  
R24  22352724.363                                          13.000  
C 6  36079649.219       24706.918         338.872          21.000                                                                                                                                  
C 8  36276505.264      205784.015        1215.286          22.000                                                                                                                                  
C 9  36677109.164       38841.159         252.873          17.000                                                                                                                                  
C13  35971539.459      154815.852        1012.972          18.000                                                                                                                                  
C19  22307911.326       89919.694         971.714          16.000                                                                                                                                  
C20  25611274.005      365266.180        2422.748          18.000                                                                                                                                  
C22  22732829.175     -105969.761           0.005          17.000                                                                                                                                  
C36  22644955.776     -151492.566       -1780.821          19.000                                                                    22644961.043      -57226.263       -1340.287          17.000  
> 2021 12  8  2 49 30.0000000  0 14                     
G10  21161865.424     -403254.708       -1787.021          25.000                                                                  
G23  20225721.840       58705.768          -0.007          16.000                                                                  
G24  20805934.590      359791.222          -0.002          13.000                                                                  
G32  22728497.813      -17259.107       -1638.068          17.000                                                                  
R 8  20284225.849                                          29.000  
R24  22352584.552                                          16.000  
C 6  36079714.237       26466.826         338.996          22.000                                                                                                                                  
C 8  36276738.112      212110.339        1215.549          27.000                                                                                                                                  
C 9  36677158.645       40161.255         252.830          19.000                                                                                                                                  
C13  35971733.631      160093.389        1013.650          18.000                                                                                                                                  
C19  22308098.131       94979.122         970.835          15.000                                                                                                                                  
C20  25611738.408      377871.054        2418.818          17.000                                                                                                                                  
C22  22732596.927     -112250.509       -1206.912          17.000                                                                                                                                  
C36  22644614.886     -160753.675       -1777.000          22.000                                                                    22644616.227      -62483.928       -1338.901          19.000  
> 2021 12  8  2 49 31.0000000  0 14                     
G10  21161524.927     -412638.420       -1782.718          24.000                                                                  
G23  20225774.364       60155.864          -0.007          16.000                                                                  
G24  20806363.342      371629.847          -0.002          17.000                                                                  
G32  22728186.552      -25856.332       -1635.724          16.000                                                                  
R 8  20284163.395                                          24.000  
R24  22352444.621                                          16.000  
C 6  36079779.394       28233.484         339.395          22.000                                                                                                                                  
C 8  36276971.677      218449.664        1217.801          24.000                                                                                                                                  
C 9  36677209.749       41475.245         251.970          17.000                                                                                                                                  
C13  35971928.170      165371.916        1013.529          20.000                                                                                                                                  
C19  22308284.691      100037.187         970.904          13.000                                                                                                                                  
C20  25612202.828      390462.686        2418.608          17.000                                                                                                                                  
C22  22732365.048     -118539.535       -1208.097          16.000                                                                                                                                  
C36  22644273.839     -170005.949       -1776.826          22.000                                                                    22644277.378      -67729.672       -1337.084          18.000  
> 2021 12  8  2 49 32.0000000  0 14                     
G10  21161185.521     -422008.673       -1784.219          23.000                                                                  
G23  20225828.947       61614.488         277.767          17.000                                                                  
G24  20806792.051      383476.893        2255.696          17.000                                                                  
G32  22727875.920      -34448.972          -0.006          15.000                                                                  
R 8  20284098.986                                          20.000  
R24  22352298.318                                          13.000  
C 6  36079844.674       30002.434         342.909          18.000                                                                                                                                  
C 8  36277205.622      224795.506        1218.267          23.000                                                                                                                                  
C 9  36677258.288       42790.455         252.644          16.000                                                                                                                                  
C13  35972122.604      170644.489        1012.056          20.000                                                                                                                                  
C19  22308470.955      105086.144         967.394          13.000                                                                                                                                  
C20  25612668.295      403061.121        2420.921          17.000                                                                                                                                  
C22  22732133.030     -124830.990       -1208.314          17.000                                                                                                                                  
C36  22643933.176     -179253.670       -1775.206          25.000                                                                    22643936.698      -72976.657       -1338.229          19.000  
> 2021 12  8  2 49 33.0000000  0 14                     
G10  21160845.730     -431393.134       -1787.234          24.000                                                                  
G23  20225884.908       63081.184         279.712          19.000    20225876.429        2494.779         201.289          14.000  
G24  20807221.257      395329.672        2257.359          16.000                                                                  
G32  22727564.693      -43044.984          -0.006          17.000                                                                  
R 8  20284031.715                                          28.000  
R24  22352158.664                                          13.000  
C 6  36079910.564       31788.216         340.362          15.000                                                                                                                                  
C 8  36277439.658      231147.540        1222.348          17.000                                                                                                                                  
C 9  36677306.635       44100.573         251.241          15.000                                                                                                                                  
C13  35972316.703      175909.723        1013.441          17.000                                                                                                                                  
C19  22308656.660      110121.253          -0.007          12.000                                                                                                                                  
C20  25613133.151      415665.648        2421.260          17.000                                                                                                                                  
C22  22731904.170     -131120.037       -1206.784          17.000                                                                                                                                  
C36  22643592.512     -188493.884       -1774.956          19.000                                                                    22643596.331      -78230.571       -1339.550          16.000  
> 2021 12  8  2 49 34.0000000  0 14                     
G10  21160504.857     -440776.409       -1784.725          27.000                                                                  
G23  20225931.638       64552.233         279.760          18.000    20225927.766        3283.303         201.366          15.000  
G24  20807650.951      407195.232        2258.932          17.000                                                                  
G32  22727253.555      -51639.231          -0.006          15.000                                                                  
R 8  20283968.528                                          23.000  
R24  22352015.502                                          15.000  
C 6  36079975.808       33556.221         338.127          15.000                                                                                                                                  
C 8  36277674.094      237503.367        1221.139          17.000                                                                                                                                  
C 9  36677352.940       45415.181         251.876          13.000                                                                                                                                  
C13  35972511.333      181183.543        1012.982          18.000                                                                                                                                  
C19  22308843.028      115174.554          -0.007          13.000                                                                                                                                  
C20  25613598.356      428278.049        2423.091          15.000                                                                                                                                  
C22  22731670.617     -137405.890       -1207.267          18.000                                                                                                                                  
C36  22643251.832     -197738.060       -1775.742          23.000                                                                    22643255.441      -83482.076       -1336.279          17.000  
> 2021 12  8  2 49 35.0000000  0 14                     
G10  21160165.059     -450157.851       -1784.146          28.000                                                                  
G23  20225999.100       66019.026         278.620          17.000    20225979.260        4074.189         201.935          12.000  
G24  20808085.740      419065.639        2259.171          14.000                                                                  
G32  22726942.486      -60232.135          -0.006          14.000                                                                  
R 8  20283900.717                                          30.000  
R24  22351877.229                                          15.000  
C 6  36080040.686       35314.649         338.495          21.000                                                                                                                                  
C 8  36277900.590      243853.683        1218.295          20.000                                                                                                                                  
C 9  36677401.593       46733.316         253.787          13.000                                                                                                                                  
C13  35972705.192      186456.157        1011.633          21.000                                                                                                                                  
C19  22309028.821      120222.605          -0.007          15.000                                                                                                                                  
C20  25614065.097      440901.791        2424.792          15.000                                                                                                                                  
C22  22731438.756     -143694.217       -1210.959          17.000                                                                                                                                  
C36  22642910.839     -206981.806       -1774.799          24.000                                                                    22642916.263      -88723.891       -1335.927          17.000  
> 2021 12  8  2 49 36.0000000  0 14                     
G10  21159827.502     -459541.071       -1787.466          27.000                                                                  
G23  20226049.459       67481.649         279.115          20.000                                                                  
G24  20808515.906      430945.329        2260.509          14.000                                                                  
G32  22726631.017      -68835.488          -0.006          13.000                                                                  
R 8  20283832.905                                          26.000  
R24  22351739.058                                          14.000  
C 6  36080106.001       37077.604         339.017          20.000                                                                                                                                  
C 8  36278133.124      250199.722        1219.314          20.000                                                                                                                                  
C 9  36677450.550       48060.953          -0.047          13.000                                                                                                                                  
C13  35972899.521      191724.746        1012.518          23.000                                                                                                                                  
C19  22309214.857      125266.266          -0.007          13.000                                                                                                                                  
C20  25614530.722      453526.437        2423.927          16.000                                                                                                                                  
C22  22731204.591     -149987.968       -1208.165          17.000                                                                                                                                  
C36  22642569.879     -216222.835       -1774.927          22.000                                                                    22642574.780      -93969.772       -1335.915          19.000  
> 2021 12  8  2 49 37.0000000  0 14                     
G10  21159488.305     -468927.174       -1784.350          27.000                                                                  
G23  20226092.961       68946.650         277.908          21.000                                                                  
G24  20808945.931      442820.787          -0.002          15.000                                                                  
G32  22726319.529      -77439.008          -0.006          17.000                                                                  
R 8  20283768.479                                          29.000  
R24  22351598.514                                          14.000  
C 6  36080171.350       38844.856         338.267          19.000                                                                                                                                  
C 8  36278364.872      256548.898        1218.821          20.000                                                                                                                                  
C 9  36677499.455       49386.229          -0.047          14.000                                                                                                                                  
C13  35973094.021      196995.223        1012.510          20.000                                                                                                                                  
C19  22309401.173      130317.441          -0.007          13.000                                                                                                                                  
C20  25614997.742      466151.818        2423.691          17.000                                                                                                                                  
C22  22730972.591     -156279.756       -1208.420          16.000                                                                                                                                  
C36  22642229.007     -225465.730       -1775.658          21.000                                                                    22642234.588      -99210.821       -1335.801          18.000  
> 2021 12  8  2 49 38.0000000  0 14                     
G10  21159149.544     -478283.568       -1780.979          18.000                                                                  
G23  20226145.921       70408.412         277.441          18.000                                                                  
G24  20809376.236      454702.696          -0.002          17.000                                                                  
G32  22726003.452      -86031.533          -0.006          17.000                                                                  
R 8  20283704.716                                          23.000  
R24  22351461.058                                          15.000  
C 6  36080237.779       40616.473         339.762          17.000                                                                                                                                  
C 8  36278600.407      262890.697        1216.084          23.000                                                                                                                                  
C 9  36677548.343       50711.048          -0.047          17.000                                                                                                                                  
C13  35973288.421      202268.290        1012.312          24.000                                                                                                                                  
C19  22309587.455      135368.012          -0.007          14.000                                                                                                                                  
C20  25615463.193      478771.896        2422.874          20.000                                                                                                                                  
C22  22730740.799     -162566.073       -1208.174          17.000                                                                                                                                  
C36  22641888.657     -234702.683       -1773.475          24.000                                                                    22641894.501     -104453.491       -1336.030          17.000  
> 2021 12  8  2 49 39.0000000  0 14                     
G10  21158808.960     -487661.650       -1785.383          24.000                                                                  
G23  20226198.462       71872.821         278.669          19.000                                                                  
G24  20809806.279      466577.508          -0.002          15.000                                                                  
G32  22725692.454      -94620.202          -0.006          15.000                                                                  
R 8  20283636.939                                          21.000  
R24  22351323.956                                          15.000  
C 6  36080303.303       42387.235         340.070          18.000                                                                                                                                  
C 8  36278833.674      269234.177        1219.270          23.000                                                                                                                                  
C 9  36677595.032       52028.723         251.727          16.000                                                                                                                                  
C13  35973482.977      207541.945        1012.750          21.000                                                                                                                                  
C19  22309773.788      140419.447          -0.007          12.000                                                                                                                                  
C20  25615928.660      491392.397        2422.603          18.000                                                                                                                                  
C22  22730508.240     -168857.070       -1206.595          16.000                                                                                                                                  
C36  22641548.047     -243940.760       -1774.158          21.000                                                                    22641551.866     -109694.104       -1335.259          17.000  
> 2021 12  8  2 49 40.0000000  0 14                     
G10  21158467.128     -497040.874       -1784.895          19.000                                                                  
G23  20226251.562       73336.352         278.079          17.000                                                                  
G24  20810235.206      478453.941        2260.771          16.000                                                                  
G32  22725375.295     -103211.018       -1635.772          17.000                                                                  
R 8  20283571.379                                          20.000  
R24  22351190.881                                          15.000  
C 6  36080368.635       44157.462         341.109          18.000                                                                                                                                  
C 8  36279068.633      275583.803        1218.543          19.000                                                                                                                                  
C 9  36677643.623       53345.333         254.795          16.000                                                                                                                                  
C13  35973677.272      212817.014        1013.218          21.000                                                                                                                                  
C19  22309960.331      145476.553          -0.007          15.000                                                                                                                                  
C20  25616392.260      504011.927        2423.267          22.000                                                                                                                                  
C22  22730281.510     -175142.790       -1207.354          19.000                                                                                                                                  
C36  22641207.036     -253184.461       -1776.074          23.000                                                                    22641211.030     -114939.904       -1336.687          17.000  
> 2021 12  8  2 49 41.0000000  0 14                     
G10  21158127.337     -506429.358       -1785.922          19.000                                                                  
G23  20226304.505       74797.964         277.750          15.000                                                                  
G24  20810665.546      490336.860        2260.792          15.000                                                                  
G32  22725064.436     -111797.638       -1632.471          17.000                                                                  
R 8  20283507.109                                          18.000  
R24  22351053.844                                          16.000  
C 6  36080434.734       45932.677         342.203          17.000                                                                                                                                  
C 8  36279302.214      281921.190        1218.463          20.000                                                                                                                                  
C 9  36677690.801       54675.536         255.744          16.000                                                                                                                                  
C13  35973871.287      218092.460        1012.255          24.000                                                                                                                                  
C19  22310147.767      150534.634          -0.007          13.000                                                                                                                                  
C20  25616859.036      516627.034        2420.559          22.000                                                                                                                                  
C22  22730049.457     -181435.295       -1208.395          17.000                                                                                                                                  
C36  22640865.867     -262429.679       -1774.442          20.000                                                                    22640869.494     -120180.273       -1336.629          17.000  
> 2021 12  8  2 49 42.0000000  0 14                     
G10  21157787.643     -515811.198       -1785.442          18.000                                                                  
G23  20226352.178       76251.842          -0.007          14.000                                                                  
G24  20811099.672      502220.170        2261.738          17.000                                                                  
G32  22724753.872     -120375.220       -1631.957          18.000                                                                  
R 8  20283445.318                                          19.000  
R24  22350920.053                                          16.000  
C 6  36080500.363       47711.272         341.938          19.000                                                                                                                                  
C 8  36279535.952      288260.134        1216.255          19.000                                                                                                                                  
C 9  36677740.002       56009.114         255.908          18.000                                                                                                                                  
C13  35974065.962      223367.050        1014.191          20.000                                                                                                                                  
C19  22310334.624      155599.955          -0.007          14.000                                                                                                                                  
C20  25617323.666      529227.966        2418.211          24.000                                                                                                                                  
C22  22729819.027     -187720.067       -1207.418          17.000                                                                                                                                  
C36  22640525.169     -271672.401       -1775.247          19.000                                                                    22640529.040     -125425.534       -1337.391          16.000  
> 2021 12  8  2 49 43.0000000  0 14                     
G10  21157449.981     -525187.236       -1783.025          20.000                                                                  
G23  20226405.189       77713.775          -0.007          16.000                                                                  
G24  20811540.150      514109.761        2262.906          18.000                                                                  
G32  22724425.877     -128959.381          -0.006          19.000                                                                  
R 8  20283381.014                                          17.000  
R24  22350783.036                                          16.000  
C 6  36080566.480       49487.296         340.207          19.000                                                                                                                                  
C 8  36279770.144      294597.479        1215.181          20.000                                                                                                                                  
C 9  36677789.144       57340.964         257.079          17.000                                                                                                                                  
C13  35974260.919      228646.994        1013.734          23.000                                                                                                                                  
C19  22310521.813      160662.416          -0.007          13.000                                                                                                                                  
C20  25617787.702      541821.230        2417.698          25.000                                                                                                                                  
C22  22729587.951     -194007.733       -1208.592          17.000                                                                                                                                  
C36  22640184.611     -280908.059       -1772.861          17.000                                                                    22640189.878     -130677.414       -1340.490          14.000  
> 2021 12  8  2 49 44.0000000  0 15                     
G10  21157112.093     -534557.512       -1782.669          21.000                                                                  
G23  20226457.626       79173.612         276.382          15.000                                                                  
G24  20811973.509      526003.111        2262.250          17.000                                                                  
G32  22724113.395     -137552.453          -0.006          19.000                                                                  
R 8  20283316.082                                          17.000  
R22  23720226.398                                          16.000  
R24  22350646.069                                          17.000  
C 6  36080632.056       51262.107         340.962          19.000                                                                                                                                  
C 8  36280004.177      300939.878        1220.702          20.000                                                                                                                                  
C 9  36677835.728       58675.669         254.885          18.000                                                                                                                                  
C13  35974456.021      233928.141        1014.366          24.000                                                                                                                                  
C19  22310708.251      165716.189          -0.007          15.000                                                                                                                                  
C20  25618251.982      554408.672        2416.873          20.000                                                                                                                                  
C22  22729355.636     -200308.683       -1209.515          17.000                                                                                                                                  
C36  22639844.157     -290129.423       -1770.312          16.000                                                                    22639851.222     -135932.032       -1337.344          14.000  
> 2021 12  8  2 49 45.0000000  0 15                     
G10  21156773.157     -543918.545       -1781.704          19.000                                                                  
G23  20226510.377       80629.534         276.482          16.000                                                                  
G24  20812404.233      537895.863        2263.114          17.000                                                                  
G32  22723797.039     -146156.113       -1637.994          19.000                                                                  
R 8  20283246.909                                          18.000  
R22  23721069.121                                          16.000  
R24  22350513.518                                          17.000  
C 6  36080695.241       53033.591         340.478          19.000                                                                                                                                  
C 8  36280238.735      307291.826        1219.466          20.000                                                                                                                                  
C 9  36677884.197       60003.451         254.523          19.000                                                                                                                                  
C13  35974650.682      239208.329        1012.516          27.000                                                                                                                                  
C19  22310894.794      170773.891          -0.007          16.000                                                                                                                                  
C20  25618716.036      566989.967        2414.449          18.000                                                                                                                                  
C22  22729123.583     -206601.466       -1207.741          18.000                                                                                                                                  
C36  22639503.967     -299354.817       -1773.551          17.000                                                                    22639510.525     -141180.904       -1338.483          11.000  
> 2021 12  8  2 49 46.0000000  0 15                     
G10  21156434.416     -553281.052       -1782.312          22.000    21156426.739       -9019.291       -1330.375          17.000  
G23  20226563.249       82088.416         277.607          15.000                                                                  
G24  20812834.992      549789.779        2263.162          17.000                                                                  
G32  22723481.887     -154753.453       -1635.728          18.000                                                                  
R 8  20283187.613                                          18.000  
R22  23721911.216                                          17.000  
R24  22350377.092                                          15.000  
C 6  36080761.357       54809.426         339.677          19.000                                                                                                                                  
C 8  36280473.433      313647.098        1220.072          20.000                                                                                                                                  
C 9  36677933.399       61325.362         254.404          19.000                                                                                                                                  
C13  35974844.728      244482.504        1012.283          24.000                                                                                                                                  
C19  22311083.151      175841.442         972.682          14.000                                                                                                                                  
C20  25619179.950      579568.747        2415.716          15.000                                                                                                                                  
C22  22728892.350     -212893.937       -1210.980          16.000                                                                                                                                  
C36  22639163.513     -308587.850       -1771.168          16.000                                                                    22639169.321     -146437.633       -1339.305          12.000  
> 2021 12  8  2 49 47.0000000  0 15                     
G10  21156097.417     -562647.671       -1782.918          20.000    21156086.634      -14239.473       -1329.942          15.000  
G23  20226624.969       83547.512         278.213          14.000                                                                  
G24  20813262.400      561681.919        2262.394          17.000                                                                  
G32  22723170.819     -163345.252       -1635.436          18.000                                                                  
R 8  20283122.716                                          19.000  
R22  23722752.230                                          17.000  
R24  22350236.131                                          16.000  
C 6  36080827.002       56575.238         338.406          19.000                                                                                                                                  
C 8  36280707.485      319993.432        1217.883          20.000                                                                                                                                  
C 9  36677982.828       62647.728         255.005          18.000                                                                                                                                  
C13  35975039.459      249760.431        1014.134          27.000                                                                                                                                  
C19  22311269.973      180906.173         972.488          16.000                                                                                                                                  
C20  25619644.213      592155.808        2417.977          16.000                                                                                                                                  
C22  22728661.013     -219197.143       -1209.414          19.000                                                                                                                                  
C36  22638823.914     -317811.735       -1771.254          14.000                                                                    22638828.012     -151696.249       -1341.362          13.000  
> 2021 12  8  2 49 48.0000000  0 15                     
G10  21155757.487     -572026.235       -1784.874          19.000    21155747.786      -19460.026       -1330.603          13.000  
G23  20226677.912       85008.120         278.502          14.000                                                                  
G24  20813693.019      573573.345        2263.727          15.000                                                                  
G32  22722860.256     -171931.131       -1633.090          17.000                                                                  
R 8  20283098.129                                          21.000  
R22  23723598.635                                          17.000  
R24  22350100.543                                          17.000  
C 6  36080892.334       58345.731         340.085          17.000                                                                                                                                  
C 8  36280941.660      326340.493        1219.397          22.000                                                                                                                                  
C 9  36678032.850       63982.989         255.793          20.000                                                                                                                                  
C13  35975234.277      255045.005        1012.448          23.000                                                                                                                                  
C19  22311458.313      185979.327          -0.007          16.000                                                                                                                                  
C20  25620108.685      604749.198        2418.845          16.000                                                                                                                                  
C22  22728429.570     -225503.330       -1212.048          18.000                                                                                                                                  
C36  22638484.211     -327022.926       -1769.388          14.000                                                                    22638486.355     -156960.158       -1341.562          14.000  
> 2021 12  8  2 49 49.0000000  0 16                     
G10  21155418.987     -581395.659       -1781.064          19.000    21155409.269      -24675.790       -1331.581          13.000  
G23  20226730.941       86470.494         278.693          16.000                                                                  
G24  20814116.885      585476.487        2266.438          15.000                                                                  
G32  22722549.467     -180515.552       -1633.895          17.000                                                                  
R 7  21367035.320                                          14.000  
R 8  20283070.732                                          20.000  
R22  23724442.266                                          16.000  
R24  22349964.797                                          13.000  
C 6  36080957.823       60121.023         341.055          17.000                                                                                                                                  
C 8  36281175.345      332684.597        1214.945          19.000                                                                                                                                  
C 9  36678081.650       65313.198         254.341          20.000                                                                                                                                  
C13  35975428.502      260321.013        1015.644          20.000                                                                                                                                  
C19  22311645.834      191063.518          -0.007          16.000                                                                                                                                  
C20  25620573.629      617338.891        2416.274          15.000                                                                                                                                  
C22  22728196.889     -231795.635       -1205.771          17.000                                                                                                                                  
C36  22638145.380     -336240.416          -0.018          14.000                                                                    22638144.644     -162225.159       -1340.145          13.000  
> 2021 12  8  2 49 50.0000000  0 16                     
G10  21155080.323     -590749.885       -1779.587          16.000    21155070.308      -29898.064       -1331.412          13.000  
G23  20226781.511       87938.051         278.530          15.000                                                                  
G24  20814548.306      597389.386        2267.284          16.000                                                                  
G32  22722238.450     -189106.117       -1636.544          20.000                                                                  
R 7  21367375.320                                          18.000  
R 8  20283012.849                                          19.000  
R22  23725286.468                                          15.000  
R24  22349822.142                                          16.000  
C 6  36081023.574       61902.133         340.926          17.000                                                                                                                                  
C 8  36281408.855      339017.791        1219.500          18.000                                                                                                                                  
C 9  36678129.753       66634.919         250.462          19.000                                                                                                                                  
C13  35975623.617      265602.640        1013.835          20.000                                                                                                                                  
C19  22311833.580      196153.164          -0.007          17.000                                                                                                                                  
C20  25621037.561      629917.919        2414.420          12.000                                                                                                                                  
C22  22727965.377     -238075.066       -1206.674          17.000                                                                                                                                  
C36  22637805.347     -345461.011          -0.018          13.000                                                                                                                                  
> 2021 12  8  2 49 51.0000000  0 16                     
G10  21154741.702     -600102.734       -1779.096          15.000                                                                  
G23  20226834.645       89403.032         279.272          17.000                                                                  
G24  20814979.920      609306.423        2267.040          15.000                                                                  
G32  22721929.562     -197705.420       -1636.674          21.000                                                                  
R 7  21367724.359                                          18.000  
R 8  20282949.505                                          17.000  
R22  23726130.186                                          14.000  
R24  22349685.980                                          19.000  
C 6  36081087.998       63674.907         339.011          17.000                                                                                                                                  
C 8  36281643.030      345363.253        1217.906          19.000                                                                                                                                  
C 9  36678178.378       67946.635         253.450          17.000                                                                                                                                  
C13  35975818.309      270886.739        1014.649          23.000                                                                                                                                  
C19  22312021.833      201244.508         977.765          17.000                                                                                                                                  
C20  25621501.457      642495.761        2416.346          13.000                                                                                                                                  
C22  22727731.771     -244355.200       -1206.289          17.000                                                                                                                                  
C36  22637465.120     -354687.608          -0.018          12.000                                                                                                                                  
> 2021 12  8  2 49 52.0000000  0 16                     
G10  21154413.481     -609460.388       -1781.453          16.000                                                                  
G23  20226899.558       90874.388         281.282          20.000                                                                  
G24  20815396.596      621215.704          -0.002          16.000                                                                  
G32  22721621.408     -206299.479       -1633.173          18.000                                                                  
R 7  21368077.604                                          17.000  
R 8  20282885.271                                          16.000  
R22  23726973.974                                          15.000  
R24  22349550.741                                          21.000  
C 6  36081153.347       65444.654         339.909          18.000                                                                                                                                  
C 8  36281876.820      351707.372        1218.912          19.000                                                                                                                                  
C 9  36678227.119       69271.992         255.426          18.000                                                                                                                                  
C13  35976013.546      276176.562        1015.326          27.000                                                                                                                                  
C19  22312210.645      206334.730         977.939          17.000                                                                                                                                  
C20  25621966.226      655079.874          -0.003          16.000                                                                                                                                  
C22  22727500.730     -250627.717       -1203.567          18.000                                                                                                                                  
C36  22637124.753     -363918.039          -0.018          14.000                                                                                                                                  
> 2021 12  8  2 49 53.0000000  0 15                     
G10  21154074.572     -618820.186       -1780.110          15.000                                                                  
G23  20226966.270       92358.377         282.875          21.000                                                                  
G24  20815827.871      633123.994          -0.002          15.000                                                                  
G32  22721315.365     -214881.222          -0.006          20.000                                                                  
R 7  21368418.860                                          18.000  
R 8  20282821.124                                          16.000  
R24  22349412.709                                          17.000  
C 6  36081219.046       67224.280         342.289          19.000                                                                                                                                  
C 8  36282111.622      358061.808        1221.733          23.000                                                                                                                                  
C 9  36678277.001       70604.621         256.005          19.000                                                                                                                                  
C13  35976208.661      281466.551        1015.451          26.000                                                                                                                                  
C19  22312398.427      211425.410         976.955          15.000                                                                                                                                  
C20  25622430.315      667663.907          -0.003          15.000                                                                                                                                  
C22  22727269.253     -256905.341       -1206.957          17.000                                                                                                                                  
C36  22636784.562     -373142.765          -0.018          16.000                                                                                                                                  
> 2021 12  8  2 49 54.0000000  0 16                     
G10  21153735.654     -628181.236       -1781.989          15.000                                                                  
G23  20227013.645       93844.223         283.286          23.000                                                                  
G24  20816259.048      645029.650          -0.002          15.000                                                                  
G32  22721004.856     -223470.788       -1633.348          18.000                                                                  
R 7  21368759.105                                          17.000  
R 8  20282752.091                                          14.000  
R24  22349263.510                                          17.000  
E33  24635047.903        7695.236        1024.824          22.000                                                                  
C 6  36081283.261       68997.351         340.468          19.000                                                                                                                                  
C 8  36282345.570      364419.450        1219.944          23.000                                                                                                                                  
C 9  36678326.352       71931.540         254.671          21.000                                                                                                                                  
C13  35976403.322      286747.443        1014.191          25.000                                                                                                                                  
C19  22312586.016      216510.215         975.937          13.000                                                                                                                                  
C20  25622895.154      680256.541          -0.003          12.000                                                                                                                                  
C22  22727037.357     -263195.504       -1209.437          17.000                                                                                                                                  
C36  22636444.928     -382352.880          -0.018          14.000                                                                                                                                  
> 2021 12  8  2 49 55.0000000  0 16                     
G10  21153403.088     -637545.711          -0.012          13.000                                                                  
G23  20227070.550       95340.139         283.655          20.000                                                                  
G24  20816690.243      656937.316          -0.002          15.000                                                                  
G32  22720690.786     -232054.989       -1633.416          17.000                                                                  
R 7  21369099.140                                          14.000  
R 8  20282687.874                                          16.000  
R24  22349128.569                                          17.000  
E33  24635240.431       13088.220        1028.273          21.000                                                                  
C 6  36081348.032       70765.962         338.624          19.000                                                                                                                                  
C 8  36282579.918      370770.780        1217.735          19.000                                                                                                                                  
C 9  36678374.856       73244.303         252.312          19.000                                                                                                                                  
C13  35976598.031      292019.473        1013.105          25.000                                                                                                                                  
C19  22312771.425      221584.779          -0.007          16.000                                                                                                                                  
C20  25623360.062      692862.054          -0.003          13.000                                                                                                                                  
C22  22726804.938     -269499.194       -1210.906          15.000                                                                                                                                  
C36  22636106.116     -391565.901          -0.018          17.000                                                                                                                                  
> 2021 12  8  2 49 56.0000000  0 17                     
G10  21153064.292     -646903.390          -0.012          16.000                                                                  
G23  20227124.835       96838.483         286.350          17.000                                                                  
G24  20817121.944      668857.426          -0.002          15.000                                                                  
G32  22720379.944     -240640.582       -1634.058          17.000                                                                  
R 1  22388952.217                                          15.000  
R 7  21369439.803                                          15.000  
R 8  20282625.210                                          14.000  
R24  22348993.941                                          17.000  
E33  24635436.450       18485.946        1027.329          19.000                                                                  
C 6  36081413.137       72531.503         337.717          17.000                                                                                                                                  
C 8  36282813.987      377113.993        1218.901          17.000                                                                                                                                  
C 9  36678423.587       74561.497         252.169          18.000                                                                                                                                  
C13  35976793.272      297304.850        1019.052          24.000                                                                                                                                  
C19  22312958.666      226661.367          -0.007          14.000                                                                                                                                  
C20  25623825.111      705471.948          -0.003          14.000                                                                                                                                  
C22  22726576.898     -275791.880           0.005          15.000                                                                                                                                  
C36  22635772.835     -400775.050       -1769.287          17.000                                                                                                                                  
> 2021 12  8  2 49 57.0000000  0 17                     
G10  21152730.409     -656255.826       -1779.682          17.000                                                                  
G23  20227179.244       98341.289         285.758          17.000    20227159.980        2614.431         209.176          15.000  
G24  20817557.379      680782.436          -0.002          14.000                                                                  
G32  22720069.190     -249223.436       -1632.533          17.000                                                                  
R 1  22388570.790                                          14.000  
R 7  21369779.525                                          14.000  
R 8  20282561.168                                          14.000  
R24  22348865.630                                          14.000  
E33  24635633.515       23883.251        1030.167          20.000                                                                  
C 6  36081478.312       74303.189         341.034          18.000                                                                                                                                  
C 8  36283048.004      383458.503        1219.673          15.000                                                                                                                                  
C 9  36678472.509       75881.095         254.437          19.000                                                                                                                                  
C13  35976988.649      302606.282        1016.652          25.000                                                                                                                                  
C19  22313145.976      231732.135          -0.007          13.000                                                                                                                                  
C20  25624290.525      718085.157          -0.003          12.000                                                                                                                                  
C22  22726345.159     -282077.236           0.005          15.000                                                                                                                                  
C36  22635433.044     -409988.543       -1768.912          18.000                                                                                                                                  
> 2021 12  8  2 49 58.0000000  0 17                     
G10  21152391.822     -665606.788       -1779.389          13.000                                                                  
G18  22095726.300       52705.331        3432.487          20.000                                                                  
G23  20227223.060       99854.709         289.733          15.000    20227213.464        3434.797         211.098          14.000  
G24  20817989.307      692710.278          -0.002          14.000                                                                  
G32  22719755.172     -257810.375          -0.006          17.000                                                                  
R 1  22388189.328                                          13.000  
R 7  21370119.333                                          14.000  
R 8  20282497.387                                          14.000  
R24  22348731.769                                          14.000  
C 6  36081544.324       76082.536         341.137          20.000                                                                                                                                  
C 8  36283280.049      389807.853        1218.519          14.000                                                                                                                                  
C 9  36678522.095       77208.418         254.115          19.000                                                                                                                                  
C13  35977183.763      307894.521        1017.108          25.000                                                                                                                                  
C19  22313332.781      236796.971          -0.007          14.000                                                                                                                                  
C20  25624755.521      730693.561          -0.003          13.000                                                                                                                                  
C22  22726113.351     -288364.053           0.005          16.000                                                                                                                                  
C36  22635095.033     -419200.818       -1769.480          16.000                                                                                                                                  
> 2021 12  8  2 49 59.0000000  0 17                     
G10  21152053.096     -674961.008       -1780.444          14.000                                                                  
G18  22096365.955       70748.358        3435.652          23.000                                                                  
G23  20227278.288      101377.749         288.444          15.000    20227267.680        4266.001         212.235          14.000  
G24  20818421.444      704643.704          -0.002          13.000                                                                  
G32  22719420.720     -266414.822       -1639.460          18.000                                                                  
R 1  22387808.200                                          12.000  
R 7  21370459.228                                          13.000  
R 8  20282422.910                                          13.000  
R24  22348602.255                                          13.000  
C 6  36081609.796       77854.348         340.386          19.000                                                                                                                                  
C 8  36283514.328      396159.883        1219.941          14.000                                                                                                                                  
C 9  36678571.027       78537.552         256.175          21.000                                                                                                                                  
C13  35977378.861      313183.328        1016.343          23.000                                                                                                                                  
C19  22313519.812      241867.510          -0.007          14.000                                                                                                                                  
C20  25625220.727      743306.841          -0.003          13.000                                                                                                                                  
C22  22725883.182     -294649.922       -1206.982          14.000                                                                                                                                  
C36  22634755.120     -428418.433       -1770.217          18.000                                                                                                                                  
> 2021 12  8  2 50  0.0000000  0 18                     
G10  21151722.746     -684319.971          -0.012          17.000                                                                  
G15  23674165.389       50747.210        3091.154          15.000                                                                  
G18  22097028.061       88803.216        3435.313          25.000                                                                  
G23  20227327.933      102894.963         287.118          17.000    20227321.146        5086.573         207.919          11.000  
G24  20818855.291      716576.100          -0.002          14.000                                                                  
G32  22719108.918     -275027.148       -1638.033          18.000                                                                  
R 1  22387427.192                                          13.000  
R 7  21370799.525                                          14.000  
R 8  20282359.060                                          15.000  
R24  22348467.592                                          12.000  
C 6  36081675.023       79618.974         338.886          20.000                                                                                                                                  
C 8  36283748.642      402512.386        1218.694          15.000                                                                                                                                  
C 9  36678620.543       79871.388         256.860          20.000                                                                                                                                  
C13  35977573.692      318471.946        1016.024          25.000                                                                                                                                  
C19  22313706.041      246929.244          -0.007          14.000                                                                                                                                  
C20  25625685.793      755916.983          -0.003          13.000                                                                                                                                  
C22  22725651.356     -300937.025       -1208.059          14.000                                                                                                                                  
C36  22634417.530     -437638.090       -1771.050          18.000                                                                                                                                  
> 2021 12  8  2 50  1.0000000  0 18                     
G10  21151387.101     -693682.667       -1782.394          17.000                                                                  
G15  23674753.462       66985.805        3091.260          15.000                                                                  
G18  22097683.142      106852.113        3434.309          29.000                                                                  
G23  20227382.812      104410.417         288.718          17.000    20227374.630        5906.124         210.121          12.000  
G24  20819287.690      728515.344          -0.002          13.000                                                                  
G32  22718800.851     -283626.709       -1634.512          17.000                                                                  
R 1  22387046.323                                          13.000  
R 7  21371139.717                                          15.000  
R 8  20282289.119                                          15.000  
R24  22348332.859                                          13.000  
C 6  36081740.459       81376.970         337.840          18.000                                                                                                                                  
C 8  36283982.276      408851.299           0.050          14.000                                                                                                                                  
C 9  36678669.727       81203.104         255.883          22.000                                                                                                                                  
C13  35977769.453      323774.783        1018.416          25.000                                                                                                                                  
C19  22313892.933      251996.676          -0.007          14.000                                                                                                                                  
C20  25626150.544      768519.089          -0.003          14.000                                                                                                                                  
C22  22725421.484     -307232.683           0.005          15.000                                                                                                                                  
C36  22634075.576     -446856.508       -1770.527          17.000                                                                                                                                  
> 2021 12  8  2 50  2.0000000  0 18                     
G10  21151047.851     -703051.348       -1782.436          17.000                                                                  
G15  23675341.935       83235.318        3091.744          15.000                                                                  
G18  22098337.403      124912.281        3437.517          27.000                                                                  
G23  20227437.709      105926.824         287.810          16.000    20227428.235        6728.283         208.394          10.000  
G24  20819721.974      740447.857          -0.002          14.000                                                                  
G32  22718485.873     -292212.983       -1634.982          18.000                                                                  
R 7  21371480.328                                          14.000  
R 8  20282225.112                                          17.000  
R24  22348198.145                                          15.000  
E33  24636708.501       10216.326        1022.558          22.000                                                                  
C 6  36081805.564       83133.334         336.282          17.000                                                                                                                                  
C 8  36284216.013      415187.843           0.050          16.000                                                                                                                                  
C 9  36678718.947       82531.101         253.223          20.000                                                                                                                                  
C13  35977964.812      329070.756        1016.927          22.000                                                                                                                                  
C19  22314080.907      257062.538          -0.007          15.000                                                                                                                                  
C20  25626613.464      781128.579          -0.003          13.000                                                                                                                                  
C22  22725189.466     -313525.378           0.005          15.000                                                                                                                                  
C36  22633736.413     -456071.919       -1768.781          19.000                                                                                                                                  
> 2021 12  8  2 50  3.0000000  0 17                     
G10  21150708.846     -712413.621       -1780.932          16.000                                                                  
G18  22098992.013      142986.193        3438.037          19.000                                                                  
G23  20227494.055      107442.857         290.307          17.000    20227481.649        7546.977         210.429          12.000  
G24  20820153.902      752375.896          -0.002          14.000                                                                  
G32  22718174.787     -300800.742       -1632.693          19.000                                                                  
R 7  21371820.956                                          14.000  
R 8  20282159.551                                          15.000  
R24  22348063.046                                          14.000  
E33  24636900.750       15580.093        1020.062          20.000                                                                  
C 6  36081870.667       84904.324         341.005          20.000                                                                                                                                  
C 8  36284449.611      421520.762           0.050          17.000                                                                                                                                  
C 9  36678767.730       83850.354         253.316          22.000                                                                                                                                  
C13  35978159.473      334362.776        1016.178          25.000                                                                                                                                  
C19  22314267.729      262127.386          -0.007          15.000                                                                                                                                  
C20  25627077.936      793722.595          -0.003          12.000                                                                                                                                  
C22  22724957.466     -319815.855           0.005          15.000                                                                                                                                  
C36  22633395.733     -465282.413       -1768.459          22.000                                                                                                                                  
> 2021 12  8  2 50  4.0000000  0 17                     
G10  21150374.858     -721772.186       -1780.724          17.000                                                                  
G18  22099646.982      161049.835        3437.720          17.000                                                                  
G23  20227549.440      108972.008         290.961          18.000    20227535.290        8369.295         210.344          12.000  
G24  20820585.864      764304.635          -0.002          14.000                                                                  
G32  22717863.963     -309385.655       -1632.680          17.000                                                                  
R 7  21372161.584                                          14.000  
R 8  20282095.317                                          17.000  
R24  22347927.876                                          15.000  
E33  24637089.788       20941.186        1020.245          19.000                                                                  
C 6  36081936.575       86677.523         340.837          20.000                                                                                                                                  
C 8  36284683.455      427843.908        1214.597          17.000                                                                                                                                  
C 9  36678816.495       85165.111         252.405          18.000                                                                                                                                  
C13  35978354.375      339656.583        1015.179          23.000                                                                                                                                  
C19  22314454.394      267188.500          -0.007          13.000                                                                                                                                  
C20  25627542.374      806316.019          -0.003          13.000                                                                                                                                  
C22  22724730.089     -326090.188           0.005          14.000                                                                                                                                  
C36  22633050.253     -474492.218       -1767.680          25.000                                                                                                                                  
> 2021 12  8  2 50  5.0000000  0 18                     
G10  21150043.985     -731129.937       -1780.256          14.000                                                                  
G15  23677120.673      131963.488        3089.852          15.000                                                                  
G18  22100301.278      179119.673        3439.562          17.000                                                                  
G23  20227605.750      110499.055         289.819          16.000    20227594.985        9195.425         210.365           9.000  
G24  20821018.141      776239.963          -0.002          14.000                                                                  
G32  22717553.366     -317963.516       -1632.302          18.000                                                                  
R 7  21372501.863                                          16.000  
R 8  20282023.405                                          14.000  
R24  22347792.410                                          14.000  
E33  24637282.962       26304.794        1021.711          17.000                                                                  
C 6  36082002.116       88447.238         338.668          19.000                                                                                                                                  
C 8  36284916.582      434164.165        1212.773          15.000                                                                                                                                  
C 9  36678865.226       86481.364         251.491          21.000                                                                                                                                  
C13  35978549.018      344935.678        1012.107          20.000                                                                                                                                  
C19  22314642.263      272241.670          -0.007          11.000                                                                                                                                  
C20  25628006.357      818896.725          -0.003          14.000                                                                                                                                  
C22  22724498.417     -332374.217           0.005          14.000                                                                                                                                  
C36  22632707.341     -483696.709       -1765.346          29.000                                                                                                                                  
> 2021 12  8  2 50  6.0000000  0 18                     
G10  21149705.258     -740484.847       -1779.936          14.000                                                                  
G15  23677709.007      148209.774        3092.622          14.000                                                                  
G18  22100955.870      197197.027        3439.531          16.000                                                                  
G23  20227661.049      112025.034         290.055          16.000    20227648.661       10017.940         210.351          10.000  
G24  20821450.331      788174.952          -0.002          14.000                                                                  
G32  22717248.666     -326542.851       -1632.624          17.000                                                                  
R 7  21372839.909                                          14.000  
R 8  20281958.926                                          17.000  
R24  22347656.894                                          14.000  
E33  24637477.724       31680.711        1024.052          18.000                                                                  
C 6  36082067.465       90211.686         338.069          19.000                                                                                                                                  
C 8  36285150.983      440484.688           0.050          13.000                                                                                                                                  
C 9  36678913.293       87796.140         254.522          18.000                                                                                                                                  
C13  35978743.648      350212.357        1016.262          20.000                                                                                                                                  
C19  22314829.158      277309.954          -0.007          13.000                                                                                                                                  
C20  25628470.079      831469.924          -0.003          13.000                                                                                                                                  
C22  22724270.744     -338669.822           0.005          15.000                                                                                                                                  
C36  22632367.812     -492886.072       -1766.181          24.000                                                                    22632367.007      -10146.990       -1330.705          21.000  
> 2021 12  8  2 50  7.0000000  0 17                     
G10  21149366.166     -749849.007          -0.012          16.000                                                                  
G15  23678297.517      164460.064        3089.844          13.000                                                                  
G18  22101611.178      215265.118        3437.048          14.000                                                                  
G23  20227716.487      113554.339         290.694          16.000    20227702.388       10841.637         210.606          11.000  
G24  20821888.523      800119.719          -0.002          14.000                                                                  
G32  22716946.811     -335126.639       -1632.509          19.000                                                                  
R 7  21373179.525                                          14.000  
R 8  20281894.482                                          15.000  
E33  24637666.692       37062.971        1025.418          26.000                                                                  
C 6  36082132.500       91973.225         337.268          20.000                                                                                                                                  
C 8  36285384.197      446807.399           0.050          15.000                                                                                                                                  
C 9  36678962.739       89116.342         252.778          20.000                                                                                                                                  
C13  35978939.077      355513.660        1019.222          19.000                                                                                                                                  
C19  22315016.853      282389.011          -0.007          14.000                                                                                                                                  
C20  25628934.918      844048.438          -0.003          11.000                                                                                                                                  
C22  22724038.795     -344960.966           0.005          14.000                                                                                                                                  
C36  22632027.707     -502083.045       -1769.291          24.000                                                                    22632028.316      -15371.767       -1331.756          17.000  
> 2021 12  8  2 50  8.0000000  0 16                     
G10  21149027.013     -759216.983          -0.012          17.000                                                                  
G18  22102265.327      233329.752        3439.241          16.000                                                                  
G23  20227771.820      115084.583         291.707          14.000    20227756.221       11666.339         211.642          10.000  
G24  20822321.306      812070.674          -0.002          14.000                                                                  
G32  22716639.947     -343696.822       -1630.541          18.000                                                                  
R 7  21373519.141                                          15.000  
R 8  20281810.861                                          18.000  
E33  24637860.145       42440.725        1023.443          21.000                                                                  
C 6  36082197.361       93733.712         338.807          18.000                                                                                                                                  
C 8  36285617.760      453139.547           0.050          14.000                                                                                                                                  
C 9  36679012.213       90437.616         254.247          20.000                                                                                                                                  
C13  35979134.820      360821.013        1019.246          17.000                                                                                                                                  
C19  22315203.937      287461.466          -0.007          15.000                                                                                                                                  
C20  25629399.129      856633.756          -0.003          12.000                                                                                                                                  
C22  22723806.655     -351256.902           0.005          16.000                                                                                                                                  
C36  22631688.213     -511283.969       -1762.945          23.000                                                                    22631688.525      -20601.829       -1332.593          19.000  
> 2021 12  8  2 50  9.0000000  0 16                     
G10  21148681.952     -768577.992       -1781.073          17.000                                                                  
G18  22102919.989      251409.128        3441.667          16.000                                                                  
G23  20227827.397      116618.070         290.676          15.000    20227810.385       12496.346         212.817          12.000  
G24  20822753.775      824011.953          -0.002          14.000                                                                  
G32  22716331.793     -352266.859       -1631.047          18.000                                                                  
R 7  21373854.098                                          10.000  
R 8  20281748.948                                          21.000  
E33  24638054.209       47817.544        1026.519          21.000                                                                  
C 6  36082262.222       95497.717         336.984          20.000                                                                                                                                  
C 8  36285851.969      459468.985           0.050          13.000                                                                                                                                  
C 9  36679061.432       91763.098         254.836          20.000                                                                                                                                  
C13  35979329.966      366117.069        1015.828          19.000                                                                                                                                  
C19  22315391.334      292541.647          -0.007          15.000                                                                                                                                  
C20  25629863.394      869222.382          -0.003          13.000                                                                                                                                  
C22  22723578.075     -357559.667           0.005          16.000                                                                                                                                  
C36  22631348.597     -520479.682       -1767.197          24.000                                                                    22631348.490      -25825.029       -1326.492          20.000  
> 2021 12  8  2 50 10.0000000  0 16                     
G10  21148343.191     -777934.263       -1780.630          16.000                                                                  
G18  22103592.870      269493.283          -0.011          15.000                                                                  
G23  20227882.626      118142.387         289.613          16.000    20227868.528       13335.691         215.814          13.000  
G24  20823177.361      835945.971          -0.002          14.000                                                                  
G32  22716024.389     -360841.264       -1632.676          18.000                                                                  
R 7  21374193.086                                          11.000  
R 8  20281676.512                                          19.000  
E33  24638248.308       53212.695        1026.936          24.000                                                                  
C 6  36082327.222       97258.770         340.040          20.000                                                                                                                                  
C 8  36286085.393      465797.486           0.050          12.000                                                                                                                                  
C 9  36679110.337       93082.816         252.354          18.000                                                                                                                                  
C13  35979525.534      371413.223        1018.906          19.000                                                                                                                                  
C19  22315580.844      297632.019          -0.007          15.000                                                                                                                                  
C20  25630327.936      881815.134          -0.003          13.000                                                                                                                                  
C22  22723345.655     -363862.263           0.005          16.000                                                                                                                                  
C36  22631009.191     -529680.017       -1766.501          23.000                                                                    22631010.043      -31039.885       -1333.314          19.000  
> 2021 12  8  2 50 11.0000000  0 16                     
G10  21148008.531     -787289.477       -1779.554          17.000                                                                  
G18  22104247.794      287579.051          -0.011          17.000                                                                  
G23  20227933.039      119659.766         289.331          16.000    20227923.739       14181.415         217.274          13.000  
G24  20823609.533      847879.820          -0.002          15.000                                                                  
G32  22715713.844     -369417.522       -1630.802          18.000                                                                  
R 7  21374523.035                                          15.000  
R 8  20281612.504                                          17.000  
E33  24638442.058       58594.631        1025.950          21.000                                                                  
C 6  36082392.711       99030.716         341.438          22.000                                                                                                                                  
C 8  36286317.299      472121.943           0.050          14.000                                                                                                                                  
C 9  36679158.858       94396.665         252.897          21.000                                                                                                                                  
C13  35979720.946      376711.053        1016.687          17.000                                                                                                                                  
C19  22315768.346      302715.256          -0.007          13.000                                                                                                                                  
C20  25630792.827      894420.457          -0.003          13.000                                                                                                                                  
C22  22723116.359     -370163.036           0.005          16.000                                                                                                                                  
C36  22630669.995     -538876.285       -1762.847          22.000                                                                    22630669.853      -36276.704       -1333.470          17.000  
> 2021 12  8  2 50 12.0000000  0 15                     
G10  21147669.919     -796640.554       -1779.887          15.000                                                                  
G18  22104908.591      305662.635        3439.815          16.000                                                                  
G23  20227987.883      121174.136         287.846          16.000    20227979.421       15034.905         216.667          13.000  
G24  20824038.704      859815.522          -0.002          16.000                                                                  
G32  22715396.197     -377991.741       -1630.819          17.000                                                                  
R 7  21374861.552                                          13.000  
R 8  20281547.956                                          16.000  
E33  24638636.732       63997.784        1032.806          23.000                                                                  
C 6  36082458.198      100799.565         339.077          22.000                                                                                                                                  
C 8  36286550.391      478441.518           0.050          15.000                                                                                                                                  
C 9  36679207.746       95707.970         249.922          20.000                                                                                                                                  
C13  35979916.410      382010.518        1017.179          14.000                                                                                                                                  
C19  22315955.657      307793.121          -0.007          12.000                                                                                                                                  
C22  22722884.079     -376462.249           0.005          18.000                                                                                                                                  
C36  22630331.182     -548056.561       -1763.648          20.000                                                                    22630330.865      -41510.269       -1331.773          20.000  
> 2021 12  8  2 50 13.0000000  0 15                     
G10  21147331.053     -805998.266       -1780.131          15.000                                                                  
G18  22105563.061      323736.422        3438.311          16.000                                                                  
G23  20228047.596      122683.842         287.448          16.000    20228034.772       15882.804         217.437          12.000  
G24  20824471.208      871757.961          -0.002          16.000                                                                  
G32  22715086.036     -386557.456       -1629.263          15.000                                                                  
R 7  21375199.808                                          13.000  
R 8  20281487.997                                          16.000  
E33  24638828.912       69409.051        1030.335          21.000                                                                  
C 6  36082523.407      102564.175         340.641          22.000                                                                                                                                  
C 8  36286784.094      484776.983           0.050          16.000                                                                                                                                  
C 9  36679256.843       97025.784         254.458          21.000                                                                                                                                  
C13  35980111.154      387302.065        1015.859          17.000                                                                                                                                  
C19  22316140.577      312868.038          -0.007          13.000                                                                                                                                  
C22  22722654.452     -382765.681       -1210.623          15.000                                                                                                                                  
C36  22629992.281     -557244.787       -1765.966          22.000                                                                    22629991.842      -46742.336       -1329.052          21.000  
> 2021 12  8  2 50 14.0000000  0 15                     
G10  21146993.950     -815350.818       -1779.950          16.000                                                                  
G18  22106217.148      341798.809        3435.550          15.000                                                                  
G23  20228102.755      124206.562         289.186          17.000    20228090.349       16734.391         217.386          13.000  
G24  20824903.659      883699.741          -0.002          15.000                                                                  
G32  22714771.791     -395124.807       -1631.800          20.000                                                                  
R 7  21375537.766                                          14.000  
R 8  20281423.902                                          14.000  
E33  24639022.731       74821.069        1032.071          21.000                                                                  
C 6  36082589.071      104338.723         339.971          21.000                                                                                                                                  
C 8  36287021.024      491121.834        1218.539          15.000                                                                                                                                  
C 9  36679306.185       98351.004         253.445          25.000                                                                                                                                  
C13  35980306.513      392598.186        1018.201          16.000                                                                                                                                  
C19  22316328.045      317950.725          -0.007          14.000                                                                                                                                  
C22  22722422.015     -389069.120       -1210.364          14.000                                                                                                                                  
C36  22629653.258     -566441.932       -1767.176          23.000                                                                    22629652.523      -51971.375       -1334.024          21.000  
> 2021 12  8  2 50 15.0000000  0 15                     
G10  21146655.303     -824702.033       -1778.829          18.000                                                                  
G18  22106872.927      359855.511        3436.837          14.000                                                                  
G23  20228158.157      125734.807         291.679          20.000    20228151.894       17586.905         217.500          14.000  
G24  20825337.202      895643.213        2273.592          16.000                                                                  
G32  22714461.211     -403701.593       -1633.102          17.000                                                                  
R 7  21375876.178                                          12.000  
R 8  20281349.896                                          17.000  
E33  24639216.743       80259.170        1034.574          19.000                                                                  
C 6  36082654.839      106108.871         341.381          25.000                                                                                                                                  
C 8  36287255.059      497466.837        1219.435          15.000                                                                                                                                  
C 9  36679355.020       99670.571         252.959          20.000                                                                                                                                  
C13  35980501.750      397896.906        1018.620          16.000                                                                                                                                  
C19  22316514.989      323039.050          -0.007          13.000                                                                                                                                  
C22  22722189.596     -395371.851           0.005          12.000                                                                                                                                  
C36  22629313.886     -575636.145       -1765.181          25.000                                                                    22629313.779      -57195.929       -1331.716          24.000  
> 2021 12  8  2 50 16.0000000  0 15                     
G10  21146313.925     -834049.313       -1778.277          20.000                                                                  
G18  22107526.831      377913.650        3436.139          17.000                                                                  
G23  20228226.020      127269.144         293.130          22.000    20228207.769       18442.471         219.377          18.000  
G24  20825763.860      907587.831        2272.928          17.000                                                                  
G32  22714135.502     -412278.194       -1630.074          20.000                                                                  
R 7  21376215.340                                          14.000  
R 8  20281285.679                                          15.000  
E33  24639412.726       85692.090        1034.429          20.000                                                                  
C 6  36082720.851      107889.212         341.487          24.000                                                                                                                                  
C 8  36287492.444      503817.310        1220.394          17.000                                                                                                                                  
C 9  36679403.498      100984.951         252.201          18.000                                                                                                                                  
C13  35980697.284      403198.567        1017.044          16.000                                                                                                                                  
C19  22316702.561      328123.997          -0.007          12.000                                                                                                                                  
C22  22721957.002     -401678.917           0.005          17.000                                                                                                                                  
C36  22628974.658     -584825.702       -1762.168          23.000                                                                    22628974.673      -62422.921       -1331.503          23.000  
> 2021 12  8  2 50 17.0000000  0 15                     
G10  21145951.693     -843400.862       -1780.766          18.000                                                                  
G18  22108186.345      395967.969        3434.515          16.000                                                                  
G23  20228274.373      128813.555         294.160          20.000    20228264.201       19307.045         220.580          17.000  
G24  20826191.355      919538.501        2274.731          17.000                                                                  
G32  22713817.906     -420842.875       -1627.566          19.000                                                                  
R 7  21376554.555                                          14.000  
R 8  20281221.672                                          15.000  
E33  24639608.291       91128.664        1034.168          18.000                                                                  
C 6  36082786.846      109665.700         340.940          22.000                                                                                                                                  
C 8  36287728.171      510173.243        1221.335          18.000                                                                                                                                  
C 9  36679452.055      102299.215         251.888          18.000                                                                                                                                  
C13  35980892.786      408499.326        1019.656          16.000                                                                                                                                  
C19  22316890.029      333206.286          -0.007          13.000                                                                                                                                  
C22  22721724.355     -407987.628           0.005          17.000                                                                                                                                  
C36  22628634.675     -594014.831       -1765.936          26.000                                                                    22628635.528      -67654.363       -1327.977          23.000  
> 2021 12  8  2 50 18.0000000  0 15                     
G10  21145633.698     -852753.919       -1779.404          21.000                                                                  
G18  22108839.733      414011.459        3434.067          17.000                                                                  
G23  20228318.905      130357.552         294.154          22.000    20228317.546       20169.473         219.473          15.000  
G24  20826624.365      931496.875        2275.833          17.000                                                                  
G32  22713502.039     -429398.517       -1628.844          19.000                                                                  
R 7  21376893.595                                          13.000  
R 8  20281163.824                                          16.000  
E33  24639803.454       96553.025        1032.461          20.000                                                                  
C 6  36082852.370      111433.732         340.785          24.000                                                                                                                                  
C 8  36287964.056      516526.994        1218.908          22.000                                                                                                                                  
C 9  36679501.501      103620.445         252.003          20.000                                                                                                                                  
C13  35981088.822      413809.181        1019.509          16.000                                                                                                                                  
C19  22317076.921      338287.779          -0.007          13.000                                                                                                                                  
C22  22721495.164     -414296.312       -1210.189          18.000                                                                                                                                  
C36  22628296.385     -603210.175       -1763.461          23.000                                                                    22628295.615      -72890.218       -1336.088          22.000  
> 2021 12  8  2 50 19.0000000  0 15                     
G10  21145295.462     -862094.073       -1776.456          17.000                                                                  
G18  22109493.279      432058.963        3436.172          17.000                                                                  
G23  20228377.903      131907.145         296.170          20.000    20228379.928       21027.328         219.346          15.000  
G24  20827057.462      943456.473        2277.055          15.000                                                                  
G32  22713193.675     -437956.961       -1628.122          23.000                                                                  
R 7  21377232.426                                          12.000  
R 8  20281099.834                                          12.000  
E33  24639999.350      101991.186        1035.776          20.000                                                                  
C 6  36082917.736      113200.225         339.302          20.000                                                                                                                                  
C 8  36288203.081      522873.006        1218.082          22.000                                                                                                                                  
C 9  36679549.917      104936.735         253.153          22.000                                                                                                                                  
C13  35981284.722      419120.073        1019.954          14.000                                                                                                                                  
C19  22317263.638      343349.374          -0.007          14.000                                                                                                                                  
C22  22721264.089     -420601.803       -1209.709          19.000                                                                                                                                  
C36  22627957.223     -612405.706       -1766.283          24.000                                                                    22627956.435      -78110.454       -1329.896          22.000  
> 2021 12  8  2 50 20.0000000  0 15                     
G10  21144956.928     -871443.082       -1780.504          17.000                                                                  
G18  22110156.100      450125.415        3438.681          16.000                                                                  
G23  20228434.108      133460.995         294.677          20.000    20228436.047       21886.801         219.822          17.000  
G24  20827488.203      955411.170        2275.487          17.000                                                                  
G32  22712882.781     -446513.330       -1627.251          22.000                                                                  
R 7  21377571.711                                          16.000  
R 8  20281040.643                                          14.000  
E33  24640193.484      107440.827        1037.296          24.000                                                                  
C 6  36082982.333      114953.558         337.391          20.000                                                                                                                                  
C 8  36288437.202      529221.462        1221.089          20.000                                                                                                                                  
C 9  36679598.438      106250.695         253.067          22.000                                                                                                                                  
C13  35981480.744      424434.390        1021.354          14.000                                                                                                                                  
C19  22317448.401      348412.807          -0.007          13.000                                                                                                                                  
C22  22721035.613     -426905.170       -1211.604          16.000                                                                                                                                  
C36  22627618.549     -621590.391       -1761.455          22.000                                                                    22627617.499      -83339.908       -1334.508          23.000  
> 2021 12  8  2 50 21.0000000  0 15                     
G10  21144587.734     -880799.549       -1780.884          22.000                                                                  
G18  22110810.553      468197.749        3439.755          16.000                                                                  
G23  20228489.564      135011.474         296.494          22.000    20228492.270       22751.437         220.053          17.000  
G24  20827921.440      967374.632        2277.609          15.000                                                                  
G32  22712569.828     -455055.584       -1623.507          29.000                                                                  
R 7  21377911.379                                          15.000  
R 8  20280977.125                                          14.000  
E33  24640385.646      112887.308        1034.789          23.000                                                                  
C 6  36083046.461      116708.221         336.083          22.000                                                                                                                                  
C 8  36288671.533      535577.593        1221.003          18.000                                                                                                                                  
C 9  36679647.431      107572.576         254.861          20.000                                                                                                                                  
C13  35981676.958      429749.036           0.018          16.000                                                                                                                                  
C19  22317635.223      353478.201          -0.007          11.000                                                                                                                                  
C22  22720804.921     -433221.755       -1214.089          18.000                                                                                                                                  
C36  22627279.999     -630768.238       -1763.087          24.000                                                                    22627278.757      -88562.793       -1331.412          22.000  
> 2021 12  8  2 50 22.0000000  0 15                     
G10  21144258.640     -890154.854       -1779.895          19.000                                                                  
G18  22111467.833      486267.557          -0.011          15.000                                                                  
G23  20228545.455      136573.009         296.337          21.000    20228541.932       23617.341         220.256          16.000  
G24  20828355.252      979353.336        2281.200          15.000                                                                  
G32  22712259.440     -463600.086       -1623.825          29.000                                                                  
R 7  21378251.257                                          14.000  
R 8  20280913.937                                          13.000  
E33  24640581.664      118335.056        1035.470          22.000                                                                  
C 6  36083111.496      118463.704         338.834          24.000                                                                                                                                  
C 8  36288905.812      541932.313        1219.796          19.000                                                                                                                                  
C 9  36679696.301      108899.116         253.757          19.000                                                                                                                                  
C13  35981872.994      435063.233           0.018          16.000                                                                                                                                  
C19  22317822.045      358542.920          -0.007          12.000                                                                                                                                  
C22  22720572.013     -439539.044       -1214.157          16.000                                                                                                                                  
C36  22626941.709     -639943.603       -1760.915          22.000                                                                    22626939.351      -93783.097       -1335.585          20.000  
> 2021 12  8  2 50 23.0000000  0 15                     
G10  21143946.518     -899500.169       -1778.780          22.000                                                                  
G18  22112121.832      504328.735          -0.011          16.000                                                                  
G23  20228602.342      138122.601         293.123          20.000    20228602.344       24484.341         220.056          17.000  
G24  20828804.839      991340.835        2279.738          14.000                                                                  
G32  22711949.227     -472139.962       -1623.254          27.000                                                                  
R 7  21378591.432                                          17.000  
R 8  20280854.659                                          16.000  
E33  24640776.530      123774.539        1036.156          22.000                                                                  
C 6  36083176.462      120223.435         337.371          20.000                                                                                                                                  
C 8  36289139.742      548280.562        1217.087          18.000                                                                                                                                  
C 9  36679744.910      110218.227         253.232          20.000                                                                                                                                  
C13  35982070.116      440367.702        1017.793          16.000                                                                                                                                  
C19  22318009.164      363616.588          -0.007          13.000                                                                                                                                  
C22  22720339.262     -445850.309       -1211.314          19.000                                                                                                                                  
C36  22626604.484     -649123.557       -1764.385          24.000                                                                    22626600.118      -99019.720       -1334.546          23.000  
> 2021 12  8  2 50 24.0000000  0 15                     
G10  21143599.904     -908857.112       -1783.514          23.000                                                                  
G18  22112776.033      522395.349          -0.011          16.000                                                                  
G23  20228657.588      139670.316         294.949          19.000    20228655.094       25351.779         220.288          17.000  
G24  20829238.861     1003326.127        2280.705          15.000                                                                  
G32  22711639.816     -480675.494       -1626.557          28.000                                                                  
R 7  21378931.606                                          16.000  
R 8  20280791.838                                          16.000  
E33  24640971.589      129209.543        1035.274          21.000                                                                  
C 6  36083241.706      121991.205         340.819          21.000                                                                                                                                  
C 8  36289374.440      554643.865        1224.840          17.000                                                                                                                                  
C 9  36679793.762      111541.612         255.521          19.000                                                                                                                                  
C13  35982266.086      445669.674        1019.507          18.000                                                                                                                                  
C19  22318196.597      368698.139          -0.007          13.000                                                                                                                                  
C22  22720111.519     -452156.118       -1210.352          22.000                                                                                                                                  
C36  22626265.723     -658308.625       -1764.380          26.000                                                                    22626261.305     -104239.302       -1335.099          19.000  
> 2021 12  8  2 50 25.0000000  0 15                     
G10  21143262.294     -918225.899       -1784.357          22.000                                                                  
G18  22113431.062      540464.227        3437.439          17.000                                                                  
G23  20228713.584      141218.992         295.758          18.000    20228714.248       26216.511         221.154          19.000  
G24  20829683.371     1015309.029        2279.460          15.000                                                                  
G32  22711330.894     -489221.879       -1627.113          29.000                                                                  
R 7  21379271.868                                          16.000  
R 8  20280728.494                                          15.000  
E33  24641167.398      134656.166        1036.758          20.000    24641147.855        6344.436         775.305          19.000  
C 6  36083307.003      123761.599         337.302          19.000                                                                                                                                  
C 8  36289609.208      561008.391        1221.804          17.000                                                                                                                                  
C 9  36679842.764      112863.906         250.582          20.000                                                                                                                                  
C13  35982462.003      450981.965        1021.173          16.000                                                                                                                                  
C19  22318383.785      373782.886          -0.007          13.000                                                                                                                                  
C22  22719879.117     -458460.944       -1210.128          20.000                                                                                                                                  
C36  22625926.560     -667485.431       -1763.293          24.000                                                                    22625922.561     -109466.429       -1329.712          20.000  
> 2021 12  8  2 50 26.0000000  0 15                     
G10  21142923.089     -927592.989       -1782.616          19.000                                                                  
G18  22114084.851      558518.359        3433.785          16.000                                                                  
G23  20228769.772      142779.149         296.056          21.000    20228771.100       27087.501         221.825          17.000  
G24  20830117.445     1027295.388        2282.267          16.000                                                                  
G32  22711020.540     -497776.998       -1625.729          31.000                                                                  
R 7  21379611.659                                          19.000  
R 8  20280663.614                                          14.000  
E33  24641361.741      140103.264        1036.904          24.000    24641346.578        9389.088         774.538          18.000  
C 6  36083372.056      125521.947         337.828          21.000                                                                                                                                  
C 8  36289842.055      567371.092        1219.996          20.000                                                                                                                                  
C 9  36679890.640      114161.781         250.140          20.000                                                                                                                                  
C13  35982657.921      456294.032        1019.969          15.000                                                                                                                                  
C19  22318571.392      378868.995          -0.007          13.000                                                                                                                                  
C22  22719646.174     -464770.815       -1211.480          18.000                                                                                                                                  
C36  22625588.621     -676659.423       -1764.485          24.000                                                                    22625584.029     -114683.924       -1334.991          20.000  
> 2021 12  8  2 50 27.0000000  0 15                     
G10  21142584.625     -936957.778       -1778.904          19.000                                                                  
G18  22114733.755      576562.766        3434.294          15.000                                                                  
G23  20228828.247      144336.558         296.758          19.000    20228827.812       27959.627         220.788          17.000  
G24  20830551.746     1039286.293        2281.066          14.000                                                                  
G32  22710709.262     -506326.213       -1626.859          27.000                                                                  
R 7  21379957.402                                          17.000  
R 8  20280599.676                                          14.000  
E33  24641558.091      145547.768        1034.407          20.000    24641543.696       12430.822         774.236          18.000  
C 6  36083437.073      127287.114         340.604          20.000                                                                                                                                  
C 8  36290074.397      573723.863        1220.972          19.000                                                                                                                                  
C 9  36679939.336      115469.303         250.287          19.000                                                                                                                                  
C13  35982853.572      461599.998        1018.857          15.000                                                                                                                                  
C19  22318759.610      383972.825          -0.007          14.000                                                                                                                                  
C22  22719413.475     -471081.607       -1213.042          17.000                                                                                                                                  
C36  22625250.541     -685818.783       -1757.521          23.000                                                                    22625245.512     -119907.048       -1334.545          20.000  
> 2021 12  8  2 50 28.0000000  0 16                     
G10  21142246.283     -946301.503       -1779.145          17.000                                                                  
G18  22115387.283      594610.120        3434.194          16.000                                                                  
G23  20228885.045      145904.837         298.616          19.000    20228882.185       28830.866         221.678          18.000  
G24  20830987.792     1051261.330        2278.210          16.000                                                                  
G32  22710400.305     -514883.585       -1627.655          31.000                                                                  
R 7  21380297.611                                          17.000  
R 8  20280536.664                                          12.000  
E30  26350222.921         819.357         136.240          19.000                                                                  
E33  24641752.940      150991.857        1036.516          25.000    24641739.836       15467.530         772.114          20.000  
C 6  36083502.423      129060.036         339.487          22.000                                                                                                                                  
C 8  36290311.834      580082.639        1219.578          22.000                                                                                                                                  
C 9  36679987.543      116776.168         250.177          20.000                                                                                                                                  
C13  35983049.354      466907.578        1021.383          17.000                                                                                                                                  
C19  22318949.120      389087.833          -0.007          14.000                                                                                                                                  
C22  22719178.892     -477405.355       -1213.985          17.000                                                                                                                                  
C36  22624911.919     -694978.191       -1759.984          25.000                                                                    22624906.646     -125131.850       -1329.451          19.000  
> 2021 12  8  2 50 29.0000000  0 16                     
G10  21141908.726     -955660.603       -1780.094          18.000                                                                  
G18  22116041.065      612664.620        3435.712          16.000                                                                  
G23  20228942.473      147473.478         298.026          20.000    20228944.010       29702.885         220.656          17.000  
G24  20831421.499     1063238.557        2280.062          15.000                                                                  
G32  22710089.324     -523440.774       -1625.599          33.000                                                                  
R 7  21380653.282                                          21.000  
R 8  20280472.656                                          16.000  
E30  26350243.539        1523.140         133.158          16.000                                                                  
E33  24641948.487      156442.373        1037.469          26.000    24641938.088       18518.249         777.040          18.000  
C 6  36083567.438      130825.268         338.580          23.000                                                                                                                                  
C 8  36290544.420      586436.824        1218.640          20.000                                                                                                                                  
C 9  36680035.733      118078.874         249.927          19.000                                                                                                                                  
C13  35983245.534      472226.048        1019.971          17.000                                                                                                                                  
C19  22319137.931      394206.860          -0.007          14.000                                                                                                                                  
C22  22718946.037     -483720.748       -1212.997          17.000                                                                                                                                  
C36  22624574.240     -704142.220       -1761.667          25.000                                                                    22624568.444     -130351.901       -1330.033          18.000  
> 2021 12  8  2 50 30.0000000  0 15                     
G10  21141573.429     -965013.438       -1779.833          20.000                                                                  
G18  22116695.850      630726.870        3436.963          17.000                                                                  
G23  20228999.132      149044.025         299.718          20.000    20228996.586       30573.317         221.760          17.000  
G24  20831846.046     1075229.529          -0.002          14.000                                                                  
G32  22709781.047     -531995.622       -1626.756          28.000                                                                  
R 7  21381001.239                                          20.000  
R 8  20280408.527                                          13.000  
E33  24642144.628      161897.021        1037.548          23.000    24642136.131       21570.780         781.782          20.000  
C 6  36083632.456      132589.744         339.420          20.000                                                                                                                                  
C 8  36290777.670      592789.405        1218.981          18.000                                                                                                                                  
C 9  36680084.219      119392.978         251.611          20.000                                                                                                                                  
C13  35983441.992      477539.783        1021.049          17.000                                                                                                                                  
C19  22319326.847      399328.944          -0.007          14.000                                                                                                                                  
C22  22718713.111     -490038.521       -1212.685          16.000                                                                                                                                  
C36  22624236.508     -713299.657       -1758.480          23.000                                                                    22624230.416     -135560.403       -1330.086          19.000  
> 2021 12  8  2 50 31.0000000  0 15                     
G10  21141234.529     -974363.694       -1779.742          18.000                                                                  
G18  22117349.867      648787.552        3437.531          16.000                                                                  
G23  20229056.351      150610.923         297.321          20.000    20229053.333       31445.000         222.446          18.000  
G24  20832280.574     1087227.436          -0.002          14.000                                                                  
G32  22709473.032     -540535.528       -1623.699          29.000                                                                  
R 7  21381379.787                                          22.000  
R 8  20280344.641                                          14.000  
E33  24642341.117      167353.549        1037.338          25.000    24642333.981       24615.333         776.440          19.000  
C 6  36083697.369      134356.702         341.044          20.000                                                                                                                                  
C 8  36291011.600      599139.873        1220.313          19.000                                                                                                                                  
C 9  36680132.827      120703.394         252.428          20.000                                                                                                                                  
C13  35983637.714      482846.569        1019.031          17.000                                                                                                                                  
C19  22319517.128      404445.799          -0.007          13.000                                                                                                                                  
C22  22718482.297     -496347.218       -1210.398          15.000                                                                                                                                  
C36  22623898.151     -722461.028       -1760.765          21.000                                                                    22623892.459     -140769.849       -1326.591          19.000  
> 2021 12  8  2 50 32.0000000  0 16                     
G10  21140895.680     -983721.913       -1782.588          17.000                                                                  
G18  22118004.215      666858.065        3439.972          15.000                                                                  
G23  20229113.324      152187.585         300.812          18.000    20229110.289       32320.694         222.636          17.000  
G24  20832715.102     1099225.066          -0.002          13.000                                                                  
G32  22709163.430     -549077.089       -1625.532          28.000                                                                  
R 7  21381722.963                                          19.000  
R 8  20280280.634                                          14.000  
E33  24642537.816      172815.098        1040.030          24.000    24642531.902       27669.900         779.362          18.000  
C 6  36083762.631      136129.663         339.716          23.000                                                                                                                                  
C 8  36291246.069      605489.925        1219.626          22.000                                                                                                                                  
C 9  36680181.855      122010.623         249.707          21.000                                                                                                                                  
C12  25589787.676        2795.876         443.539          18.000                                                                                                                                  
C13  35983832.619      488154.461        1018.147          17.000                                                                                                                                  
C19  22319705.835      409560.729          -0.007          15.000                                                                                                                                  
C22  22718249.755     -502653.546       -1211.545          14.000                                                                                                                                  
C36  22623560.000     -731628.144       -1760.805          23.000                                                                    22623554.396     -145974.401       -1326.337          17.000  
> 2021 12  8  2 50 33.0000000  0 15                     
G10  21140556.623     -993086.372       -1779.909          17.000                                                                  
G18  22118651.951      684935.747        3440.226          16.000                                                                  
G23  20229170.035      153762.966         299.278          19.000    20229170.595       33199.393         224.479          18.000  
G24  20833149.699     1111224.839          -0.002          14.000                                                                  
G32  22708853.478     -557610.713       -1625.482          26.000                                                                  
R 7  21382066.802                                          16.000  
R 8  20280213.084                                          14.000  
E33  24642734.899      178280.889        1040.283          24.000    24642730.625       30725.592         778.276          17.000  
C 6  36083827.527      137888.020         338.463          21.000                                                                                                                                  
C 8  36291480.488      611844.964        1223.147          20.000                                                                                                                                  
C 9  36680229.627      123304.879         251.538          19.000                                                                                                                                  
C13  35984024.034      493455.468        1017.682          19.000                                                                                                                                  
C19  22319895.588      414677.172          -0.007          15.000                                                                                                                                  
C22  22718017.004     -508966.609       -1213.240          15.000                                                                                                                                  
C36  22623222.286     -740792.920       -1760.042          22.000                                                                    22623216.298     -151178.537       -1328.826          16.000  
> 2021 12  8  2 50 34.0000000  0 15                     
G10  21140220.960    -1002435.816       -1779.539          17.000                                                                  
G18  22119306.526      703011.420        3439.171          15.000                                                                  
G23  20229226.625      155334.671         300.356          20.000    20229229.018       34084.207         224.898          16.000  
G24  20833584.506     1123231.449          -0.002          14.000                                                                  
G32  22708543.299     -566148.697       -1624.489          26.000                                                                  
R 7  21382408.896                                          15.000  
R 8  20280148.937                                          14.000  
E33  24642932.470      183749.360        1040.317          24.000    24642928.406       33780.045         778.210          18.000  
C 6  36083892.509      139649.737         337.539          20.000                                                                                                                                  
C 8  36291714.732      618203.598        1219.972          18.000                                                                                                                                  
C 9  36680278.288      124615.179         251.934          20.000                                                                                                                                  
C13  35984210.110      498744.324        1015.037          20.000                                                                                                                                  
C19  22320084.278      419791.368          -0.007          15.000                                                                                                                                  
C22  22717787.412     -515279.547           0.005          14.000                                                                                                                                  
C36  22622884.712     -749957.635       -1759.092          23.000                                                                    22622881.010     -156389.840       -1327.363          14.000  
> 2021 12  8  2 50 35.0000000  0 16                     
G10  21139882.565    -1011781.847       -1776.289          17.000                                                                  
G18  22119947.578      721087.165        3441.360          17.000                                                                  
G23  20229282.953      156914.272         300.920          20.000    20229282.483       34966.657         224.736          16.000  
G24  20834020.990     1135244.559          -0.002          15.000                                                                  
G32  22708234.481     -574689.456       -1625.265          27.000                                                                  
R 1  22374159.291                                          24.000  
R 7  21382758.459                                          19.000  
R 8  20280084.790                                          12.000  
E33  24643130.478      189221.092        1041.533          27.000    24643122.941       36837.619         779.212          19.000  
C 6  36083957.754      141411.580         338.859          21.000                                                                                                                                  
C 8  36291948.820      624556.923        1220.391          18.000                                                                                                                                  
C 9  36680326.810      125933.990         251.905          19.000                                                                                                                                  
C13  35984397.896      504035.769        1017.083          24.000                                                                                                                                  
C19  22320272.949      424906.140          -0.007          14.000                                                                                                                                  
C22  22717554.940     -521584.384           0.005          14.000                                                                                                                                  
C36  22622547.102     -759117.735       -1758.307          19.000                                                                    22622543.086     -161595.453       -1324.944          15.000  
> 2021 12  8  2 50 36.0000000  0 18                     
G10  21139544.799    -1021109.015       -1774.628          16.000                                                                  
G18  22120602.415      739169.335        3441.348          16.000                                                                  
G23  20229340.031      158494.504         301.346          19.000    20229341.132       35850.433         226.067          18.000  
G24  20834456.583     1147273.801          -0.002          14.000                                                                  
G32  22707925.175     -583234.940       -1621.156          28.000                                                                  
R 1  22373776.241                                          24.000  
R 7  21383100.430                                          16.000  
R 8  20280021.777                                          14.000  
E19  26185157.085      -25215.051       -1255.500          18.000                                                                  
E33  24643327.578      194695.790        1042.635          25.000    24643324.264       39890.928         780.672          20.000  
C 6  36084022.824      143176.527         337.856          20.000                                                                                                                                  
C 8  36292182.698      630904.685        1218.217          18.000                                                                                                                                  
C 9  36680375.069      127244.233         251.347          18.000                                                                                                                                  
C12  25590125.853       12055.057         445.517          13.000                                                                                                                                  
C13  35984592.850      509332.061        1018.567          23.000                                                                                                                                  
C19  22320461.621      430015.866          -0.007          13.000                                                                                                                                  
C22  22717320.915     -527891.142           0.005          15.000                                                                                                                                  
C36  22622209.460     -768273.709       -1759.104          18.000                                                                    22622205.775     -166799.316       -1326.287          17.000  
> 2021 12  8  2 50 37.0000000  0 12                     
G10  21139200.017    -1030432.742       -1772.669          16.000                                                                  
G18  22121257.628      757263.098        3443.934          15.000                                                                  
G23  20229398.959      160076.860         301.131          20.000    20229398.856       36736.661         225.232          18.000  
G24  20834892.524     1159311.528          -0.002          13.000                                                                  
G32  22707617.334     -591746.816       -1621.461          35.000                                                                  
R 1  22373393.733                                          23.000  
R 7  21383442.193                                          15.000  
R 8  20279957.788                                          15.000  
E19  26184918.628      -31805.876       -1250.805          19.000                                                                  
E26  25537143.984       22916.107        3048.901          20.000                                                                  
E33  24643525.655      200181.222        1043.937          20.000    24643521.364       42947.963         779.200          18.000  
C36                                                                                                                                  22869352.440     -171993.712       -1324.190          13.000  
> 2021 12  8  2 50 38.0000000  0 12                     
G10  21138862.732    -1039745.306       -1772.457          16.000                                                                  
G18  22121909.271      775361.958          -0.011          16.000                                                                  
G23  20229456.229      161660.024         301.100          20.000    20229456.178       37617.805         223.471          18.000  
G24  20835331.519     1171342.105          -0.002          14.000                                                                  
G32  22707307.173     -600266.682       -1624.788          31.000                                                                  
R 1  22373014.784                                          18.000  
R 7  21383775.178                                          16.000  
R 8  20279898.806                                          15.000  
E19  26184676.487      -38388.649       -1252.265          18.000                                                                  
E26  25537743.802       38941.595        3049.256          21.000                                                                  
E33  24643724.623      205679.008        1048.034          18.000    24643720.436       46011.506         780.204          16.000  
C36                                                                                                                                  22869015.424     -177185.258       -1323.562          12.000  
> 2021 12  8  2 50 39.0000000  0 11                     
G10  21138523.360    -1049054.905       -1771.596          15.000                                                                  
G18  22122565.137      793472.319          -0.011          17.000                                                                  
G23  20229513.779      163242.642         302.583          20.000    20229516.590       38493.639         223.327          17.000  
G24  20835767.042     1183368.795          -0.002          12.000                                                                  
G32  22706998.879     -608806.001       -1622.325          39.000                                                                  
R 1  22372633.584                                          20.000  
R 7  21384116.696                                          17.000  
R 8  20279834.432                                          14.000  
E19  26184439.182      -44964.752       -1250.465          19.000                                                                  
E26  25538323.813       54964.878        3048.198          20.000                                                                  
E33  24643923.607      211181.092        1047.895          17.000    24643919.508       49075.117         781.189          13.000  
> 2021 12  8  2 50 40.0000000  0 13                     
G10  21138186.309    -1058362.927       -1772.114          15.000                                                                  
G18  22123218.229      811579.533        3445.659          17.000                                                                  
G23  20229571.032      164833.998         302.290          17.000    20229570.789       39372.479         224.035          17.000  
G24  20836202.477     1195393.921          -0.002          15.000                                                                  
G32  22706689.434     -617322.068       -1626.216          28.000                                                                  
R 1  22372248.580                                          23.000  
R 7  21384445.563                                          13.000  
R 8  20279769.604                                          13.000  
E19  26184194.181      -51540.243       -1252.480          25.000                                                                  
E33  24644122.889      216682.230        1044.955          15.000    24644118.249       52133.772         781.418          11.000  
C 6  36084274.587        2910.094         339.709          24.000                                                                                                                                  
C 8  36293103.549       10085.568        1223.582          18.000                                                                                                                                  
C13  35985372.558        8619.866        1017.771          24.000                                                                                                                                  
> 2021 12  8  2 50 41.0000000  0 13                     
G10  21137848.919    -1067679.487       -1773.041          16.000                                                                  
G18  22123873.966      829686.740        3445.237          14.000                                                                  
G23  20229629.156      166421.603         303.926          21.000    20229630.449       40252.745         224.716          17.000  
G24  20836645.311     1207419.833          -0.002          15.000                                                                  
G32  22706379.534     -625866.986       -1625.439          23.000                                                                  
R 1  22371868.496                                          20.000  
R 7  21384786.889                                          15.000  
R 8  20279705.318                                          14.000  
E19  26183962.424      -58105.935       -1249.103          20.000                                                                  
E26  25539484.605       87023.140        3049.917          22.000                                                                  
E33  24644321.123      222177.747        1045.869          10.000    24644317.338       55197.496         780.597          11.000  
C 6  36084346.584        4681.066         338.797          20.000                                                                                                                                  
C13  35985569.645       13922.987        1020.746          24.000                                                                                                                                  
> 2021 12  8  2 50 42.0000000  0 13                     
G10  21137511.466    -1076997.527          -0.012          16.000                                                                  
G18  22124529.466      847788.446        3444.409          15.000                                                                  
G23  20229685.205      168014.486         303.579          20.000    20229686.306       41140.007         225.643          17.000  
G24  20837080.589     1219438.819          -0.002          15.000                                                                  
G32  22706070.699     -634415.413          -0.006          19.000                                                                  
R 1  22371487.628                                          18.000  
R 7  21385128.338                                          17.000  
R 8  20279640.612                                          13.000  
E19  26183724.543      -64677.233       -1249.702          18.000                                                                  
E26  25540065.212      103052.625        3051.540          21.000    25540062.526       24603.193        2274.479          17.000  
E33  24644520.213      227675.159        1046.621          12.000    24644516.201       58257.924         778.344          11.000  
C13  35985765.405       19229.733        1018.695          23.000                                                                                                                                  
C19  22321563.498       30231.332         978.937          17.000                                                                                                                                  
> 2021 12  8  2 50 43.0000000  0 14                     
G10  21137173.822    -1086321.020          -0.012          17.000                                                                  
G18  22125185.193      865894.538          -0.011          16.000                                                                  
G23  20229743.575      169612.025         306.099          19.000    20229743.995       42026.074         226.965          17.000  
G24  20837516.636     1231458.661          -0.002          14.000                                                                  
G32  22705762.178     -642960.217       -1626.531          18.000                                                                  
R 1  22371106.236                                          18.000  
R 7  21385440.296                                          20.000  
R 8  20279576.081                                          12.000  
E19  26183486.661      -71248.465       -1253.842          15.000                                                                  
E26  25540645.728      119087.067        3050.796          20.000    25540645.032       33533.583        2276.631          16.000  
E33  24644719.459      233177.785        1047.292          12.000                                                                  
C 6  36084474.630        3162.283         342.220          16.000                                                                                                                                  
C13  35985961.253       24532.420        1018.295          22.000                                                                                                                                  
C19  22321745.769       35320.152         976.407          18.000                                                                                                                                  
> 2021 12  8  2 50 44.0000000  0 15                     
G10  21136843.001    -1095632.320       -1770.741          16.000                                                                  
G18  22125840.675      883994.504          -0.011          16.000                                                                  
G23  20229802.940      171214.072         305.103          18.000    20229802.086       42919.081         227.901          18.000  
G24  20837951.687     1243472.861          -0.002          14.000                                                                  
G32  22705453.360     -651514.192       -1629.999          18.000                                                                  
R 1  22370728.755                                          19.000  
R 7  21385787.765                                          18.000  
R 8  20279511.184                                          15.000  
E19  26183254.170      -77828.334       -1251.778           9.000                                                                  
E26  25541226.020      135119.654        3049.085          17.000    25541222.008       42466.303        2279.724          14.000  
E27  25928237.699      -29406.607       -2067.593          18.000                                                                  
E33  24644918.968      238686.675        1048.447          10.000                                                                  
C 8  36294056.543       17557.701        1222.104          18.000                                                                                                                                  
C13  35986156.630       29826.163        1016.170          23.000                                                                                                                                  
C19  22321928.193       40411.416         978.334          22.000                                                                                                                                  
> 2021 12  8  2 50 45.0000000  0 17                     
G10  21136505.994    -1104939.081       -1771.938          17.000                                                                  
G18  22126496.080      902092.550        3444.413          17.000                                                                  
G23  20229860.960      172812.361         303.557          20.000    20229860.298       43813.191         228.369          19.000  
G24  20838386.703     1255484.513          -0.002          13.000                                                                  
G32  22705144.159     -660077.103       -1628.264          19.000                                                                  
R 1  22370347.206                                          18.000  
R 7  21386119.319                                          17.000  
R 8  20279446.671                                          14.000  
E19  26183015.888      -84409.550       -1252.880          11.000                                                                  
E26  25541806.329      151139.234        3047.232          17.000    25541803.032       51411.681        2280.170          14.000  
E27  25927844.332      -40270.841       -2068.135          17.000                                                                  
E30  26350525.945        3741.970         134.167          15.000                                                                  
E33  24783517.014      244193.835        1048.098           6.000                                                                  
C 8  36294290.386       23932.757        1228.156          19.000                                                                                                                                  
C13  35986352.578       35119.824        1019.237          23.000                                                                                                                                  
C19  22322111.438       45506.108         978.350          20.000                                                                                                                                  
C35  25656283.059       24643.908        2919.350          23.000                                                                                                                                  
> 2021 12  8  2 50 46.0000000  0 16                     
G10  21136168.786    -1114250.916       -1771.639          18.000                                                                  
G18  22127151.109      920182.004        3441.766          16.000                                                                  
G23  20229917.898      174415.143         305.839          22.000    20229917.690       44709.425         228.109          19.000  
G24  20838821.964     1267502.698          -0.002          14.000                                                                  
G32  22704834.189     -668638.355       -1629.427          17.000                                                                  
R 1  22369961.294                                          17.000  
R 7  21386459.755                                          18.000  
R 8  20279382.489                                          13.000  
E19  26182777.500      -90993.222       -1253.290          10.000                                                                  
E26  25542385.974      167145.342        3045.452          14.000    25542384.597       60365.014        2282.011          11.000  
E30  26350551.327        4440.953         131.645          14.000                                                                  
E33  24783716.592      249704.915        1048.733           8.000                                                                  
C 8  36294525.886       30316.832        1224.529          19.000                                                                                                                                  
C13  35986548.443       40425.121        1019.071          23.000                                                                                                                                  
C19  22322295.922       50605.690         979.706          20.000                                                                                                                                  
C35  25656843.670       39845.998        2918.940          27.000                                                                                                                                  
> 2021 12  8  2 50 47.0000000  0 16                     
G10  21135849.779    -1123558.969       -1772.042          20.000                                                                  
G18  22127805.963      938265.772        3440.695          15.000                                                                  
G23  20229975.431      176024.666         305.606          20.000    20229979.132       45602.012         227.057          18.000  
G24  20839257.748     1279535.849          -0.002          16.000                                                                  
G32  22704525.721     -677194.194       -1626.644          17.000                                                                  
R 1  22369580.670                                          17.000  
R 7  21386800.192                                          15.000  
R 8  20279318.202                                          14.000  
E19  26048627.489      -97580.943       -1253.412           8.000                                                                  
E26  25542951.134      183135.313        3042.561          11.000    25542965.951       69315.288        2280.871          12.000  
E30  26350575.992        5138.532         133.274          10.000                                                                  
E33  24783916.205      255216.743        1048.815           8.000                                                                  
C 8  36294758.612       36688.046        1220.788          19.000                                                                                                                                  
C13  35986744.169       45730.975        1019.313          24.000                                                                                                                                  
C19  22322485.571       55708.693         982.582          17.000                                                                                                                                  
C35  25657408.086       55054.942        2919.211          25.000                                                                                                                                  
> 2021 12  8  2 50 48.0000000  0 17                     
G10  21135498.122    -1132865.133       -1770.710          21.000                                                                  
G18  22128463.173      956347.500        3441.345          17.000                                                                  
G23  20230033.485      177627.459         303.752          17.000    20230034.831       46494.402         228.057          16.000  
G24  20839697.110     1291575.222        2290.276          17.000                                                                  
G32  22704216.432     -685735.859       -1623.432          14.000                                                                  
R 1  22369205.368                                          18.000  
R 7  21387124.399                                          17.000  
R 8  20279253.741                                          16.000  
E19  26048400.496     -104165.516       -1253.038           6.000                                                                  
E26  25543530.187      199125.971        3042.855          11.000                                                                  
E27  25926661.762      -28486.940       -2067.606          19.000                                                                  
E30  26378163.246        5842.810         134.583           8.000                                                                  
E33  24784115.783      260728.146        1048.781           7.000                                                                  
C 8  36294992.978       43041.687        1219.477          18.000                                                                                                                                  
C13  35986939.790       51037.276        1018.232          22.000                                                                                                                                  
C19  22322673.754       60810.821         978.952          14.000                                                                                                                                  
C35  25657968.452       70257.789        2918.824          20.000                                                                                                                                  
> 2021 12  8  2 50 49.0000000  0 18                     
G10  21135151.092    -1142165.273       -1769.423          27.000                                                                  
G18  22129118.299      974434.508        3442.162          18.000                                                                  
G23  20230091.210      179220.885         303.407          16.000    20230093.236       47391.435         228.791          14.000  
G24  20840127.537     1303608.899        2291.093          17.000                                                                  
G32  22703917.492     -694274.117       -1626.224          15.000                                                                  
R 1  22368827.431                                          17.000  
R 7  21387465.377                                          17.000  
R 8  20279196.330                                          15.000  
E19  26048162.039     -110750.606       -1253.137           6.000                                                                  
E26  25544109.484      215123.618        3044.839           9.000                                                                  
E27  25926263.666      -39354.649       -2067.354          17.000                                                                  
E30  26378188.951        6551.941         135.377           7.000                                                                  
E33  24784315.326      266237.954        1048.609           7.000                                                                  
C 6  36084867.160       13840.547         336.452          14.000                                                                                                                                  
C 8  36295228.950       49402.541        1223.892          20.000                                                                                                                                  
C13  35987135.511       56346.351        1020.154          22.000                                                                                                                                  
C19  22322861.832       65909.943         980.456          15.000                                                                                                                                  
C35  25658528.313       85451.612        2918.793          24.000                                                                                                                                  
> 2021 12  8  2 50 50.0000000  0 17                     
G10  21134818.752    -1151464.513       -1769.367          25.000                                                                  
G18  22129773.502      992528.316        3443.610          17.000                                                                  
G23  20230154.361      180814.597         303.398          15.000    20230151.849       48291.369         229.372          14.000  
G24  20840563.409     1315644.799        2291.552          17.000                                                                  
G32  22703608.501     -702806.558       -1623.074          16.000                                                                  
R 1  22368446.772                                          16.000  
R 7  21387814.678                                          15.000  
R 8  20279132.078                                          14.000  
E19  26047923.547     -117336.990       -1253.645           7.000                                                                  
E26  25544688.937      231125.200        3046.012          11.000                                                                  
E30  26350653.060        7265.364         136.128           9.000                                                                  
E33  24784514.869      271747.997        1048.401           8.000                                                                  
C 6  36084932.300       15605.541         341.145          14.000                                                                                                                                  
C 8  36295462.600       55773.770        1225.460          20.000                                                                                                                                  
C13  35987331.625       61658.214        1020.543          23.000                                                                                                                                  
C19  22323052.895       71015.669         979.762          18.000                                                                                                                                  
C35  25659087.876      100651.044        2920.591          24.000                                                                                                                                  
> 2021 12  8  2 50 51.0000000  0 18                     
G10  21134485.628    -1160751.430       -1768.372          29.000                                                                  
G18  22130422.773     1010621.697        3442.294          18.000                                                                  
G23  20230212.503      182420.141         306.440          16.000    20230210.742       49195.426         230.868          11.000  
G24  20840999.507     1327686.809        2291.419          16.000                                                                  
G32  22703299.352     -711344.859       -1625.244          13.000                                                                  
R 1  22368061.314                                          15.000  
R 7  21388155.829                                          13.000  
R 8  20279069.746                                          15.000  
E19  26047684.968     -123925.693       -1253.643           7.000                                                                  
E26  25708405.375      247132.243        3046.734           8.000                                                                  
E27  25925474.057      -61062.149       -2064.764          19.000                                                                  
E30  26350678.021        7989.556         137.962           9.000                                                                  
E33  24646306.208      277257.916        1048.562           9.000                                                                  
C 6  36084997.457       17370.368         334.835          17.000                                                                                                                                  
C 8  36295698.868       62150.759        1225.519          20.000                                                                                                                                  
C13  35987527.298       66966.950        1019.467          23.000                                                                                                                                  
C19  22323246.191       76125.519         983.418          17.000                                                                                                                                  
C35  25659648.592      115854.667        2918.230          23.000                                                                                                                                  
> 2021 12  8  2 50 52.0000000  0 18                     
G10  21134149.529    -1170041.641       -1769.405          25.000                                                                  
G18  22131078.011     1028715.382        3443.060          17.000                                                                  
G23  20230265.865      184033.100         306.510          14.000    20230269.740       50101.472         230.006          11.000  
G24  20841436.181     1339728.762        2291.104          15.000                                                                  
G32  22702990.935     -719881.346          -0.006          14.000                                                                  
R 1  22367678.282                                          15.000  
R 7  21388497.243                                          14.000  
R 8  20279006.035                                          16.000  
E19  26047446.476     -130511.959       -1253.228           6.000                                                                  
E26  25708985.193      263144.086        3046.714           7.000                                                                  
E27  25925077.742      -71907.259       -2063.356          26.000                                                                  
E30  26378266.238        8718.932         138.922           8.000                                                                  
E33  24784913.973      282769.086        1048.685           7.000                                                                  
C 6  36085066.210       19124.097         337.298          13.000                                                                                                                                  
C 8  36295933.845       68520.548        1222.377          19.000                                                                                                                                  
C13  35987722.989       72276.171        1019.772          21.000                                                                                                                                  
C19  22323435.246       81250.523         985.289          16.000                                                                                                                                  
C35  25660208.715      131050.039        2919.180          23.000                                                                                                                                  
> 2021 12  8  2 50 53.0000000  0 17                     
G10  21133814.327    -1179332.422       -1767.743          21.000                                                                  
G18  22131712.004     1046812.054        3444.585          25.000                                                                  
G23  20230324.182      185643.502         307.478          14.000    20230328.319       51000.920         228.672           9.000  
G24  20841872.559     1351779.100        2294.616          14.000                                                                  
G32  22702681.785     -728417.892          -0.006          12.000                                                                  
R 1  22367296.489                                          13.000  
R 7  21388844.607                                          16.000  
R 8  20278943.022                                          17.000  
E19  26047207.948     -137099.602       -1253.527           6.000                                                                  
E26  25709564.977      279154.638        3046.637           6.000                                                                  
E27  25924681.831      -82764.328       -2065.159          27.000                                                                  
E30  26378292.832        9452.830         140.213           8.000                                                                  
E33  24646705.329      288278.789        1048.383          11.000                                                                  
C 6  36085130.477       20864.525         331.009          13.000                                                                                                                                  
C 8  36296168.839       74882.100        1222.195          19.000                                                                                                                                  
C13  35987918.871       77592.037        1021.335          21.000                                                                                                                                  
C19  22323625.489       86378.913         984.580          15.000                                                                                                                                  
> 2021 12  8  2 50 54.0000000  0 17                     
G10  21133478.742    -1188624.759       -1767.411          20.000    21133474.050      -30897.386       -1322.144          20.000  
G18  22132364.293     1064914.595        3446.368          20.000                                                                  
G23  20230382.726      187260.258         307.405          14.000    20230386.602       51895.777         228.257          11.000  
G24  20842309.355     1363840.322        2296.404          15.000                                                                  
G32  22702372.951     -736947.310          -0.006          13.000                                                                  
R 1  22366907.663                                          15.000  
R 7  21389186.334                                          14.000  
R 8  20278880.603                                          20.000  
E19  26046969.387     -143688.152       -1253.951           7.000                                                                  
E26  25710144.690      295163.898        3046.454           7.000                                                                  
E27  25924288.565      -93618.014       -2064.527          26.000                                                                  
E30  26350757.881       10194.104         141.214          11.000                                                                  
E33  24646917.192      293788.774        1048.775          13.000                                                                  
C 6  36085194.797       22607.485         336.056          14.000                                                                                                                                  
C 8  36296403.747       81251.147        1225.083          20.000                                                                                                                                  
C13  35988114.924       82903.694        1019.044          19.000                                                                                                                                  
C19  22323814.475       91502.594         983.063          17.000                                                                                                                                  
> 2021 12  8  2 50 55.0000000  0 17                     
G10  21133146.001    -1197902.690       -1765.838          21.000    21133139.407      -36066.021       -1316.077          19.000  
G18  22133008.713     1083020.160        3445.010          26.000                                                                  
G23  20230441.305      188877.799          -0.007          15.000    20230445.058       52793.236         228.400          11.000  
G24  20842741.929     1375909.456          -0.002          16.000                                                                  
G32  22702063.854     -745482.872          -0.006          15.000                                                                  
R 1  22366525.940                                          14.000  
R 7  21389527.573                                          16.000  
R 8  20278814.606                                          19.000  
E19  26046730.807     -150276.873       -1253.733           8.000                                                                  
E26  25710724.439      311173.903        3046.886           6.000                                                                  
E27  25923894.849     -104468.666       -2063.550          25.000                                                                  
E30  26350785.059       10945.367         143.840          13.000                                                                  
E33  24647116.823      299301.101        1049.041          15.000                                                                  
C 6  36085259.865       24369.861           0.091          15.000                                                                                                                                  
C 8  36296638.619       87625.529        1224.916          19.000                                                                                                                                  
C13  35988310.266       88206.024        1018.831          21.000                                                                                                                                  
C19  22324003.495       96627.559         985.093          21.000                                                                                                                                  
> 2021 12  8  2 50 56.0000000  0 19                     
G10  21132810.443    -1207184.917       -1768.623          25.000    21132803.116      -41235.133       -1316.620          17.000  
G18  22133669.133     1101120.783        3443.915          26.000                                                                  
G23  20230500.128      190500.650          -0.007          15.000    20230503.532       53690.817         229.011           9.000  
G24  20843179.214     1387986.837          -0.002          17.000                                                                  
G32  22701754.722     -754019.254          -0.006          12.000                                                                  
R 1  22366144.443                                          13.000  
R 7  21389861.065                                          19.000  
R 8  20278751.873                                          19.000  
E19  26046492.210     -156865.958       -1253.824           8.000                                                                  
E26  25711304.310      327187.660        3048.206           6.000                                                                  
E27  25923502.446     -115313.688       -2063.626          24.000    25923504.542      -12151.968       -1540.369          19.000  
E30  26350812.640       11706.791         145.417          13.000                                                                  
E33  24647316.453      304813.872        1049.146          18.000                                                                  
C 6  36085325.493       26148.012           0.091          17.000                                                                                                                                  
C 8  36296873.560       94004.404        1225.508          19.000                                                                                                                                  
C13  35988505.974       93511.659        1020.106          20.000                                                                                                                                  
C19  22324195.710      101756.243         983.766          17.000                                                                                                                                  
C22  22712740.613      -35021.215       -1195.228          17.000                                                                                                                                  
C35  25662426.973       50978.755        2912.504          23.000                                                                                                                                  
> 2021 12  8  2 50 57.0000000  0 20                     
G10  21132472.572    -1216483.268       -1771.486          23.000    21132467.565      -46405.188       -1317.783          18.000  
G18  22134323.771     1119220.835        3444.496          26.000                                                                  
G23  20230564.885      192117.920         309.009          17.000                                                                  
G24  20843611.116     1400057.413        2297.499          17.000                                                                  
G32  22701445.835     -762549.526          -0.006          14.000                                                                  
R 1  22365763.575                                          13.000  
R 7  21390185.185                                          23.000  
R 8  20278693.257                                          19.000  
R24  22341136.876                                          23.000  
E26  25711884.355      343205.722        3048.393           8.000                                                                  
E27  25923109.813     -126164.777       -2064.271          25.000    25923111.018      -18200.542       -1541.159          18.000  
E30  26350840.550       12478.105         147.435          12.000                                                                  
E33  24647516.171      310327.591        1049.394          24.000                                                                  
C 6  36085395.728       27905.891         338.210          17.000                                                                                                                                  
C 8  36297108.345      100382.175        1224.952          17.000                                                                                                                                  
C13  35988701.543       98821.150        1019.062          20.000                                                                                                                                  
C19  22324388.779      106886.359         986.287          20.000                                                                                                                                  
C22  22712496.293      -41283.593           0.005          21.000                                                                                                                                  
C35  25662997.600       66149.477        2913.179          19.000                                                                                                                                  
C36  22615145.097      -49380.196       -1745.713          15.000                                                                                                                                  
> 2021 12  8  2 50 58.0000000  0 17                     
G10  21132136.359    -1225773.065       -1766.721          25.000    21132131.492      -51581.131       -1319.156          17.000  
G18  22134979.271     1137312.751        3443.455          27.000                                                                  
G23  20230623.795      193744.266         309.796          16.000                                                                  
G24  20844048.366     1412132.214        2297.539          17.000                                                                  
G32  22701137.070     -771075.904          -0.006          17.000                                                                  
R 1  22365382.741                                          14.000  
R 7  21390526.634                                          21.000  
R 8  20278635.096                                          20.000  
R24  22340920.493                                          21.000  
E26  25549299.804      359227.737        3049.403           9.000                                                                  
E27  25922716.642     -137011.423       -2062.435          23.000    25922716.189      -24251.268       -1542.866          18.000  
E30  26350868.705       13255.617         148.340          11.000                                                                  
E33  24647716.028      315848.622        1051.152          22.000                                                                  
C19  22324577.171      112015.570         985.367          18.000                                                                                                                                  
C22  22712229.440      -47561.010       -1205.084          26.000                                                                                                                                  
C35  25663556.902       81318.168        2913.376          24.000                                                                                                                                  
C36  22614810.385      -58456.650       -1742.604          14.000                                                                                                                                  
> 2021 12  8  2 50 59.0000000  0 17                     
G10  21131801.175    -1235051.784       -1765.046          25.000    21131795.104      -56765.636       -1321.262          17.000  
G18  22135634.334     1155412.749        3444.254          27.000                                                                  
G23  20230682.950      195375.822         312.019          14.000                                                                  
G24  20844485.791     1424211.812        2299.475          20.000                                                                  
G32  22700833.889     -779590.907       -1621.172          16.000                                                                  
R 1  22365001.735                                          11.000  
R 7  21390870.997                                          20.000  
R 8  20278563.690                                          19.000  
R24  22340810.609                                          19.000  
E26  25549880.235      375256.731        3050.321          10.000                                                                  
E27  25922324.374     -147852.735       -2062.028          24.000    25922322.962      -30309.826       -1542.165          18.000  
E30  26350923.716       14039.450         150.033          13.000                                                                  
E33  24647916.025      321370.760        1049.434          22.000                                                                  
C19  22324766.332      117143.827         984.898          17.000                                                                                                                                  
C22  22711998.225      -53836.904       -1205.987          26.000                                                                                                                                  
C35  25664123.883       96486.425        2913.409          25.000                                                                                                                                  
C36  22614476.143      -67520.911       -1739.661          13.000                                                                                                                                  
> 2021 12  8  2 51  0.0000000  0 17                     
G10  21131463.296    -1244316.947       -1761.585          24.000    21131458.621      -61950.291       -1321.064          18.000  
G18  22136290.166     1173517.922        3445.908          29.000                                                                  
G23  20230745.909      197014.431          -0.007          14.000                                                                  
G24  20844941.992     1436297.774        2300.627          22.000                                                                  
G32  22700525.385     -788111.518       -1621.957          17.000                                                                  
R 1  22364620.901                                          13.000  
R 7  21391212.882                                          17.000  
R 8  20278500.590                                          20.000  
R24  22340694.530                                          17.000  
E26  25550460.751      391288.068        3050.886          10.000                                                                  
E27  25921931.151     -158697.574       -2063.652          23.000    25921929.914      -36367.695       -1543.755          15.000  
E30  26350952.361       14829.457         150.809          11.000                                                                  
E33  24648115.551      326880.891        1048.548          22.000                                                                  
C19  22324955.300      122267.638         983.378          15.000                                                                                                                                  
C22  22711769.156      -60105.331       -1203.666          23.000                                                                                                                                  
C35  25664683.917      111651.789        2913.123          21.000                                                                                                                                  
C36  22614143.769      -76570.986       -1737.358          13.000                                                                                                                                  
> 2021 12  8  2 51  1.0000000  0 18                     
G10  21131127.030    -1253595.812       -1768.496          24.000    21131123.472      -67133.199       -1317.582          19.000  
G18  22136945.474     1191631.564        3449.200          30.000                                                                  
G23  20230805.447      198658.005          -0.007          15.000                                                                  
G24  20845376.817     1448383.874        2298.001          18.000                                                                  
G32  22700215.800     -796634.990       -1620.554          19.000                                                                  
R 1  22364239.631                                          12.000  
R 7  21391555.185                                          17.000  
R 8  20278440.002                                          20.000  
R24  22340569.065                                          15.000  
E26  25551041.426      407324.465        3051.760          10.000                                                                  
E27  25921539.407     -169539.229       -2062.589          18.000    25921537.140      -42419.462       -1541.943          14.000  
E30  26350981.249       15627.110         152.930          12.000                                                                  
E33  24648315.234      332395.248        1051.729          22.000                                                                  
C13  35989474.428        8529.915        1020.821          23.000                                                                                                                                  
C19  22325144.216      127388.572         983.305          17.000                                                                                                                                  
C22  22711539.023      -66372.832       -1202.096          21.000                                                                                                                                  
C35  25665243.273      126825.162        2916.831          20.000                                                                                                                                  
C36  22613810.575      -85606.209       -1734.399          13.000                                                                                                                                  
> 2021 12  8  2 51  2.0000000  0 18                     
G10  21130790.992    -1262868.624       -1762.930          27.000    21130781.849      -72303.108       -1317.371          17.000  
G18  22137604.718     1209749.581        3444.939          30.000                                                                  
G23  20230865.108      200304.288          -0.007          13.000                                                                  
G24  20845811.746     1460462.489        2299.848          18.000                                                                  
G32  22699905.027     -805154.020       -1622.266          24.000                                                                  
R 7  21391894.347                                          19.000  
R 8  20278375.855                                          19.000  
R24  22340443.232                                          15.000  
E26  25714787.042      423365.136        3052.607           8.000                                                                  
E27  25921146.948     -180370.386       -2058.307          16.000                                                                  
E30  26351010.521       16435.565         154.780          12.000                                                                  
E33  24648529.540      337918.418        1052.302          19.000                                                                  
C 9  36681641.117        3457.437         252.388          21.000                                                                                                                                  
C13  35989671.899       13841.256        1020.889          20.000                                                                                                                                  
C19  22325333.062      132507.761         982.089          16.000                                                                                                                                  
C22  22711308.261      -72620.523       -1198.094          23.000                                                                                                                                  
C35  25665803.307      142009.099        2914.723          22.000                                                                                                                                  
C36  22613480.977      -94638.487          -0.018          14.000                                                                                                                                  
> 2021 12  8  2 51  3.0000000  0 19                     
G10  21130454.928    -1272132.559       -1762.046          26.000    21130446.047      -77477.317       -1317.838          17.000  
G18  22138259.956     1227858.797        3445.694          30.000                                                                  
G23  20230924.508      201957.951          -0.007          13.000                                                                  
G24  20846261.909     1472542.772        2299.171          17.000                                                                  
G32  22699594.133     -813681.877       -1622.709          29.000                                                                  
R 7  21392241.485                                          19.000  
R 8  20278313.192                                          21.000  
R24  22340327.310                                          14.000  
E26  25715367.977      439407.845        3052.818           8.000                                                                  
E27  25920755.592     -191179.116       -2051.742          13.000                                                                  
E30  26351045.237       17249.476         155.075          13.000                                                                  
E33  24648727.321      343445.463        1050.240          17.000                                                                  
C 6  36085776.078        6375.184         336.656          24.000                                                                                                                                  
C 8  36298511.348       14693.129        1225.512          20.000                                                                                                                                  
C13  35989870.029       19152.114        1019.299          22.000                                                                                                                                  
C19  22325523.933      137629.292         984.937          17.000                                                                                                                                  
C22  22711078.162      -78867.347       -1199.907          20.000                                                                    22711073.762      -12054.830        -902.997          15.000  
C35  25666362.977      157181.093        2912.973          22.000                                                                                                                                  
C36  22613147.538     -103680.198          -0.018          14.000                                                                                                                                  
> 2021 12  8  2 51  4.0000000  0 15                     
G10  21130119.761    -1281397.972       -1762.284          27.000    21130110.374      -82649.972       -1315.917          18.000  
G18  22138914.583     1245984.506        3448.870          27.000    22138892.999       23939.654        2488.185          12.000  
G23  20230984.325      203608.014          -0.007          16.000                                                                  
G24  20846695.285     1484617.914        2295.267          18.000                                                                  
G32  22699282.977     -822205.301       -1622.126          26.000                                                                  
R 7  21392589.198                                          19.000  
R 8  20278251.017                                          24.000  
R24  22340201.601                                          15.000  
E26  25552784.253      455454.722        3054.343          10.000                                                                  
E27  25920365.279     -201957.220       -2051.062          12.000                                                                  
E30  26351074.964       18070.906         157.062          11.000                                                                  
C19  22325713.198      142760.606         984.630          17.000                                                                                                                                  
C22  22710847.767      -85120.886       -1200.356          19.000                                                                    22710843.367      -15605.732        -907.640          15.000  
C35  25666922.383      172349.154        2913.879          23.000                                                                                                                                  
C36  22612813.750     -112732.120          -0.018          15.000                                                                                                                                  
