     3.03           OBSERVATION DATA    M: Mixed            RINEX VERSION / TYPE
Geo++ RINEX Logger  Geo++               20210912 103153 UTC PGM / RUN BY / DATE
************************************************************COMMENT
This file was generated by the Geo++ RINEX Logger App       COMMENT
for Android devices (Version 2.1.6). If you encounter       COMMENT
any issues, please send an email to android@geopp.de        COMMENT
Filtering Mode: MORE                                        COMMENT
************************************************************COMMENT
Geo++                                                       MARKER NAME
GEODETIC                                                    MARKER TYPE
Geo++               Geo++                                   OBSERVER / AGENCY
unknown             HUAWEI              ELS-AN00            REC # / TYPE / VERS
unknown             ELS-AN00                                ANT # / TYPE
 -2417114.6218  5385884.0621  2406622.4655                  APPROX POSITION XYZ
        0.0000        0.0000        0.0000                  ANTENNA: DELTA H/E/N
G    8 C1C L1C D1C S1C C5Q L5Q D5Q S5Q                      SYS / # / OBS TYPES
R    4 C1C L1C D1C S1C                                      SYS / # / OBS TYPES
E   12 C1B L1B D1B S1B C1C L1C D1C S1C C5Q L5Q D5Q S5Q      SYS / # / OBS TYPES
C    4 C2I L2I D2I S2I                                      SYS / # / OBS TYPES
J    8 C1C L1C D1C S1C C5Q L5Q D5Q S5Q                      SYS / # / OBS TYPES
  2021     9    12    10    32   11.9998812     GPS         TIME OF FIRST OBS
 24 R01  1 R02 -4 R03  5 R04  6 R05  1 R06 -4 R07  5 R08  6 GLONASS SLOT / FRQ #
    R09 -2 R10 -5 R11  0 R12 -1 R13 -2 R14 -7 R15  0 R16 -1 GLONASS SLOT / FRQ #
    R17  4 R18 -3 R19  3 R20  2 R21  4 R22 -3 R23  3 R24  2 GLONASS SLOT / FRQ #
G L1C                                                       SYS / PHASE SHIFT
G L5Q -0.25000                                              SYS / PHASE SHIFT
R L1C                                                       SYS / PHASE SHIFT
E L1B                                                       SYS / PHASE SHIFT
E L1C +0.50000                                              SYS / PHASE SHIFT
E L5Q -0.25000                                              SYS / PHASE SHIFT
C L2I                                                       SYS / PHASE SHIFT
J L1C                                                       SYS / PHASE SHIFT
J L5Q -0.25000                                              SYS / PHASE SHIFT
 C1C    0.000 C1P    0.000 C2C    0.000 C2P    0.000        GLONASS COD/PHS/BIS
                                                            END OF HEADER
> 2021  9 12 10 32 11.9998812  3  1
Geo++                                                       MARKER NAME
> 2021  9 12 10 32 11.9998812  0 16
C06  36694539.599   191078096.5881       -765.776          37.000  
C09  37681719.289   196218600.2031       -869.508          30.000  
C14  23085013.977   120209724.7631      -2203.883          24.000  
C16  37340968.585   194444222.0161       -741.625          26.000  
C25  21805987.529   113549499.0531       -852.013          40.000  
C33  22248600.814   115854302.3131       -933.872          37.000  
E21  24176069.955   127046104.4101      -1146.897          37.000  
G10  20151998.961   105899468.8381       -537.988          43.000    20152004.058    79080792.0151       -404.486          26.000  
G12  22415826.846   117795964.6221      -2162.044          28.000  
G23  21180849.203   111306112.9541      -2928.056          20.000  
G25  20788744.052   109245586.8291       -435.351          30.000  
G31  21819338.786   114661398.3321       1068.449          29.000  
G32  21825770.833   114695199.3341        536.253          40.000    21825778.028    85649040.3901        400.169          34.000  
J01  38053114.477   199970465.6961        466.655          36.000    38053121.372   149328620.9761        344.756          26.000  
J02  37889978.813   199113181.7131      -1350.660          27.000  
R12  19083341.677   101939785.8401      -1136.383          35.000  
> 2021  9 12 10 32 12.9998807  0 16
C06  36694535.402   191078082.603        -767.064          39.000  
C09  37681736.976   196218689.622        -870.256          30.000  
C14  23085284.390   120211147.540       -2202.474          26.000  
C16  37340960.791   194444183.316        -741.853          27.000  
C25  21806003.118   113549570.377        -852.780          43.000  
C33  22248631.693   115854456.123        -937.219          33.000  
E21  24176138.308                       -1148.933          36.000  
G10  20151950.395   105899219.436        -539.135          38.000    20151956.391    79080607.399        -403.006          28.000  
G12  22416089.164   117797339.056       -2163.293          30.000  
G23  21181256.321   111308253.381       -2927.621          29.000  
G25  20788680.796   109245234.491        -435.870          27.000  
G31  21818987.130   114659542.882        1066.998          27.000  
G32  21825522.006   114693875.750         535.517          41.000    21825526.203    85648052.003         399.749          34.000  
J01  38052878.840   199969213.691         463.251          32.000    38052881.838   149327686.945         345.571          26.000  
J02  37890088.538   199113743.722       -1349.072          23.000  
R12  19083402.535   101940110.156       -1137.590          34.000  
> 2021  9 12 10 32 13.9998802  0 16
C06  36694533.903   191078068.514        -766.010          39.000  
C09  37681753.465   196218779.976        -871.258          24.000  
C14  23085556.002   120212568.344       -2200.785          25.000  
C16  37340952.696   194444144.995        -742.200          27.000  
C23  23941843.307   124671459.9221       1655.504          23.000  
C25  21806015.709   113549642.250        -853.573          42.000  
C33  22248663.171   115854610.656        -936.036          32.000  
E21  24176206.660   127046822.6341      -1146.784          36.000  
G10  20151903.328   105898970.605        -538.778          38.000    20151906.026    79080420.963        -402.674          28.000  
G12  22416352.082   117798714.804       -2163.925          27.000  
G25  20788617.240   109244883.208        -437.067          27.000  
G31  21818636.372   114657688.357        1066.675          22.000  
G32  21825271.679   114692552.142         536.158          42.000    21825274.377    85647063.649         400.743          34.000  
J01  38052643.803   199967962.003         462.055          32.000    38052642.903   149326753.670         344.811          28.000  
J02  37890196.463   199114304.726       -1348.892          27.000  
R12  19083463.093   101940433.715       -1136.919          35.000  
> 2021  9 12 10 32 14.9998799  0 13
C06  36694590.564   191078366.714        -766.224          37.000  
C14  23085886.673   120214301.095       -2201.012          24.000  
C16  37341006.059   194444417.748        -740.957          27.000  
C23  23941439.786   124669336.920        1653.903          25.000  
C25  21806090.957   113550026.918        -852.662          39.000  
C33  22248751.910   115855077.847        -935.716          38.000  
E21  24176337.070   127047497.454       -1148.414          38.000  
G10  20151914.420   105899037.860        -538.782          37.000    20151917.118    79080473.681        -409.498          18.000  
G12  22416672.561   117800405.968       -2163.494          28.000  
G25  20788611.843   109244848.045        -437.835          31.000  
G32  21825078.013   114691543.866         535.504          41.000    21825083.109    85646310.694         400.716          34.000  
J01  38052465.127   199967025.459         466.528          33.000    38052465.426   149326055.105         347.383          30.000  
R12  19083586.908   101941095.845       -1139.367          28.000  
> 2021  9 12 10 32 15.9998794  0 15
C06  36694585.467   191078352.846        -766.551          37.000  
C09  37681849.698   196219274.2321       -873.383          17.000  
C14  23086160.384   120215721.471       -2202.726          26.000  
C16  37341000.064   194444378.668        -742.180          26.000  
C23  23940975.707   124666903.160        1653.096          22.000  
C25  21806105.947   113550100.047        -853.839          39.000  
C33  22248780.989   115855233.304        -935.543          36.000  
E21  24176403.924   127047857.901       -1148.176          37.000  
G10                                                                  20151870.350    79080293.835        -406.894          17.000  
G12  22416934.279   117801781.490       -2163.401          30.000  
G23  21182532.238   111314986.5991      -2931.655          17.000  
G25  20788547.088   109244498.661        -439.123          29.000  
G32  21824826.187   114690220.717         536.137          41.000    21824830.984    85645322.455         398.903          31.000  
J01  38052223.794   199965773.954         463.116          30.000    38052226.192   149325119.076         347.640          27.000  
R12  19083647.766   101941420.158       -1140.290          33.000  
> 2021  9 12 10 32 16.9998792  0 16
C06  36694673.006   191078807.153        -766.621          35.000  
C09  37681954.925   196219833.596        -871.481          18.000  
C14  23086522.533   120217611.657       -2203.063          26.000  
C16  37341085.504   194444808.543        -743.908          25.000  
C23  23940598.868   124664937.120        1654.161          25.000  
C25  21806204.878   113550641.952        -854.212          40.000  
C33  22248899.108   115855857.479        -935.981          36.000  
E21  24176561.914   127048691.119       -1151.543          35.000  
G10  20151915.319   105899017.1281       -541.887          34.000    20151915.020    79080464.292        -404.588          18.000  
G12  22417286.236   117803630.057       -2164.121          30.000  
G25  20788571.671   109244622.801        -439.663          32.000  
G31  21817722.005   114652913.4661       1065.924          18.000  
G32  21824664.299   114689370.129         535.243          39.000    21824668.496    85644687.415         398.246          29.000  
J01  38052072.998   199964994.853         463.569          32.000    38052075.996   149324535.486         347.562          19.000  
J02  37890664.439   199116776.6291      -1351.292          25.000  
R12  19083798.261   101942224.593       -1141.360          35.000  
> 2021  9 12 10 32 17.9998787  0 14
C06  36694670.908   191078793.272        -766.656          38.000  
C09  37681970.814   196219923.053        -868.596          27.000  
C14  23086795.044   120219034.453       -2204.011          25.000  
C16  37341079.209   194444772.762        -745.239          26.000  
C23  23940129.693   124662502.108        1654.119          29.000  
C25  21806217.470   113550716.163        -854.780          41.000  
C33  22248930.886   115856013.835        -937.327          35.000  
E21  24176632.665   127049052.891       -1150.605          29.000  
G10  20151872.449   105898771.490        -542.623          43.000    20151870.051    79080280.904        -405.196          29.000  
G12  22417546.755   117805006.836       -2165.041          29.000  
G25  20788504.518   109244275.123        -440.687          28.000  
G32  21824413.073   114688047.228         534.897          40.000    21824418.170    85643699.447         401.059          29.000  
J01  38051833.764   199963743.556         465.097          35.000    38051835.263   149323596.884         351.729          17.000  
R12  19083859.119   101942549.695       -1142.380          42.000  
> 2021  9 12 10 32 18.9998781  0 16
C06  36694639.430   191078623.402        -767.008          38.000  
C09  37681957.624   196219854.959        -869.135          27.000  
C14  23087037.876   120220302.422       -2205.944          27.000  
C16  37341042.934   194444581.539        -745.164          27.000  
C23  23939631.438   124659911.809        1653.367          27.000  
C25  21806202.180   113550634.964        -855.853          42.000  
C33  22248932.085   115856014.860        -937.996          36.000  
E21  24176669.240   127049257.680       -1150.523          33.000  
G10  20151794.803   105898369.195        -543.532          44.000  
G12  22417776.696   117806226.826       -2165.153          28.000  
G23  21183822.845   111321736.9941      -2934.351          24.000  
G25  20788409.783   109243770.624        -441.072          30.000  
G31  21816995.308   114649049.8331       1064.447          24.000  
G32  21824133.966   114686566.966         534.858          41.000    21824135.465    85642594.476         400.274          27.000  
J01  38051564.850   199962334.924         462.647          31.000  
R12  19083893.895   101942735.565       -1143.309          43.000  
> 2021  9 12 10 32 19.9998776  0 15
C06  36694638.530   191078609.752        -769.965          37.000  
C09  37681974.712   196219944.047        -869.853          25.000  
C14  23087310.388   120221727.663       -2205.296          25.000  
C16  37341039.037   194444545.008        -743.238          25.000  
C23  23939161.363   124657477.409        1653.178          24.000  
C25  21806216.570   113550710.425        -856.976          42.000  
C33  22248961.764   115856172.452        -938.748          36.000  
E21  24176739.092   127049620.543       -1152.730          34.000  
G10  20151746.836   105898125.190        -545.063          42.000  
G12  22418039.914   117807604.680       -2166.218          28.000  
G25  20788343.229   109243424.080        -441.364          31.000  
G32  21823881.841   114685244.475         533.746          41.000    21823882.740    85641606.063         398.985          26.000  
J01  38051325.615   199961083.951         462.250          31.000  
J02  37890945.944   199118307.4441      -1350.960          27.000  
R12  19083964.946   101943114.711       -1144.829          42.000  
> 2021  9 12 10 32 20.9998774  0 14
C06  36694726.370   191079065.297        -767.709          35.000  
C09  37682082.037   196220501.869        -870.256          27.000  
C16  37341121.779   194444975.432        -741.975          24.000  
C23  23938785.124   124655511.146        1654.449          27.000  
C25  21806320.598   113551255.065        -859.343          41.000  
C33  22249085.279   115856799.183        -942.248          34.000  
E21  24176895.883   127050456.265       -1150.377          32.000  
G10  20151791.505   105898354.776        -544.239          43.000  
G12  22418394.568   117809456.198       -2166.488          28.000  
G25  20788367.812   109243550.734        -442.040          29.000  
G31  21816385.830   114645819.5011       1063.601          23.000  
G32  21823719.953   114684395.700         529.277          42.000    21823719.953    85640972.467         396.777          26.000  
J02  37891142.908   199119343.282       -1351.420          27.000  
R12  19084119.639   101943941.458       -1144.605          42.000  
> 2021  9 12 10 32 21.9998769  0 16
C06  36694720.673   191079051.550        -766.522          34.000  
C09  37682100.924   196220592.355        -871.255          26.000  
C14  23087944.149   120225042.4491      -2204.608          21.000  
C16  37341115.184   194444937.756        -744.162          26.000  
C23  23938314.450   124653075.789        1655.067          23.000  
C25  21806338.586   113551332.018        -856.684          36.000  
C33  22249113.759   115856956.992        -937.416          36.000  
E21  24176965.435   127050821.335       -1151.634          39.000  
G10  20151744.737   105898112.341        -544.693          40.000  
G12  22418659.285   117810836.129       -2168.092          28.000  
G25  20788300.359   109243204.802        -442.672          26.000  
G31  21816037.172   114643968.829        1061.881          25.000  
G32  21823471.125   114683073.292         537.545          39.000    21823469.926    85639987.426         396.602          23.000  
J01  38050945.479   199959056.1631        462.768          31.000  
J02  37891249.934   199119907.168       -1351.579          30.000  
R12  19084180.197   101944264.924       -1146.110          35.000  
> 2021  9 12 10 32 22.9998766  0 17
C06  36694779.133   191079349.217        -765.993          26.000  
C09  37682178.271   196220994.703        -870.205          25.000  
C14  23088276.619   120226780.808       -2208.494          21.000  
C16  37341167.648   194445213.772        -745.205          25.000  
C23  23937904.933   124650953.074        1653.511          24.000  
C25  21806419.530   113551722.423        -857.264          34.000  
C33  22249203.697   115857427.012        -938.458          31.000  
E21  24177096.744   127051500.302       -1152.680          40.000  
G10  20151760.027   105898182.787        -543.319          40.000  
G12  22418979.763   117812530.935       -2165.982          23.000  
G23  21185605.710   111331104.8061      -2934.416          20.000  
G25  20788293.464   109243175.075        -442.548          26.000  
G31  21815747.272   114642434.529        1061.323          25.000  
G32  21823277.160   114682063.624         535.039          34.000    21823280.158    85639237.019         398.800          25.000  
J01  38050769.201   199958120.658         463.027          32.000  
J02  37891416.318   199120787.024       -1351.221          23.000  
R12  19084301.013   101944910.125       -1146.721          37.000  
> 2021  9 12 10 32 23.9998761  0 13
C06  36694776.435   191079335.127        -766.969          32.000  
C09  37682193.560   196221084.331        -870.880          28.000  
C23  23937435.758   124648520.264        1652.015          29.000  
C25  21806431.222   113551799.326        -858.105          34.000  
C33  22249233.376   115857588.180        -942.340          30.000  
E21  24177170.493   127051866.290       -1150.570          33.000  
G10  20151712.959   105897939.959        -546.969          34.000  
G23  21186011.330   111333251.521       -2934.040          21.000  
G25  20788228.709   109242830.539        -445.724          25.000  
G31  21815396.215   114640585.640        1060.859          32.000  
G32  21823026.233   114680741.448         534.323          35.000    21823029.231    85638250.780         398.430          27.000  
J01  38050531.465   199956870.312         462.062          32.000  
R12  19084364.569   101945249.913       -1148.719          34.000  
> 2021  9 12 10 32 24.9998756  0 15
C06  36694773.137   191079321.549        -766.715          34.000  
C09  37682210.648   196221175.027        -871.151          31.000  
C16  37341151.159   194445141.6101       -744.138          17.000  
C23  23936968.981   124646088.600        1650.227          29.000  
C25  21806443.213   113551877.495        -859.178          43.000  
C33  22249263.056   115857749.409        -941.639          28.000  
E21  24177235.848   127052231.426       -1152.763          22.000  
G10  20151664.093   105897699.567        -547.968          41.000    20151670.689    79079483.1511       -410.081          30.000  
G12  22419513.694   117815292.8461      -2170.291          24.000  
G23  21186416.049   111335398.880       -2935.620          26.000  
G25  20788164.253   109242489.139        -446.720          29.000  
G31  21815043.660   114638736.512        1061.380          27.000  
G32                                                                  21822777.106    85637263.037         401.660          23.000  
J01  38050298.227   199955620.828         462.366          33.000  
R12  19084425.427   101945575.088       -1149.799          38.000  
> 2021  9 12 10 32 25.9998753  0 15
C06  36694830.098                        -764.614          35.000  
C09  37682287.395   196221577.690        -871.450          30.000  
C14  23089165.803   120231380.1941      -2208.330          20.000  
C16  37341203.922   194445416.944        -742.730          23.000  
C23  23936562.762   124643970.183        1649.859          30.000  
C25  21806519.061                        -859.628          45.000  
C33  22249353.293   115858222.253        -941.029          33.000  
G10  20151678.483   105897775.569        -549.108          43.000    20151687.477    79079540.923        -410.865          26.000  
G23  21186883.426   111337862.151       -2936.593          24.000  
G25  20788160.356   109242463.155        -447.057          26.000  
G31  21814750.762   114637202.230        1061.770          26.000  
G32  21822592.733   114678412.8401        534.325          36.000    21822586.438    85636512.622         395.799          19.000  
J01  38050118.051                         462.480          37.000  
J02  37891803.350   199122793.8091      -1352.705          31.000  
R12  19084551.940   101946250.698       -1151.012          39.000  
> 2021  9 12 10 32 26.9998748  0 13
C06  36694827.999                        -768.475          35.000  
C09  37682306.882   196221668.493        -870.958          30.000  
C16  37341194.929   194445379.636        -743.884          26.000  
C23  23936096.585   124641539.853        1649.728          29.000  
C25  21806534.950                        -861.216          43.000  
C33  22249386.270   115858383.270        -941.900          35.000  
G10  20151632.015                        -549.845          41.000    20151643.108    79079360.757        -409.411          21.000  
G23  21187291.144   111340011.847       -2938.264          25.000  
G25  20788096.800   109242123.088        -448.521          29.000  
G31  21814398.206   114635353.057        1060.937          26.000  
G32  21822340.308                         533.889          38.000    21822335.511    85635527.042         398.274          17.000  
J01  38049883.913   199953469.3931        461.850          37.000  
R12  19084623.590   101946632.752       -1150.499          38.000  
> 2021  9 12 10 32 27.9998743  0 16
C06  36694825.601   191079582.6411       -766.893          34.000  
C08  37864950.940   197172735.0561      -2415.612          20.000  
C09  37682323.970   196221758.560        -870.251          31.000  
C13  36952409.679   192420893.2261      -2183.545          28.000  
C14  23089715.023   120234237.4571      -2211.099          17.000  
C16  37341187.134   194445342.443        -742.944          23.000  
C23  23935629.508   124639109.284        1651.352          30.000  
C24  24458814.115   127363463.4811      -3369.960          25.000  
C25  21806550.839   113552426.3731       -861.142          42.000  
C33  22249417.749                        -944.217          33.000  
G10  20151588.246   105897302.9501       -550.609          40.000    20151598.738    79079183.582        -411.957          23.000  
G23  21187698.861   111342162.861       -2938.615          24.000  
G25  20788032.944   109241784.383        -449.217          31.000  
G32  21822086.984   114675850.3871        533.033          36.000    21822084.285    85634542.522         397.470          15.000  
J01  38049644.379   199952219.389         461.997          35.000  
R12  19084698.538   101947033.026       -1152.329          37.000  
> 2021  9 12 10 32 28.9998738  0 14
C06  36694822.603   191079569.393        -767.492          34.000  
C09  37682341.658   196221848.841        -871.573          31.000  
C13  36952679.792   192422296.160       -2183.501          27.000  
C14  23089991.432   120235668.321       -2211.548          17.000  
C23  23935160.034   124636677.510        1651.562          26.000  
C24  24459315.069   127366053.119       -3371.670          23.000  
C25  21806565.229   113552507.194        -861.465          42.000  
C33  22249451.625   115858718.6141       -941.606          34.000  
G10  20151544.476   105897065.908        -551.034          42.000    20151554.969    79079008.633        -413.679          23.000  
G12  22420651.706   117821151.3701      -2174.022          25.000  
G25  20787969.688   109241445.731        -449.075          30.000  
G32  21821832.460   114674529.186         533.583          37.000    21821833.059    85633557.175         395.686          14.000  
J01  38049407.843   199950969.482         460.735          35.000  
R12  19084757.897   101947350.554       -1152.096          38.000  
> 2021  9 12 10 32 29.9998733  0 16
C06  36694824.102   191079556.075        -768.427          35.000  
C08  37865578.106   197176002.4651      -2414.309          20.000  
C09  37682359.645   196221939.577        -870.905          30.000  
C13  36952950.804   192423700.831       -2186.816          26.000  
C14  23090265.442   120237099.454       -2212.183          18.000  
C23  23934689.959   124634246.046        1651.093          25.000  
C24  24459814.823   127368643.856       -3371.780          25.000  
C25  21806580.518   113552588.537        -862.401          41.000  
C33  22249484.902   115858881.372        -941.426          34.000  
G10  20151501.006   105896829.622        -552.023          42.000    20151510.300    79078832.198        -411.893          24.000  
G23  21188514.597   111346469.0611      -2941.417          23.000  
G25  20787907.931   109241106.886        -448.985          29.000  
G31  21813348.033   114629810.1941       1059.844          26.000  
G32  21821578.835   114673207.994         533.091          36.000    21821581.833    85632573.355         395.732          16.000  
J01  38049169.508   199949719.661         461.061          34.000  
R12  19084826.849   101947718.909       -1154.228          38.000  
> 2021  9 12 10 32 30.9998733  0 15
C06  36694970.101   191080323.284        -766.835          34.000  
C08  37866037.987   197178417.730       -2414.108          20.000  
C09  37682526.030   196222809.898        -870.162          30.000  
C14  23090687.550   120239310.814       -2207.841          19.000  
C16  37341320.242   194446011.3741       -742.480          20.000  
C23  23934368.282   124632596.471        1649.163          24.000  
C25  21806746.304   113553450.966        -863.044          41.000  
C33  22249666.576   115859825.098        -944.687          30.000  
G10  20151604.734   105897381.715        -552.576          43.000  
G12  22421324.140   117824712.9151      -2176.800          24.000  
G23  21189073.110   111349409.486       -2940.365          24.000  
G25  20787994.571   109241556.026        -450.042          27.000  
G32  21821482.302   114672674.800         533.126          33.000    21821480.204    85632176.683         397.028          14.000  
J01  38049080.770   199949257.569         461.948          32.000  
R12  19085042.700   101948872.347       -1155.287          37.000  
> 2021  9 12 10 32 31.9998728  0 15
C06  36694966.803   191080310.247        -767.993          35.000  
C09  37682543.418   196222900.667        -872.254          31.000  
C13  36953639.128   192427295.5871      -2186.906          22.000  
C14  23090960.960   120240738.924       -2209.820          20.000  
C23  23933900.605   124630166.994        1648.246          23.000  
C24  24460953.434   127374606.9881      -3370.550          22.000  
C25  21806763.692   113553533.639        -863.805          41.000  
C33  22249698.055   115859989.019        -946.579          34.000  
G10  20151560.065   105897147.122        -553.911          43.000  
G12  22421587.058   117826101.511       -2176.467          26.000  
G23  21189480.228   111351561.817       -2939.545          26.000  
G25  20787929.216   109241219.038        -451.585          28.000  
G32  21821232.275   114671354.127         531.987          34.000    21821228.678    85631189.411         398.552          14.000  
J01  38048840.036   199948008.190         461.824          34.000  
R12  19085104.157   101949200.615       -1156.141          37.000  
> 2021  9 12 10 32 32.9998723  0 15
C06  36694965.904   191080297.050        -767.989          35.000  
C09  37682561.106   196222991.776        -870.873          30.000  
C13  36953908.941   192428701.832       -2186.369          24.000  
C23  23933433.529   124627739.470        1646.102          20.000  
C25  21806781.080   113553616.772        -864.743          41.000  
C33  22249728.633   115860153.325        -946.500          35.000  
G10  20151514.797   105896913.148        -555.036          44.000  
G12  22421852.674   117827489.638       -2176.119          26.000  
G23  21189887.346   111353714.444       -2940.421          24.000  
G25  20787868.358   109240883.297        -452.455          26.000  
G31  21812457.350   114625060.5291       1056.290          25.000  
G32  21820984.347   114670033.398         528.354          34.000    21820976.852    85630204.167         395.834          16.000  
J01  38048601.401   199946758.726         461.623          34.000  
J02  37892718.017   199127534.4161      -1352.347          29.000  
R12  19085171.611   101949560.893       -1156.021          38.000  
> 2021  9 12 10 32 33.9998717  0 15
C06  36694932.627   191080128.046        -767.339          32.000  
C09  37682548.814   196222926.281        -871.910          28.000  
C13  36954150.274   192429951.120       -2185.912          25.000  
C23  23932934.674   124625157.670        1642.225          12.000  
C24  24461910.072   127379629.5771      -3369.005          20.000  
C25  21806766.390   113553544.568        -864.206          40.000  
C33  22249727.134   115860162.209        -945.989          33.000  
G10  20151442.247   105896522.535        -555.071          44.000  
G12  22422083.814   117828722.104       -2176.934          26.000  
G23  21190265.684   111355710.413       -2942.863          25.000  
G31  21812081.410   114623059.371        1055.458          27.000  
G32  21820704.341   114668554.883         533.335          31.000    21820695.347    85629101.256         398.589          17.000  
J01  38048334.886   199945351.968         461.191          33.000  
J02  37892798.661   199127941.595       -1353.332          26.000  
R12  19085212.682   101949780.229       -1158.882          38.000  
> 2021  9 12 10 32 34.9998712  0 11
C06  36694930.228   191080114.913        -768.957          34.000  
C09  37682567.102   196223017.118        -870.808          29.000  
C13  36954419.488   192431355.511       -2185.501          23.000  
C25  21806782.878   113553628.784        -865.125          40.000  
C33  22249758.613   115860327.480        -947.128          33.000  
G10  20151398.777   105896290.030        -556.125          44.000  
G25  20787720.261   109240057.6781       -454.309          21.000  
G32                                                                  21820442.922    85628115.420         397.074          15.000  
J01  38048097.150   199944102.628         461.130          34.000  
J02  37892908.086   199128507.499       -1354.014          24.000  
R12  19085275.039   101950112.702       -1159.263          37.000  
> 2021  9 12 10 32 35.9998710  0 13
C06  36695015.669   191080570.215        -768.129          34.000  
C09  37682673.528   196223575.563        -870.305          29.000  
C13  36954778.939   192433229.190       -2186.042          23.000  
C24  24462987.826   127385273.1921      -3368.670          21.000  
C25  21806889.005   113554181.949        -865.733          39.000  
C33  22249882.427   115860962.421        -946.031          33.000  
G10  20151444.046   105896530.954        -556.364          44.000  
G12  22422693.292   117831975.5861      -2178.736          25.000  
G23  21191168.359   111360492.8851      -2942.997          22.000  
G32  21820288.229   114666386.6621        531.528          35.000    21820281.633    85627484.949         395.317          16.000  
J01  38047951.751   199943326.177         463.618          32.000  
J02  37893102.351   199129546.516       -1354.791          24.000  
R12  19085432.430   101950954.043       -1160.956          37.000  
> 2021  9 12 10 32 36.9998705  0 13
C06  36695012.971   191080557.080        -766.927          33.000  
C08  37867971.649   197188575.4351      -2424.433          16.000  
C09  37682690.017   196223665.399        -870.710          28.000  
C13  36955048.153   192434634.561       -2185.596          24.000  
C24  24463483.982   127387861.554       -3369.995          21.000  
C25  21806906.093   113554267.309        -866.488          39.000  
C33  22249913.605   115861127.463        -945.949          27.000  
G10  20151399.976   105896299.932        -557.171          45.000  
G23  21191576.677   111362647.299       -2941.275          23.000  
G32  21820036.403   114665066.535         532.291          31.000    21820029.508    85626499.318         398.988          16.000  
J01  38047714.615   199942077.049         461.437          30.000  
J02  37893207.578   199130112.519       -1353.403          24.000  
R12  19085500.483   101951317.784       -1161.054          36.000  
> 2021  9 12 10 32 37.9998700  0 13
C06  36695013.571   191080543.939        -767.716          34.000  
C09  37682706.805   196223755.654        -870.761          29.000  
C13  36955316.167   192436039.526       -2185.481          22.000  
C24  24463980.439   127390450.941       -3370.775          22.000  
C25  21806921.682   113554353.189        -867.556          40.000  
C33  22249945.084   115861292.915        -946.745          32.000  
G10  20151356.206   105896069.586        -558.018          45.000  
G25  20787611.436   109239540.4001       -455.372          17.000  
G31  21810760.525   114616162.7701       1053.641          27.000  
G32  21819783.378   114663746.428         532.417          34.000    21819778.582    85625512.907         396.007          15.000  
J01  38047475.381   199940827.999         461.810          35.000  
J02  37893315.204   199130677.594       -1353.041          24.000  
R12  19085570.934   101951693.714       -1161.890          38.000  
> 2021  9 12 10 32 38.9998697  0 12
C06  36695072.330   191080843.022        -768.405          33.000  
C09  37682783.852   196224157.433        -870.273          27.000  
C13  36955645.639   192437757.326       -2186.244          23.000  
C25  21806997.230   113554751.814        -867.320          40.000  
C33  22250037.719   115861771.706        -947.913          31.000  
G10  20151373.295   105896155.032        -558.374          45.000  
G12  22423536.908   117836466.8471      -2180.580          25.000  
G25  20787606.040   109239522.702        -455.130          16.000  
G32  21819588.213   114662741.760         531.689          34.000    21819587.314    85624763.777         396.386          24.000  
J01  38047296.705   199939894.021         456.119          33.000  
J02  37893483.088   199131558.600       -1354.442          24.000  
R12  19085697.746   101952370.635       -1163.086          39.000  
> 2021  9 12 10 32 39.9998692  0 12
C06  36695070.231   191080829.956        -769.323          33.000  
C09  37682800.040   196224246.816        -870.159          27.000  
C13  36955917.551   192439163.215       -2185.637          22.000  
C14  23093284.052   120252828.0411      -2215.579          25.000  
C25  21807012.220   113554838.831        -867.677          39.000  
C33  22250068.598   115861939.034        -948.646          27.000  
G10  20151329.825   105895926.221        -559.209          46.000  
G12  22423800.426   117837860.453       -2181.888          26.000  
G25  20787537.687   109239190.439        -456.482          26.000  
G32  21819336.987   114661422.272         532.319          24.000    21819336.088    85623778.775         396.883          24.000  
J01  38047058.070   199938645.226         461.769          30.000  
R12  19085760.703   101952707.857       -1163.679          37.000  
> 2021  9 12 10 32 40.9998689  0 16
C06  36695126.293   191081129.229        -768.634          34.000  
C08  37869353.392   197195729.5261      -2405.597          13.000  
C09  37682878.286   196224648.679        -870.160          27.000  
C13  36956247.322   192440880.347       -2185.804          21.000  
C14  23093618.621   120254575.558       -2217.000          24.000  
C23  23929882.487   124609246.9911       1645.204          17.000  
C25  21807088.966   113555238.685        -869.775          40.000  
C33  22250161.534   115862419.103        -948.489          25.000  
G10  20151345.114   105896013.301        -560.125          45.000  
G12  22424123.902   117839569.444       -2181.711          25.000  
G25  20787531.391   109239174.451        -457.421          25.000  
G31  21809820.076   114611269.9231       1052.536          31.000  
G32  21819145.720   114660417.475         531.990          26.000    21819145.120    85623028.812         397.137          22.000  
J01  38046882.391   199937711.591         460.509          32.000  
J02  37893746.006   199133006.7041      -1354.727          25.000  
R12  19085885.716   101953375.448       -1164.474          36.000  
> 2021  9 12 10 32 41.9998684  0 15
C06  36695125.693   191081116.279        -768.745          32.000  
C08  37869666.076   197197355.655       -2406.657          14.000  
C09  37682894.475   196224738.527        -870.167          27.000  
C13  36956516.836   192442285.424       -2186.179          22.000  
C14  23093895.629   120256012.191       -2217.616          24.000  
C23  23929420.207   124606821.934        1642.466          19.000  
C25  21807104.855   113555326.895        -869.093          38.000  
C33  22250194.811   115862587.584        -949.726          27.000  
G10  20151303.143   105895786.024        -560.591          45.000  
G12  22424386.820   117840964.597       -2183.349          25.000  
G25  20787467.835   109238844.733        -459.136          26.000  
G32  21818894.793   114659097.856         531.723          28.000    21818893.894    85622043.268         397.294          19.000  
J01  38046645.256   199936463.130         462.049          31.000  
J02  37893853.931   199133573.900       -1356.497          27.000  
R12  19085953.469   101953736.661       -1165.922          36.000  
> 2021  9 12 10 32 42.9998679  0 14
C06  36695124.794   191081103.232        -766.679          33.000  
C08  37869982.956   197198984.831       -2411.572          12.000  
C09  37682910.664   196224828.175        -870.132          27.000  
C13  36956787.548   192443691.136       -2187.083          21.000  
C14  23094175.035   120257450.210       -2219.257          24.000  
C23  23928957.927   124604399.175        1642.522          26.000  
C25  21807120.744   113555415.584        -869.803          38.000  
G10  20151261.472   105895559.447        -561.539          45.000  
G25  20787406.378   109238517.008        -460.873          27.000  
G31  21809118.262   114607591.3531       1050.856          30.000  
G32  21818644.767   114657778.752         531.105          26.000    21818642.368    85621057.621         397.411          24.000  
J01  38046406.621   199935214.424         460.149          29.000  
J02  37893960.657   199134142.449       -1355.761          26.000  
R12  19086017.925   101954081.339       -1166.088          36.000  
> 2021  9 12 10 32 43.9998674  0 13
C06  36695119.397   191081090.485        -768.565          32.000  
C09  37682929.551   196224918.457        -871.958          26.000  
C14  23094454.442   120258889.474       -2220.163          25.000  
C23  23928496.547   124601976.430        1641.219          23.000  
C25  21807136.633   113555505.139        -870.473          38.000  
C33  22250263.463   115862926.6441       -950.648          25.000  
G10  20151217.402   105895333.860        -562.599          45.000  
G23  21194571.304   111378387.0711      -2952.070          19.000  
G25  20787345.220   109238190.572        -461.951          29.000  
G32  21818394.440   114656459.548         531.141          23.000    21818391.442    85620071.847         397.399          26.000  
J01  38046167.087   199933966.256         460.404          31.000  
J02  37894067.083   199134710.591       -1355.393          28.000  
R12  19086091.973   101954477.076       -1167.788          36.000  
> 2021  9 12 10 32 44.9998669  0 15
C06  36695119.397   191081077.659        -768.323          33.000  
C09  37682953.534   196225010.615        -873.987          23.000  
C13  36957334.969   192446506.3051      -2189.139          26.000  
C14  23094733.549   120260328.922       -2219.878          26.000  
C23  23928031.269   124599555.408        1639.669          20.000  
C25  21807156.420   113555595.013        -871.018          36.000  
C33  22250298.239   115863097.044        -950.511          28.000  
G10  20151173.933   105895108.856        -563.034          45.000  
G23  21194984.118   111380550.948       -2951.394          26.000  
G25  20787281.365   109237865.216        -462.792          32.000  
G31  21808419.146   114603914.8621       1050.058          29.000  
G32                                                                  21818140.216    85619086.388         397.087          29.000  
J01  38045924.854   199932718.447         460.927          30.000  
J02  37894174.409   199135277.773       -1355.491          30.000  
R12  19086160.026   101954840.814       -1168.622          36.000  
> 2021  9 12 10 32 45.9998666  0 15
C06  36695176.658   191081377.197        -767.533          36.000  
C09  37683034.778   196225415.672        -873.126          26.000  
C13  36957665.940   192448229.419       -2193.335          23.000  
C14  23095070.815   120262080.573       -2220.983          25.000  
C23  23927627.748   124597447.398        1639.486          27.000  
C25  21807235.865   113555997.928        -870.869          37.000  
C33  22250385.778   115863579.808        -952.446          23.000  
G10  20151190.421   105895199.934        -564.205          44.000  
G23  21195454.192   111383029.142       -2950.889          25.000  
G25  20787278.966   109237855.374        -463.097          30.000  
G31  21808127.747   114602392.291        1049.366          31.000  
G32                                                                  21817948.948    85618336.487         396.855          28.000  
J01  38045751.274   199931784.841         461.712          28.000  
J02  37894343.792   199136160.793       -1355.526          26.000  
R12  19086285.340   101955509.861       -1168.767          34.000  
> 2021  9 12 10 32 46.9998664  0 12
C06  36695262.698   191081832.991        -767.082          37.000  
C09  37683143.003   196225976.241        -872.647          27.000  
C14  23095436.562   120263987.620       -2218.722          23.000  
C23  23927253.907   124595495.949        1638.980          25.000  
C25  21807344.689   113556557.592        -872.113          40.000  
C33  22250506.295   115864221.335        -954.343          24.000  
G10  20151238.688   105895449.395        -565.048          45.000  
G25  20787307.746   109238003.626        -463.404          29.000  
G32  21817779.865                         531.510          34.000  
J01  38045605.575   199931008.079         460.888          29.000  
J02  37894541.055   199137200.269       -1353.293          26.000  
R12  19086442.131   101956347.730       -1170.003          39.000  
> 2021  9 12 10 32 47.9998659  0 13
C06  36695259.101   191081820.594        -767.156          37.000  
C09  37683160.391   196226067.866        -870.866          25.000  
C14  23095712.371   120265425.962       -2218.972          25.000  
C23  23926791.027   124593075.290        1640.219          27.000  
C25  21807361.178   113556649.630        -872.328          40.000  
C33  22250538.673   115864393.108        -950.590          25.000  
G10  20151197.017   105895227.045        -565.385          45.000  
G12  22426134.010   117850139.1941      -2187.299          23.000  
G23  21196363.763   111387826.0551      -2949.668          16.000  
G25  20787247.788   109237679.628        -464.402          27.000  
G32  21817527.740   114651887.8021        530.756          35.000  
J01  38045369.938   199929760.356         459.168          29.000  
R12  19086510.484   101956712.262       -1171.182          40.000  
> 2021  9 12 10 32 48.9998653  0 13
C06  36695226.423   191081651.935        -767.966          36.000  
C09  37683148.999   196226003.260        -871.997          26.000  
C14  23095959.100   120266708.321       -2220.141          25.000  
C23  23926298.168   124590497.917        1640.538          26.000  
C25  21807348.587   113556585.950        -872.928          40.000  
G10  20151124.767   105894847.717        -566.419          45.000  
G23  21196745.099   111389830.669       -2950.334          19.000  
G25  20787157.550   109237199.614        -466.760          28.000  
G31  21807136.034   114597198.7921       1046.836          29.000  
G32  21817249.832   114650411.807         530.928          35.000  
J01  38045106.421   199928355.841         459.413          28.000  
J02  37894732.622   199138178.2961      -1355.636          27.000  
R12  19086566.545   101957011.968       -1172.296          39.000  
> 2021  9 12 10 32 49.9998648  0 12
C06  36695224.325   191081639.725        -768.629          37.000  
C09  37683166.087   196226094.501        -871.848          26.000  
C14  23096235.509   120268148.399       -2221.220          24.000  
C23  23925833.490   124588076.954        1639.239          30.000  
C25  21807365.375   113556679.252        -874.491          40.000  
G10  20151083.395   105894627.025        -567.471          45.000  
G25  20787095.493   109236879.091        -468.333          29.000  
G31  21806786.176   114595365.227        1045.663          29.000  
G32  21817001.904   114649093.832         529.294          35.000  
J01  38044871.983   199927108.724         459.284          25.000  
J02  37894842.646   199138746.703       -1356.272          26.000  
R12  19086630.401   101957353.393       -1173.735          38.000  
> 2021  9 12 10 32 50.9998646  0 13
C06  36695312.164   191082096.094        -767.358          37.000  
C09  37683271.614   196226653.831        -870.669          25.000  
C13  36959167.900   192456082.5471      -2194.750          18.000  
C14  23096603.054   120270057.442       -2221.065          23.000  
C23  23925459.049   124586125.985        1638.274          30.000  
C25  21807474.799   113557241.689        -875.054          41.000  
C33  22250702.359   115865219.4521       -954.794          19.000  
G10  20151130.762   105894879.929        -568.399          45.000  
G31  21806524.757   114594004.225        1046.484          28.000  
G32  21816840.016   114648248.909         528.932          37.000  
J01  38044725.385   199926333.853         459.695          27.000  
J02  37895039.910   199139788.118       -1356.628          26.000  
R12  19086795.586   101958235.276       -1175.123          38.000  
> 2021  9 12 10 32 51.9998641  0 15
C06  36695309.166   191082084.033        -768.398          36.000  
C09  37683287.503   196226744.807        -870.868          24.000  
C13  36959438.313   192457495.537       -2193.967          18.000  
C14  23096879.763   120271497.354       -2220.199          23.000  
C23  23924995.870   124583706.920        1638.514          30.000  
C25  21807490.389   113557336.221        -874.966          39.000  
E01  24350992.559                        1339.172          32.000  
G10  20151089.091   105894660.824        -569.240          45.000  
G23  21198080.374   111396798.1151      -2955.939          24.000  
G25  20787065.214   109236712.7421       -468.869          28.000  
G31  21806175.199   114592170.118        1045.839          27.000  
G32  21816587.291   114646931.359         530.427          37.000  
J01  38044488.549   199925086.217         459.296          29.000  
J02  37895146.936   199140357.942       -1358.345          27.000  
R12  19086864.539   101958603.696       -1174.708          37.000  
> 2021  9 12 10 32 52.9998636  0 14
C06  36695309.766   191082072.242        -768.587          36.000  
C09  37683302.792   196226834.956        -872.327          22.000  
C14  23097156.771   120272936.908       -2220.660          22.000  
C23  23924532.990   124581288.055        1637.890          28.000  
C25  21807507.777   113557431.597        -876.013          38.000  
C33  22250769.213   115865572.8681       -958.633          19.000  
E01  24350586.640                        1339.525          32.000  
G10  20151047.120   105894442.762        -569.909          45.000  
G25  20787005.256   109236393.705        -468.784          28.000  
G31  21805826.540   114590337.751        1044.095          28.000  
G32  21816338.163   114645614.153         529.977          37.000  
J01  38044251.413   199923839.694         458.613          30.000  
J02  37895255.161   199140928.010       -1357.942          27.000  
R12  19086930.193   101958954.138       -1177.276          38.000  
> 2021  9 12 10 32 53.9998630  0 12
C06  36695276.489   191081904.902        -768.985          35.000  
C09  37683289.002   196226771.198        -873.026          22.000  
C23  23924038.932   124578713.578        1637.426          28.000  
C25  21807496.984   113557371.910        -877.162          38.000  
C33  22250772.211   115865595.216        -959.764          25.000  
G10  20150975.770   105894068.439        -571.936          44.000  
G12  22427782.569   117858719.1921      -2194.149          21.000  
G23  21198879.321   111400976.2681      -2955.334          22.000  
G25  20786914.718   109235918.022        -470.054          31.000  
G31  21805448.502   114588348.577        1043.321          30.000  
G32  21816052.761   114644140.155         526.837          36.000  
R12  19086978.160   101959210.583       -1178.120          38.000  
> 2021  9 12 10 32 54.9998628  0 13
C06  36695363.429   191082362.306        -769.060          37.000  
C09  37683395.428   196227332.776        -873.926          24.000  
C13  36960305.313   192462054.7131      -2193.433          18.000  
C23  23923665.391   124576764.274        1636.426          29.000  
C25  21807605.509   113557937.491        -877.865          38.000  
C33  22250895.725   115866241.787        -959.030          24.000  
G10  20151023.737   105894325.249        -572.437          44.000    20151026.135    79076946.5001       -427.761          27.000  
G12  22428142.020   117860599.999       -2196.863          22.000  
G23  21199379.975   111403617.473       -2958.025          23.000  
G25  20786947.696   109236074.322        -472.233          31.000  
G31  21805188.582   114586990.270        1042.865          33.000  
G32                                                                  21815904.364    85610304.3441        395.391          27.000  
R12  19087136.750   101960058.310       -1179.030          37.000  
> 2021  9 12 10 32 55.9998623  0 12
C06  36695360.131   191082351.698        -770.062          36.000  
C09  37683412.816   196227426.975        -874.827          28.000  
C13  36960573.028   192463465.327       -2189.637          18.000  
C23  23923203.111   124574348.166        1634.949          29.000  
C25  21807623.796   113558035.640        -879.606          38.000  
C33  22250929.602   115866421.283        -960.289          28.000  
G10  20150983.265   105894110.517        -574.044          45.000    20150985.663    79076786.424        -428.754          30.000  
G25  20786889.236   109235759.927        -474.214          31.000  
G31  21804839.324   114585160.077        1041.500          34.000  
G32  21815632.452   114641979.7461        529.998          25.000    21815654.637    85609320.886         395.410          27.000  
J01  38043598.765   199920418.5251        456.792          32.000  
R12  19087205.103   101960423.415       -1180.993          38.000  
> 2021  9 12 10 32 56.9998620  0 13
C06  36695420.089   191082653.583        -771.363          35.000  
C09  37683491.062   196227832.996        -874.288          28.000  
C23  23922801.689   124572245.584        1633.702          31.000  
C25  21807702.642   113558446.873        -879.393          39.000  
C33  22251022.837   115866913.958        -961.361          27.000  
G10  20151002.751   105894211.844        -574.237          45.000    20151005.149    79076861.584        -429.473          32.000  
G23  21200274.555   111408274.7381      -2957.900          20.000  
G25  20786891.934   109235761.346        -474.305          31.000  
G31  21804549.425   114583645.614        1042.315          34.000  
G32  21815443.882   114640977.160         529.575          22.000    21815463.669    85608573.124         393.935          28.000  
J01  38043418.290                         457.904          33.000  
J02  37895827.165   199143845.8761      -1361.864          22.000  
R12  19087336.412   101961124.584       -1182.242          38.000  
> 2021  9 12 10 32 57.9998615  0 14
C06  36695415.892   191082643.152        -771.344          36.000  
C09  37683508.750   196227925.746        -872.631          28.000  
C23  23922340.908   124569831.256        1633.011          28.000  
C25  21807723.028   113558546.395        -880.214          37.000  
E01  24348677.861   127953165.2461       1334.697          28.000  
G10  20150962.279   105893998.873        -575.371          45.000    20150964.078    79076703.147        -430.131          30.000  
G12  22429007.221   117865148.0131      -2199.785          19.000  
G23  21200688.569   111410445.235       -2959.518          23.000  
G25  20786833.475   109235448.647        -475.909          31.000  
G31  21804201.965                        1040.153          32.000  
G32  21815196.853   114639660.517         528.401          31.000    21815213.042    85607590.669         392.965          27.000  
J01  38043182.952   199918266.7041        455.495          30.000  
R02  20970135.577   111900660.7281       1956.672          32.000  
R12  19087408.962   101961512.608       -1183.420          37.000  
> 2021  9 12 10 32 58.9998610  0 15
C06  36695413.194   191082633.319        -771.025          33.000  
C09  37683526.437   196228018.373        -874.387          25.000  
C23  23921878.028   124567417.855        1632.206          27.000  
C25  21807744.313   113558646.924        -881.130          40.000  
C33  22251087.293   115867273.8201       -960.748          25.000  
E01  24348273.441   127951039.536        1332.967          23.000  
G10  20150922.107   105893787.101        -576.222          46.000    20150925.704    79076547.258        -432.941          24.000  
G12  22429274.037   117866560.956       -2201.124          26.000  
G23  21201101.683   111412617.437       -2959.978          22.000  
G25  20786775.015   109235136.878        -476.534          31.000  
G31  21803850.009   114580026.7021       1039.984          34.000  
G32  21814949.225   114638344.859         527.282          35.000    21814961.217    85606609.855         393.795          21.000  
J01  38042948.815   199917023.315         456.275          26.000  
R02  20969617.236   111897904.303        1956.100          32.000  
R12  19087481.512   101961899.959       -1184.671          40.000  
> 2021  9 12 10 32 59.9998605  0 12
C06  36695411.096   191082623.541        -771.739          34.000  
C09  37683545.324   196228111.887        -873.667          25.000  
C14  23099208.551   120283667.2921      -2226.856          24.000  
C23  23921415.748   124565004.878        1632.754          29.000  
C25  21807762.600   113558748.088        -881.912          41.000  
C33  22251120.570   115867453.810        -960.079          23.000  
G10  20150880.736   105893576.088        -576.803          45.000    20150886.132    79076390.996        -431.748          25.000  
G12  22429543.850   117867973.360       -2199.675          26.000  
G25  20786716.256   109234826.035        -477.853          31.000  
G31  21803502.549   114578199.575        1038.607          33.000  
G32                                                                  21814710.890    85605627.973         393.839          24.000  
R12  19087552.862   101962280.927       -1185.686          40.000  
> 2021  9 12 10 33  0.9998600  0 14
C06  36695411.995   191082613.913        -770.420          35.000  
C13  36961979.354   192470831.6691      -2193.637          19.000  
C14  23099490.056   120285114.037       -2228.307          24.000  
C23  23920954.068   124562592.241        1631.284          31.000  
C25  21807782.386   113558849.935        -882.393          43.000  
C33  22251155.046   115867633.241        -961.023          21.000  
G10  20150840.863   105893365.972        -577.581          46.000  
G12  22429813.064   117869385.161       -2199.095          27.000  
G23  21201936.605   111416963.0761      -2961.418          22.000  
G25  20786657.197   109234516.526        -478.302          30.000  
G31  21803155.689   114576373.030        1037.987          35.000  
G32  21814460.263   114635715.4751        526.185          38.000  
R02  20968587.449   111892393.7911       1954.543          28.000  
R12  19087625.412   101962668.672       -1186.809          40.000  
> 2021  9 12 10 33  1.9998597  0 15
C06  36695469.255   191082916.812        -771.779          35.000  
C09  37683645.155   196228612.6341       -873.958          22.000  
C23  23920551.747   124560492.350        1631.287          31.000  
C25  21807861.831   113559264.803        -884.030          41.000  
C33  22251249.780   115868126.133        -963.048          20.000  
G10  20150860.949   105893471.989        -579.203          44.000  
G12  22430143.735   117871111.527       -2198.822          26.000  
G23  21202412.375   111419452.446       -2962.239          21.000  
G25  20786658.396   109234522.284        -478.639          28.000  
G31  21802870.887   114574862.306        1037.375          33.000  
G32  21814272.893                         525.669          37.000  
J01  38042293.168   199913608.5281        452.793          23.000  
J02  37896442.039   199147031.4831      -1361.117          22.000  
R02  20968128.467   111889958.562        1955.770          30.000  
R12  19087757.321   101963372.528       -1187.865          40.000  
> 2021  9 12 10 33  2.9998595  0 15
C06  36695558.593   191083375.834        -770.940          35.000  
C09  37683753.680   196229174.126        -872.340          22.000  
C13  36962676.971   192474441.8001      -2196.629          24.000  
C14  23100204.761   120288789.1991      -2227.810          24.000  
C23  23920179.704   124558548.931        1630.313          30.000  
C25  21807971.555   113559836.379        -884.245          41.000  
C33  22251374.194   115868777.214        -963.360          26.000  
G10  20150911.914   105893736.238        -579.724          43.000  
G23  21202917.825   111422099.537       -2962.963          20.000  
G25  20786693.472   109234686.272        -479.435          28.000  
G31  21802609.767   114573509.664        1036.945          33.000  
G32  21814111.905   114633936.4291        526.504          37.000  
J01  38042150.767   199912840.780         453.013          23.000  
R02  20967699.464   111887682.319        1957.198          29.000  
R12  19087919.508   101964239.597       -1188.902          38.000  
> 2021  9 12 10 33  3.9998589  0 14
C06  36695524.417   191083210.506        -770.855          33.000  
C14  23100454.788   120290081.740       -2231.513          23.000  
C16  37341721.064   194448037.9831       -747.773          23.000  
C23  23919686.845   124555982.071        1630.107          30.000  
C25  21807961.063   113559784.211        -884.550          41.000  
C33  22251378.691   115868803.331        -963.416          20.000  
G10  20150842.362   105893371.219        -580.617          45.000  
G12  22430745.418   117874252.4241      -2201.322          27.000  
G23  21203301.560   111424117.199       -2962.021          22.000  
G25  20786605.632   109234221.056        -480.732          30.000  
G31  21802233.228   114571527.566        1037.015          33.000  
G32  21813834.297   114632465.519         525.718          39.000  
J01  38041881.853   199911442.176         454.030          24.000  
R12  19087968.075   101964498.453       -1190.894          39.000  
> 2021  9 12 10 33  4.9998584  0 13
C06  36695525.916   191083201.541        -770.754          33.000  
C09  37683764.473   196229205.2041       -875.025          25.000  
C14  23100736.593   120291532.327       -2230.550          23.000  
C23  23919223.966   124553570.587        1630.182          30.000  
C25  21807981.748   113559888.882        -885.931          41.000  
C33  22251412.867   115868987.085        -964.719          16.000  
G10  20150803.389   105893164.699        -581.878          45.000  
G12  22431016.430   117875667.123       -2202.501          26.000  
G23  21203718.271   111426292.713       -2963.396          23.000  
G25  20786548.672   109233914.337        -481.856          30.000  
G31  21801885.769   114569703.669        1033.782          33.000  
G32  21813583.370   114631152.432         525.377          38.000  
R12  19088037.327   101964868.242       -1190.616          39.000  
> 2021  9 12 10 33  5.9998579  0 16
C06  36695522.618   191083192.888        -770.525          34.000  
C09  37683784.559   196229299.453        -874.806          25.000  
C14  23101016.599   120292982.364       -2231.606          22.000  
C16  37341706.375   194447973.8431       -748.333          19.000  
C23  23918759.587   124551159.647        1630.140          30.000  
C25  21808003.034   113559994.403        -886.170          41.000  
G10  20150764.716   105892959.196        -583.680          45.000  
G12  22431284.745   117877082.027       -2203.835          25.000  
G23  21204131.985   111428469.317       -2963.799          24.000  
G25  20786491.411   109233608.926        -483.064          29.000  
G31  21801538.009   114567880.592        1036.688          33.000  
G32  21813333.344   114629839.827         524.285          39.000  
J01  38041402.485   199908957.7591        456.259          25.000  
J02  37896928.003   199149644.5841      -1362.470          27.000  
R02  20966111.163   111879255.0531       1955.557          30.000  
R12  19088116.772   101965293.203       -1192.424          38.000  
> 2021  9 12 10 33  6.9998574  0 16
C06  36695515.723   191083184.515        -773.919          33.000  
C09  37683802.846   196229393.695        -874.674          25.000  
C14  23101295.406   120294434.700       -2233.962          20.000  
C16  37341699.779   194447941.122        -747.643          20.000  
C23  23918296.708   124548749.321        1628.725          30.000  
C25  21808021.321   113560100.738        -887.313          41.000  
C33  22251494.111   115869357.8591       -967.064          17.000  
G10  20150725.443   105892754.678        -584.097          46.000    20150730.839    79075778.8071       -436.426          27.000  
G12  22431556.357   117878498.676       -2205.534          25.000  
G23  21204545.998   111430646.514       -2965.496          26.000  
G25  20786436.250   109233304.731        -484.161          29.000  
G31  21801192.948   114566058.357        1034.682          32.000  
G32  21813083.017   114628527.502         524.542          39.000  
J01  38041165.949   199907714.813         454.102          26.000  
J02  37897035.328   199150219.035       -1362.415          28.000  
R12  19088184.225   101965653.285       -1193.508          39.000  
> 2021  9 12 10 33  7.9998572  0 15
C06  36695607.759   191083644.743        -773.107          33.000  
C09  37683911.971   196229956.472        -875.611          28.000  
C23  23917921.967   124546809.002        1627.497          29.000  
C25  21808131.944   113560676.251        -887.398          42.000  
C33  22251634.114   115870013.079        -968.011          16.000  
E01  24344854.608   127933073.9401       1328.548          29.000  
G10  20150776.408   105893023.847        -584.540          45.000    20150782.104    79075979.746        -435.975          26.000  
G23  21205049.949   111433297.582       -2966.688          29.000  
G25  20786468.627   109233474.115        -485.010          30.000  
G31  21800933.628   114564709.519        1033.300          34.000  
G32  21812923.827   114627688.208         524.075          38.000  
J01  38041020.549   199906946.178         453.313          30.000  
J02  37897234.091   199151267.181       -1363.619          29.000  
R02  20965172.513   111874228.1601       1951.626          27.000  
R12  19088347.312   101966524.796       -1194.978          39.000  
> 2021  9 12 10 33  8.9998566  0 16
C06  36695576.881   191083480.557        -772.775          32.000  
C09  37683900.878   196229896.147        -877.816          27.000  
C14  23101912.978   120297652.1871      -2232.716          18.000  
C16  37341745.647   194448188.4461       -748.211          20.000  
C23  23917427.609   124544245.234        1626.205          27.000  
C25  21808124.150   113560627.957        -888.474          41.000  
E01  24344421.708   127930798.688        1328.592          29.000  
G10  20150707.755   105892663.628        -585.195          45.000    20150713.751    79075711.376        -438.014          28.000  
G12  22432153.243   117881651.2811      -2207.628          23.000  
G23  21205433.084   111435319.224       -2967.277          30.000  
G25  20786382.287   109233014.299        -485.778          30.000  
G31  21800557.988   114562731.268        1032.835          33.000  
G32  21812642.922   114626218.990         524.207          37.000  
J01  38040754.334   199905547.257         453.948          31.000  
J02  37897312.636   199151686.137       -1364.660          28.000  
R12  19088394.080   101966774.329       -1195.162          39.000  
> 2021  9 12 10 33  9.9998561  0 17
C06  36695572.983   191083472.780        -773.315          32.000  
C09  37683923.363   196229993.391        -877.829          25.000  
C14  23102193.584   120299105.266       -2234.087          24.000  
C16  37341738.153   194448156.440        -749.496          24.000  
C23  23916965.329   124541838.517        1626.338          27.000  
C25  21808145.735   113560736.481        -889.611          41.000  
C33  22251682.980   115870230.2161       -965.180          17.000  
G10  20150669.382   105892461.866        -586.814          45.000    20150675.378    79075561.108        -438.394          27.000  
G12  22432426.354   117883071.530       -2208.486          24.000  
G23  21205847.098   111437498.614       -2967.544          29.000  
G25  20786326.526   109232712.991        -486.990          29.000  
G31  21800210.828   114560911.112        1030.780          33.000  
G32  21812393.794   114624907.565         522.433          38.000  
J01  38040518.697   199904305.258         454.622          26.000  
J02  37897419.063   199152263.582       -1365.418          27.000  
R02  20964109.749   111868562.6981       1953.524          22.000  
R12  19088466.929   101967164.016       -1196.136          39.000  
> 2021  9 12 10 33 10.9998559  0 17
C06  36695662.022   191083933.705        -772.633          32.000  
C09  37684031.588   196230559.672        -879.603          24.000  
C14  23102562.329   120301027.803       -2235.408          25.000  
C16  37341821.795   194448593.532        -749.574          24.000  
C23  23916593.587   124539900.859        1624.657          27.000  
C25  21808256.358   113561314.311        -890.370          41.000  
E01  24343707.602   127927045.8941       1325.656          28.000  
G10  20150722.145   105892733.941        -587.452          45.000    20150726.642    79075764.265        -438.107          28.000  
G12  22432788.204   117884965.335       -2209.399          26.000  
G23  21206352.248   111440151.833       -2969.402          26.000  
G25  20786359.803   109232885.510        -488.063          29.000  
G31  21799953.306   114559564.578        1031.241          34.000  
G32  21812233.405   114624069.357         523.665          37.000  
J01  38040375.096   199903536.833         452.470          23.000  
J02  37897617.525   199153313.590       -1364.826          28.000  
R02  20963687.041   111866289.761        1952.094          22.000  
R12  19088630.616   101968038.193       -1198.443          38.000  
> 2021  9 12 10 33 11.9998554  0 16
C06  36695662.621   191083926.506        -773.958          33.000  
C09  37684051.074   196230658.961        -879.489          23.000  
C14  23102841.436   120302483.509       -2236.271          25.000  
C16  37341814.899   194448562.709        -749.947          25.000  
C23  23916130.407   124537495.108        1624.857          29.000  
C25  21808276.744   113561424.532        -890.572          41.000  
E01  24343305.880   127924935.184        1324.253          26.000  
G10  20150684.671   105892534.241        -588.455          44.000    20150688.269    79075614.804        -439.435          29.000  
G12  22433062.514   117886387.507       -2210.275          26.000  
G23  21206768.360   111442333.642       -2970.014          26.000  
G25  20786301.943   109232586.551        -489.345          29.000  
G31  21799610.044   114557746.172        1031.310          33.000  
G32  21811980.080   114622758.772         522.966          36.000  
J01  38040143.956   199902298.648         451.365          22.000  
J02  37897726.050   199153889.890       -1363.930          29.000  
R12  19088707.063   101968446.437       -1199.946          39.000  
> 2021  9 12 10 33 12.9998548  0 15
C06  36695632.342   191083763.440        -772.549          33.000  
C09  37684038.783   196230600.276        -878.073          24.000  
C16  37341778.325   194448375.593        -748.711          21.000  
C23  23915636.949   124534933.772        1624.464          27.000  
C25  21808266.551   113561379.464        -892.547          40.000  
E01  24342873.879   127922664.932        1323.817          28.000  
G10  20150616.618   105892178.052        -589.928          44.000    20150620.216    79075349.553        -441.339          29.000  
G12  22433305.346   117887653.482       -2211.580          26.000  
G23  21207151.794   111444359.344       -2972.421          26.000  
G25  20786215.003   109232130.826        -489.998          28.000  
G31  21799231.106   114555770.897        1028.552          34.000  
G32  21811701.873   114621291.068         521.243          37.000  
J01  38039878.940   199900901.680         451.245          24.000  
J02  37897804.596   199154309.066       -1364.987          29.000  
R12  19088751.133   101968682.248       -1200.475          38.000  
> 2021  9 12 10 33 13.9998546  0 13
C06  36695724.379   191084225.521        -773.970          31.000  
C09  37684145.509   196231165.355        -877.022          25.000  
C16  37341860.768   194448812.181        -749.828          22.000  
C23  23915265.206   124532997.408        1624.241          27.000  
C25  21808378.074   113561960.057        -893.120          40.000  
E01  24342563.294   127921032.848        1323.155          30.000  
G10  20150669.082   105892453.388        -591.125          44.000    20150671.780    79075554.578        -439.220          28.000  
G12  22433666.596   117889550.374       -2212.544          25.000  
G25  20786247.081   109232306.037        -491.198          31.000  
G31  21798975.983   114554426.938        1028.348          32.000  
G32  21811545.981   114620454.276         521.630          36.000  
J02  37898003.958   199155359.607       -1367.185          30.000  
R12  19088921.115   101969589.869       -1202.436          40.000  
> 2021  9 12 10 33 14.9998541  0 15
C06  36695719.582   191084219.235        -776.069          32.000  
C09  37684163.496   196231262.292        -878.354          28.000  
C14  23103736.316   120307169.8141      -2240.491          22.000  
C16  37341853.573   194448781.940        -750.174          22.000  
C23  23914801.128   124530592.780        1623.096          28.000  
C24  24483231.611   127490674.5751      -3383.067          20.000  
C25  21808400.858   113562072.822        -893.470          39.000  
E01  24342161.872   127918923.138        1322.735          30.000  
G10  20150631.908   105892256.761        -591.627          44.000    20150634.906    79075405.997        -441.212          24.000  
G12  22433937.308   117890975.535       -2213.405          25.000  
G25  20786189.820   109232010.209        -492.396          28.000  
G31  21798634.519   114552610.929        1028.393          33.000  
G32  21811293.256   114619144.873         523.532          34.000  
J02  37898113.382   199155938.869       -1367.063          30.000  
R12  19088994.264   101969980.753       -1202.742          39.000  
> 2021  9 12 10 33 15.9998536  0 16
C06  36695715.984   191084213.043        -772.664          31.000  
C09  37684182.084   196231360.911        -880.351          25.000  
C14  23104019.020   120308629.140       -2239.178          22.000  
C23  23914336.449   124528189.866        1621.259          25.000  
C25  21808422.144   113562186.308        -894.342          40.000  
E01  24341761.349   127916818.428        1322.559          30.000  
G10  20150594.734   105892061.122        -592.245          45.000    20150597.132    79075258.781        -443.060          23.000  
G12  22434207.421   117892401.581       -2214.350          24.000  
G23  21208486.171   111451390.5181      -2973.556          24.000  
G25  20786131.660   109231715.278        -493.472          27.000  
G31  21798289.158   114550795.601        1027.308          32.000  
G32  21811046.227   114617835.896         518.654          36.000  
J01  38039255.371   199897657.1091        451.334          26.000  
J02  37898222.507   199156518.126       -1366.699          30.000  
R02  20961183.175   111852862.9811       1949.033          26.000  
R12  19089068.613   101970377.728       -1204.325          39.000  
> 2021  9 12 10 33 16.9998531  0 13
C06  36695715.385   191084210.743        -777.710          30.000  
C09  37684201.570   196231461.450        -881.082          24.000  
C23  23913872.371   124525788.195        1620.729          27.000  
C25  21808443.129                        -894.133          36.000  
G10  20150559.958   105891868.150        -592.763          45.000    20150560.257    79075115.344        -444.805          26.000  
G12  22434479.333   117893829.619       -2221.141          25.000  
G23  21208898.985   111453576.730       -2974.564          21.000  
G25  20786074.100   109231421.441        -494.200          26.000  
G31  21797945.896   114548983.908        1024.006          31.000  
G32  21810794.401   114616529.328         518.519          36.000  
J01  38039019.735   199896418.709         449.595          27.000  
J02  37898331.331   199157097.745       -1368.428          29.000  
R12  19089142.961   101970775.145       -1205.799          37.000  
> 2021  9 12 10 33 17.9998525  0 10
C06  36695686.005   191084051.043        -776.279          21.000  
C23  23913377.713   124523230.605        1620.938          27.000  
C25  21808437.433   113562259.7341       -895.027          28.000  
G10  20150489.806   105891515.557        -592.966          30.000    20150492.504    79074852.890        -442.509          27.000  
G12  22434726.962   117895103.991       -2217.161          16.000  
G23  21209286.916   111455606.811       -2977.193          20.000  
G32  21810517.393   114615065.116         519.549          26.000  
J01  38038753.219   199895023.413         450.119          24.000  
J02  37898409.877   199157521.522       -1369.257          29.000  
R12  19089186.131   101971005.903       -1205.829          28.000  
> 2021  9 12 10 33 18.9998525  0  9
C23  23913063.531   124521609.180        1620.644          22.000  
C25  21808608.914   113563155.476        -896.521          27.000  
G10  20150601.029   105892109.630        -594.961          29.000    20150605.226    79075296.585        -445.557          31.000  
G23  21209852.025   111458582.254       -2974.936          15.000  
G31  21797386.783   114545984.9701       1028.937          11.000  
G32  21810419.361   114614545.371         520.255          25.000  
J01  38038664.481   199894572.949         450.598          24.000  
R02  20959760.959   111845257.1671       1948.392          12.000  
R12  19089411.875   101972211.284       -1207.357          26.000  
> 2021  9 12 10 33 19.9998520  0 11
C06  36695834.103   191084818.5271       -774.256          18.000  
C09  37684373.351   196232390.7731       -882.396          15.000  
C23  23912604.848   124519208.336        1620.034          27.000  
C25  21808632.298   113563271.585        -896.710          26.000  
G10  20150562.356   105891917.669        -596.463          30.000    20150569.251    79075154.288        -445.627          32.000  
G12  22435425.778   117898750.6591      -2218.582          17.000  
G23  21210270.235   111460770.404       -2975.913          12.000  
G32  21810171.433   114613236.889         520.686          31.000  
J01  38038427.645   199893335.293         449.606          26.000  
J02  37898781.320   199159471.3511      -1369.575          22.000  
R12  19089486.224   101972608.086       -1208.423          30.000  
> 2021  9 12 10 33 20.9998515  0 11
C06  36695835.002   191084813.486        -776.830          18.000  
C16  37341952.204   194449229.9151       -753.563          17.000  
C23  23912148.564   124516807.455        1620.792          24.000  
C25  21808654.483   113563387.732        -897.498          27.000  
G10                                                                  20150532.677    79075011.577        -445.171          31.000  
G31  21796689.466   114542354.8821       1025.309          16.000  
G32  21809922.905   114611929.117         519.005          30.000  
J01  38038190.509   199892098.779         448.094          24.000  
J02  37898892.243   199160053.224       -1368.427          24.000  
R02  20958734.770   111839761.5591       1947.843          17.000  
R12  19089560.872   101973007.069       -1209.351          30.000  
> 2021  9 12 10 33 21.9998510  0  9
C06  36695835.302   191084809.479        -776.780          24.000  
C09  37684411.425   196232599.3141       -884.608          16.000  
C16  37341948.607   194449202.215        -750.730          17.000  
C23  23911683.886   124514405.486        1620.196          21.000  
C25  21808676.068   113563504.363        -897.252          26.000  
C33  22252376.400   115873939.3901       -982.750          24.000  
G10  20150489.506   105891536.0311       -598.006          28.000    20150495.802    79074868.930        -446.607          30.000  
G32  21809675.576   114610621.965         519.670          29.000  
R02  20958225.722   111837014.376        1945.681          23.000  
> 2021  9 12 10 33 22.9998505  0  8
C06  36695834.402   191084806.153        -777.557          24.000  
C16  37341942.011   194449172.066        -752.192          17.000  
C23  23911225.203   124512004.530        1619.622          24.000  
C25  21808697.653   113563621.232        -898.052          26.000  
G10                                                                  20150459.827    79074727.742        -447.284          31.000  
G32  21809427.947   114609313.998         519.907          31.000  
R02  20957706.482   111834268.204        1946.827          20.000  
R12  19089719.162   101973853.1721      -1210.785          24.000  
> 2021  9 12 10 33 23.9998500  0  8
C06  36695834.402   191084802.976        -777.606          26.000  
C09  37684444.102   196232801.4671       -880.112          19.000  
C23  23910764.422   124509605.350        1618.543          24.000  
C33  22252449.850   115874343.2741       -980.205          20.000  
G10  20150419.955   105891157.5671       -598.791          35.000    20150424.152    79074586.075        -446.693          33.000  
G23  21211935.283   111469531.0451      -2978.164          14.000  
G32  21809179.419   114608006.226         519.458          32.000  
R12  19089791.712   101974240.571       -1211.620          25.000  
> 2021  9 12 10 33 24.9998497  0  8
C06  36695894.061   191085111.658        -776.845          26.000  
C23  23910363.900   124507518.838        1618.138          23.000  
C25  21808795.385   113564170.8641       -900.650          25.000  
G10  20150444.538                        -601.101          35.000    20150448.135    79074680.351        -447.346          33.000  
G23  21212412.552   111472037.238       -2980.804          17.000  
G25  20785795.293   109230061.4671       -501.356          20.000  
G32  21808988.751   114607013.972         518.211          34.000  
R12  19089934.713   101975004.414       -1212.871          25.000  
> 2021  9 12 10 33 25.9998492  0  7
C06  36695892.562   191085107.239        -774.881          28.000  
C16  37341984.882   194449399.6991       -753.795          14.000  
C23  23909905.517   124505121.391        1617.314          18.000  
C25  21808819.968   113564290.991        -900.659          30.000  
G10  20150406.464   105891112.7611       -600.247          35.000    20150412.160    79074539.141        -447.336          32.000  
G12  22437114.509   117907666.2811      -2220.242          16.000  
G31  21795020.521   114533625.9181       1014.529          18.000  
> 2021  9 12 10 33 26.9998490  0  3
C09  37684646.762   196233874.7291       -873.861          20.000  
G10                                                                  20150464.923    79074749.885        -448.050          30.000  
R12  19090173.948   101976282.2701      -1214.151          20.000  
> 2021  9 12 10 33 27.9998484  0  6
C33  22252715.765   115875748.1391       -974.295          19.000  
G10  20150395.072   105891052.1231       -600.090          26.000    20150400.468    79074493.133        -449.562          20.000  
G12  22437717.092   117910841.4981      -2216.955          16.000  
G25  20785676.875   109229499.3451       -492.689          20.000  
G32  21808299.229   114603409.3711        518.240          20.000  
R12  19090221.315   101976534.713       -1214.859          24.000  
> 2021  9 12 10 33 28.9998479  0  5
C09  37684651.259   196233914.8891       -879.338          17.000  
C25  21808952.476   113564961.3761       -899.607          21.000  
G10  20150360.895   105890865.016        -600.735          24.000    20150365.992    79074354.158        -449.131          21.000  
G25  20785617.516   109229203.919        -487.147          18.000  
R12  19090302.259   101976967.502       -1216.551          23.000  
> 2021  9 12 10 33 29.9998474  0 10
C06  36695943.227   191085384.9101       -772.254          28.000  
C09  37684668.347   196234012.967        -876.824          15.000  
C25  21808974.661   113565080.715        -900.560          30.000  
C33  22252791.313   115876135.2631       -975.359          18.000  
G10  20150324.920   105890678.140        -601.491          32.000    20150330.916    79074214.702        -449.098          25.000  
G23  21214558.167   111483311.2991      -2979.074          18.000  
G25  20785559.956   109228905.555        -493.467          17.000  
G31  21793712.227   114526718.4981       1019.410          16.000  
G32  21807803.672   114600799.0461        519.122          27.000  
R12  19090377.507   101977369.909       -1216.276          30.000  
> 2021  9 12 10 33 30.9998472  0  7
C06  36696032.565   191085845.694        -773.429          31.000  
C25  21809088.282   113565669.934        -902.212          30.000  
G10  20150380.382   105890964.766        -602.290          41.000    20150385.778    79074429.119        -450.186          30.000  
G23  21215065.116   111485976.079       -2980.405          28.000  
G31  21793459.502   114525384.082        1019.428          18.000  
G32  21807645.081   114599964.143         520.320          36.000  
R12  19090543.592   101978257.002       -1216.759          38.000  
> 2021  9 12 10 33 31.9998467  0  8
C06  36696028.368   191085838.617        -774.439          34.000  
C25  21809112.266   113565791.339        -902.417          30.000  
C33  22252962.794   115876999.4971       -979.973          25.000  
G10  20150347.405                        -603.094          42.000    20150350.702    79074292.493        -452.273          29.000  
G12  22438892.878   117917028.8061      -2221.476          15.000  
G31  21793117.139   114523577.882        1018.523          20.000  
G32  21807394.755   114598655.746         521.052          37.000  
R12  19090622.137   101978676.234       -1217.427          36.000  
> 2021  9 12 10 33 32.9998461  0  8
C06  36695994.791   191085676.693        -776.180          32.000  
C25  21809107.469   113565757.506        -902.967          29.000  
C33  22252970.889   115877042.833        -979.826          28.000  
G10  20150279.951   105890448.1501       -604.571          39.000    20150285.348    79074039.052        -452.919          26.000  
G23  21215871.558   111490205.2601      -2981.626          28.000  
G25  20785460.425   109228358.8711       -505.790          23.000  
G32  21807117.447                         521.439          37.000  
R12  19090669.804   101978931.087       -1218.110          33.000  
> 2021  9 12 10 33 33.9998456  0  9
C06  36695991.194   191085671.014        -773.346          25.000  
C23  23906342.783   124486559.7311       1618.084          26.000  
C25  21809131.452   113565880.346        -903.417          31.000  
C33  22253008.962   115877241.963        -979.684          25.000  
G10  20150246.974   105890264.006        -603.219          36.000    20150250.872    79073903.161        -451.431          28.000  
G12  22439416.615   117919743.7591      -2221.953          16.000  
G31  21792399.436   114519807.3451       1018.922          21.000  
G32  21806870.118   114595867.2311        520.030          38.000  
R12  19090747.151   101979343.746       -1218.785          33.000  
> 2021  9 12 10 33 34.9998454  0  9
C06  36696079.333   191086132.233        -773.630          27.000  
C23  23905972.240   124484629.700        1617.926          23.000  
C25  21809245.074   113566471.133        -903.447          32.000  
C33  22253137.873   115877909.341        -980.401          23.000  
G10  20150302.736   105890553.372        -606.261          37.000    20150305.434    79074119.333        -451.783          23.000  
G12  22439783.561   117921651.794       -2224.412          16.000  
G31  21792147.610   114518472.824        1019.399          25.000  
G32  21806709.729   114595031.852         520.552          28.000  
R12  19090914.435   101980237.492       -1219.862          31.000  
> 2021  9 12 10 33 35.9998449  0  9
C06  36696079.333   191086124.272        -772.367          29.000  
C23  23905510.559   124482231.386        1616.394          23.000  
C25  21809270.256   113566594.077        -903.231          32.000  
C33  22253176.546   115878109.576        -981.112          24.000  
G10  20150265.561   105890370.715        -605.024          38.000    20150269.759    79073982.098        -451.323          21.000  
G25  20785408.861   109227998.0651       -509.551          26.000  
G31  21791807.046   114516665.894        1018.661          20.000  
G32  21806463.899   114593724.010         519.848          25.000  
R12  19090989.083   101980636.792       -1220.803          31.000  
> 2021  9 12 10 33 36.9998446  0  9
C06  36696137.193   191086428.330        -772.124          30.000  
C25  21809353.599   113567031.536        -905.933          31.000  
C33  22253274.579   115878622.241        -980.838          24.000  
G10  20150294.641   105890504.857        -605.570          38.000    20150294.641    79074081.939        -452.978          27.000  
G23  21217690.998   111499767.7471      -2982.430          15.000  
G25  20785416.356   109228034.615        -508.907          27.000  
G31  21791526.740   114515174.793        1014.588          23.000  
G32  21806275.030   114592731.505         519.734          24.000  
R12  19091125.489   101981365.514       -1222.189          29.000  
> 2021  9 12 10 33 37.9998441  0  9
C06  36696134.795   191086419.871        -772.084          27.000  
C23  23904643.560   124477752.6891       1613.254          18.000  
C25  21809375.484   113567156.592        -904.769          22.000  
C33  22253313.252   115878822.258        -980.487          28.000  
G10  20150256.867   105890322.186        -604.996          33.000    20150261.664    79073948.108        -455.838          27.000  
G25  20785362.093   109227755.365        -508.366          23.000  
G31  21791187.075   114513371.405        1016.345          21.000  
G32  21806026.202   114591423.803         520.093          31.000  
R12  19091206.133   101981796.042       -1222.772          26.000  
> 2021  9 12 10 33 38.9998436  0  8
C06  36696132.096   191086411.491        -773.009          28.000  
C25  21809397.968   113567281.027        -905.835          28.000  
C33  22253354.623   115879022.685        -980.842          28.000  
G10  20150223.890   105890140.670        -609.586          31.000    20150227.188    79073815.741        -456.911          25.000  
G12  22440940.160   117927735.6771      -2229.940          17.000  
G25  20785309.929   109227476.403        -509.151          26.000  
G32  21805775.576   114590115.702         520.523          29.000  
R12  19091289.475   101982241.390       -1223.949          31.000  
> 2021  9 12 10 33 39.9998431  0  7
C06  36696131.197   191086403.859        -773.183          27.000  
C23  23903725.295   124472964.2521       1614.022          19.000  
C25  21809421.652   113567406.779        -906.050          29.000  
G10  20150188.215   105889960.786        -608.079          31.000    20150193.311    79073683.836        -457.060          24.000  
G23  21218939.034   111506352.8631      -2981.214          15.000  
G32  21805527.048   114588807.611         520.305          30.000  
R12  19091371.618   101982680.186       -1224.940          28.000  
> 2021  9 12 10 33 40.9998426  0  5
C06  36696132.096   191086395.864        -773.351          30.000  
C25  21809446.534   113567532.665        -907.070          33.000  
G10  20150152.839   105889781.126        -606.904          35.000    20150159.135    79073551.500        -455.473          25.000  
G25  20785200.805   109226921.5991       -510.422          14.000  
R12  19091454.961   101983125.548       -1225.556          33.000  
> 2021  9 12 10 33 41.9998420  0  8
C06  36696102.117   191086231.717        -772.766          28.000  
C25  21809440.838   113567503.279        -906.316          26.000  
G10  20150085.986   105889443.490        -608.695          30.000    20150094.980    79073300.374        -454.299          31.000  
G23  21219745.476   111510582.7421      -2981.493          17.000  
G25  20785117.163   109226486.180        -510.278          17.000  
G31  21789788.543   114505996.3401       1015.437          20.000  
G32  21804995.816   114586033.5501        520.154          28.000  
R12  19091507.125   101983403.367       -1225.855          29.000  
> 2021  9 12 10 33 42.9998420  0  6
C06  36696252.613   191087005.430        -773.968          30.000  
C25  21809617.716   113568409.920        -907.550          25.000  
G10  20150201.406   105890053.271        -610.714          31.000  
G23  21220312.084   111513565.518       -2983.089          18.000  
G32  21804893.586   114585513.108         519.936          29.000  
R12  19091737.965   101984636.682       -1227.559          26.000  
> 2021  9 12 10 33 43.9998415  0  5
C06  36696252.313   191086998.476        -773.317          29.000  
C25  21809642.898   113568537.271        -908.338          33.000  
G25  20785166.029   109226719.6741       -513.413          18.000  
G32  21804644.459   114584205.661         519.469          30.000  
R12  19091821.007   101985080.934       -1228.942          31.000  
> 2021  9 12 10 33 44.9998410  0  7
C06  36696251.414   191086991.495        -773.771          31.000  
C23  23901544.305   124461620.9041       1611.267          25.000  
C25  21809669.280   113568665.145        -907.492          33.000  
G25  20785112.966   109226445.859        -514.882          23.000  
G31  21788926.340   114501383.7711       1014.035          20.000  
G32  21804394.132   114582898.629         519.192          27.000  
R12  19091901.652   101985511.473       -1229.962          35.000  
> 2021  9 12 10 33 45.9998405  0  7
C06  36696252.613   191086984.037        -774.711          32.000  
C09  37685290.716   196237292.9411       -878.531          24.000  
C25  21809696.261   113568793.467        -910.489          33.000  
G10  20150108.470   105889526.6361       -613.068          38.000  
G12  22442975.751   117938460.1061      -2233.199          17.000  
G32  21804145.904   114581591.939         518.753          27.000  
R12  19091980.797   101985933.999       -1230.944          35.000  
> 2021  9 12 10 33 46.9998400  0  9
C06  36696250.814   191086977.376        -774.650          31.000  
C09  37685309.003   196237390.982        -877.777          23.000  
C25  21809719.645                        -910.375          32.000  
G10  20150076.992                        -614.671          38.000  
G12  22443247.963   117939908.387       -2237.725          15.000  
G25  20785014.334   109225901.2971       -516.147          22.000  
G31  21788242.514   114497775.4311       1019.578          18.000  
G32  21803895.277   114580285.385         518.979          27.000  
R12  19092059.642   101986355.361       -1231.513          33.000  
> 2021  9 12 10 33 47.9998395  0  6
C06  36696248.116   191086970.599        -773.394          27.000  
C09  37685329.090   196237488.258        -877.427          23.000  
C25  21809740.631   113569062.3481       -910.980          32.000  
G10  20150044.914   105889194.9981       -613.672          37.000  
G32  21803647.349   114578978.706         518.922          30.000  
R12  19092140.286   101986785.613       -1232.555          33.000  
> 2021  9 12 10 33 48.9998392  0  7
C06  36696305.676   191087275.578        -773.625          32.000  
C09  37685407.935   196237897.389        -877.172          23.000  
C25  21809832.067   113569504.663        -910.378          31.000  
G10  20150070.696   105889337.196        -614.967          38.000  
G12  22443846.049   117943114.2721      -2233.484          12.000  
G32  21803457.880   114577987.266         518.276          27.000  
R12  19092280.889   101987536.820       -1233.044          33.000  
> 2021  9 12 10 33 49.9998387  0  9
C06  36696306.276   191087268.046        -770.749          32.000  
C09  37685425.023   196237992.544        -875.907          22.000  
C23  23899327.640   124449977.4721       1611.092          26.000  
C25  21809856.950   113569635.016        -910.546          31.000  
G10  20150037.419   105889164.751        -616.160          38.000  
G12  22444117.361   117944558.183       -2227.492          12.000  
G25  20784924.396   109225405.7191       -519.095          22.000  
G32  21803209.352   114576680.384         519.512          27.000  
R12  19092362.732   101987974.351       -1233.833          34.000  
> 2021  9 12 10 33 50.9998385  0 11
C06  36696391.417   191087726.916        -772.197          32.000  
C09  37685532.948   196238557.613        -878.263          20.000  
C23  23898958.295   124448055.212        1609.650          25.000  
C25  21809972.670   113570234.220        -912.117          29.000  
G10  20150093.481   105889465.544        -615.909          37.000  
G12  22444477.412   117946470.501       -2229.747          12.000  
G23  21223817.557   111531962.8511      -2993.923          18.000  
G25  20784960.072   109225610.485        -519.488          23.000  
G31  21787036.748   114491650.7841       1010.362          15.000  
G32  21803050.162   114575845.817         519.258          24.000  
R12  19092534.813   101988893.097       -1234.784          32.000  
> 2021  9 12 10 33 51.9998380  0  9
C06  36696389.618   191087718.215        -771.504          29.000  
C23  23898499.613   124445665.773        1608.510          25.000  
C25  21809997.253   113570366.479        -913.682          29.000  
G10  20150064.401   105889294.374        -616.298          37.000  
G12  22444750.223   117947914.316       -2233.565          12.000  
G25  20784907.008   109225341.152        -517.572          23.000  
G31  21786693.486   114489853.700        1008.261          17.000  
G32  21802802.534   114574538.520         519.753          28.000  
R12  19092613.958   101989316.285       -1235.419          34.000  
> 2021  9 12 10 33 52.9998374  0  8
C06  36696358.140   191087553.581        -772.329          28.000  
C23  23898009.153   124443120.131        1608.950          26.000  
C25  21809990.957   113570342.959        -912.582          29.000  
G10  20149998.746   105888965.908        -617.585          36.000  
G12  22444992.155   117949203.605       -2236.228          13.000  
G23  21224628.795   111536217.7051      -2990.681          18.000  
G32  21802526.725   114573073.330         519.567          26.000  
R12  19092665.822   101989592.931       -1235.941          33.000  
> 2021  9 12 10 33 53.9998369  0  7
C06  36696356.341   191087545.604        -772.307          31.000  
C25  21810014.341   113570474.865        -912.822          28.000  
G10  20149967.868   105888795.505        -617.290          36.000  
G12  22445267.964   117950650.320       -2232.627          12.000  
G31  21785977.582   114486106.1751       1005.642          20.000  
G32  21802278.796   114571766.179         519.628          28.000  
R12  19092745.567   101990019.340       -1236.624          34.000  
> 2021  9 12 10 33 54.9998367  0  8
C06  36696444.780   191088005.597        -772.268          32.000  
C23  23897188.321   124438808.7021       1609.513          22.000  
C25  21810128.262   113571075.379        -912.489          28.000  
G10  20150026.027   105889098.243        -618.993          36.000  
G25  20784811.075   109224848.9051       -519.084          17.000  
G31  21785725.456   114484785.729        1005.557          20.000  
G32  21802120.806   114570931.893         519.678          31.000  
R12  19092916.749   101990933.768       -1237.044          33.000  
> 2021  9 12 10 33 55.9998362  0  9
C06  36696443.281   191087997.134        -772.962          32.000  
C09  37685681.346   196239350.6261       -875.742          18.000  
C23  23896729.339   124436419.091        1607.107          21.000  
C25  21810152.246   113571206.790        -911.454          30.000  
G10  20149994.249   105888928.989        -618.293          36.000  
G23  21225979.060   111543298.1541      -2986.519          14.000  
G25  20784759.510   109224580.482        -519.907          19.000  
G32  21801872.278   114569624.425         520.188          26.000  
R12  19092995.894   101991356.785       -1238.218          33.000  
> 2021  9 12 10 33 56.9998356  0  9
C06  36696413.302   191087832.816        -772.009          28.000  
C23  23896241.276   124433876.095        1605.444          24.000  
C25  21810146.550   113571181.747        -912.363          26.000  
G10  20149927.695   105888602.630        -618.851          36.000  
G12  22446146.956   117955303.1571      -2234.925          16.000  
G23  21226365.793   111545338.194       -2984.016          10.000  
G25  20784677.967   109224154.961        -520.272          20.000  
G32  21801592.272   114568158.763         519.283          25.000  
R12  19093046.559   101991627.211       -1238.533          32.000  
> 2021  9 12 10 33 57.9998351  0  7
C06  36696411.203   191087823.945        -771.840          30.000  
C23  23895784.393   124431489.032        1606.906          16.000  
C25  21810171.732   113571313.893        -913.189          29.000  
G10  20149897.716   105888434.674        -620.010          35.000  
G25  20784628.501   109223887.141        -520.659          20.000  
G32  21801346.742   114566851.908         517.461          26.000  
R12  19093126.903   101992056.421       -1239.521          33.000  
> 2021  9 12 10 33 58.9998349  0  6
C06  36696498.743   191088283.368        -771.571          30.000  
C23  23895415.348   124429569.010        1608.688          19.000  
C25  21810286.553   113571915.057        -914.648          29.000  
G10  20149957.375   105888740.136        -621.651          35.000  
G32  21801187.552   114566020.224         516.592          25.000  
R12  19093299.584   101992978.881       -1240.460          33.000  
> 2021  9 12 10 33 59.9998344  0  7
C06  36696496.644   191088274.653        -771.489          32.000  
C23  23894957.565   124427181.006        1606.512          23.000  
C25  21810312.035   113572049.672        -915.804          28.000  
G10  20149928.595   105888573.356        -621.567          37.000  
G25  20784619.208   109223829.2701       -524.786          21.000  
G31  21784057.111   114476126.7181       1008.011          23.000  
R12  19093383.825   101993428.826       -1241.318          32.000  
> 2021  9 12 10 34  0.9998341  0  7
C06  36696555.403   191088577.579        -771.963          31.000  
C23  23894557.642   124425105.728        1606.520          23.000  
C25  21810398.076   113572498.056        -918.219          28.000  
G10  20149956.475   105888722.409        -621.335          36.000  
G31  21783772.608   114474646.372        1008.021          24.000  
G32  21800746.557   114563722.4801        519.476          27.000  
R12  19093523.529   101994174.921       -1242.196          31.000  
> 2021  9 12 10 34  1.9998336  0  8
C06  36696553.005   191088568.426        -771.334          29.000  
C09  37685911.287   196240536.6171       -875.209          20.000  
C23  23894098.060   124422717.762        1608.812          18.000  
C25  21810424.457   113572636.230        -918.505          22.000  
G10  20149923.798   105888556.998        -622.142          35.000  
G31  21783429.046   114472850.006        1008.137          23.000  
G32  21800497.729   114562414.691         520.124          30.000  
R12  19093606.571   101994618.529       -1242.823          32.000  
> 2021  9 12 10 34  2.9998331  0  8
C06  36696551.806   191088558.850        -770.911          24.000  
C23  23893636.680   124420326.449        1611.246          17.000  
C25  21810450.539   113572773.996        -918.090          30.000  
G10  20149891.720   105888392.246        -623.316          39.000  
G25  20784534.666   109223358.3881       -526.935          21.000  
G31  21783083.085   114471054.535        1007.177          23.000  
G32  21800249.501   114561106.842         520.071          30.000  
R12  19093686.916   101995048.013       -1243.836          34.000  
> 2021  9 12 10 34  3.9998326  0  8
C06  36696552.106   191088549.040        -770.811          25.000  
C08  37897250.579   197340810.4671      -2438.962          21.000  
C25  21810475.422   113572911.224        -917.880          28.000  
C33  22254795.426   115886512.6811       -993.802          26.000  
G10  20149862.041   105888228.283        -624.208          40.000  
G31  21782738.324   114469259.942        1006.184          23.000  
G32  21800000.074   114559799.010         520.051          30.000  
R12  19093767.260   101995477.428       -1244.670          33.000  
> 2021  9 12 10 34  4.9998321  0  8
C06  36696551.806   191088540.011        -772.559          28.000  
C13  36980717.882   192568414.2691      -2211.313          24.000  
C25  21810501.804   113573047.768        -917.034          30.000  
C33  22254837.696   115886725.330        -992.974          25.000  
G10  20149829.663   105888065.041        -624.351          41.000  
G12  22448535.402   117967734.2231      -2244.683          19.000  
G32  21799749.447   114558491.233         519.731          28.000  
R12  19093850.902   101995923.884       -1245.725          33.000  
> 2021  9 12 10 34  5.9998316  0 10
C06  36696551.806   191088531.872        -772.716          29.000  
C13  36980993.991   192569843.124       -2208.736          23.000  
C23  23892258.833   124413154.0821       1612.788          16.000  
C25  21810529.085   113573184.142        -916.691          30.000  
C33  22254878.468   115886938.330        -993.472          24.000  
G10  20149797.286   105887902.294        -625.417          41.000  
G12  22448817.207   117969191.157       -2244.741          20.000  
G31  21782048.502   114465673.6271       1004.748          18.000  
G32  21799501.519   114557183.933         519.303          30.000  
R12  19093934.544   101996370.264       -1246.772          34.000  
> 2021  9 12 10 34  6.9998316  0 10
C06  36696700.203   191089304.347        -772.332          26.000  
C08  37898352.616   197346559.3641      -2436.496          20.000  
C13  36981416.998   192572052.703       -2210.390          23.000  
C25  21810706.562   113574101.361        -917.606          31.000  
C33  22255069.736   115887932.110        -993.678          24.000  
G10  20149916.603   105888527.903        -625.564          40.000  
G12  22449244.112   117971434.419       -2242.224          20.000  
G25  20784489.997   109223105.4011       -527.987          21.000  
G32  21799403.787   114556664.572         519.294          29.000  
R12  19094169.881   101997628.133       -1247.463          34.000  
> 2021  9 12 10 34  7.9998310  0  9
C06  36696668.725   191089139.862        -771.701          28.000  
C13  36981662.228   192573326.148       -2210.677          23.000  
C25  21810702.365   113574082.315        -918.127          31.000  
C33  22255083.526   115887989.131        -993.324          25.000  
E21  24187112.211   127104156.9281      -1214.670          27.000  
G10  20149852.747   105888209.020        -626.591          40.000  
G25  20784415.648   109222688.860        -528.857          21.000  
G32  21799125.879   114555199.952         519.407          30.000  
R12  19094224.743   101997920.849       -1248.259          34.000  
> 2021  9 12 10 34  8.9998305  0 10
C06  36696666.626   191089130.833        -771.581          30.000  
C13  36981936.238   192574756.000       -2210.141          21.000  
C25  21810729.946   113574220.577        -919.442          27.000  
C33  22255124.898   115888201.878        -993.115          19.000  
E21  24187193.155   127104584.171       -1216.046          26.000  
G10  20149824.267   105888048.221        -627.607          36.000  
G25  20784364.684   109222430.381        -529.474          20.000  
G31  21781128.738   114460603.3681       1004.205          18.000  
G32  21798877.051   114553892.788         519.471          33.000  
R12  19094308.385   101998367.516       -1248.990          33.000  
> 2021  9 12 10 34  9.9998300  0 10
C06  36696664.228   191089121.394        -770.879          30.000  
C13  36982211.148   192576186.452       -2212.098          22.000  
C25  21810759.026   113574359.415        -919.665          31.000  
C33  22255166.869   115888415.928        -995.547          21.000  
E21  24187274.998   127105011.949       -1215.416          25.000  
G10  20149793.988   105887888.315        -627.968          39.000  
G25  20784317.317   109222166.593        -522.608          19.000  
G31  21780786.375   114458811.906        1003.663          18.000  
G32  21798630.022   114552585.640         519.578          34.000  
R12  19094395.025   101998830.190       -1250.082          35.000  
> 2021  9 12 10 34 10.9998295  0 10
C06  36696662.429   191089111.186        -770.075          29.000  
C08  37899592.258   197353023.1291      -2434.964          19.000  
C25  21810786.307   113574498.954        -921.183          31.000  
C33  22255208.240   115888631.108        -995.792          25.000  
E21  24187354.143   127105439.330       -1215.265          27.000  
G10  20149764.608   105887729.098        -628.640          40.000  
G25  20784260.656   109221904.537        -530.383          18.000  
G31  21780443.413   114457020.617        1003.156          20.000  
G32  21798384.193                         520.860          32.000  
R12  19094481.066   101999289.767       -1250.860          34.000  
> 2021  9 12 10 34 11.9998292  0 11
C06  36696719.090   191089412.603        -770.055          30.000  
C08  37899966.399   197354991.010       -2438.813          18.000  
C13  36982823.924   192579357.3501      -2209.666          24.000  
C25  21810873.247   113574951.336        -920.261          28.000  
C33  22255310.769   115889159.635        -996.606          26.000  
E21  24187494.446   127106181.923       -1216.081          27.000  
G10  20149793.688   105887885.662        -628.943          39.000  
G25  20784272.947   109221966.586        -535.880          16.000  
G31  21780162.507   114455544.999        1002.628          23.000  
G32  21798190.527                         520.204          31.000  
R12  19094629.163   102000081.553       -1251.814          34.000  
> 2021  9 12 10 34 12.9998287  0 11
C06  36696716.991   191089401.441        -769.993          28.000  
C13  36983098.833   192580787.300       -2211.820          24.000  
C25  21810899.928   113575091.132        -920.537          29.000  
C33  22255354.239   115889375.744        -995.993          25.000  
E21  24187575.690   127106610.980       -1217.449          26.000  
G10  20149760.711   105887727.904        -630.169          39.000  
G12  22450942.736   117980348.3131      -2248.974          17.000  
G25  20784226.779   109221718.150        -536.176          13.000  
G31  21779822.243   114453755.440        1001.364          24.000  
G32  21797944.997   114548983.2601        520.388          31.000  
R12  19094714.604   102000537.119       -1252.868          33.000  
> 2021  9 12 10 34 13.9998282  0  8
C06  36696713.994   191089390.441        -769.392          28.000  
C13  36983372.544   192582219.250       -2212.511          24.000  
C25  21810926.909   113575231.344        -921.297          28.000  
C33  22255395.610   115889592.092        -996.864          24.000  
G10  20149730.132   105887570.922        -631.063          39.000  
G31  21779480.779   114451966.707        1000.746          24.000  
G32  21797692.272   114547676.851         517.218          30.000  
R12  19094801.244   102001000.693       -1254.216          34.000  
> 2021  9 12 10 34 14.9998280  0  8
C06  36696802.732   191089847.707        -770.115          27.000  
C13  36983736.192   192584120.009       -2213.524          24.000  
C25  21811045.028   113575840.548        -922.508          26.000  
C33  22255525.720   115890276.719        -996.149          25.000  
G10  20149791.290   105887887.237        -631.527          38.000  
G31  21779229.253   114450650.933        1000.393          26.000  
G32  21797532.182   114546843.095         517.753          29.000  
R12  19094976.623   102001936.781       -1255.011          33.000  
> 2021  9 12 10 34 15.9998275  0  8
C06  36696802.133   191089837.300        -770.350          27.000  
C13  36984012.001   192585553.332       -2214.080          22.000  
C25  21811074.108   113575983.890        -924.988          27.000  
G10  20149763.709   105887731.645        -631.834          37.000  
G25  20784172.217   109221441.7071       -536.142          12.000  
G31  21778887.790   114448863.024         999.800          25.000  
G32  21797285.753   114545536.303         517.167          29.000  
R12  19095062.963   102002398.223       -1255.842          33.000  
> 2021  9 12 10 34 16.9998269  0  8
C06  36696771.254   191089671.623        -770.883          26.000  
C13  36984257.531   192586829.509       -2211.991          22.000  
C25  21811072.009   113575971.719        -923.780          29.000  
C33  22255575.486   115890555.7691       -998.535          21.000  
G10  20149703.750   105887419.435        -634.899          38.000  
G31  21778518.146   114446918.033         999.316          21.000  
G32  21797006.347   114544073.938         517.058          28.000  
R12  19095118.125   102002693.406       -1256.613          33.000  
> 2021  9 12 10 34 17.9998267  0  9
C06  36696859.693   191090129.829        -770.612          23.000  
C13  36984622.978   192588728.640       -2210.672          23.000  
C25  21811189.528   113576583.648        -924.566          31.000  
C33  22255705.895   115891241.868        -997.722          21.000  
G10  20149763.109   105887738.195        -633.969          38.000  
G25  20784134.743   109221253.5211       -536.952          12.000  
G31  21778266.620   114445603.857         999.138          20.000  
G32  21796849.855   114543241.683         517.967          26.000  
R12  19095291.705   102003620.078       -1257.646          33.000  
> 2021  9 12 10 34 18.9998262  0  9
C06  36696858.194   191090120.920        -772.608          22.000  
C08  37902357.244   197367412.7991      -2443.701          18.000  
C13  36984898.188   192590159.133       -2210.703          22.000  
C25  21811217.408   113576728.091        -925.507          31.000  
C33  22255745.168   115891458.093        -996.367          24.000  
G10  20149734.629   105887585.257        -635.254          38.000  
G25  20784086.476   109221002.945        -536.808          12.000  
G32  21796601.327   114541935.288         518.671          28.000  
R12  19095376.246   102004071.431       -1258.757          33.000  
> 2021  9 12 10 34 19.9998257  0  9
C06  36696855.496   191090112.292        -771.740          22.000  
C13  36985170.699   192591589.646       -2210.980          22.000  
C25  21811244.690   113576873.340        -926.284          32.000  
G10  20149705.549   105887433.178        -635.591          37.000  
G12  22453063.767   117991390.7111      -2256.398          16.000  
G25  20784038.210   109220751.735        -535.936          13.000  
G32  21796353.698   114540629.268         517.670          30.000  
J01  38025401.662   199824949.0381        451.123          25.000  
R12  19095461.687   102004528.715       -1259.597          33.000  
> 2021  9 12 10 34 20.9998252  0 10
C06  36696853.697   191090103.760        -772.489          25.000  
C13  36985446.808   192593020.837       -2211.473          23.000  
C25  21811270.172                        -926.908          31.000  
C33  22255825.213   115891893.2571       -999.881          20.000  
G10  20149676.169   105887281.904        -637.761          38.000  
G12  22453342.874   117992859.042       -2260.026          14.000  
G31  21777250.024   114440259.0681        991.674          17.000  
G32  21796106.669   114539323.731         518.183          30.000  
J01  38025168.124   199823710.280         451.225          23.000  
R12  19095547.128   102004985.152       -1260.792          34.000  
> 2021  9 12 10 34 21.9998246  0  9
C06  36696823.118   191089939.394        -773.151          25.000  
C13  36985692.038   192594295.400       -2211.140          24.000  
C25  21811268.373                        -928.463          33.000  
C33  22255835.406   115891957.803       -1003.002          21.000  
G10  20149619.209   105886974.276        -638.218          40.000  
G25  20783914.096   109220091.3501       -541.416          13.000  
G32  21795828.162   114537860.704         517.042          30.000  
J01  38024904.007   199822313.820         449.840          24.000  
R12  19095600.791   102005271.695       -1262.442          35.000  
> 2021  9 12 10 34 22.9998244  0  9
C06  36696910.657   191090399.930        -773.639          26.000  
C13  36986059.584   192596196.535       -2214.250          23.000  
C25  21811384.393   113577613.4361       -928.548          32.000  
C33  22255970.912   115892649.912       -1004.762          22.000  
G10  20149680.966   105887297.738        -639.434          39.000  
G31  21776633.051   114437011.7211        993.779          17.000  
G32  21795670.471   114537028.814         515.968          30.000  
J01  38024761.306   199821549.211         448.688          25.000  
R12  19095776.169   102006208.185       -1263.691          35.000  
> 2021  9 12 10 34 23.9998241  0 10
C06  36696967.318   191090705.415        -774.027          26.000  
C13  36986394.152   192597943.539       -2215.710          22.000  
C25  21811469.534   113578073.905        -929.248          31.000  
C33  22256073.741   115893187.107       -1005.483          18.000  
G10  20149711.545   105887464.623        -640.852          38.000  
G25  20783971.056   109220388.3231       -542.251          14.000  
G31  21776355.143   114435545.515         993.486          17.000  
G32  21795484.300   114536040.657         515.033          30.000  
J01  38024587.426   199820628.900         446.731          26.000  
R12  19095921.269   102006983.743       -1264.597          34.000  
> 2021  9 12 10 34 24.9998236  0  8
C06  36696964.020   191090697.789        -772.648          27.000  
C13  36986670.561   192599378.706       -2215.142          19.000  
C25  21811498.614   113578222.949        -931.857          30.000  
C33  22256119.009   115893413.207       -1006.611          21.000  
G10  20149682.465   105887317.406        -640.941          36.000  
G32  21795237.871   114534737.705         515.357          31.000  
J01  38024352.389   199819394.071         447.246          28.000  
R12  19096007.609   102007445.001       -1265.759          33.000  
> 2021  9 12 10 34 25.9998231  0  9
C06  36696961.023   191090689.517        -772.529          27.000  
C13  36986947.869   192600812.232       -2212.954          24.000  
C25  21811531.591   113578372.646        -928.919          31.000  
C33  22256163.079   115893638.621       -1005.590          26.000  
G10  20149655.484   105887171.023        -641.850          37.000  
G23  21239199.308   111612744.7551      -3011.697          28.000  
G25  20783876.921   109219898.0441       -542.993          12.000  
J01  38024115.852   199818158.916         446.703          28.000  
R12  19096093.350   102007902.497       -1266.870          34.000  
> 2021  9 12 10 34 26.9998226  0  9
C06  36696959.823   191090681.531        -772.452          26.000  
C13  36987222.778   192602243.490       -2210.874          23.000  
C25  21811558.872   113578522.987        -932.054          30.000  
G10  20149626.704   105887025.531        -643.349          37.000  
G23  21239621.716   111614969.689       -3012.736          29.000  
G25  20783829.554   109219653.366        -544.532          11.000  
G32  21794735.119   114532131.0851        515.463          33.000  
J01  38023881.115   199816924.390         446.815          27.000  
R12  19096178.791   102008359.006       -1267.834          33.000  
> 2021  9 12 10 34 27.9998221  0 10
C06  36696958.025   191090672.813        -771.812          28.000  
C13  36987498.588   192603675.297       -2214.874          22.000  
C25  21811587.052   113578674.034        -933.392          30.000  
E21  24189084.845   127114532.6101      -1225.943          26.000  
G10  20149600.622   105886880.889        -643.303          36.000  
G23  21240043.824   111617195.049       -3013.725          28.000  
G25  20783776.491   109219412.054        -549.489          12.000  
G32  21794486.891                         516.677          33.000  
J01  38023646.377   199815689.837         446.660          27.000  
R12  19096266.929   102008829.559       -1268.821          32.000  
> 2021  9 12 10 34 28.9998216  0  9
C06  36696955.626   191090665.101        -773.603          28.000  
C13  36987774.996   192605110.119       -2215.752          24.000  
C25  21811616.732   113578825.740        -931.544          29.000  
E21  24189167.288   127114970.745       -1226.879          26.000  
G10  20149572.441   105886737.111        -644.401          37.000  
G23  21240466.831   111619420.761       -3013.960          27.000  
G32  21794241.061   114529499.0851        514.877          30.000  
J01  38023411.040   199814454.296         448.477          26.000  
R12  19096353.869   102009294.166       -1269.944          32.000  
> 2021  9 12 10 34 29.9998213  0  8
C06  36697014.685   191090970.479        -774.267          27.000  
C13  36988110.164   192606857.414       -2216.003          24.000  
C25  21811704.871   113579289.608        -932.265          28.000  
G10  20149607.517   105886909.145        -645.582          36.000  
G23  21240950.396   111621962.097       -3013.858          25.000  
G32  21794050.992   114528511.448         514.540          32.000  
J01  38023235.362   199813532.516         449.323          26.000  
R12  19096498.969   102010069.045       -1271.087          32.000  
> 2021  9 12 10 34 30.9998211  0  9
C06  36697104.024   191091432.844        -775.442          25.000  
C13  36988475.911   192608760.971       -2215.620          26.000  
C25  21811824.788   113579909.306        -931.784          28.000  
G10  20149668.974   105887239.061        -644.307          35.000  
G23  21241463.941   111624661.222       -3015.263          25.000  
G31  21774176.851   114423876.7381        989.741          21.000  
G32  21793893.002   114527680.120         516.350          27.000  
J01  38023088.164   199812766.920         451.720          21.000  
R12  19096678.844   102011029.768       -1271.517          32.000  
> 2021  9 12 10 34 31.9998205  0  7
C06  36697071.946   191091269.624        -772.318          18.000  
C13  36988717.544   192610040.828       -2217.683          26.000  
C25  21811825.987   113579905.108        -933.712          30.000  
G10  20149614.112   105886939.781        -647.893          33.000  
G31  21773814.702   114421941.921         989.486          21.000  
G32  21793615.994   114526219.373         514.669          24.000  
R12  19096738.503   102011348.722       -1272.506          31.000  
> 2021  9 12 10 34 32.9998200  0  9
C06  36697068.348   191091262.593        -775.040          19.000  
C13  36988994.852   192611478.668       -2218.926          25.000  
C25  21811854.767   113580058.802        -935.440          31.000  
G10  20149587.731   105886799.314        -645.383          33.000  
G25  20783666.467   109218882.0711       -558.454          15.000  
G31  21773478.634   114420165.252         988.098          22.000  
G32  21793370.763   114524918.064         513.099          21.000  
J01  38022590.209   199810135.0101        447.763          22.000  
R12  19096827.242   102011822.969       -1273.941          31.000  
> 2021  9 12 10 34 33.9998195  0  8
C06  36697067.749   191091256.772        -774.556          27.000  
C13  36989270.361   192612916.399       -2219.047          29.000  
C25  21811884.447   113580213.921        -936.175          31.000  
G10  20149558.951   105886660.082        -650.468          35.000  
G23  21242703.882   111631191.6921      -3015.334          16.000  
G31  21773142.267   114418388.941         988.420          22.000  
G32  21793124.934   114523616.694         513.480          28.000  
R12  19096920.177   102012319.375       -1274.529          31.000  
> 2021  9 12 10 34 34.9998190  0  5
C13  36989545.570   192614354.358       -2217.706          26.000  
G10  20149528.971   105886521.330        -648.823          24.000  
G32  21792880.003   114522315.337         513.744          29.000  
J01  38022123.432   199807669.9301        442.540          20.000  
R12  19097009.216   102012794.691       -1275.741          25.000  
> 2021  9 12 10 34 35.9998188  0  6
C13  36989908.319   192616259.653       -2217.470          24.000  
C25  21812035.242   113580991.6561       -935.873          18.000  
G23  21243636.536   111636114.8251      -3013.821          15.000  
G25  20783622.697   109218660.0791       -554.235          15.000  
G31  21772550.177   114415305.4501        991.312          20.000  
R12  19097191.489   102013768.310       -1276.341          28.000  
> 2021  9 12 10 34 36.9998182  0  5
C06  36697127.707   191091546.1671       -773.561          17.000  
C13  36990151.151   192617541.365       -2218.383          21.000  
G10  20149532.269   105886559.7251       -649.674          23.000  
G32  21792441.707   114520025.9771        514.907          26.000  
R12  19097255.945   102014112.744       -1276.107          27.000  
> 2021  9 12 10 34 37.9998177  0  4
C06  36697125.009   191091539.131        -773.112          24.000  
C13  36990426.960   192618978.732       -2217.551          28.000  
G32  21792195.577   114518723.484         515.016          28.000  
R12  19097348.581   102014607.497       -1277.352          26.000  
> 2021  9 12 10 34 38.9998175  0  5
C06  36697211.349   191091999.472        -773.264          23.000  
C13  36990793.007   192620884.019       -2217.393          27.000  
G10  20149571.842   105886757.0551       -650.712          28.000  
G32  21792038.486   114517893.745         515.492          27.000  
R12  19097526.657   102015558.788       -1278.343          26.000  
> 2021  9 12 10 34 39.9998170  0  5
C13  36991069.416   192622321.051       -2217.555          28.000  
G10  20149549.057   105886620.469        -651.613          29.000  
G25  20783503.080   109218037.5401       -553.187          18.000  
G32  21791786.360   114516590.764         514.915          26.000  
R12  19097616.895   102016040.747       -1279.575          29.000  
> 2021  9 12 10 34 40.9998164  0  7
C06  36697177.173   191091828.4861       -773.226          20.000  
C13  36991318.243   192623602.583       -2218.446          27.000  
C25  21812219.315   113581929.2511       -939.392          21.000  
G10  20149495.395   105886327.113        -652.210          29.000  
G31  21770869.840   114406593.8121        986.456          16.000  
G32  21791510.851   114515130.771         514.148          26.000  
R12  19097677.453   102016364.729       -1280.343          28.000  
> 2021  9 12 10 34 41.9998159  0  4
C13  36991595.551   192625039.898       -2217.573          27.000  
G10  20149470.512   105886191.996        -652.841          28.000  
G32  21791265.021   114513828.854         514.862          27.000  
R12  19097768.890   102016853.270       -1280.749          28.000  
> 2021  9 12 10 34 42.9998157  0  4
C13  36991962.497   192626945.145       -2217.750          27.000  
G10  20149535.567   105886530.114        -653.610          29.000  
G32  21791108.230   114512998.231         515.385          26.000  
R12  19097948.465   102017811.929       -1281.480          30.000  
> 2021  9 12 10 34 43.9998152  0  6
C06  36697261.415   191092278.4151       -775.053          20.000  
C13  36992238.906   192628383.159       -2219.051          27.000  
C25  21812397.691   113582872.0111       -939.312          20.000  
G10  20149512.783   105886396.122        -654.048          31.000  
G32  21790861.201   114511694.663         516.043          27.000  
R12  19098036.604   102018282.875       -1282.217          30.000  
> 2021  9 12 10 34 44.9998147  0  6
C06  36697258.716   191092271.456        -773.210          20.000  
C13  36992515.015   192629821.940       -2219.692          27.000  
G10  20149486.401   105886262.613        -654.669          28.000  
G31  21769589.727   114399973.4121        984.036          17.000  
G32  21790612.673   114510391.377         515.484          26.000  
R12  19098126.242   102018761.834       -1283.236          29.000  
> 2021  9 12 10 34 45.9998141  0  4
C13  36992762.044   192631105.104       -2220.897          28.000  
G10  20149431.239   105885972.197        -655.135          28.000  
G32  21790335.065   114508931.454         513.966          25.000  
R12  19098186.201   102019082.509       -1284.225          28.000  
> 2021  9 12 10 34 46.9998139  0  5
C13  36993131.088   192633012.169       -2218.646          25.000  
C25  21812551.785   113583667.4821       -939.438          20.000  
G10  20149495.095   105886312.611        -655.873          30.000  
G32  21790176.475   114508102.248         515.456          28.000  
R12  19098364.577   102020035.451       -1284.915          29.000  
> 2021  9 12 10 34 47.9998134  0  6
C13  36993407.197   192634450.914       -2219.176          25.000  
C25  21812583.263   113583825.212        -938.833          21.000  
G10  20149469.313   105886180.977        -656.341          31.000  
G25  20783287.829   109216809.5131       -559.260          15.000  
G32  21789927.647   114506798.878         515.558          25.000  
R12  19098456.014   102020523.840       -1285.735          29.000  
> 2021  9 12 10 34 48.9998131  0  4
C13  36993743.864   192636201.565       -2218.746          29.000  
G10  20149505.288   105886364.994        -656.950          31.000  
G32  21789738.478   114505811.229         514.513          25.000  
R12  19098605.910   102021324.154       -1286.195          29.000  
> 2021  9 12 10 34 49.9998126  0  6
C06  36697360.646   191092843.4841       -759.967          17.000  
C13  36994020.572   192637639.689       -2218.180          29.000  
C25  21812704.979   113584458.3381       -941.919          21.000  
G10  20149480.105   105886234.987        -657.822          30.000  
G25  20783263.546   109216665.7731       -558.811          13.000  
R12  19098698.546   102021818.688       -1286.534          29.000  
> 2021  9 12 10 34 50.9998121  0  6
C06  36697355.849   191092822.036        -754.497          15.000  
C13  36994297.281   192639077.154       -2218.712          28.000  
G10  20149456.122   105886104.732        -657.147          30.000  
G25  20783222.474   109216434.229        -552.304          13.000  
G32  21789240.223   114503209.3151        511.921          26.000  
R12  19098787.584   102022294.560       -1287.019          29.000  
> 2021  9 12 10 34 51.9998116  0  6
C06  36697351.952   191092793.897        -753.525          14.000  
C13  36994575.488   192640516.034       -2219.323          27.000  
G10  20149431.839   105885974.462        -657.405          30.000  
G31  21767326.593   114388199.8811        985.816          17.000  
G32  21788987.798   114501907.692         514.355          24.000  
R12  19098877.222   102022773.042       -1287.628          30.000  
> 2021  9 12 10 34 52.9998111  0  6
C06  36697347.755   191092762.483        -742.689          12.000  
C13  36994851.297   192641954.540       -2219.184          27.000  
G10  20149406.056   105885843.977        -657.477          31.000  
G25  20783143.629   109215968.3861       -557.862          12.000  
G32  21788738.970   114500605.385         515.312          21.000  
R12  19098965.361   102023244.055       -1287.947          31.000  
> 2021  9 12 10 34 53.9998108  0  4
C13  36995185.866   192643704.312       -2217.944          29.000  
G10  20149440.233   105886028.521        -657.723          29.000  
G32  21788550.400   114499616.320         517.344          24.000  
R12  19099113.759   102024036.914       -1288.736          30.000  
> 2021  9 12 10 34 54.9998103  0  4
C13  36995460.775   192645141.492       -2218.011          28.000  
G10  20149414.750   105885898.502        -658.316          30.000  
G32  21788301.872   114498311.072         518.364          25.000  
R12  19099203.996   102024518.889       -1289.179          30.000  
> 2021  9 12 10 34 55.9998100  0  4
C13  36995795.644   192646890.450       -2216.037          27.000  
G10  20149449.526   105886084.536        -658.655          31.000  
G32  21788115.402   114497319.970         519.240          23.000  
R12  19099355.991   102025331.014       -1290.225          29.000  
> 2021  9 12 10 34 56.9998095  0  5
C13  36996070.553   192648326.042       -2215.828          24.000  
G10  20149424.943   105885956.330        -659.933          30.000  
G31  21765765.274   114379971.5401        982.365          20.000  
G32  21787866.574   114496013.147         518.582          26.000  
R12  19099449.226   102025829.457       -1290.465          30.000  
> 2021  9 12 10 34 57.9998090  0  5
C13  36996345.763   192649761.852       -2216.060          25.000  
G10  20149400.061   105885828.767        -660.519          31.000  
G25  20783064.184   109215738.6531       -565.515          17.000  
G32  21787619.845   114494707.238         518.161          27.000  
R12  19099542.162   102026325.114       -1289.866          29.000  
> 2021  9 12 10 34 58.9998085  0  4
C13  36996621.572   192651197.310       -2216.144          27.000  
G10  20149376.077   105885701.991        -660.770          30.000  
G32  21787371.317   114493401.201         518.226          25.000  
R12  19099637.496   102026835.185       -1290.240          30.000  
> 2021  9 12 10 34 59.9998080  0  5
C13  36996895.882   192652632.757       -2216.041          28.000  
G10  20149352.993   105885574.899        -660.411          30.000  
G25  20782980.542   109215294.2861       -567.601          16.000  
G32  21787123.988   114492095.134         518.714          26.000  
R12  19099728.033   102027317.910       -1291.915          29.000  
> 2021  9 12 10 35  0.9998077  0  4
C13  36997230.750   192654380.242       -2215.341          27.000  
G10  20149388.069   105885763.221        -661.419          31.000  
G32  21786933.920   114491103.390         518.648          25.000  
R12  19099879.129   102028125.570       -1292.506          30.000  
> 2021  9 12 10 35  1.9998072  0  5
C13  36997509.557   192655815.279       -2215.487          27.000  
G10  20149364.086   105885637.394        -662.087          30.000  
G31  21764164.682   114371432.0581        982.779          21.000  
G32  21786686.891   114489797.157         518.645          23.000  
R12  19099972.064   102028621.482       -1293.100          29.000  
> 2021  9 12 10 35  2.9998070  0  5
C13  36997877.402   192657719.313       -2217.119          24.000  
G10  20149429.140   105885984.269        -661.933          31.000  
G31  21763918.253   114370135.877         980.726          21.000  
G32  21786531.298   114488961.661         521.450          21.000  
R12  19100153.139   102029589.344       -1293.576          29.000  
> 2021  9 12 10 35  3.9998065  0  5
C13  36998151.713   192659156.060       -2216.768          24.000  
G10  20149406.056   105885858.637        -662.460          30.000  
G31  21763582.485   114368367.474         980.369          24.000  
G32  21786284.869   114487652.610         521.382          24.000  
R12  19100246.075   102030085.452       -1294.523          29.000  
> 2021  9 12 10 35  4.9998060  0  5
C13  36998426.622   192660592.013       -2216.788          27.000  
G10  20149384.771   105885733.477        -662.695          30.000  
G31  21763245.818   114366600.063         978.913          20.000  
G32  21786036.641   114486344.606         518.688          24.000  
R12  19100338.411   102030579.304       -1295.185          29.000  
> 2021  9 12 10 35  5.9998054  0  5
C13  36998670.953   192661871.591       -2215.603          27.000  
G10  20149332.907   105885451.271        -663.298          32.000  
G25  20782858.826   109214612.4151       -569.268          16.000  
G31  21762883.369   114364675.674         979.904          20.000  
R12  19100396.571   102030889.739       -1295.921          29.000  
> 2021  9 12 10 35  6.9998049  0  5
C13  36998948.561   192663307.401       -2217.166          25.000  
G10  20149305.626   105885326.836        -664.429          31.000  
G31  21762548.801   114362908.175         979.851          20.000  
G32  21785507.807   114483574.5251        518.727          24.000  
R12  19100489.206   102031384.001       -1296.347          28.000  
> 2021  9 12 10 35  7.9998047  0  5
C13  36999313.109   192665212.371       -2217.631          23.000  
G10  20149371.580                        -666.152          31.000  
G25  20782867.520   109214654.1901       -575.050          15.000  
G31  21762303.571   114361613.203         979.771          22.000  
R12  19100671.180   102032356.138       -1296.903          28.000  
> 2021  9 12 10 35  8.9998042  0  5
C13  36999587.718   192666649.104       -2217.634          26.000  
G10  20149349.995   105885538.6141       -665.765          31.000  
G31  21761966.304   114359846.098         978.976          21.000  
G32  21785094.693   114481436.0231        517.578          24.000  
R12  19100761.418   102032838.475       -1297.428          28.000  
> 2021  9 12 10 35  9.9998039  0  6
C13  36999923.786   192668397.327       -2216.183          26.000  
C23  23864371.539   124267871.5071       1584.179          27.000  
G10  20149385.071   105885730.841        -664.653          31.000  
G31  21761686.298   114358393.682         979.939          18.000  
G32  21784906.723   114480445.017         518.958          25.000  
R12  19100914.312   102033655.713       -1298.240          28.000  
> 2021  9 12 10 35 10.9998034  0  6
C13  37000199.595   192669832.917       -2215.602          27.000  
C23  23863917.054   124265507.090        1583.238          27.000  
G10  20149361.088   105885608.447        -665.345          31.000  
G25  20782806.063   109214317.3661       -559.723          12.000  
G31  21761347.533   114356626.476         979.017          19.000  
G32  21784660.293   114479138.437         517.875          25.000  
> 2021  9 12 10 35 11.9998029  0  7
C13  37000474.205   192671267.460       -2215.217          27.000  
C23  23863464.068   124263142.649        1584.013          28.000  
G10  20149335.006   105885486.534        -663.721          31.000  
G25  20782763.192   109214089.301        -560.200          12.000  
G31  21761009.067   114354860.143         977.959          20.000  
G32  21784410.267   114477832.829         517.565          24.000  
R12  19101108.578   102034693.3101      -1299.304          27.000  
> 2021  9 12 10 35 12.9998026  0  7
C13  37000809.373   192673014.491       -2216.216          27.000  
C23  23863070.440   124261090.104        1583.499          29.000  
G10  20149373.979   105885680.139        -667.657          31.000  
G25  20782775.784   109214179.055        -566.142          12.000  
G31  21760732.958   114353409.607         977.874          21.000  
G32  21784221.697   114476842.322         517.820          24.000  
R12  19101265.969   102035533.294       -1299.923          27.000  
> 2021  9 12 10 35 13.9998021  0  7
C13  37001087.580   192674450.071       -2216.287          25.000  
C23  23862616.854   124258725.687        1584.610          28.000  
G10  20149351.194   105885559.123        -668.187          30.000  
G25  20782729.316   109213957.903        -567.685          13.000  
G31  21760397.790   114351644.082         977.240          21.000  
G32  21783974.668   114475535.295         520.755          23.000  
R12  19101360.104   102036036.787       -1300.823          27.000  
> 2021  9 12 10 35 14.9998016  0  5
C13  37001362.190   192675885.151       -2215.326          25.000  
C23  23862164.167   124256360.329        1584.226          27.000  
G10  20149326.012   105885438.798        -667.719          30.000  
G32  21783726.140   114474226.473         520.450          27.000  
R12  19101448.542   102036508.997       -1301.403          26.000  
> 2021  9 12 10 35 15.9998011  0  6
C23  23861709.682   124253995.795        1583.444          27.000  
G10  20149298.431   105885318.694        -667.229          29.000  
G25  20782640.877   109213519.2211       -569.848          13.000  
G31  21759717.261   114348113.9711        977.951          20.000  
G32  21783476.113   114472918.164         519.609          27.000  
R12  19101541.178   102037004.087       -1302.319          28.000  
> 2021  9 12 10 35 16.9998006  0  6
C13  37001910.211   192678757.3271      -2215.283          23.000  
C23  23861256.696   124251631.550        1583.412          25.000  
G10  20149274.448   105885199.854        -668.942          26.000  
G25  20782596.808   109213302.039        -571.326          14.000  
G32  21783227.585   114471611.602         519.206          22.000  
R12  19101638.311   102037522.780       -1302.876          26.000  
> 2021  9 12 10 35 17.9998003  0  6
C13  37002246.578   192680504.443       -2214.801          24.000  
C23  23860863.068   124249579.567        1582.846          27.000  
G10  20149310.123   105885395.976        -668.699          27.000  
G31  21759105.385   114344899.3391        976.690          20.000  
G32  21783041.114   114470619.897         518.383          23.000  
R12  19101791.505   102038341.320       -1303.774          27.000  
> 2021  9 12 10 35 18.9998001  0  6
C13  37002612.025   192682407.168       -2214.584          23.000  
C23  23860497.022   124247683.800        1582.949          26.000  
G10  20149378.176   105885749.425        -668.558          28.000  
G31  21758858.955   114343607.522         976.122          20.000  
G32  21782881.025   114469785.123         519.622          24.000  
R12  19101974.378   102039318.422       -1303.953          26.000  
> 2021  9 12 10 35 19.9997996  0  4
C23  23860042.236   124245320.221        1582.893          26.000  
G31  21758521.089   114341843.046         976.034          21.000  
G32  21782633.696   114468477.884         519.223          24.000  
R12  19102066.415   102039809.520       -1303.822          26.000  
> 2021  9 12 10 35 20.9997990  0  5
C13  37003128.567   192685116.6961      -2213.271          22.000  
C23  23859557.772   124242799.813        1583.586          26.000  
G10  20149304.727   105885355.6191       -669.793          28.000  
G25  20782540.746   109213070.6551       -568.590          13.000  
R12  19102128.172   102040139.072       -1308.211          24.000  
> 2021  9 12 10 35 21.9997985  0  6
C23  23859102.387   124240436.315        1582.657          25.000  
G10  20149282.542   105885237.078        -667.975          26.000  
G25  20782496.677   109212853.245        -574.056          12.000  
G31  21757821.673   114338158.5061        975.558          22.000  
G32  21782105.462   114465701.9571        521.469          26.000  
R12  19102230.101   102040683.865       -1308.630          24.000  
> 2021  9 12 10 35 22.9997980  0  5
C23  23858648.501   124238072.761        1582.875          25.000  
G10  20149260.357   105885118.581        -670.507          27.000  
G31  21757485.007   114336396.151         973.872          22.000  
G32  21781856.335   114464392.628         521.642          26.000  
R12  19102324.836   102041189.974       -1308.127          25.000  
> 2021  9 12 10 35 23.9997975  0  4
C23  23858195.815   124235709.815        1582.112          27.000  
G10  20149239.971   105885001.723        -671.721          28.000  
G32  21781606.608   114463084.006         520.920          21.000  
R12  19102420.170   102041699.051       -1306.245          25.000  
> 2021  9 12 10 35 24.9997972  0  7
C13  37004280.070   192691170.8521      -2217.991          18.000  
C23  23857802.487   124233659.191        1582.036          26.000  
G10  20149278.345   105885200.612        -671.920          27.000  
G25  20782435.819   109212528.4001       -580.717          14.000  
G31  21756870.432   114333186.4561        976.011          21.000  
G32  21781415.340   114462090.430         520.716          23.000  
R12  19102573.064   102042515.739       -1306.296          24.000  
> 2021  9 12 10 35 25.9997970  0  6
C13  37004646.716   192693076.133       -2216.902          20.000  
C23  23857439.438   124231765.284        1581.572          27.000  
G10  20149347.597   105885558.299        -672.710          29.000  
G25  20782485.285   109212796.618        -585.116          13.000  
G32  21781252.852   114461255.533         519.541          25.000  
R12  19102761.633   102043523.752       -1307.836          25.000  
> 2021  9 12 10 35 26.9997965  0  5
C23  23856985.553   124229403.866        1580.775          26.000  
G10  20149327.211   105885443.972        -673.162          27.000  
G25  20782443.314   109212597.438        -591.082          12.000  
G32  21781004.324   114459948.993         519.744          23.000  
R12  19102856.068   102044028.077       -1310.209          24.000  
> 2021  9 12 10 35 27.9997960  0  4
C13  37005198.934   192695942.6411      -2213.314          21.000  
C23  23856530.767   124227042.334        1580.873          26.000  
G10  20149306.825   105885329.572        -673.454          28.000  
R12  19102947.205   102044514.834       -1310.150          25.000  
> 2021  9 12 10 35 28.9997955  0  4
C23  23856075.682   124224679.737        1582.498          25.000  
G10  20149286.439   105885215.243        -673.947          27.000  
G32  21780499.774   114457331.4061        520.631          22.000  
R12  19103040.440   102045013.072       -1310.796          25.000  
> 2021  9 12 10 35 29.9997952  0  5
C13  37005811.710   192699120.5971      -2211.185          21.000  
C23  23855680.256   124222628.710        1581.735          25.000  
G10  20149327.811   105885417.514        -676.216          27.000  
G31  21755336.694   114325148.3901        979.487          18.000  
R12  19103187.638   102045798.577       -1311.542          25.000  
> 2021  9 12 10 35 30.9997947  0  7
C13  37006088.418   192700553.452       -2214.248          19.000  
C23  23855225.771   124220267.024        1581.258          24.000  
G10  20149307.725   105885306.899        -678.939          27.000  
G25  20782351.278   109212156.8511       -601.081          14.000  
G31  21755000.027   114323381.963         977.409          18.000  
G32  21780062.976   114455026.2791        523.712          22.000  
R12  19103279.974   102046292.716       -1312.400          26.000  
> 2021  9 12 10 35 31.9997942  0  4
C23  23854768.887   124217905.142        1580.953          21.000  
G10  20149288.838   105885198.155        -678.567          25.000  
G32  21779815.348   114453714.521         524.446          24.000  
R12  19103377.407   102046812.556       -1313.012          26.000  
> 2021  9 12 10 35 32.9997937  0  5
C23  23854315.301   124215544.026        1579.567          23.000  
G10  20149267.253   105885088.114        -677.278          29.000  
G25  20782276.329   109211779.7101       -598.472          15.000  
G32  21779567.119   114452400.504         526.756          25.000  
R12  19103474.240   102047329.984       -1313.500          29.000  
> 2021  9 12 10 35 33.9997934  0  8
C06  36698074.452   191096395.9651       -758.428          26.000  
C13  37006977.303   192705173.7131      -2218.124          22.000  
C23  23853921.973   124213495.717        1579.633          24.000  
C25  21814951.024   113596106.1341       -953.163          26.000  
G25  20782297.615   109211906.041        -599.023          15.000  
G31  21754058.679   114318412.5671        969.221          17.000  
G32  21779379.150   114451401.507         526.975          26.000  
R12  19103630.132   102048163.071       -1313.773          27.000  
> 2021  9 12 10 35 34.9997929  0  6
C06  36698068.156   191096373.898        -757.865          23.000  
C23  23853465.989   124211135.766        1579.564          23.000  
G10  20149285.540   105885181.4131       -676.373          33.000  
G25  20782259.841   109211716.747        -598.060          14.000  
G32  21779131.221   114450088.012         525.381          27.000  
R12  19103729.363   102048693.221       -1314.792          23.000  
> 2021  9 12 10 35 35.9997926  0  6
C13  37007588.879   192708358.9331      -2216.494          20.000  
C25  21815075.438   113596763.2101       -951.898          19.000  
G10  20149323.614   105885385.403        -676.913          30.000  
G25  20782279.627   109211840.896        -596.118          15.000  
G32  21778943.551   114449090.827         523.211          23.000  
R12  19103886.754   102049533.673       -1315.537          26.000  
> 2021  9 12 10 35 36.9997921  0  8
C06  36698117.622   191096638.0091       -757.399          22.000  
C13  37007864.688   192709793.980       -2214.777          20.000  
C23  23852621.474   124206729.4231       1577.929          21.000  
C25  21815108.415   113596934.074        -952.654          19.000  
G10  20149300.829   105885275.100        -677.907          30.000  
G31  21753136.217   114313451.2081        966.781          15.000  
G32  21778694.723   114447779.227         523.706          24.000  
R12  19103986.885   102050068.602       -1316.047          24.000  
> 2021  9 12 10 35 37.9997916  0  6
C13  37008139.898   192711228.377       -2216.905          25.000  
G10  20149278.345   105885165.932        -678.885          28.000  
G25  20782206.178   109211456.0661       -593.824          14.000  
G31  21752806.146   114311695.801         969.856          14.000  
G32  21778447.395   114446468.073         522.714          25.000  
R12  19104080.720   102050570.126       -1317.070          23.000  
> 2021  9 12 10 35 38.9997911  0  8
C06  36698102.632   191096591.9521       -758.453          23.000  
C13  37008415.407   192712664.623       -2217.194          27.000  
C23  23851710.704   124202009.7151       1580.496          22.000  
C25  21815174.069   113597278.0281       -954.105          19.000  
G10  20149257.060   105885057.559        -679.643          29.000  
G31  21752478.772   114309937.758         969.181          14.000  
G32  21778198.867   114445158.128         522.838          22.000  
R12  19104168.859   102051040.844       -1317.715          21.000  
> 2021  9 12 10 35 39.9997906  0  6
C06  36698099.334   191096569.854        -759.450          27.000  
C13  37008691.816   192714101.022       -2216.245          26.000  
C25  21815210.044   113597452.516        -956.645          19.000  
G10  20149234.275   105884949.627        -680.278          29.000  
G32  21777950.638   114443846.945         524.196          24.000  
R12  19104273.487   102051598.981       -1318.255          22.000  
> 2021  9 12 10 35 40.9997903  0  6
C06  36698156.895   191096860.548        -758.284          25.000  
C13  37009026.984   192715847.199       -2213.618          27.000  
C23  23850856.596   124197599.8371       1580.666          21.000  
G10  20149271.450   105885157.588        -681.083          28.000  
G25  20782150.417   109211180.5881       -587.955          16.000  
R12  19104435.075   102052462.176       -1319.011          24.000  
> 2021  9 12 10 35 41.9997901  0  8
C06  36698240.837   191097306.286        -759.090          24.000  
C13  37009393.030   192717749.015       -2214.638          27.000  
C25  21815428.893   113598582.0601       -954.103          19.000  
G10  20149341.901   105885523.919        -681.829          29.000  
G25  20782200.182   109211452.926        -587.096          18.000  
G31  21751613.571   114305471.5151        959.397          11.000  
G32  21777601.080   114442011.8531        523.266          21.000  
R12  19104620.946   102053455.403       -1320.427          24.000  
> 2021  9 12 10 35 42.9997896  0  6
C06  36698236.040   191097283.777        -757.370          23.000  
C13  37009668.240   192719183.733       -2215.835          27.000  
C25  21815462.769   113598758.069        -957.545          18.000  
G10  20149320.616   105885418.162        -682.144          30.000  
G25  20782160.010   109210987.009        -586.644          18.000  
R12  19104731.270   102054045.011       -1320.627          22.000  
> 2021  9 12 10 35 43.9997891  0  8
C06  36698231.843   191097261.504        -759.521          24.000  
C13  37009943.749   192720618.649       -2215.268          27.000  
C23  23849577.081   124190987.5851       1578.505          18.000  
C25  21815495.147   113598936.272        -959.102          18.000  
G10  20149299.630   105885312.671        -682.360          29.000  
G25  20782119.838   109210785.710        -586.446          19.000  
G32  21777098.628   114439391.9461        518.078          17.000  
R12  19104830.201   102054573.691       -1320.712          21.000  
> 2021  9 12 10 35 44.9997885  0  8
C06  36698198.566   191097083.668        -757.199          24.000  
C13  37010189.579   192721896.938       -2214.631          26.000  
C23  23849092.017   124188473.402        1577.235          19.000  
C25  21815499.344   113598957.490        -955.999          16.000  
G10  20149248.965   105885050.007        -682.694          30.000  
G25  20782049.686   109210426.977        -586.723          20.000  
G31  21750573.891   114300060.3531        965.345          12.000  
R12  19104898.554   102054938.069       -1322.147          22.000  
> 2021  9 12 10 35 45.9997883  0  6
C06  36698283.407   191097528.046        -756.701          24.000  
C13  37010556.825   192723799.344       -2214.942          26.000  
G10  20149317.018   105885417.839        -683.097          29.000  
G25  20782099.152   109210698.528        -586.800          20.000  
G32  21776660.931   114437093.6291        520.795          14.000  
R12  19105078.729   102055900.999       -1322.818          22.000  
> 2021  9 12 10 35 46.9997878  0  4
C06  36698278.311   191097504.447        -757.191          21.000  
G10  20149296.033   105885313.376        -683.487          29.000  
G32  21776410.305   114435783.505         523.239          18.000  
R12  19105179.759   102056440.865       -1324.358          23.000  
> 2021  9 12 10 35 47.9997873  0  7
C06  36698274.413   191097480.417        -755.612          27.000  
C13  37011108.443   192726665.9271      -2215.448          20.000  
C23  23847818.499   124181868.5131       1578.047          19.000  
C25  21815689.412   113599952.4131       -956.809          18.000  
G10  20149275.647   105885209.392        -684.254          28.000  
G32  21776159.978   114434472.369         524.401          23.000  
R12  19105275.993   102056954.857       -1324.493          22.000  
> 2021  9 12 10 35 48.9997868  0  7
C06  36698269.617   191097455.343        -755.318          26.000  
C13  37011384.552   192728102.544       -2218.124          25.000  
C23  23847365.512   124179511.528        1574.044          19.000  
C25  21815723.289   113600126.674        -954.147          19.000  
G10  20149253.762   105885105.840        -684.236          27.000  
G25  20781982.233   109210097.3321       -586.693          18.000  
R12  19105375.824   102057488.367       -1323.859          20.000  
> 2021  9 12 10 35 49.9997865  0  3
C06  36698325.078   191097742.175        -755.697          29.000  
C13  37011719.420   192729851.016       -2216.913          23.000  
G10  20149292.435   105885317.582        -685.562          27.000  
> 2021  9 12 10 35 50.9997860  0  3
C06  36698321.181   191097717.241        -755.898          28.000  
C13  37011999.126   192731287.128       -2216.036          26.000  
G10  20149272.949   105885215.803        -686.310          28.000  
> 2021  9 12 10 35 51.9997857  0  5
C06  36698378.141   191098003.502        -754.579          27.000  
G25  20781987.330   109210125.7141       -588.975          17.000  
G31  21748438.170   114288860.2801        970.213          14.000  
G32  21775280.087   114429839.0891        528.402          20.000  
R12  19105783.841   102059667.8041      -1328.119          20.000  
> 2021  9 12 10 35 52.9997852  0  5
C06  36698375.443   191097978.288        -754.485          26.000  
G10  20149301.129   105885329.9251       -688.043          29.000  
G31  21748104.501   114287103.045         968.528          15.000  
G32  21775030.360   114428524.378         525.170          27.000  
R12  19105881.274   102060188.359       -1328.268          28.000  
> 2021  9 12 10 35 53.9997847  0  3
C06  36698370.347   191097953.282        -756.668          27.000  
G10  20149285.240   105885229.731        -687.721          33.000  
R12  19105977.207   102060700.085       -1329.054          28.000  
> 2021  9 12 10 35 54.9997842  0  5
C06  36698366.150   191097928.571        -754.615          25.000  
G10  20149266.353   105885129.325        -686.787          34.000  
G25  20781879.704   109209541.0761       -599.077          17.000  
G32  21774530.306   114425899.6141        524.954          20.000  
R12  19106073.141   102061212.316       -1329.487          26.000  
> 2021  9 12 10 35 55.9997837  0  4
C06  36698360.154   191097901.378        -753.227          27.000  
G10  20149252.263                        -688.299          36.000  
G31  21747099.596   114281832.5731        968.943          18.000  
R12  19106170.573   102061733.278       -1329.533          25.000  
> 2021  9 12 10 35 56.9997834  0  5
C06  36698413.217   191098186.416        -752.369          24.000  
G10  20149292.135   105885251.3971       -691.381          37.000  
G25  20781867.113   109209476.1801       -595.810          17.000  
G32  21774093.809   114423587.5091        524.566          24.000  
R12  19106336.359   102062618.850       -1330.517          29.000  
> 2021  9 12 10 35 57.9997829  0  5
C06  36698406.622   191098158.827        -753.920          23.000  
C25  21816209.852   113602657.4821       -960.528          31.000  
G10  20149274.747   105885153.417        -690.004          34.000  
G32  21773847.079   114422275.556         523.568          28.000  
R12  19106431.093   102063124.841       -1330.825          25.000  
> 2021  9 12 10 35 58.9997827  0  7
C06  36698493.562   191098601.206        -755.968          23.000  
C23  23843130.344   124157378.7431       1571.755          19.000  
C25  21816335.765   113603306.125        -962.326          34.000  
E21  24198784.630   127165304.2421      -1257.248          35.000  
G10  20149343.999   105885528.553        -690.000          34.000  
G31  21746244.588   114277356.7751        964.721          21.000  
G32  21773689.089   114421437.523         523.671          28.000  
> 2021  9 12 10 35 59.9997821  0  7
C06  36698458.186   191098419.866        -755.719          20.000  
C25  21816343.560                        -961.741          34.000  
E21  24198846.387   127165616.340       -1258.220          36.000  
G10  20149297.532   105885274.209        -692.340          37.000  
G31  21745881.539   114275448.453         961.513          25.000  
G32  21773409.382   114419968.315         524.553          28.000  
R12  19106702.405   102064573.8981      -1332.451          17.000  
> 2021  9 12 10 36  0.9997816  0  7
C25  21816378.336   113603606.5681       -961.801          34.000  
E21  24198935.126                       -1257.219          36.000  
G10  20149277.445   105885177.900        -691.633          38.000  
G25  20781793.364   109209027.3281       -597.604          19.000  
G31  21745550.569   114273699.439         961.219          25.000  
G32  21773160.854   114418656.013         524.429          25.000  
R12  19106804.335   102065118.692       -1333.578          17.000  
> 2021  9 12 10 36  1.9997811  0  7
C06  36698448.892   191098369.2341       -755.649          20.000  
C25  21816413.111   113603788.472        -962.538          35.000  
E21  24199025.064   127166732.0431      -1257.989          36.000  
G10  20149259.158   105885082.088        -691.326          37.000  
G31  21745218.998   114271949.475         962.483          27.000  
G32  21772909.928   114417343.855         525.135          29.000  
J01  38003235.907                         459.544          31.000  
> 2021  9 12 10 36  2.9997809  0  7
C25  21816539.624   113604438.950        -963.182          35.000  
E21  24199204.339   127167674.650       -1258.084          37.000  
G10  20149330.209   105885459.374        -691.372          37.000  
G25  20781818.846   109209121.8491       -599.548          18.000  
G31  21744975.567   114270671.758         962.980          26.000  
G32  21772750.439   114416503.140         525.026          28.000  
J01  38003090.808   199707577.5121        459.529          31.000  
> 2021  9 12 10 36  3.9997804  0 10
C13  37015850.260   192751378.8781      -2216.224          23.000  
C23  23840949.054   124145918.2851       1575.494          19.000  
C25  21816571.402   113604621.442        -962.409          35.000  
E21  24199294.577   127168144.945       -1258.483          37.000  
G10  20149314.320   105885364.542        -693.273          37.000  
G25  20781785.569   109208935.122        -601.768          18.000  
G31  21744644.596   114268921.022         962.990          26.000  
G32  21772500.112   114415190.559         524.562          28.000  
J01  38002856.070   199706329.645         459.872          31.000  
R12  19107162.587   102067032.3041      -1334.309          18.000  
> 2021  9 12 10 36  4.9997798  0  9
C06  36698491.163   191098613.4751       -760.912          18.000  
C13  37016097.289   192752657.598       -2214.797          24.000  
C23  23840467.588   124143405.062        1575.235          19.000  
C25  21816573.201   113604648.127        -962.328          35.000  
E21  24199353.036   127168458.017       -1258.489          37.000  
G10  20149266.653   105885112.671        -693.379          37.000  
G31  21744282.147   114267012.599         962.994          26.000  
G32  21772219.806   114413720.689         525.102          27.000  
J01  38002591.054   199704924.129         458.211          31.000  
> 2021  9 12 10 36  5.9997796  0  9
C06  36698576.904   191099061.533        -758.297          18.000  
C13  37016462.736   192754559.055       -2213.013          23.000  
C23  23840107.237   124141519.646        1571.011          19.000  
C25  21816700.912   113605299.677        -963.745          34.000  
E21  24199533.212   127169401.702       -1259.207          37.000  
G10  20149337.104   105885491.638        -695.049          38.000  
G31  21744039.015   114265734.617         962.927          26.000  
G32  21772060.316   114412881.146         524.104          26.000  
J01  38002439.059   199704148.777         459.794          31.000  
> 2021  9 12 10 36  6.9997791  0  8
C13  37016740.044   192755991.891       -2214.491          24.000  
C25  21816734.489   113605483.376        -962.018          34.000  
E21  24199624.049   127169873.015       -1259.140          37.000  
G10  20149318.217   105885398.401        -694.982          39.000    20149323.314    79070295.3331       -519.225          26.000  
G31  21743706.845   114263984.135         962.504          26.000  
G32  21771811.189   114411569.287         524.261          27.000  
J01  38002204.022   199702900.626         463.845          31.000  
R12  19107510.646   102068892.1161      -1334.871          17.000  
> 2021  9 12 10 36  7.9997788  0  7
C25  21816831.322   113605979.569        -965.655          29.000  
E21  24199774.245   127170660.085       -1259.398          34.000  
G10  20149359.589   105885621.160        -696.955          33.000    20149366.784    79070461.026        -518.803          30.000  
G31  21743430.436   114262549.896         961.567          21.000  
G32  21771621.720   114410572.938         523.301          27.000  
J01  38002020.848   199701967.805         461.380          28.000  
R12  19107670.435   102069745.391       -1337.470          27.000  
> 2021  9 12 10 36  8.9997783  0  8
C13  37017350.721   192759178.5721      -2217.903          21.000  
C25  21816867.897   113606163.148        -961.378          31.000  
E21  24199863.883   127171132.102       -1260.626          37.000  
G10  20149340.402   105885528.885        -698.189          35.000    20149349.396    79070392.553        -519.589          31.000  
G25  20781740.001   109208640.1901       -603.424          12.000  
G31  21743100.065   114260800.999         960.956          22.000  
J01  38001784.012   199700718.725         461.087          30.000  
R12  19107771.765   102070286.072       -1339.367          24.000  
> 2021  9 12 10 36  9.9997778  0  8
C23  23838373.837   124132426.7541       1567.165          17.000  
C25  21816902.673   113606346.977        -965.066          30.000  
E21  24199949.923   127171604.833       -1261.302          36.000  
G10  20149326.911   105885437.554        -697.382          34.000    20149332.008    79070324.556        -521.948          30.000  
G31  21742766.996   114259052.442         960.765          24.000  
G32  21771121.366   114407949.7691        523.647          28.000  
J01  38001547.776   199699470.132         460.951          28.000  
R12  19107873.694   102070831.149       -1340.626          29.000  
> 2021  9 12 10 36 10.9997773  0  8
C13  37017900.541   192762048.1851      -2214.925          12.000  
C25  21816937.149   113606531.817        -965.571          31.000  
E21  24200038.362   127172078.072       -1260.347          37.000  
G10  20149313.421   105885346.976        -697.349          37.000    20149313.121    79070257.530        -522.057          24.000  
G25  20781678.543   109208278.2321       -604.911          10.000  
G31  21742437.524   114257304.120         960.607          30.000  
G32  21770867.742   114406637.768         525.373          29.000  
J01  38001311.240   199698221.801         460.201          26.000  
> 2021  9 12 10 36 11.9997768  0  7
C25  21816972.524   113606717.666        -966.952          29.000  
E21  24200129.199   127172551.036       -1256.471          37.000  
G10  20149296.932   105885256.678        -695.895          39.000    20149294.534    79070190.420        -521.004          20.000  
G25  20781643.168   109208096.037        -601.074          13.000  
G31  21742108.651   114255555.890         960.039          28.000  
G32  21770617.415   114405324.401         525.965          29.000  
J01  38001074.104   199696973.475         461.074          26.000  
> 2021  9 12 10 36 12.9997765  0  8
C23  23837081.732   124125680.0781       1576.351          16.000  
C25  21817067.259   113607216.020        -966.186          32.000  
E21  24200280.894   127173339.161       -1261.833          35.000  
G10  20149336.505   105885481.473        -695.311          40.000  
G31  21741839.138   114254123.358         959.932          25.000  
G32  21770428.546   114404325.888         525.633          27.000  
J01  38000896.627   199696039.044         462.861          23.000  
R12  19108249.634   102072839.5551      -1342.695          29.000  
> 2021  9 12 10 36 13.9997760  0  7
C23  23836628.446   124123323.515        1575.707          17.000  
C25  21817101.735   113607401.979        -966.253          34.000  
E21  24200373.230   127173813.483       -1258.793          29.000  
G10  20149319.117   105885392.212        -697.822          35.000  
G32  21770182.117   114403012.116         525.663          27.000  
J01  38000659.191   199694789.269         462.496          26.000  
R12  19108353.362   102073393.444       -1342.598          33.000  
> 2021  9 12 10 36 14.9997757  0  6
C25  21817194.670   113607899.648        -966.426          31.000  
E21  24200523.726   127174602.588       -1261.882          30.000  
G10  20149362.587   105885618.656        -700.211          37.000  
G32  21769991.449   114402014.096         525.284          30.000  
J01  38000482.014   199693854.393         462.556          28.000  
R12  19108513.751   102074250.557       -1343.234          34.000  
> 2021  9 12 10 36 15.9997752  0  4
C25  21817230.646   113608086.226        -968.334          32.000  
G10  20149343.100   105885531.230        -701.143          39.000  
G32  21769739.923   114400700.268         526.774          29.000  
R12  19108617.779   102074805.361       -1344.490          32.000  
> 2021  9 12 10 36 16.9997747  0  7
C23  23835327.946   124116583.3921       1567.200          17.000  
C25  21817267.520   113608273.890        -968.212          30.000  
G10  20149332.008   105885444.168        -700.894          36.000  
G25  20781572.417   109207816.0001       -609.587          17.000  
G32  21769491.695   114399385.912         525.640          22.000  
J01  38000008.941   199691352.9711        461.246          19.000  
R12  19108722.107   102075362.650       -1346.052          27.000  
> 2021  9 12 10 36 17.9997742  0  7
C23  23834874.660   124114235.302        1567.807          18.000  
C25  21817304.095   113608461.378        -968.132          30.000  
G10  20149313.720   105885356.438        -700.078          31.000  
G25  20781534.943   109207634.146        -606.174          16.000  
G32  21769240.468   114398072.567         525.915          29.000  
J01  37999770.906   199690103.993         461.948          25.000  
R12  19108826.435   102075920.886       -1346.414          30.000  
> 2021  9 12 10 36 18.9997740  0  9
C13  37020317.168   192774612.7231      -2218.726          18.000  
C23  23834513.410   124112351.922        1570.742          18.000  
C25  21817430.007   113609117.420        -968.966          29.000  
G10  20149386.270   105885741.779        -700.835          35.000  
G25  20781589.505   109207926.640        -609.013          18.000  
G31  21739985.521   114244430.0551        957.999          27.000  
G32  21769081.279   114397231.596         525.594          31.000  
J01  37999624.307   199689327.225         461.342          28.000  
R12  19109023.398   102076972.824       -1347.785          32.000  
> 2021  9 12 10 36 19.9997734  0  9
C13  37020564.197   192775895.435       -2220.590          17.000  
C23  23834034.641   124109845.239        1570.274          18.000  
C25  21817435.704   113609150.055        -969.767          31.000  
E21  24201029.476   127177293.0311      -1264.819          32.000  
G10  20149339.802   105885498.091        -702.774          40.000  
G31  21739626.670   114242527.097         956.595          28.000  
G32  21768801.272   114395760.362         525.713          30.000  
J01  37999357.192   199687921.687         459.280          23.000  
R12  19109096.548   102077363.134       -1348.687          34.000  
> 2021  9 12 10 36 20.9997729  0  8
C23  23833582.254   124107493.826        1571.623          19.000  
C25  21817469.280   113609339.629        -969.567          26.000  
E21  24201121.512                       -1264.393          36.000  
G10  20149324.513   105885413.513        -703.197          40.000  
G31  21739294.500   114240782.895         956.252          28.000  
G32  21768549.747   114394446.697         525.158          30.000  
J01  37999118.857   199686673.524         459.590          25.000  
R12  19109203.274   102077933.053       -1348.691          33.000  
> 2021  9 12 10 36 21.9997727  0  9
C06  36698815.239   191100304.3971       -751.491          29.000  
C25  21817594.893   113609997.488        -970.630          25.000  
C33  22263793.696   115933498.2421      -1036.361          24.000  
G10  20149397.362                        -703.414          42.000  
G25  20781547.834   109207714.5711       -614.878          16.000  
G31  21739051.668   114239511.361         956.804          29.000  
G32  21768388.158   114393606.207         525.519          27.000  
J01  37998971.659   199685898.327         460.439          25.000  
R12  19109396.940   102078967.470       -1348.848          32.000  
> 2021  9 12 10 36 22.9997722  0  8
C06  36698806.545   191100274.839        -750.354          28.000  
C25  21817629.070   113610186.883        -970.501          26.000  
C33  22263841.064   115933754.010       -1036.654          27.000  
G10  20149381.473   105885713.4121       -702.853          38.000  
G31  21738720.397   114237767.256         956.662          24.000  
G32  21768139.631   114392293.035         525.806          31.000  
J01  37998731.526   199684649.374         462.267          28.000  
R12  19109500.368   102079520.624       -1349.708          31.000  
> 2021  9 12 10 36 23.9997719  0  9
C06  36698858.709   191100556.195        -749.382          28.000  
C25  21817725.303   113610689.092        -970.945          30.000  
C33  22263948.989   115934322.603       -1037.814          28.000  
G10  20149427.342   105885944.782        -704.108          38.000  
G25  20781537.341   109207679.6501       -611.084          18.000  
G31  21738449.684   114236337.086         958.465          22.000  
G32  21767950.461   114391294.338         525.494          33.000  
J01  37998551.950   199683714.318         462.714          29.000  
R12  19109665.254   102080401.243       -1350.182          33.000  
> 2021  9 12 10 36 24.9997714  0  8
C06  36698851.514   191100524.784        -749.194          29.000  
C25  21817763.077   113610879.469        -971.000          33.000  
C33  22263999.954   115934579.756       -1037.617          28.000  
G10  20149409.354   105885861.736        -705.134          37.000  
G25  20781502.565   109207502.663        -610.098          18.000  
G32  21767697.736   114389980.261         525.344          33.000  
J01  37998314.814   199682463.902         462.633          30.000  
R12  19109769.282   102080956.964       -1351.099          35.000  
> 2021  9 12 10 36 25.9997709  0 10
C06  36698846.417   191100493.444        -749.424          29.000  
C25  21817799.951   113611069.824        -971.248          33.000  
C33  22264051.518   115934837.762       -1038.905          27.000  
G10  20149389.268   105885779.297        -705.385          33.000  
G23  21292866.056   111894762.5701      -3058.284          25.000  
G25  20781465.691   109207325.475        -611.138          19.000  
G31  21737786.244   114232846.2121        956.615          14.000  
G32  21767446.211                         524.486          33.000  
J01  37998077.678   199681214.210         460.863          26.000  
R12  19109874.209   102081517.601       -1352.046          36.000  
> 2021  9 12 10 36 26.9997704  0  9
C06  36698840.421   191100461.858        -748.506          28.000  
C25  21817839.524                        -974.162          33.000  
C33  22264102.483   115935095.832       -1038.537          27.000  
G10  20149373.679   105885697.738        -706.144          37.000  
G23  21293299.855   111897033.239       -3058.652          23.000  
G25  20781432.114   109207148.516        -610.749          19.000  
G31  21737451.675   114231102.066         956.499          16.000  
G32  21767195.884   114387388.0891        525.039          32.000  
R12  19109979.437   102082079.704       -1353.944          39.000  
> 2021  9 12 10 36 27.9997699  0  8
C06  36698835.325   191100429.740        -748.941          29.000  
C16  37344068.140   194460134.6421       -720.977          23.000  
C25  21817877.298                        -972.185          33.000  
C33  22264153.747   115935355.324       -1039.613          28.000  
G10  20149359.289   105885616.815        -707.099          37.000  
G31  21737121.304   114229358.419         955.142          19.000  
J01  37997594.713   199678715.2381        460.225          23.000  
R12  19110079.567   102082613.998       -1355.053          39.000  
> 2021  9 12 10 36 28.9997696  0 10
C06  36698888.388   191100710.404        -749.541          28.000  
C25  21817973.831   113611911.2991       -973.669          33.000  
C33  22264263.771   115935926.842       -1040.070          28.000  
G10  20149405.457   105885851.918        -707.827          35.000  
G23  21294223.516   111901888.9671      -3057.785          20.000  
G25  20781427.917   109207113.2331       -614.932          19.000  
G31  21736850.891   114227930.770         954.423          26.000  
G32  21766763.583   114385075.6341        523.820          30.000  
J01  37997416.936   199677782.434         460.317          27.000  
R12  19110242.055   102083482.127       -1355.173          39.000  
> 2021  9 12 10 36 29.9997691  0 10
C06  36698882.692   191100679.677        -749.781          28.000  
C16  37344105.014   194460330.5351       -723.835          22.000  
C25  21818011.905   113612103.951        -970.496          33.000  
G10  20149393.465   105885772.464        -708.704          36.000  
G23  21294655.817   111904159.303       -3056.618          19.000  
G25  20781396.139   109206939.738        -614.455          19.000  
G31  21736521.719   114226188.905         953.572          30.000  
G32  21766514.156   114383762.230         525.783          29.000  
J01  37997180.399   199676534.569         460.040          25.000  
R12  19110344.284   102084028.886       -1355.970          32.000  
> 2021  9 12 10 36 30.9997688  0 10
C06  36698939.653   191100960.442        -749.242          27.000  
C25  21818111.436   113612609.210        -973.878          31.000  
C33  22264419.663   115936760.2291      -1042.192          19.000  
E21                                                                                                                                  24202306.292    94975048.1721       -949.396          30.000  
G10  20149440.832   105886008.445        -708.899          42.000    20149443.231    79070753.1711       -530.138          24.000  
G25  20781427.017   109207083.447        -617.325          20.000  
G31  21736252.206   114224762.805         953.718          30.000  
G32  21766325.586   114382764.454         525.650          28.000  
J01  37997004.421   199675602.471         458.296          22.000  
R12  19110504.973   102084887.208       -1355.988          28.000  
> 2021  9 12 10 36 31.9997683  0 11
C06  36698933.357   191100928.500        -748.604          27.000  
C25  21818145.312   113612802.410        -974.550          31.000  
C33  22264472.426   115937021.434       -1042.261          24.000  
E21                                                                                                                                  24202398.028    94975408.440        -948.222          30.000  
G10  20149429.440   105885929.907        -709.662          41.000    20149428.541    79070695.617        -531.181          24.000  
G23  21295565.687   111909004.9961      -3054.144          13.000  
G25  20781396.439   109206913.660        -618.385          20.000  
G31  21735923.034   114223021.050         953.880          30.000  
G32  21766076.159   114381450.760         525.901          26.000  
J01  37996766.086   199674355.640         460.744          26.000  
R12  19110606.602   102085429.364       -1356.187          28.000  
> 2021  9 12 10 36 32.9997678  0 12
C06  36698929.160   191100897.912        -749.262          28.000  
C16  37344132.895   194460469.3041       -720.684          20.000  
C25  21818183.986   113612996.172        -974.986          31.000  
C33  22264521.892   115937282.547       -1041.157          25.000  
E21                                                                                                                                  24202489.165    94975768.369        -947.994          30.000  
G10                                                                  20149413.551    79070637.948        -528.471          23.000  
G25  20781364.361   109206745.354        -619.711          20.000  
G31  21735592.662   114221280.071         952.779          27.000  
G32  21765826.132   114380137.083         525.741          28.000  
J01  37996528.351   199673106.747         461.756          28.000  
J02  37923905.726   199291469.0901      -1370.254          23.000  
R12  19110708.832   102085976.184       -1356.910          31.000  
> 2021  9 12 10 36 33.9997673  0 12
C06  36698923.464   191100865.704        -746.753          28.000  
C16  37344119.404   194460409.906        -722.330          21.000  
C23  23827979.133   124078378.0531       1564.251          20.000  
C25  21818221.160   113613190.422        -974.424          32.000  
C33  22264571.958   115937543.237       -1041.132          27.000  
E21                                                                                                                                  24202580.902    94976128.966        -950.995          28.000  
G10  20149392.866   105885774.5061       -707.772          34.000    20149398.562    79070581.536        -533.042          20.000  
G25  20781334.681   109206577.941        -620.554          21.000  
G31  21735261.991   114219539.877         952.077          27.000  
G32  21765575.206   114378823.338         526.221          31.000  
J01  37996290.615   199671856.660         463.449          25.000  
R12  19110813.759   102086536.052       -1358.131          35.000  
> 2021  9 12 10 36 34.9997670  0 12
C06  36698977.127   191101143.707        -746.148          28.000  
C16  37344167.671   194460664.070        -722.510          21.000  
C23  23827587.604   124076344.838        1565.158          24.000  
C25  21818318.293   113613696.664        -974.860          30.000  
C33  22264683.181   115938116.030       -1041.253          24.000  
E21                                                                                                                                  24202732.897    94976727.265        -950.883          25.000  
G10  20149434.237   105886012.760        -711.545          35.000    20149444.430    79070760.666        -531.566          26.000  
G23  21296921.048   111916130.0411      -3062.356          17.000  
G31  21734990.079   114218115.503         951.306          27.000  
G32  21765383.938   114377823.956         526.582          28.000  
J01  37996112.539   199670920.562         463.354          26.000  
R12  19110975.647   102087401.076       -1359.351          30.000  
> 2021  9 12 10 36 35.9997665  0 11
C06  36698970.831   191101109.849        -747.602          29.000  
C16  37344155.979   194460605.471        -721.008          22.000  
C23  23827136.417   124073998.856        1566.537          23.000  
C25  21818354.867   113613891.196        -975.494          35.000  
C33  22264734.745   115938376.235       -1040.246          26.000  
E21                                                                                                                                  24202824.933    94977088.969        -949.798          28.000  
G10  20149421.046   105885937.082        -712.339          34.000    20149429.740    79070704.720        -533.296          25.000  
G25  20781336.780   109206559.4761       -620.876          23.000  
G31  21734657.310   114216376.358         951.131          25.000  
G32  21765133.911   114376509.963         526.144          31.000  
J01  37995875.403   199669669.767         462.803          29.000  
> 2021  9 12 10 36 36.9997660  0 11
C06  36698966.034   191101077.090        -748.316          28.000  
C16  37344144.587   194460545.694        -721.759          22.000  
C23  23826684.330   124071653.566        1562.993          21.000  
C25  21818392.041   113614086.356        -975.673          30.000  
C33  22264786.909   115938636.550       -1041.365          26.000  
E21                                                                                                                                  24202916.370    94977450.880        -950.462          28.000  
G10  20149411.453   105885861.995        -713.066          36.000  
G23  21297782.052   111920682.7901      -3066.783          19.000  
G25  20781300.205   109206392.173        -621.361          20.000  
G31  21734324.840   114214637.599         950.829          26.000  
R12  19111185.502   102088522.2201      -1361.908          31.000  
> 2021  9 12 10 36 37.9997658  0 10
C06  36699049.677   191101513.291        -748.936          25.000  
C23  23826323.080   124069779.704        1561.448          16.000  
C25  21818519.453   113614749.883        -975.705          29.000  
C33  22264927.511   115939366.286       -1042.181          24.000  
E21                                                                                                                                  24203098.943    94978168.972        -953.683          25.000  
G10  20149485.501   105886259.981        -714.309          39.000  
G25  20781356.266   109206699.472        -623.575          18.000  
G31  21734082.608   114213371.895         950.482          28.000  
J01  37995493.467   199667642.4641        461.730          26.000  
R12  19111380.666   102089565.055       -1362.502          30.000  
> 2021  9 12 10 36 38.9997652  0 10
C06  36699012.802   191101326.424        -750.375          22.000  
C16  37344179.962   194460737.3311       -717.357          20.000  
C25  21818526.948   113614789.043        -976.158          33.000  
C33  22264948.197   115939472.197       -1042.589          24.000  
G10  20149440.233   105886028.081        -712.903          35.000  
G25  20781285.815   109206376.687        -622.074          18.000  
G31  21733719.259   114211476.216         950.132          28.000  
G32  21764434.496   114372884.5831        525.129          26.000  
J01  37995225.753   199666235.593         461.521          30.000  
R12  19111457.713   102089975.861       -1362.938          33.000  
> 2021  9 12 10 36 39.9997650  0 10
C06  36699098.243   191101763.677        -749.830          21.000  
C23  23825483.661   124065406.8621       1565.515          14.000  
C25  21818654.060   113615452.659        -975.758          28.000  
C33  22265089.100   115940203.824       -1044.834          24.000  
G10  20149515.780   105886426.433        -714.628          36.000  
G25  20781341.876   109206683.906        -622.684          19.000  
G31  21733474.329   114210211.174         949.609          17.000  
G32  21764274.107   114372044.550         524.185          27.000  
J01  37995077.055   199665458.645         462.427          28.000  
R12  19111651.679   102091012.520       -1363.217          31.000  
> 2021  9 12 10 36 40.9997645  0  9
C06  36699091.947   191101731.773        -748.372          22.000  
C25  21818693.933   113615648.361        -977.269          25.000  
C33  22265139.165   115940467.252       -1044.937          22.000  
G10  20149507.087   105886353.462        -715.352          36.000  
G25  20781309.499   109206519.239        -623.508          19.000  
G31  21733138.861   114208474.222         948.903          18.000  
G32  21764022.880   114370732.284         524.354          26.000  
J01  37994837.821   199664207.940         462.399          28.000  
R12  19111759.304   102091587.200       -1363.962          32.000  
> 2021  9 12 10 36 41.9997640  0  8
C06  36699084.752   191101699.284        -747.777          24.000  
C25  21818732.006   113615845.607        -977.698          24.000  
C33  22265189.530   115940730.469       -1043.393          20.000  
G10  20149492.996   105886280.927        -715.014          36.000  
G31  21732814.186   114206737.721         948.660          20.000  
G32  21763774.353   114369419.789         524.361          26.000  
J01  37994601.285   199662957.434         462.799          26.000  
R12  19111863.332   102092142.887       -1364.860          33.000  
> 2021  9 12 10 36 42.9997635  0  8
C06  36699078.457   191101667.339        -749.859          22.000  
C09  37691676.595   196270567.4181       -852.105          23.000  
C25  21818769.480   113616043.114        -978.921          28.000  
C33  22265239.895   115940992.961       -1043.520          23.000  
G10  20149477.707   105886209.095        -716.956          40.000  
G31  21732486.213   114205001.448         948.712          25.000  
J01  37994364.749   199661706.641         462.734          25.000  
R12  19111971.258   102092719.208       -1365.551          29.000  
> 2021  9 12 10 36 43.9997629  0 11
C06  36699041.282   191101479.770        -747.663          25.000  
C16  37344184.759   194460745.1171       -723.457          15.000  
C23  23823650.730   124055868.6991       1564.588          17.000  
C25  21818776.975   113616085.635        -979.242          27.000  
C33  22265259.082   115941099.942       -1043.806          17.000  
E21  24203677.243   127191181.4631      -1276.042          35.000  
G10  20149435.136   105885980.556        -717.533          41.000  
G25  20781194.378   109205874.0541       -631.133          20.000  
G32  21763239.523   114366634.8471        526.021          24.000  
J01  37994094.935   199660299.488         461.954          24.000  
R12  19112048.604   102093132.214       -1366.676          32.000  
> 2021  9 12 10 36 44.9997627  0  9
C06  36699124.025   191101914.039        -746.465          24.000  
C09  37691762.935   196271025.4521       -853.214          17.000  
C25  21818907.984   113616752.090        -978.201          30.000  
C33  22265400.884   115941832.682       -1045.400          23.000  
E21  24203861.315   127192139.942       -1274.346          32.000  
G10  20149507.686   105886382.283        -720.484          36.000  
G32  21763080.933   114365793.139         527.278          25.000  
J01  37993946.838   199659522.113         462.291          25.000  
R12  19112247.966   102094197.464       -1366.794          30.000  
> 2021  9 12 10 36 45.9997622  0  7
C06  36699118.929   191101880.517        -747.572          26.000  
C09  37691777.925   196271099.021        -854.746          20.000  
C25  21818946.058   113616949.709        -978.994          29.000  
E21  24203955.750   127192626.983       -1273.739          32.000  
G10  20149493.296   105886313.522        -718.151          31.000  
J01  37993709.103   199658271.892         462.565          26.000  
R12  19112350.795   102094746.833       -1367.834          30.000  
> 2021  9 12 10 36 46.9997619  0  7
C06  36699174.990   191102159.627        -747.250          26.000  
C09  37691851.974   196271482.971        -851.739          21.000  
C25  21819046.189   113617460.655        -979.818          32.000  
G25  20781273.524   109206203.1961       -654.279          18.000  
G32  21762643.535   114363478.1011        526.579          24.000  
J01  37993531.326   199657336.968         461.838          28.000  
R12  19112511.783   102095606.545       -1368.796          30.000  
> 2021  9 12 10 36 47.9997614  0  9
C06  36699167.495   191102125.087        -745.588          25.000  
C09  37691864.565   196271554.039        -851.677          24.000  
C16  37344298.380   194461314.2151       -732.392          16.000  
C25  21819083.962   113617660.113        -980.480          33.000  
G10  20149519.378   105886489.3501       -718.230          22.000  
G25  20781254.937   109206075.521        -667.790          17.000  
G32  21762394.408   114362164.246         525.781          26.000  
J01  37993293.290   199656086.790         462.266          28.000  
R12  19112616.711   102096167.873       -1369.483          28.000  
> 2021  9 12 10 36 48.9997609  0 11
C06  36699160.900   191102090.333        -745.919          24.000  
C09  37691878.356   196271623.819        -849.887          24.000  
C16  37344288.487   194461264.651        -730.912          14.000  
C23  23821564.774   124044931.6431       1556.781          20.000  
C25  21819120.237   113617860.033        -981.294          34.000  
C33  22265664.701   115943214.9551      -1046.783          24.000  
G10  20149507.986   105886420.586        -719.896          23.000    20149522.076    79071060.5701       -536.267          26.000  
G25  20781235.750   109205957.894        -669.620          13.000  
G32  21762144.381   114360849.810         527.986          25.000  
J01  37993055.255   199654836.948         461.520          28.000  
R12  19112724.636   102096743.776       -1369.881          28.000  
> 2021  9 12 10 36 49.9997606  0  9
C06  36699213.363   191102367.426        -744.690          23.000  
C09  37691954.203   196272005.709        -851.224          23.000  
C23  23821175.343   124042903.909        1560.327          19.000  
C25  21819220.968   113618372.493        -981.536          27.000  
C33  22265775.624   115943792.143       -1045.474          20.000  
G10                                                                  20149568.244    79071243.909        -536.023          27.000  
G32  21761953.113   114359848.057         529.525          21.000  
J01  37992877.778   199653903.507         460.933          22.000  
R12  19112895.518   102097656.558       -1370.932          31.000  
> 2021  9 12 10 36 50.9997601  0  8
C06  36699204.369   191102331.604        -745.851          23.000  
C16  37344325.961   194461468.8771       -721.981          13.000  
C25  21819260.240   113618572.920        -981.161          28.000  
G10                                                                  20149554.454    79071192.578        -537.696          30.000  
G31  21730028.514   114192061.3901        945.243          28.000  
G32  21761703.686   114358531.974         527.184          25.000  
J01  37992639.743   199652654.463         461.793          30.000  
R12  19113002.244   102098226.823       -1371.493          33.000  
> 2021  9 12 10 36 51.9997596  0  8
C06  36699198.074   191102296.849        -745.490          25.000  
C25  21819297.415   113618773.966        -982.382          33.000  
C33  22265876.954   115944322.3311      -1047.171          19.000  
G10  20149538.565                        -722.570          40.000    20149541.563    79071143.029        -539.514          36.000  
G31  21729699.642   114190329.107         944.037          25.000  
G32  21761456.357   114357217.784         525.807          28.000  
J01  37992403.506   199651405.787         461.582          23.000  
R12  19113112.268   102098814.905       -1372.576          35.000  
> 2021  9 12 10 36 52.9997591  0  9
C06  36699192.678   191102263.006        -746.993          23.000  
C09  37691999.172   196272218.2471       -852.376          20.000  
C25  21819335.189   113618975.753        -981.609          34.000  
C33  22265930.017   115944588.847       -1047.708          28.000  
G10  20149527.173   105886473.5111       -724.018          39.000    20149528.971    79071093.709        -537.854          33.000  
G31  21729368.671   114188597.387         943.860          30.000  
G32  21761205.731   114355904.411         525.318          29.000  
J01  37992166.071   199650155.892         462.486          34.000  
R12  19113219.593   102099388.234       -1373.808          35.000  
> 2021  9 12 10 36 53.9997588  0  8
C06  36699246.340   191102541.822        -747.433          28.000  
C09  37692070.223   196272602.185        -851.802          25.000  
C25  21819439.516   113619489.443        -982.164          31.000  
C33  22266043.039   115945168.389       -1047.870          32.000  
G10  20149575.739   105886724.412        -721.495          36.000    20149576.938    79071280.599        -541.017          34.000  
G32  21761015.662   114354906.404         525.291          31.000  
J01  37991988.893   199649220.534         462.879          33.000  
R12  19113386.278   102100277.924       -1374.612          33.000  
> 2021  9 12 10 36 54.9997583  0  9
C06  36699238.546   191102507.567        -745.841          31.000  
C09  37692082.814   196272672.601        -850.927          26.000  
C25  21819477.590                        -981.746          34.000  
C33  22266096.702   115945435.640       -1047.854          31.000  
G10  20149562.248   105886658.082        -721.610          30.000    20149564.647    79071234.382        -542.751          29.000  
G25  20781134.420   109205681.0971       -626.093          27.000  
G32  21760764.736   114353592.793         525.986          28.000  
J01  37991752.957   199647969.157         464.349          28.000  
R12  19113495.702   102100862.682       -1374.700          29.000  
> 2021  9 12 10 36 55.9997581  0 10
C06  36699321.888   191102939.876        -743.976          26.000  
C09  37692183.544   196273211.827        -852.825          24.000  
C25  21819608.299   113620421.7561       -988.834          34.000  
C33  22266240.303   115946171.944       -1049.540          30.000  
G10  20149637.196   105887065.207        -723.364          32.000    20149642.593    79071540.328        -540.865          21.000  
G25  20781191.680   109205993.248        -628.813          29.000  
G31  21728522.357   114184189.2401        943.277          31.000  
G32  21760604.647   114352751.322         525.938          32.000  
J01  37991606.658   199647189.753         464.634          26.000  
R12  19113694.764   102101926.426       -1376.474          27.000  
> 2021  9 12 10 36 56.9997576  0  8
C06  36699314.993   191102903.584        -744.529          30.000  
C09  37692198.534   196273283.701        -852.912          25.000  
C25  21819646.973   113620627.522        -983.531          30.000  
C33  22266291.567   115946439.845       -1047.566          27.000  
G10  20149624.006   105887001.229        -723.762          37.000    20149630.601    79071492.588        -540.123          31.000  
G31  21728196.483   114182458.431         943.132          31.000  
J01  37991366.524   199645937.759         464.170          27.000  
R12  19113801.790   102102498.237       -1376.745          33.000  
> 2021  9 12 10 36 57.9997571  0  8
C06  36699308.697   191102867.750        -745.318          32.000  
C09  37692213.224   196273353.824        -847.801          24.000  
C24  24599800.213   128097614.2851      -3408.397          27.000  
C25  21819684.747   113620829.164        -981.644          31.000  
E21  24205345.288   127199947.5351      -1279.982          29.000  
G10  20149611.414                        -724.044          35.000    20149618.010    79071445.081        -541.454          38.000  
G31  21727869.109   114180727.478         943.697          33.000  
G32  21760107.291   114350122.2411        527.224          27.000  
> 2021  9 12 10 36 58.9997565  0  8
C06  36699272.722   191102675.959        -744.331          31.000  
C09  37692196.435   196273265.267        -849.567          22.000  
C24  24600276.583   128100085.352       -3406.962          28.000  
C25  21819692.241   113620873.895        -981.882          32.000  
E21  24205407.945   127200282.436       -1279.625          29.000  
G10  20149570.942   105886701.5561       -726.548          37.000    20149576.039    79071280.964        -541.827          38.000  
G32  21759829.084   114348649.619         527.250          25.000  
R12  19113975.970   102103427.8691      -1377.624          26.000  
> 2021  9 12 10 36 59.9997560  0 11
C06  36699269.424   191102639.175        -744.904          32.000  
C09  37692209.926   196273334.907        -850.431          24.000  
C24  24600781.134   128102711.287       -3407.003          28.000  
C25  21819726.718   113621077.551        -985.297          33.000  
C33  22266401.291   115947083.0671      -1047.656          21.000  
E21  24205500.581   127200774.552       -1279.326          30.000  
G10  20149555.953   105886639.280        -728.084          37.000    20149564.647                        -541.784          38.000  
G25  20781042.384   109205215.4561       -637.042          23.000  
G32  21759579.656   114347333.094         528.213          25.000  
J01  37990614.945                         465.324          33.000  
R12  19114084.195   102104006.807       -1378.180          27.000  
> 2021  9 12 10 37  0.9997558  0 11
C06  36699349.769   191103070.521        -742.406          27.000  
C09  37692312.155   196273873.879        -851.392          25.000  
C24  24601376.521   128105805.758       -3406.909          25.000  
C25  21819850.832                        -986.786          35.000  
E21  24205682.854   127201739.508       -1280.703          37.000  
G10  20149630.301   105887050.466        -728.172          32.000    20149643.492    79071525.5551       -542.975          37.000  
G25  20781103.541   109205537.611        -636.769          25.000  
G31  21726945.748   114175849.1521        942.677          26.000  
G32  21759419.567   114346489.904         527.931          33.000  
J01  37990468.946                         462.751          30.000  
R12  19114284.156   102105074.781       -1378.817          35.000  
> 2021  9 12 10 37  1.9997553  0 13
C06  36699341.674   191103033.169        -744.275          27.000  
C09  37692328.644   196273944.415        -850.932          24.000  
C24  24601881.672   128108432.295       -3408.087          25.000  
C25  21819894.002   113621893.3401       -984.708          33.000  
C33  22266593.158   115948088.9811      -1049.877          22.000  
E21  24205775.790   127202232.654       -1280.251          32.000  
G10  20149622.207   105886989.377        -727.990          33.000    20149631.201    79071480.029        -543.764          35.000  
G23  21309181.361   111980487.5331      -3073.839          26.000  
G25  20781076.560   109205386.920        -637.792          25.000  
G31  21726616.876   114174118.889         942.307          27.000  
G32  21759170.740   114345174.253         527.927          33.000  
J01  37990225.214                         462.809          30.000  
R12  19114396.878   102105676.351       -1379.996          33.000  
> 2021  9 12 10 37  2.9997550  0 12
C06  36699393.838   191103308.980        -744.698          31.000  
C09  37692405.091   196274325.573        -848.996          28.000  
C24  24602447.980   128111372.290       -3408.618          27.000  
C25  21819995.931                        -985.353          35.000  
C33  22266702.882   115948670.769       -1050.568          22.000  
G10  20149670.174   105887244.122        -726.989          34.000    20149679.767    79071670.327        -542.660          35.000  
G23  21309673.620   111983086.767       -3071.946          23.000  
G25  20781111.636   109205552.314        -638.595          25.000  
G31  21726349.461   114172704.259         941.240          29.000  
G32  21758981.571   114344173.883         527.305          27.000  
J01  37990047.138   199639060.6921        465.070          32.000  
R12  19114565.362   102106577.185       -1380.883          31.000  
> 2021  9 12 10 37  3.9997545  0 14
C06  36699386.943   191103273.108        -744.450          31.000  
C08  37958279.330   197658540.5481      -2442.154          25.000  
C09  37692418.582   196274394.065        -849.282          27.000  
C23  23815166.303   124011819.9741       1557.319          26.000  
C24  24602953.130   128113999.825       -3408.289          26.000  
C25  21820036.703   113622616.1221       -985.842          35.000  
C33  22266751.149   115948941.954       -1052.052          22.000  
E21  24206021.920   127203534.8881      -1281.948          27.000  
G10  20149658.182   105887184.376        -727.861          35.000    20149668.375    79071625.692        -542.838          35.000  
G25  20781085.854   109205403.633        -639.261          26.000  
G31  21726020.289   114170975.420         940.869          28.000  
G32  21758732.743   114342858.813         527.451          28.000  
J01  37989808.803   199637808.812         462.746          32.000  
R12  19114677.484   102107175.736       -1381.858          33.000  
> 2021  9 12 10 37  4.9997540  0 15
C06  36699380.048   191103236.511        -744.622          32.000  
C08  37958595.011   197660202.131       -2442.383          25.000  
C09  37692432.972   196274462.201        -848.769          27.000  
C23  23814711.818   124009481.840        1558.006          26.000  
C24  24603457.381   128116627.154       -3407.775          26.000  
C25  21820075.376   113622822.050        -987.204          35.000  
C33  22266802.114   115949213.445       -1051.808          23.000  
E21  24206116.055   127204029.768       -1281.630          26.000  
G10  20149648.589   105887125.039        -728.902          36.000    20149656.683    79071581.382        -544.755          35.000  
G23  21310538.221   111987654.3891      -3071.142          20.000  
G25  20781061.570   109205255.367        -639.964          25.000  
G31  21725689.918   114169246.911         940.499          28.000  
G32  21758478.219   114341543.866         527.582          26.000  
J01  37989570.468   199636556.633         463.588          32.000  
R12  19114787.208   102107761.915       -1382.221          32.000  
> 2021  9 12 10 37  5.9997537  0 13
C06  36699434.310   191103511.861        -744.671          32.000  
C08  37958975.748   197662177.250       -2443.787          24.000  
C09  37692508.519   196274842.846        -849.687          25.000  
C24  24604022.490   128119566.430       -3408.104          26.000  
C25  21820173.708   113623340.890        -986.686          33.000  
C33  22266915.735   115949796.660       -1051.875          26.000  
G10  20149703.451   105887381.575        -727.668          36.000    20149705.849    79071773.011        -545.544          35.000  
G23  21311030.481   111990253.321       -3070.983          20.000  
G25  20781094.248   109205422.901        -640.554          28.000  
G31  21725420.105   114167833.798         940.353          30.000  
G32  21758288.151   114340543.572         527.664          28.000  
J01  37989393.890   199635619.668         465.287          33.000  
R12  19114953.893   102108651.738       -1383.037          31.000  
> 2021  9 12 10 37  6.9997532  0 11
C06  36699428.914                        -744.921          31.000  
C08  37959295.926   197663840.706       -2445.188          24.000  
C09  37692522.310   196274911.901        -849.489          24.000  
C23  23813871.800   124005119.3781       1552.987          22.000  
C24  24604528.539   128122195.247       -3410.066          26.000  
C25  21820216.279   113623547.544        -986.961          34.000  
G10  20149690.559   105887323.351        -730.179          36.000    20149695.356    79071729.557        -545.227          35.000  
G23  21311462.482   111992538.044       -3073.961          20.000  
G25  20781068.466   109205275.794        -640.840          29.000  
J01  37989156.454   199634367.335         465.863          32.000  
R12  19115063.617   102109238.246       -1383.737          30.000  
> 2021  9 12 10 37  7.9997527  0 11
C06  36699420.220   191103519.2461       -742.724          31.000  
C08  37959616.704   197665505.175       -2444.616          24.000  
C09  37692537.599   196274980.121        -848.411          25.000  
C24  24605030.991   128124824.613       -3409.748          26.000  
C25  21820258.549   113623754.481        -987.447          33.000  
G10  20149680.367   105887265.645        -730.345          34.000    20149684.564    79071686.414        -545.312          36.000  
G23  21311895.382   111994824.445       -3072.943          24.000  
G25  20781041.185   109205128.948        -641.363          29.000  
G32  21757792.893   114337914.7491        526.207          26.000  
J01  37988913.922   199633114.780         465.071          31.000  
R12  19115173.341   102109824.278       -1384.228          29.000  
> 2021  9 12 10 37  8.9997522  0 12
C06  36699414.224   191103481.851        -744.214          32.000  
C08  37959935.384   197667167.341       -2441.864          24.000  
C09  37692551.689   196275047.522        -846.842          23.000  
C24  24605534.943   128127451.924       -3408.810          24.000  
C25  21820296.923   113623961.945        -987.157          33.000  
G10  20149663.878   105887208.693        -729.716          35.000    20149673.172    79071643.886        -545.054          36.000  
G23  21312326.184   111997110.343       -3074.523          23.000  
G25  20781013.304   109204982.613        -641.731          30.000  
G31  21724425.693   114162650.7231        939.507          31.000  
G32  21757544.965   114336600.827         525.869          26.000  
J01  37988677.686   199631862.216         463.790          32.000  
R12  19115282.166   102110405.946       -1384.956          30.000  
> 2021  9 12 10 37  9.9997517  0 12
C06  36699411.526   191103444.430        -744.498          31.000  
C08  37960253.463   197668829.405       -2443.094          23.000  
C09  37692565.180   196275113.921        -847.015          26.000  
C24  24606039.194   128130080.140       -3408.290          25.000  
C25  21820334.397   113624171.282        -987.837          34.000  
G10                                                                  20149662.979    79071602.096        -545.559          35.000  
G23  21312759.384   111999398.767       -3077.412          24.000  
G25  20780984.824   109204836.842        -642.910          28.000  
G31  21724093.223   114160923.764         938.432          28.000  
G32  21757293.439   114335287.555         525.052          26.000  
J01  37988435.453   199630610.498         464.720          30.000  
R12  19115396.386   102111015.510       -1385.855          31.000  
> 2021  9 12 10 37 10.9997517  0 13
C06  36699547.032   191104187.628        -741.427          30.000  
C08  37960720.240   197671270.242       -2439.088          20.000  
C09  37692727.068   196275961.692        -847.495          24.000  
C23  23812213.048   123996562.1491       1555.388          25.000  
C24  24606692.441   128133488.646       -3408.374          24.000  
C25  21820524.165   113625159.377        -988.164          32.000  
E21                                                                                                                                  24206895.215    94993084.3401       -960.075          27.000  
G10  20149787.992   105887882.9321       -732.061          30.000    20149802.082    79072148.778        -546.395          35.000  
G23  21313340.681   112002476.079       -3076.983          22.000  
G25  20781109.837   109205480.372        -644.327          27.000  
G32  21757191.810   114334761.588         526.709          27.000  
J01  37988347.914   199630146.049         464.051          31.000  
R12  19115654.208   102112393.644       -1386.652          29.000  
> 2021  9 12 10 37 11.9997512  0 11
C06  36699539.537   191104149.851        -743.016          33.000  
C09  37692738.160   196276029.831        -848.553          22.000  
C24  24607196.692   128136116.735       -3408.297          24.000  
C25  21820560.740   113625367.089        -988.972          23.000  
E21                                                                                                                                  24206989.650    94993455.743        -958.601          26.000  
G10                                                                  20149791.590    79072107.615        -547.211          33.000  
G23  21313774.181   112004765.395       -3078.411          13.000  
G25  20781084.355   109205336.942        -644.602          27.000  
G31  21723585.075   114158258.6781        938.860          24.000  
J01  37988111.977   199628893.710         465.179          29.000  
R12  19115762.133   102112969.790       -1387.356          30.000  
> 2021  9 12 10 37 12.9997507  0 12
C06  36699533.841   191104112.050        -743.258          31.000  
C09  37692752.850   196276097.489        -848.621          22.000  
C24  24607701.543   128138745.296       -3408.832          24.000  
C25  21820599.413   113625575.814        -989.801          31.000  
C33  22267440.372   115952494.7311      -1055.039          26.000  
E21                                                                                                                                  24207084.984    94993826.525        -961.065          26.000  
G10  20149766.707   105887772.8541       -730.506          32.000    20149781.397    79072067.018        -547.601          35.000  
G25  20781057.973   109205193.828        -644.991          25.000  
G31  21723250.806   114156532.663         938.710          21.000  
G32  21756684.261   114332131.4851        528.140          31.000  
J01  37987874.841   199627641.081         464.669          31.000  
R12  19115874.555   102113569.735       -1388.016          26.000  
> 2021  9 12 10 37 13.9997501  0 12
C06  36699498.466   191103917.784        -741.321          31.000  
C09  37692734.863   196276008.534        -846.140          23.000  
C24  24608175.515   128141217.977       -3409.861          24.000  
C25  21820610.805   113625629.293        -990.364          33.000  
C33  22267467.053   115952612.771       -1054.628          30.000  
E21                                                                                                                                  24207149.439    94994081.394        -961.319          26.000  
G10                                                                  20149740.925    79071909.041        -548.484          35.000  
G25  20780996.515   109204893.898        -645.591          19.000  
G31  21722887.458   114154649.250         937.681          19.000  
G32  21756404.255   114330659.317         527.221          30.000  
J01  37987607.726   199626231.391         464.200          31.000  
J02  37929286.102   199319753.1271      -1368.737          26.000  
> 2021  9 12 10 37 14.9997496  0 12
C06  36699490.072   191103879.659        -742.206          33.000  
C08  37961969.475   197677761.3771      -2447.825          18.000  
C24  24608678.866   128143846.935       -3409.852          24.000  
C25  21820653.076   113625837.955        -988.606          26.000  
C33  22267523.115   115952886.299       -1054.187          28.000  
E21  24207242.075   127209939.8911      -1285.573          35.000    24207244.773    94994453.703        -960.554          23.000  
G10                                                                  20149731.331    79071869.331        -548.166          35.000  
G25  20780970.434   109204751.949        -646.106          28.000  
G32  21756155.427   114329343.827         528.401          25.000  
J01  37987371.490   199624978.797         464.551          26.000  
J02  37929393.128   199320333.174       -1367.706          25.000  
R12  19116067.022   102114597.8811      -1390.004          25.000  
> 2021  9 12 10 37 15.9997494  0 11
C06  36699577.911   191104309.869        -741.560          33.000  
C09  37692845.486   196276608.6681       -847.278          24.000  
C24  24609273.654   128146943.068       -3407.123          22.000  
C25  21820783.486   113626515.906        -991.190          27.000  
C33  22267666.116   115953628.736       -1055.503          28.000  
E21  24207429.745   127210911.251       -1287.407          35.000    24207430.045    94995180.213        -960.299          25.000  
G10                                                                  20149811.076    79072183.073        -548.545          35.000  
G32  21755993.839   114328500.045         528.782          28.000  
J01  37987223.992   199624199.240         464.388          27.000  
J02  37929589.492   199321386.243       -1368.291          25.000  
R12  19116267.583   102115669.783       -1390.946          29.000  
> 2021  9 12 10 37 16.9997489  0 14
C06  36699568.318   191104271.487        -741.750          30.000  
C08  37962697.072   197681563.4501      -2445.863          19.000  
C09  37692857.478   196276675.364        -847.172          22.000  
C24  24609780.903   128149569.161       -3406.425          23.000  
C25  21820826.056   113626726.900        -991.889          30.000  
C33  22267718.579   115953903.386       -1055.947          27.000  
E21  24207524.480                       -1287.595          37.000    24207524.779    94995552.204        -959.478          26.000  
G10  20149794.587                        -731.837          38.000    20149801.183    79072144.246        -550.256          36.000  
G25  20781011.205   109204942.7861       -647.636          29.000  
G31  21722003.070   114149948.0511        935.921          29.000  
G32  21755742.913   114327183.580         528.291          27.000  
J01  37986985.657   199622946.897         464.138          28.000  
J02  37929699.515   199321967.709       -1369.438          25.000  
R12  19116378.507   102116262.139       -1391.261          26.000  
> 2021  9 12 10 37 17.9997484  0 14
C06  36699558.724   191104233.080        -744.882          30.000  
C09  37692867.671   196276740.603        -845.780          23.000  
C23  23809139.576   123980547.2541       1550.454          18.000  
C24  24610286.353   128152195.911       -3408.189          23.000  
C25  21820866.528   113626937.941        -991.293          30.000  
C33  22267771.642   115954178.397       -1054.919          24.000  
E21  24207619.214   127211898.2591      -1286.830          36.000    24207619.814    94995923.833        -960.345          25.000  
G10  20149786.493                        -736.936          37.000    20149790.990    79072105.910        -549.980          36.000  
G25  20780985.423   109204802.869        -648.259          30.000  
G31  21721676.596   114148224.404         935.692          30.000  
G32  21755488.689   114325867.038         528.595          25.000  
J01  37986748.521   199621694.673         464.459          27.000  
J02  37929808.340   199322549.684       -1369.977          24.000  
R12  19116481.335   102116811.732       -1391.541          25.000  
> 2021  9 12 10 37 18.9997481  0 13
C06  36699611.188   191104506.719        -741.847          30.000  
C09  37692939.921   196277118.169        -846.858          23.000  
C23  23808753.143   123978529.075        1548.391          18.000  
C24  24610852.661   128155137.008       -3410.502          24.000  
C25  21820967.259   113627461.134        -991.999          30.000  
C33  22267885.264   115954765.316       -1055.389          25.000  
E21  24207776.005   127212713.087       -1286.871          36.000    24207775.106    94996531.438        -961.349          27.000  
G10  20149836.858   105888097.3431       -736.963          38.000    20149841.655    79072303.219        -551.262          35.000  
G25  20781018.400   109204978.809        -648.588          29.000  
G32  21755298.021   114324866.532         526.804          27.000  
J01  37986571.344   199620757.809         464.576          28.000    37986573.742   149067474.1121        346.445          26.000  
J02  37929978.922   199323446.164       -1368.450          25.000  
R12  19116649.819   102117711.286       -1392.657          26.000  
> 2021  9 12 10 37 19.9997476  0 14
C06  36699606.091   191104467.891        -743.190          29.000  
C09  37692953.112   196277184.341        -846.439          22.000  
C23  23808306.752   123976199.502        1549.166          19.000  
C24  24611357.812   128157766.547       -3409.564          24.000  
C25  21821008.930   113627672.817        -992.927          31.000  
C33  22267938.327   115955040.268       -1056.000          25.000  
E21  24207871.639   127213213.305       -1287.833          36.000    24207869.840    94996905.316        -963.382          26.000  
G10  20149825.766   105888047.138        -737.683          38.000    20149832.062    79072265.745        -551.117          36.000  
G25  20780990.819   109204839.431        -648.371          29.000  
G31  21721084.506   114145092.2721        935.863          31.000  
G32  21755046.794   114323552.476         525.867          29.000  
J01  37986333.309   199619505.065         465.371          27.000    37986336.007   149066539.546         346.516          27.000  
J02  37930087.447   199324027.076       -1368.830          24.000  
R12  19116760.142   102118300.609       -1393.757          27.000  
> 2021  9 12 10 37 20.9997473  0 15
C06  36699656.457   191104741.080        -741.079          29.000  
C08  37964101.899   197688833.4731      -2442.569          19.000  
C09  37693026.561   196277562.202        -846.120          23.000  
C23  23807920.020   123974180.811        1551.031          20.000  
C24  24611925.319   128160707.855       -3408.805          23.000  
C25  21821109.660   113628196.893        -992.597          30.000  
C33  22268051.948   115955628.115       -1057.362          26.000  
E21  24208025.433   127214028.960       -1288.576          36.000    24208025.133    94997515.055        -961.789          26.000  
G10  20149877.030   105888312.560        -739.077          38.000    20149882.726    79072463.960        -551.417          36.000  
G12  22508879.727   118284961.2071      -2349.883          27.000  
G25  20781024.996   109205015.642        -649.436          29.000  
G31  21720818.290   114143684.419         935.205          32.000  
J01  37986153.733   199618567.055         464.751          26.000    37986157.630   149065839.789         347.764          27.000  
J02  37930258.329   199324923.243       -1367.404          22.000  
R12  19116927.726   102119196.174       -1394.502          25.000  
> 2021  9 12 10 37 21.9997468  0 14
C06  36699649.261   191104702.002        -741.506          30.000  
C09  37693037.353   196277627.219        -843.860          23.000  
C23  23807474.828   123971848.404        1552.319          21.000  
C24  24612431.368   128163336.100       -3408.981          24.000  
C25  21821150.132   113628409.220        -993.503          30.000  
C33  22268106.511   115955904.932       -1057.609          26.000  
E21  24208121.366   127214529.897       -1288.694          36.000    24208120.767    94997889.800        -961.631          26.000  
G10  20149867.737   105888263.448        -739.070          39.000    20149873.133    79072427.297        -552.592          35.000  
G12  22509177.121   118286524.001       -2350.799          26.000  
G23  21318328.328   112028632.7221      -3080.724          21.000  
G25  20780999.513   109204877.832        -650.407          28.000  
G31  21720494.814   114141961.546         936.679          31.000  
J01  37985914.798   199617315.662         463.181          26.000    37985919.295   149064903.670         345.931          27.000  
R12  19117037.151   102119780.198       -1395.587          26.000  
> 2021  9 12 10 37 22.9997463  0 15
C06  36699644.765   191104662.710        -741.002          31.000  
C09  37693051.743   196277691.148        -845.836          24.000  
C23  23807029.636   123969516.782        1550.682          21.000  
C24  24612936.818   128165965.342       -3411.318          22.000  
C25  21821190.904   113628623.091        -995.381          28.000  
C33  22268161.373   115956182.331       -1058.261          27.000  
E21  24208216.101   127215031.221       -1288.986          36.000    24208215.801    94998263.534        -962.181          25.000  
G10  20149859.343   105888214.966        -739.632          38.000    20149863.840    79072391.098        -552.327          36.000  
G12  22509474.815   118288086.952       -2350.538          25.000  
G23  21318770.522   112030925.793       -3081.293          22.000  
G31  21720173.437                         931.879          31.000  
G32  21754348.878   114319920.9001        528.127          25.000  
J01  37985678.262   199616063.667         465.140          27.000    37985680.361   149063968.405         348.621          27.000  
J02  37930482.573   199326083.3911      -1367.520          23.000  
R12  19117148.673   102120376.273       -1396.525          24.000  
> 2021  9 12 10 37 23.9997458  0 15
C06  36699638.769   191104623.418        -742.330          31.000  
C09  37693063.135   196277756.968        -846.142          23.000  
C23  23806582.946   123967184.339        1552.582          21.000  
C24  24613441.369   128168594.731       -3410.282          23.000  
C25  21821230.476   113628837.364        -994.497          28.000  
C33  22268213.836   115956460.667       -1059.471          26.000  
E21  24208311.735   127215532.995       -1289.960          36.000    24208311.435    94998637.424        -962.752          25.000  
G10  20149848.850   105888167.060        -739.886          37.000    20149855.146    79072355.340        -554.013          36.000  
G12  22509771.909   118289650.435       -2351.096          25.000  
G23  21319210.618   112033219.516       -3082.625          22.000  
G25  20780953.945   109204606.7071       -652.924          27.000  
G31  21719852.959   114138559.5361        933.969          31.000  
J01  37985439.028   199614811.159         464.988          27.000    37985441.126   149063032.284         347.912          27.000  
J02  37930591.398   199326663.502       -1367.351          24.000  
R12  19117262.894   102120986.014       -1396.790          25.000  
> 2021  9 12 10 37 24.9997453  0 15
C06  36699630.375   191104583.748        -740.632          31.000  
C09  37693073.628   196277823.103        -847.589          24.000  
C24  24613945.920   128171224.097       -3410.807          22.000  
C25  21821270.649   113629052.037        -995.646          29.000  
C33  22268267.199   115956739.962       -1060.281          27.000  
E21  24208407.368   127216035.118       -1290.089          35.000    24208406.769    94999011.493        -963.095          25.000  
G10  20149839.856   105888119.738        -740.715          37.000    20149846.152    79072319.972        -554.162          36.000  
G12  22510070.502   118291213.522       -2352.319          25.000  
G23  21319651.612   112035515.054       -3084.064          23.000  
G25  20780929.062   109204471.291        -651.644          26.000  
G31  21719518.690   114136838.244         933.564          31.000  
G32  21753844.627   114317289.6761        527.897          26.000  
J01  37985199.194   199613558.347         464.817          28.000    37985202.492   149062095.336         348.451          27.000  
J02  37930705.319   199327244.157       -1368.556          22.000  
R12  19117378.015   102121601.616       -1399.320          25.000  
> 2021  9 12 10 37 25.9997450  0 14
C06  36699681.039   191104856.295        -740.700          31.000  
C09  37693144.979   196278201.174        -844.522          23.000  
C23  23805753.420   123962828.5101       1553.914          22.000  
C24  24614513.727   128174167.437       -3412.235          23.000  
C25  21821370.779   113629579.256        -994.868          30.000  
C33  22268383.219   115957331.489       -1059.697          28.000  
E21  24208561.462   127216852.755       -1291.337          35.000    24208562.061    94999620.787        -963.244          27.000  
G10  20149888.423   105888388.141        -741.338          37.000    20149897.116    79072520.425        -553.194          36.000  
G12  22510429.054   118293094.361       -2354.808          26.000  
G23  21320149.568   112038126.377       -3083.460          24.000  
G25  20780964.138   109204650.238        -652.898          25.000  
G31  21719247.378   114135432.415         932.160          31.000  
J01  37985021.117   199612619.718         466.625          29.000    37985023.815   149061394.090         347.909          27.000  
R12  19117550.395   102122522.053       -1403.014          26.000  
> 2021  9 12 10 37 26.9997448  0 15
C06  36699762.283   191105284.966        -739.077          31.000  
C09  37693248.407   196278733.806        -846.918          23.000  
C23  23805397.566   123960961.076        1555.550          21.000  
C24  24615109.115   128177267.450       -3412.686          22.000  
C25  21821501.789   113630261.969        -995.482          30.000  
C33  22268526.520   115958079.033       -1059.526          29.000  
E21  24208747.633   127217828.398       -1290.776          35.000    24208747.933    95000348.200        -963.158          26.000  
G10  20149970.865   105888814.763        -740.711          37.000    20149978.360    79072839.033        -555.322          36.000  
G12  22510816.086   118295134.227       -2354.929          24.000  
G23  21320673.305   112040894.608       -3083.670          23.000  
G31  21719011.441   114134184.648         931.656          30.000  
G32  21753489.972   114315444.2311        528.917          26.000  
J01  37984872.420   199611838.180         465.765          28.000    37984875.418   149060810.311         347.400          27.000  
J02  37931078.261   199329193.0181      -1368.297          25.000  
R12  19117750.357   102123590.380       -1401.350          25.000  
> 2021  9 12 10 37 27.9997443  0 15
C06  36699752.090   191105244.873        -740.455          31.000  
C09  37693262.797   196278800.369        -846.471          23.000  
C23  23804947.878   123958626.314        1553.788          21.000  
C24  24615615.464   128179899.949       -3412.954          23.000  
C25  21821541.661   113630477.377        -997.594          29.000  
C33  22268580.183   115958357.103       -1058.257          27.000  
E21  24208843.267   127218331.554       -1291.261          36.000    24208844.166    95000724.806        -963.149          26.000  
G10  20149962.471   105888769.123        -742.045          37.000    20149969.366    79072804.954        -554.400          36.000  
G12  22511115.579   118296701.368       -2355.330          24.000  
G23  21321103.207   112043189.721       -3082.111          23.000  
G25  20781003.411   109204855.6881       -654.068          22.000  
G31  21718684.368   114132464.454         933.828          32.000  
J01  37984633.785   199610584.820         465.930          29.000    37984637.383   149059874.423         347.245          27.000  
J02  37931189.784   199329773.540       -1368.889          27.000  
R12  19117862.779   102124191.395       -1400.838          27.000  
> 2021  9 12 10 37 28.9997437  0 12
C06  36699709.220   191105048.171        -739.867          31.000  
C09  37693246.009   196278710.636        -846.831          21.000  
C25  21821554.252   113630537.588        -996.386          27.000  
C33  22268603.567   115958479.328       -1059.752          24.000  
E21  24208910.720   127218677.078       -1289.589          35.000    24208909.820    95000981.923        -961.804          27.000  
G10  20149926.796   105888566.359        -743.320          39.000    20149930.693    79072653.694        -553.872          35.000  
G12  22511383.893   118298111.182       -2354.768          23.000  
G23  21321511.525   112045324.914       -3081.108          21.000  
G25  20780950.347   109204563.639        -653.400          20.000  
J01  37984364.871   199609173.427         466.858          28.000    37984367.270   149058819.806         349.082          26.000  
J02  37931273.126   199330197.447       -1369.885          27.000  
R12  19117945.522   102124632.444       -1399.431          29.000  
> 2021  9 12 10 37 29.9997432  0 15
C06  36699704.723   191105007.546        -742.107          28.000  
C09  37693255.602   196278775.806        -847.014          22.000  
C23  23804008.328   123953808.5891       1548.461          20.000  
C24  24616596.085   128185009.4061      -3413.788          18.000  
C25  21821598.622   113630753.232        -995.613          33.000  
C33  22268654.231   115958758.650       -1060.687          27.000  
E21  24209004.555   127219181.059       -1291.974          32.000    24209005.454    95001356.588        -963.344          27.000  
G10  20149918.102   105888521.816        -743.590          43.000    20149921.699    79072620.328        -554.467          31.000  
G12  22511680.988   118299676.724       -2351.219          14.000  
G25  20780927.263   109204429.571        -654.060          19.000  
G31  21717985.252   114128867.4201        931.985          32.000  
G32  21752712.910   114311339.0841        528.487          30.000  
J01  37984126.836   199607919.363         466.416          24.000    37984127.436   149057884.006         347.793          23.000  
J02  37931386.148   199330780.426       -1371.205          26.000  
R12  19118058.244   102125235.331       -1400.044          35.000  
> 2021  9 12 10 37 30.9997430  0 14
C06  36699784.468   191105435.293        -738.366          30.000  
C09  37693355.733   196279310.527        -846.676          23.000  
C23  23803649.476   123951947.788        1546.989          27.000  
C24  24617189.075   128188108.806       -3409.802          19.000  
C25  21821732.329   113631436.972        -996.041          32.000  
E21  24209189.527   127220157.771       -1290.497          33.000    24209191.326    95002084.889        -964.373          27.000  
G10  20150000.545   105888950.454        -744.341          43.000    20150003.243    79072940.397        -556.658          31.000  
G12  22512068.020   118301713.347       -2351.844          11.000  
G23  21322467.263   112050385.4641      -3080.869          23.000  
G25  20780995.316   109204768.201        -653.462          19.000  
G31  21717749.915   114127620.883         934.159          34.000  
J01  37983980.537   199607138.226         466.160          25.000    37983977.240   149057302.230         346.759          24.000  
J02  37931590.606   199331837.251       -1372.381          24.000  
R12  19118260.604   102126316.341       -1401.055          31.000  
> 2021  9 12 10 37 31.9997425  0 11
C06  36699776.673   191105394.679        -737.696          30.000  
C09  37693367.425   196279375.956        -846.077          26.000  
C24  24617693.026   128190737.746       -3409.384          20.000  
C25  21821775.199                        -997.375          35.000  
C33  22268846.698   115959787.8011      -1061.065          28.000  
E21  24209287.559   127220662.315       -1292.563          33.000    24209287.559    95002461.531        -965.822          28.000  
G10  20149992.151   105888907.137        -744.547          42.000    20149996.048    79072908.030        -556.647          32.000  
G12  22512364.215   118303276.669       -2351.204          13.000  
G23  21322900.763   112052679.446       -3083.036          24.000  
J01  37983740.703   199605883.810         467.509          28.000    37983738.605   149056365.803         349.103          21.000  
R12  19118370.328   102126902.015       -1402.130          30.000  
> 2021  9 12 10 37 32.9997420  0 10
C06  36699769.178   191105353.806        -740.181          30.000  
C09  37693379.117   196279441.365        -845.477          28.000  
C25  21821810.275                        -998.887          35.000  
C33  22268900.361   115960068.444       -1061.127          25.000  
E21  24209385.891   127221167.478       -1292.913          37.000    24209383.493    95002839.539        -967.709          29.000  
G10  20149982.557   105888863.854        -744.765          31.000    20149987.654    79072876.068        -555.973          34.000  
G31  21717106.860   114124184.2461        930.617          18.000  
G32  21752055.465   114307859.7931        529.557          29.000  
J01  37983500.870   199604628.961         466.682          30.000    37983500.270   149055428.221         350.042          23.000  
R12  19118487.247   102127526.576       -1402.867          30.000  
> 2021  9 12 10 37 33.9997414  0 13
C06  36699733.803   191105156.547        -741.307          28.000  
C09  37693358.431   196279350.088        -844.852          26.000  
C23  23802274.628   123944809.1581       1547.541          18.000  
C24  24618668.850   128195837.7101      -3408.720          23.000  
C25  21821822.567   113631988.4191       -997.761          34.000  
C33  22268923.445   115960192.390       -1060.154          28.000  
E21  24209448.847   127221515.159       -1291.499          38.000    24209450.646    95003101.010        -965.746          29.000  
G10  20149941.486   105888663.669        -745.587          30.000    20149949.280    79072726.725        -557.133          35.000  
G12  22512919.130   118306253.4761      -2357.582          16.000  
G25  20780881.395   109204208.8751       -654.886          20.000  
J01  37983232.255   199603216.973         466.643          32.000    37983232.555   149054372.084         348.653          22.000  
J02  37931899.692   199333435.6601      -1372.168          21.000  
R12  19118572.388   102127982.042       -1403.859          30.000  
> 2021  9 12 10 37 34.9997412  0 15
C06  36699812.948   191105582.936        -738.194          26.000  
C09  37693459.161   196279881.825        -841.862          21.000  
C24  24619262.739   128198934.207       -3408.194          21.000  
C25  21821954.175   113632673.868        -998.188          33.000  
C33  22269068.844   115960940.945       -1061.115          32.000  
E21  24209635.918   127222493.053       -1293.382          38.000    24209635.618    95003831.019        -966.296          28.000  
G10  20150020.931   105889094.272        -745.996          35.000    20150030.824    79073048.184        -557.520          35.000  
G12  22513307.961   118308295.732       -2357.329          18.000  
G23  21324274.412   112059884.3111      -3085.064          26.000  
G25  20780945.251   109204549.504        -657.039          20.000  
G31  21716512.671   114121062.0241        930.619          23.000  
G32  21751617.768   114305540.5871        529.407          27.000  
J01  37983083.558   199602435.577         465.669          33.000    37983084.158   149053788.384         346.443          27.000  
J02  37932098.155   199334491.461       -1369.699          23.000  
R12  19118775.047   102129063.800       -1404.447          33.000  
> 2021  9 12 10 37 35.9997409  0 13
C06  36699863.613   191105853.085        -739.634          26.000  
C09  37693531.711   196280256.287        -843.305          22.000  
C23  23801529.344   123940931.9851       1547.360          25.000  
C24  24619829.347   128201875.330       -3410.533          23.000  
C25  21822054.606   113633203.867        -998.483          37.000  
C33  22269183.365   115961534.311       -1062.136          32.000  
E21  24209792.110   127223314.151       -1292.905          38.000    24209791.810    95004444.013        -966.191          30.000  
G10  20150075.193   105889367.996        -747.259          40.000    20150082.688    79073252.666        -558.944          34.000  
G25  20780978.228   109204727.444        -648.804          20.000  
G31  21716246.455   114119658.576         930.646          29.000  
J01  37982903.983   199601496.353         467.152          32.000    37982906.981   149053089.349         345.704          26.000  
J02  37932266.338   199335386.573       -1367.013          22.000  
R12  19118949.527   102129995.980       -1405.027          36.000  
> 2021  9 12 10 37 36.9997404  0 13
C06  36699854.619   191105812.239        -739.709          27.000  
C09  37693544.602   196280320.140        -844.503          24.000  
C23  23801079.655   123938603.851        1548.699          23.000  
C24  24620335.996   128204504.413       -3408.868          23.000  
C25  21822098.975   113633422.028        -999.468          37.000  
C33  22269239.426                       -1063.475          31.000  
E21  24209889.242   127223820.540       -1293.998          37.000    24209888.043    95004822.009        -966.838          30.000  
G10  20150072.195                        -747.879          42.000    20150074.594    79073222.250        -558.893          33.000  
G23  21325212.163   112064793.2731      -3086.012          21.000  
G25  20780954.245   109204593.037        -657.659          18.000  
G31  21715919.981   114117940.558         929.810          28.000  
J01  37982664.449                         465.861          33.000    37982669.545   149052154.603         347.978          24.000  
R12  19119063.748   102130606.671       -1405.862          35.000  
> 2021  9 12 10 37 37.9997399  0 13
C06  36699844.426   191105771.119        -739.001          26.000  
C09  37693556.894   196280385.617        -845.922          23.000  
C23  23800630.866   123936274.283        1552.247          20.000  
C24  24620841.746   128207133.496       -3410.980          23.000  
C25  21822138.248   113633639.176        -997.597          36.000  
C33  22269292.490   115962054.8711      -1064.056          31.000  
E21  24209988.474   127224327.369       -1294.701          36.000    24209984.576    95005200.702        -968.700          30.000  
G10  20150064.101   105889302.1121       -748.778          42.000    20150067.399    79073192.375        -559.699          32.000  
G23  21325648.960   112067091.316       -3085.784          21.000  
G25  20780925.465   109204460.832        -657.422          17.000  
G31  21715592.908   114116223.226         929.643          27.000  
J01  37982424.315   199598995.3091        465.627          29.000    37982430.311   149051218.148         348.640          23.000  
R12  19119180.966   102131232.189       -1406.882          34.000  
> 2021  9 12 10 37 38.9997394  0 14
C06  36699838.730   191105730.006        -739.741          31.000  
C09  37693567.986   196280451.115        -846.488          24.000  
C24  24621346.596   128209764.111       -3411.242          22.000  
C25  21822178.120   113633857.091        -999.754          29.000  
C33  22269345.853   115962336.754       -1063.200          27.000  
E21  24210082.609   127224835.151       -1295.310          31.000    24210081.409    95005580.773        -967.828          27.000  
G10  20150056.306   105889263.439        -749.474          32.000    20150061.103    79073163.229        -558.981          34.000  
G12  22514574.285   118314898.6691      -2360.216          19.000  
G23  21326083.659   112069390.141       -3088.170          24.000  
G25  20780898.783   109204332.726        -661.066          26.000  
G31  21715264.335   114114506.213         928.596          26.000  
G32  21750695.007   114300590.4051        528.278          31.000  
J01  37982186.879   199597742.598         465.014          25.000    37982191.976   149050282.803         346.928          20.000  
R12  19119293.389   102131833.465       -1407.556          22.000  
> 2021  9 12 10 37 39.9997389  0 12
C06  36699833.034   191105687.814        -737.927          27.000  
C09  37693580.877   196280516.489        -844.476          23.000  
C24  24621854.445   128212393.728       -3410.054          22.000  
C25  21822219.192   113634076.599       -1000.867          30.000  
C33  22269398.616   115962617.834       -1061.683          26.000  
E21  24210177.643   127225342.938       -1295.400          33.000    24210177.343    95005959.410        -967.958          28.000  
G10  20150055.107   105889226.103        -750.992          31.000    20150053.908    79073134.439        -560.007          34.000  
G12  22514873.777   118316471.005       -2360.351          18.000  
G31  21714938.161   114112790.499         927.548          27.000  
G32  21750444.081   114299274.216         529.127          36.000  
J01  37981950.043   199596489.369         466.107          29.000    37981953.641   149049347.180         348.105          22.000  
R12  19119409.108   102132451.172       -1407.612          22.000  
> 2021  9 12 10 37 40.9997386  0 10
C06  36699886.997   191105957.847        -738.712          28.000  
C24  24622419.853   128215336.231       -3411.657          23.000  
C25  21822319.622   113634609.114       -1001.329          28.000  
C33  22269510.139   115963211.573       -1063.027          27.000  
E21  24210333.835   127226166.598       -1297.046          32.000    24210334.434    95006574.175        -967.029          27.000  
G10  20150109.070                        -748.755          32.000    20150106.372    79073341.501        -560.205          34.000  
G25  20780905.079   109204397.5121       -663.624          19.000  
G31  21714668.048   114111390.482         927.034          29.000  
G32  21750252.514                         528.040          35.000  
J01  37981769.868   199595550.436         465.769          29.000    37981774.665   149048646.804         347.059          19.000  
> 2021  9 12 10 37 41.9997381  0 11
C06  36699879.802   191105916.102        -737.579          27.000  
C24  24622925.603   128217967.672       -3411.515          21.000  
C25  21822362.193   113634830.655       -1002.984          30.000  
C33  22269564.401   115963494.313       -1064.052          27.000  
E21  24210433.066   127226675.587       -1296.761          33.000    24210430.967    95006954.297        -969.011          27.000  
G10  20150103.674   105889499.9351       -752.059          32.000    20150099.776    79073313.678        -561.876          34.000  
G23  21327466.302   112076605.1231      -3088.953          16.000  
G25  20780882.894   109204273.210        -663.312          24.000  
G31  21714340.675   114109675.731         926.842          27.000  
G32  21749993.193   114297031.7261        528.287          35.000  
J01  37981533.631   199594296.324         466.456          29.000    37981534.831   149047708.619         350.318          20.000  
> 2021  9 12 10 37 42.9997379  0 11
C06  36699961.945   191106342.198        -738.458          26.000  
C09  37693764.350   196281489.9211       -844.139          26.000  
C24  24623520.991   128221066.659       -3411.014          22.000  
C25  21822495.301   113635521.352       -1002.801          28.000  
C33  22269708.002   115964246.376       -1064.220          28.000  
E21  24210622.235                       -1296.511          34.000    24210618.338    95007688.315        -969.396          27.000  
G10  20150185.517   105889935.957        -751.746          31.000    20150181.919    79073639.106        -560.623          34.000  
G12  22515925.749   118321979.6561      -2362.399          19.000  
G31  21714103.539   114108433.911         926.696          26.000  
G32  21749836.701   114296188.177         529.403          35.000  
J01  37981386.433   199593514.490         466.609          32.000  
> 2021  9 12 10 37 43.9997373  0 11
C06  36699922.672   191106143.362        -738.343          24.000  
C09  37693747.562   196281397.025        -842.940          24.000  
C24  24623995.862   128223541.429       -3412.439          23.000  
C25  21822509.391   113635586.820       -1002.199          30.000  
E21  24210690.588   127228030.7921      -1301.923          32.000    24210685.791    95007952.044        -970.803          26.000  
G10  20150144.145   105889742.301        -751.658          35.000    20150144.745    79073494.302        -564.406          34.000  
G12  22516195.562   118323397.192       -2363.424          23.000  
G31  21713745.587   114106562.201         926.432          31.000  
G32  21749550.699   114294714.211         526.453          35.000  
J01  37981119.018   199592102.246         467.880          29.000  
R12  19119969.121   102135442.5121      -1410.475          19.000  
> 2021  9 12 10 37 44.9997368  0 10
C06  36699913.978   191106101.052        -738.460          32.000  
C24  24624501.312   128226172.216       -3411.157          19.000  
C25  21822553.760   113635808.553       -1002.629          31.000  
C33  22269791.344   115964657.8871      -1064.323          23.000  
E21  24210788.020   127228540.992       -1297.280          25.000    24210782.024    95008334.797        -971.041          23.000  
G10  20150136.051   105889706.798        -752.352          41.000    20150138.449    79073467.885        -561.180          27.000  
G12  22516496.554   118324973.168       -2363.930          24.000  
G31  21713410.419   114104848.047         926.182          25.000  
G32  21749301.572   114293398.335         529.739          31.000  
R12  19120081.543   102136042.844       -1411.513          19.000  
> 2021  9 12 10 37 45.9997366  0 12
C06  36699998.520   191106526.770        -738.354          31.000  
C09  37693862.982   196281991.7311       -843.278          24.000  
C16  37344834.109   194464350.4681       -709.671          23.000  
C25  21822688.367   113636498.888       -1002.078          30.000  
C33  22269939.142   115965411.234       -1066.240          26.000  
G10  20150217.295   105890144.155        -751.988          41.000    20150221.192    79073794.178        -564.737          30.000  
G12  22516884.485   118327022.077       -2364.061          23.000  
G23  21329370.584   112086605.1371      -3093.025          18.000  
G25  20780923.066   109204570.8501       -665.201          18.000  
G31  21713173.883   114103606.742         925.838          31.000  
G32  21749132.789   114292555.646         527.740          29.000  
R12  19120283.303   102137121.112       -1413.529          23.000  
> 2021  9 12 10 37 46.9997361  0 10
C06  36699993.123   191106483.148        -736.476          33.000  
C24  24625598.853   128231906.7151      -3415.446          18.000  
C25  21822731.238   113636720.560       -1002.204          30.000  
C33  22269994.903   115965697.878       -1067.380          25.000  
E21  24211068.326   127230033.5381      -1298.561          25.000  
G10  20150208.301   105890109.084        -753.510          39.000    20150213.997    79073768.148        -562.800          28.000  
G12  22517179.781   118328598.415       -2364.077          24.000  
G25  20780897.584   109204448.287        -665.116          19.000  
G32  21748881.263   114291239.573         528.280          26.000  
R12  19120401.122   102137750.091       -1414.113          26.000  
> 2021  9 12 10 37 47.9997356  0  9
C06  36699989.226                        -736.997          34.000  
C24  24626104.603   128234541.679       -3415.250          19.000  
C25  21822773.508   113636942.828       -1003.606          32.000  
C33  22270050.365   115965983.923       -1066.528          29.000  
E21  24211159.763   127230544.612       -1299.074          27.000  
G10  20150200.506   105890074.706        -753.260          40.000    20150206.802    79073742.532        -564.287          31.000  
G12  22517477.175   118330174.859       -2364.312          24.000  
G25  20780870.303   109204326.129        -666.057          20.000  
R12  19120515.343   102138360.576       -1414.674          29.000  
> 2021  9 12 10 37 48.9997350  0 11
C06  36699949.354   191106274.3191       -736.509          33.000  
C09  37693877.671   196282025.9841       -842.313          20.000  
C16  37344759.461   194463979.3161       -710.993          20.000  
C24  24626578.275   128237019.496       -3413.678          19.000  
C25  21822786.999   113637009.803       -1003.881          31.000  
C33  22270075.847   115966113.710       -1065.738          30.000  
E21  24211223.319   127230897.803       -1298.342          29.000  
G10  20150164.232   105889883.410        -754.580          41.000    20150171.127    79073599.681        -565.173          32.000  
G12  22517746.389   118331594.669       -2365.215          24.000  
G25  20780815.441   109204047.045        -667.657          20.000  
R12  19120599.285   102138808.846       -1417.015          28.000  
> 2021  9 12 10 37 49.9997345  0 12
C06  36699939.161   191106230.460        -735.830          33.000  
C24  24627082.526   128239652.238       -3413.043          18.000  
C25  21822827.171   113637233.081       -1003.582          29.000  
C33  22270131.908   115966398.544       -1065.487          30.000  
E21  24211317.454   127231408.425       -1299.610          28.000  
G10  20150158.236   105889850.177        -755.279          41.000    20150165.731    79073574.974        -563.679          32.000  
G12  22518045.282   118333172.845       -2366.122          24.000  
G23  21331080.600   112095661.8561      -3089.548          18.000  
G31  21711852.997   114096595.3811        924.841          30.000  
J01  37979740.573   199584879.9101        468.781          27.000  
J02  37933986.548   199344464.6841      -1368.497          29.000  
R12  19120712.007   102139411.113       -1417.148          28.000  
> 2021  9 12 10 37 50.9997345  0 13
C06  36700079.164   191106967.179        -736.999          32.000  
C09  37694056.048   196282930.2191       -841.813          21.000  
C16  37344879.978   194464618.8341       -708.147          19.000  
C25  21823020.237   113638236.099       -1002.773          28.000  
C33  22270336.967   115967463.976       -1065.352          29.000  
E21  24211564.782   127232708.539       -1301.050          31.000  
G10  20150302.736   105890605.370        -755.526          41.000    20150309.031    79074138.851        -563.016          33.000  
G23  21331666.395   112098750.565       -3088.522          17.000  
G31  21711680.017   114095670.946         924.190          30.000  
G32  21748008.267   114286600.6531        530.068          26.000  
J01  37979650.935   199584410.968         468.327          28.000  
J02  37934245.868   199345833.422       -1368.506          30.000  
R12  19120978.522   102140834.578       -1416.070          30.000  
> 2021  9 12 10 37 51.9997340  0 12
C06  36700070.770   191106923.148        -736.625          32.000  
C09  37694066.841   196282991.049        -840.490          25.000  
C25  21823063.408   113638458.783       -1003.592          30.000  
C33  22270391.829   115967749.264       -1066.764          31.000  
E21  24211662.515   127233221.577       -1300.797          31.000  
G10  20150295.840   105890573.380        -755.546          41.000    20150302.736    79074114.946        -565.543          33.000  
G12  22518798.360   118337116.5951      -2365.330          22.000  
G31  21711356.541   114093959.485         923.737          28.000  
G32  21747759.739   114285283.819         528.981          26.000  
J01  37979412.900   199583154.931         468.318          30.000  
J02  37934354.993   199346414.150       -1368.643          30.000  
R12  19121096.940   102141467.301       -1416.418          31.000  
> 2021  9 12 10 37 52.9997335  0 13
C06  36700060.277   191106878.940        -737.229          33.000  
C09  37694076.434   196283051.113        -840.731          22.000  
C16  37344850.898   194464475.8081       -711.821          19.000  
C25  21823105.978   113638681.955       -1003.904          28.000  
C33  22270448.190   115968036.178       -1068.228          31.000  
E21  24211765.643   127233734.819       -1301.094          31.000  
G10  20150290.144   105890542.001        -756.850          41.000    20150296.740    79074091.511        -565.155          32.000  
G12  22519096.954   118338694.878       -2366.118          20.000  
G31  21711032.465   114092247.500         923.733          31.000  
G32  21747511.811   114283966.134         530.589          25.000  
J01  37979173.965   199581899.061         467.961          28.000  
J02  37934464.717   199346994.965       -1368.484          29.000  
R12  19121215.958   102142103.508       -1417.817          31.000  
> 2021  9 12 10 37 53.9997330  0 10
C06  36700056.979   191106834.732        -737.329          33.000  
C09  37694088.426   196283112.905        -843.046          22.000  
C25  21823149.748   113638905.800       -1005.118          29.000  
C33  22270503.951   115968324.273       -1068.691          29.000  
E21  24211864.275                       -1301.557          33.000  
G10  20150282.650   105890511.293        -757.003          41.000    20150291.344    79074068.579        -565.776          33.000  
G32  21747262.384   114282647.892         530.368          25.000  
J01  37978936.529   199580643.935         467.375          29.000  
J02  37934574.740   199347575.550       -1368.825          29.000  
R12  19121336.174   102142745.064       -1419.287          32.000  
> 2021  9 12 10 37 54.9997325  0 12
C06  36700046.187   191106790.345        -736.828          33.000  
C09  37694098.918   196283174.958        -842.963          23.000  
C16  37344824.216   194464337.9361       -711.210          18.000  
C24  24629748.580   128253584.8501      -3412.020          18.000  
C25  21823193.518   113639130.760       -1005.949          30.000  
C33  22270559.413   115968611.969       -1068.189          30.000  
E21  24211963.506   127234718.2481      -1301.862          32.000  
G10  20150278.453   105890481.184        -758.944          41.000    20150285.648    79074046.108        -566.546          33.000  
G23  21333416.883   112107958.0261      -3095.966          15.000  
J01  37978699.094   199579388.174         468.077          30.000  
J02  37934684.764   199348156.597       -1369.385          30.000  
R12  19121456.391   102143387.108       -1420.371          32.000  
> 2021  9 12 10 37 55.9997322  0 11
C06  36700095.652   191107058.083        -735.315          33.000  
C09  37694171.168   196283548.289        -841.228          24.000  
C25  21823296.946   113639668.645       -1006.295          30.000  
C33  22270674.533   115969211.470       -1067.130          30.000  
E21  24212121.497   127235547.280       -1302.639          32.000  
G10  20150332.115   105890766.824        -758.268          40.000    20150340.210    79074259.450        -566.230          33.000  
G31  21710119.897   114087429.5891        922.464          30.000  
G32  21746817.791   114280326.6301        529.735          22.000  
J01  37978521.017   199578447.567         468.029          30.000  
J02  37934855.346   199349054.165       -1369.915          29.000  
R12  19121636.267   102144347.900       -1420.474          32.000  
> 2021  9 12 10 37 56.9997317  0 11
C06  36700087.558   191107013.240        -736.086          33.000  
C09  37694182.261   196283609.076        -841.478          24.000  
C25  21823339.217   113639894.569       -1006.769          30.000  
C33  22270729.994   115969498.570       -1068.689          29.000  
E21  24212222.827   127236061.477       -1301.544          32.000  
G10  20150327.918   105890737.746        -758.879          40.000    20150333.914    79074237.763        -565.359          33.000  
G12  22520347.388   118345328.4281      -2368.626          20.000  
G32  21746567.165   114279008.808         530.832          27.000  
J01  37978281.183   199577191.799         467.386          29.000  
J02  37934964.770   199349635.906       -1368.376          27.000  
R12  19121754.984   102144982.011       -1421.411          32.000  
> 2021  9 12 10 37 57.9997312  0 12
C06  36700076.166   191106968.389        -736.190          35.000  
C09  37694193.653   196283670.640        -842.835          21.000  
C16  37344845.801   194464441.2971       -709.922          17.000  
C25  21823382.087   113640121.164       -1007.516          30.000  
C33  22270787.555   115969786.675       -1068.948          27.000  
E21  24212321.459   127236576.145       -1302.959          34.000  
G10  20150325.520   105890709.419        -759.726          42.000    20150328.518    79074216.710        -567.359          32.000  
G23  21334794.129   112115199.1641      -3093.716          19.000  
G32  21746315.939   114277690.982         529.981          27.000  
J01  37978040.749   199575935.885         467.806          24.000  
J02  37935075.694   199350217.794       -1371.376          20.000  
R12  19121870.105   102145597.503       -1421.635          27.000  
> 2021  9 12 10 37 58.9997309  0 12
C06  36700128.929   191107235.790        -735.076          35.000  
C09  37694265.603   196284044.427        -842.410          22.000  
C25  21823487.614   113640660.485       -1007.783          33.000  
C33  22270905.373   115970387.524       -1069.089          30.000  
E21  24212480.049   127237406.302       -1302.243          34.000  
G10  20150379.782   105890996.842        -760.255          43.000    20150383.680    79074431.235        -568.097          34.000  
G12  22521015.026   118348808.9211      -2372.174          21.000  
G23  21335293.584   112117820.440       -3094.377          19.000  
G25  20780870.303   109204263.1791       -674.676          25.000  
J01  37977859.075   199574995.747         466.244          21.000  
J02  37935247.774   199351116.324       -1370.938          19.000  
R12  19122047.882   102146546.982       -1422.553          28.000  
> 2021  9 12 10 37 59.9997304  0 11
C06  36700123.533   191107190.636        -735.663          36.000  
C09  37694275.796   196284104.910        -841.225          23.000  
C16  37344876.980   194464611.5841       -708.012          18.000  
C25  21823533.482   113640887.398       -1008.333          33.000  
C33  22270962.034   115970676.474       -1069.923          29.000  
E21  24212578.081   127237921.534       -1303.573          34.000  
G10  20150372.587   105890969.597        -761.168          43.000    20150379.183    79074410.968        -569.437          34.000  
G23  21335732.180   112120127.558       -3096.600          20.000  
G32  21745871.946   114275372.3541        528.709          31.000  
J01  37977620.141   199573741.896         466.131          22.000  
R12  19122164.801   102147171.232       -1423.446          26.000  
> 2021  9 12 10 38  0.9997302  0 13
C06  36700204.177   191107614.183        -734.856          35.000  
C09  37694375.927   196284636.771        -845.674          21.000  
C16  37344952.527   194465008.164        -710.320          19.000  
C25  21823668.089   113641582.865       -1007.471          30.000  
C33  22271108.632   115971435.198       -1071.478          26.000  
E21  24212765.751   127238910.476       -1303.417          35.000  
G10  20150458.028   105891416.130        -761.963          43.000    20150464.324    79074744.432        -570.185          34.000  
G23  21336259.515   112122909.322       -3096.989          25.000  
G25  20780924.565   109204511.0981       -677.216          24.000  
G31  21708617.337                         919.565          32.000  
G32  21745713.356   114274529.009         528.497          29.000  
J01  37977472.943   199572959.948         467.192          26.000    37977476.840   149031788.9271        347.824          28.000  
J02  37935554.762   199352756.6541      -1369.911          25.000  
> 2021  9 12 10 38  1.9997297  0 11
C06  36700191.286   191107569.248        -735.738          33.000  
C09  37694388.218   196284700.411        -842.313          21.000  
C25  21823708.861   113641809.874       -1008.102          23.000  
C33  22271163.195   115971725.786       -1071.003          28.000  
E21  24212864.083   127239427.098       -1303.482          37.000  
G10  20150452.632   105891390.598        -762.527          41.000    20150459.227    79074725.358        -569.406          35.000  
G23  21336698.111   112125218.792       -3097.667          25.000  
G25  20780908.976   109204400.696        -677.433          24.000  
J01  37977235.507   199571704.640         467.913          29.000    37977237.605   149030852.194         348.831          28.000  
J02  37935665.685   199353337.964       -1368.819          28.000  
R12  19122489.476   102148905.6041      -1425.002          21.000  
> 2021  9 12 10 38  2.9997292  0 12
C06  36700186.789   191107523.923        -734.129          31.000  
C25  21823752.930   113642038.345       -1009.507          28.000  
C33  22271220.155   115972017.043       -1073.113          25.000  
E21  24212961.216   127239943.763       -1303.952          38.000  
G10  20150449.334   105891365.465        -762.423          40.000    20150453.831    79074706.550        -569.901          35.000  
G12  22522326.018   118355619.5241      -2374.903          17.000  
G25  20780893.387   109204289.930        -676.692          25.000  
G31  21707982.077   114076138.8581        920.978          33.000  
G32  21745209.705   114271896.9011        528.768          29.000  
J01  37976996.872   199570448.933         467.718          29.000    37976998.371   149029914.910         350.585          28.000  
J02  37935779.306   199353918.891       -1368.265          29.000  
R12  19122606.695   102149532.137       -1425.808          27.000  
> 2021  9 12 10 38  3.9997286  0 11
C06  36700148.116   191107322.351        -737.945          32.000  
C09  37694378.625   196284669.1581       -843.280          21.000  
C25  21823766.121   113642110.787       -1008.834          30.000  
C33  22271246.537   115972153.164       -1072.385          26.000  
E21  24213027.170   127240303.344       -1305.217          37.000  
G10  20150412.460   105891183.284        -763.790          41.000    20150419.055    79074570.492        -570.449          35.000  
G31  21707635.517   114074274.148         919.328          33.000  
G32  21744927.000   114270422.378         530.214          27.000  
J01  37976726.759   199569035.811         467.643          31.000    37976728.558   149028857.936         350.524          26.000  
J02  37935861.749   199354341.551       -1367.783          29.000  
R12  19122692.435   102149990.251       -1426.631          32.000  
> 2021  9 12 10 38  4.9997284  0 12
C06  36700229.660   191107745.032        -735.561          33.000  
C09  37694478.456   196285198.924        -840.832          24.000  
C25  21823899.829   113642807.960       -1009.753          31.000  
C33  22271391.337   115972912.779       -1071.872          27.000  
E21  24213214.840   127241293.485       -1305.204          38.000  
G10  20150498.500   105891631.854        -764.086          42.000    20150504.196    79074905.465        -571.671          34.000  
G23  21338078.356   112132462.4521      -3098.212          23.000  
G31  21707407.375   114073039.837         917.745          32.000  
G32  21744765.412   114269576.422         531.131          27.000  
J01  37976575.664   199568252.309         468.832          32.000    37976579.261   149028271.977         350.462          25.000  
J02  37936062.311   199355394.943       -1369.528          29.000  
R12  19122899.592   102151096.833       -1427.489          33.000  
> 2021  9 12 10 38  5.9997279  0 12
C06  36700218.867   191107699.421        -733.356          31.000  
C09  37694489.848   196285258.495        -839.374          25.000  
C25  21823947.496   113643037.255       -1009.420          31.000  
C33  22271446.199   115973204.130       -1072.089          27.000  
E21  24213313.172   127241811.565       -1305.630          37.000  
G10  20150494.303   105891608.577        -764.610          41.000    20150499.699    79074888.084        -571.577          34.000  
G23  21338518.151   112134772.208       -3097.431          25.000  
G31  21707077.603   114071333.451         916.399          31.000  
G32  21744513.886   114268258.116         529.926          28.000  
J01  37976337.329   199566996.372         469.764          31.000    37976340.327   149027332.769         350.178          25.000  
J02  37936172.634   199355977.081       -1369.910          29.000  
R12  19123016.811   102151722.847       -1428.321          34.000  
> 2021  9 12 10 38  6.9997274  0 13
C06  36700208.374   191107653.568        -736.127          32.000  
C09  37694502.439   196285317.449        -839.072          26.000  
C25  21823989.466                       -1010.992          32.000  
C33  22271500.461   115973495.136       -1072.356          26.000  
E21  24213411.204   127242329.990       -1306.503          37.000  
G10  20150490.406   105891585.881        -765.329          42.000    20150495.802    79074871.131        -570.546          34.000  
G23  21338960.945   112137083.429       -3099.773          24.000  
G25  20780859.810   109204166.7271       -679.316          16.000  
G31  21706744.234   114069627.450         916.274          32.000  
G32  21744262.061   114266940.744         529.583          32.000  
J01  37976098.094                         467.122          32.000    37976101.392   149026394.046         351.219          26.000  
J02  37936282.058   199356559.216       -1369.798          30.000  
R12  19123134.929   102152353.728       -1429.140          34.000  
> 2021  9 12 10 38  7.9997271  0 14
C06  36700259.639   191107919.806        -733.379          32.000  
C09  37694572.590   196285687.992        -838.933          27.000  
C25  21824098.591   113643782.5701      -1011.662          34.000  
C33  22271616.181   115974099.393       -1072.128          27.000  
E21  24213569.495   127243163.868       -1306.690          38.000  
G10  20150544.668   105891878.778        -765.663          41.000    20150551.264    79075089.850        -571.640          35.000  
G12  22523935.004   118364173.1261      -2371.836          15.000  
G23  21339460.699   112139710.339       -3100.693          24.000  
G25  20780900.582   109204373.176        -679.024          16.000  
G31  21706467.225   114068236.807         915.418          29.000  
G32  21744071.992   114265938.329         527.319          32.000  
J01  37975918.219   199564801.1501        468.871          32.000    37975922.116   149025690.924         349.846          26.000  
J02  37936452.940   199357456.023       -1369.448          30.000  
R12  19123312.406   102153301.718       -1429.836          35.000  
> 2021  9 12 10 38  8.9997266  0 13
C06  36700252.744   191107873.594        -734.889          32.000  
C09  37694583.383   196285745.940        -838.097          27.000  
C25  21824143.560   113644013.317       -1011.416          35.000  
C33  22271670.743   115974391.214       -1072.500          26.000  
E21  24213668.126   127243683.021       -1307.479          38.000  
G10  20150539.872   105891857.134        -766.749          41.000    20150547.966    79075073.684        -573.124          35.000  
G12  22524236.595   118365759.525       -2370.627          14.000  
G23  21339898.995   112142023.115       -3100.184          25.000  
G25  20780881.995   109204264.776        -679.198          17.000  
G32  21743826.162                         528.275          30.000  
J01  37975676.286   199563544.782         469.774          33.000    37975683.781   149024753.007         349.543          26.000  
J02  37936562.964   199358038.146       -1369.768          29.000  
R12  19123429.925   102153929.976       -1430.369          35.000  
> 2021  9 12 10 38  9.9997263  0 12
C06  36700302.509   191108139.502        -734.288          32.000  
C09  37694654.434   196286117.686        -841.600          26.000  
C25  21824247.588   113644556.646       -1012.614          34.000  
C33  22271783.765   115974995.614       -1073.230          25.000  
E21  24213827.016   127244517.660       -1307.730          38.000  
G10  20150597.132   105892151.195        -767.657          41.000    20150603.727    79075293.215        -574.655          34.000  
G23  21340400.248   112144651.702       -3102.736          24.000  
G31  21705878.133   114065141.4581        916.994          30.000  
G32  21743636.394   114263575.3211        528.821          31.000  
J01  37975495.811   199562603.455         467.706          32.000    37975504.805   149024050.268         351.134          25.000  
J02  37936735.345   199358934.981       -1369.246          30.000  
R12  19123608.601   102154884.121       -1431.191          35.000  
> 2021  9 12 10 38 10.9997258  0 12
C06  36700295.314   191108093.269        -733.073          32.000  
C09  37694667.325   196286178.443        -840.113          25.000  
C25  21824290.458   113644788.499       -1012.379          34.000  
C33  22271837.728   115975288.441       -1074.029          26.000  
E21  24213927.447   127245037.900       -1306.741          38.000  
G10  20150591.736   105892131.013        -767.621          41.000    20150599.530    79075278.207        -573.783          34.000  
G12  22524893.441   118369243.8711      -2370.011          12.000  
G23  21340839.444   112146965.769       -3101.673          24.000  
G31  21705563.351   114063437.093         914.809          28.000  
G32  21743377.073   114262258.361         529.410          31.000  
J01  37975258.975   199561347.199         468.067          31.000    37975264.671   149023110.505         350.658          25.000  
J02  37936847.167   199359516.173       -1369.221          30.000  
> 2021  9 12 10 38 11.9997253  0 10
C06  36700284.222   191108047.067        -736.591          32.000  
C09  37694678.717   196286237.727        -838.985          25.000  
C25  21824335.127   113645020.764       -1014.360          33.000  
C33  22271893.189   115975584.922       -1078.053          23.000  
E21  24214027.877   127245558.580       -1309.718          38.000  
G10  20150590.237   105892111.601        -769.780          41.000    20150595.633    79075263.655        -573.637          35.000  
G32  21743130.344   114260941.402         527.832          31.000  
J01  37975020.340   199560090.969         468.501          32.000    37975026.636   149022172.438         349.724          26.000  
J02  37936958.090   199360097.635       -1369.579          30.000  
R12  19123841.240   102156126.4451      -1433.043          34.000  
> 2021  9 12 10 38 12.9997248  0 11
C06  36700273.729   191108000.663        -736.213          30.000  
C09  37694691.008   196286294.894        -836.317          26.000  
C25  21824379.197   113645253.451       -1013.089          35.000  
E21  24214126.809   127246079.599       -1308.548          40.000  
G10  20150586.639   105892092.709        -770.437          40.000    20150592.335    79075249.573        -574.310          35.000  
G25  20780854.414   109204145.3291       -682.375          17.000  
G31  21704925.693   114060029.8981        915.124          28.000  
G32  21742882.116   114259624.412         528.619          33.000  
J01  37974782.905   199558834.716         468.510          34.000    37974786.203   149021233.621         350.312          26.000  
J02  37937070.213   199360679.206       -1368.916          28.000  
R12  19123958.459   102156753.128       -1434.071          35.000  
> 2021  9 12 10 38 13.9997243  0 12
C06  36700262.637   191107953.403        -732.139          28.000  
C09  37694701.201   196286351.004        -836.843          28.000  
C25  21824418.469   113645486.516       -1014.707          35.000  
E21  24214227.239   127246600.931       -1310.526          39.000  
G10  20150586.339   105892074.465        -768.849          41.000    20150588.138    79075235.999        -575.080          34.000  
G23  21342169.623   112153907.0571      -3101.466          19.000  
G25  20780834.927   109204040.116        -682.443          23.000  
G31  21704593.523   114058327.246         914.856          26.000  
G32  21742630.590   114258307.138         529.723          31.000  
J01  37974545.469   199557578.439         466.303          34.000    37974545.769   149020294.382         351.868          26.000  
J02  37937180.836   199361260.228       -1368.508          25.000  
R12  19124076.877   102157385.507       -1434.348          34.000  
> 2021  9 12 10 38 14.9997240  0 11
C06  36700310.604   191108217.311        -733.258          27.000  
C09  37694772.552   196286720.022        -837.919          28.000  
C25  21824525.795   113646032.373       -1015.576          33.000  
C33  22272126.728   115976784.2971      -1074.058          24.000  
G10  20150639.403   105892372.252        -769.574          42.000    20150645.398    79075458.222        -575.956          32.000  
G25  20780874.500   109204250.282        -683.576          20.000  
G31  21704325.808   114056939.610         914.472          28.000  
G32  21742440.522   114257305.150         528.694          32.000  
J01  37974367.692   199556637.788         467.676          25.000    37974364.994   149019589.132         352.842          22.000  
J02  37937353.517   199362155.678       -1368.784          26.000  
R12  19124252.855   102158325.694       -1435.230          30.000  
> 2021  9 12 10 38 15.9997238  0 11
C06  36700390.648   191108638.298        -733.903          29.000  
C09  37694873.882   196287246.453        -839.493          30.000  
C25  21824670.595   113646735.168       -1016.636          32.000  
C33  22272274.225   115977547.001       -1075.991          25.000  
E21  24214567.504   127248434.7341      -1311.147          29.000  
G10  20150729.640   105892828.455        -771.882          38.000    20150732.038    79075798.772        -576.355          34.000  
G25  20780945.851   109204619.314        -684.925          27.000  
G32  21742283.131   114256461.486         527.877          37.000  
J01  37974218.396   199555854.175         468.721          29.000  
J02  37937552.879   199363209.748       -1369.382          24.000  
R12  19124468.406   102159476.542       -1436.763          29.000  
> 2021  9 12 10 38 16.9997233  0 11
C06  36700383.153   191108591.839        -734.543          32.000  
C09  37694887.073   196287306.655        -841.413          25.000  
C25  21824718.262   113646969.856       -1014.350          31.000  
C33  22272331.186   115977842.828       -1076.936          34.000  
E21  24214665.236   127248958.794       -1311.805          30.000  
G10  20150721.546   105892812.316        -772.741          36.000    20150728.441    79075786.717        -576.426          35.000  
G25  20780925.764   109204516.916        -685.828          30.000  
G31  21703763.697   114054008.6181        914.005          34.000  
G32  21742028.907                         531.194          34.000  
J02  37937666.500   199363791.350       -1369.660          23.000  
R12  19124586.224   102160106.853       -1437.299          27.000  
> 2021  9 12 10 38 17.9997228  0 11
C06  36700375.059   191108545.616        -734.144          34.000  
C09  37694898.765   196287369.588        -843.812          23.000  
C25  21824765.030   113647204.997       -1015.147          32.000  
C33  22272387.547   115978139.623       -1077.379          35.000  
E21  24214764.467   127249482.351       -1311.048          29.000  
G10  20150718.548   105892796.943        -772.373          37.000    20150725.743    79075775.217        -576.242          34.000  
G23  21344087.696   112163949.4211      -3102.250          18.000  
G25  20780908.976   109204415.433        -686.760          30.000  
G32  21741781.278   114253816.2901        528.043          31.000  
J01  37973735.430   199553341.6291        468.671          33.000  
R12  19124701.944   102160724.744       -1438.620          28.000  
> 2021  9 12 10 38 18.9997222  0 12
C06  36700340.883                        -734.729          34.000  
C09  37694881.077   196287275.947        -841.730          20.000  
C25  21824779.420   113647284.449       -1016.442          32.000  
C33  22272413.629                       -1077.347          36.000  
E21  24214836.118   127249848.629       -1313.098          29.000  
G10  20150686.770   105892624.686        -771.996          39.000    20150693.665    79075646.661        -577.922          34.000  
G25  20780862.508   109204157.870        -688.424          28.000  
G31  21703081.969                         912.401          31.000  
G32  21741500.972   114252342.528         527.817          27.000  
J01  37973462.019                         464.194          34.000  
J02  37937855.669   199364800.4661      -1371.753          21.000  
R12  19124791.882   102161204.631       -1439.455          28.000  
> 2021  9 12 10 38 19.9997220  0 12
C06  36700423.026   191108727.4281       -733.924          33.000  
C09  37694983.606   196287805.295        -841.503          23.000  
C25  21824911.028   113647988.882       -1015.769          32.000  
C33  22272559.928   115979067.1481      -1077.988          36.000  
E21  24215027.385   127250845.988       -1312.192          29.000  
G10  20150775.508   105893083.218        -774.217          39.000    20150781.204    79075989.046        -576.768          33.000  
G25  20780935.658   109204530.256        -688.082          30.000  
G31  21702848.730                         911.789          31.000  
G32  21741339.984   114251498.604         529.822          26.000  
J01  37973310.024                         467.997          33.000  
J02  37938056.230   199365856.149       -1370.564          21.000  
R12  19124999.039   102162311.796       -1440.007          28.000  
> 2021  9 12 10 38 20.9997215  0 10
C06  36700413.432   191108680.548        -734.589          33.000  
C25  21824953.299   113648225.243       -1016.806          32.000  
C33  22272615.989                       -1078.212          34.000  
E21  24215130.814   127251371.555       -1313.810          31.000  
G10  20150772.810   105893069.757        -775.558          39.000    20150777.607    79075978.960        -579.610          33.000  
G25  20780918.569   109204430.543        -688.197          29.000  
G31  21702522.856   114047537.7361        911.597          31.000  
J01  37973075.587   199549849.8771        466.266          34.000  
J02  37938165.654   199366439.352       -1371.477          21.000  
R12  19125119.255   102162954.226       -1440.652          27.000  
> 2021  9 12 10 38 21.9997210  0 11
C06  36700401.741   191108633.615        -735.096          33.000  
C09  37695003.092   196287925.1231       -838.907          22.000  
C25  21825001.266   113648462.171       -1017.861          33.000  
C33  22272672.650   115979663.4471      -1078.944          34.000  
E21  24215232.443   127251897.265       -1313.265          30.000  
G10  20150768.613   105893056.927        -775.396          38.000    20150775.209    79075969.365        -578.625          33.000  
G25  20780900.282   109204331.885        -690.113          26.000  
G31  21702199.980   114045838.212         910.660          31.000  
G32  21740841.429   114248860.1671        529.766          21.000  
J01  37972837.851   199548593.799         468.237          34.000  
R12  19125242.470   102163612.400       -1441.417          27.000  
> 2021  9 12 10 38 22.9997204  0 10
C06  36700362.768   191108430.436        -732.223          31.000  
C25  21825016.256   113648543.383       -1017.217          34.000  
C33  22272695.134   115979805.769       -1079.505          33.000  
E21  24215301.995   127252265.272       -1313.527          31.000  
G10  20150735.336   105892887.175        -775.374          39.000    20150742.831    79075842.659        -579.155          32.000  
G25  20780850.517   109204076.991        -690.756          24.000  
G31  21701845.625   114043981.739         911.055          31.000  
G32  21740561.123   114247385.120         529.782          27.000  
J01  37972569.837   199547180.081         468.202          34.000  
R12  19125332.108   102164090.407       -1442.531          26.000  
> 2021  9 12 10 38 23.9997204  0 11
C06  36700507.867   191109163.860        -735.296          30.000  
C09  37695143.395   196288665.6911       -837.498          22.000  
C25  21825210.221   113649561.586       -1019.017          34.000  
C33  22272904.389   115980885.165       -1079.612          30.000  
E21  24215552.022   127253579.038       -1314.467          33.000  
G10  20150884.033   105893663.254        -776.760          38.000    20150890.329    79076422.193        -581.002          33.000  
G25  20780979.427   109204767.780        -691.825          24.000  
G31  21701677.741   114043070.678         913.051          31.000  
G32  21740460.692   114246855.248         528.852          30.000  
J01  37972482.897   199546711.639         468.358          34.000  
R12  19125601.022   102165527.288       -1443.331          24.000  
> 2021  9 12 10 38 24.9997199  0 11
C06  36700500.672   191109116.533        -732.504          28.000  
C09  37695152.389   196288721.853        -836.077          22.000  
C25  21825257.289   113649799.742       -1016.897          34.000  
C33  22272964.647   115981184.429       -1082.209          31.000  
E21  24215652.153                       -1315.162          33.000  
G10  20150880.436   105893652.279        -777.346          37.000    20150887.931    79076414.035        -579.710          32.000  
G25  20780960.540   109204672.425        -692.329          24.000  
G31  21701356.963   114041372.398         911.348          32.000  
G32  21740210.066   114245538.839         528.366          32.000  
J01  37972240.365   199545455.481         468.942          34.000  
R12  19125718.241   102166153.759       -1443.381          26.000  
> 2021  9 12 10 38 25.9997194  0 11
C06  36700489.880   191109069.185        -733.183          30.000  
C09  37695163.781   196288777.745        -837.493          23.000  
C25  21825304.356   113650038.310       -1019.620          33.000  
C33  22273025.206   115981484.050       -1079.304          32.000  
E21  24215750.185   127254637.0601      -1314.323          32.000  
G10  20150878.937   105893641.933        -776.641          37.000    20150886.731    79076406.409        -580.325          32.000  
G25  20780942.853   109204577.640        -692.856          24.000  
G31  21701031.089   114039674.464         908.596          32.000  
G32  21739961.238   114244222.851         528.113          31.000  
J01  37972001.131   199544199.329         468.841          34.000  
R12  19125838.458   102166795.508       -1444.542          27.000  
> 2021  9 12 10 38 26.9997189  0 11
C06  36700474.290   191109021.586        -733.320          31.000  
C09  37695176.672   196288834.971        -838.478          22.000  
C25  21825350.524   113650277.291       -1020.190          34.000  
C33  22273081.866   115981784.048       -1081.023          32.000  
E21  24215854.813   127255164.560       -1317.120          31.000  
G10  20150879.836   105893632.255        -778.293          36.000    20150885.232    79076399.066        -580.936          33.000  
G23  21348253.911   112185780.9721      -3109.938          17.000  
G31  21700701.617   114037976.943         907.606          31.000  
G32  21739710.312   114242906.257         528.726          26.000  
J01  37971761.596   199542943.094         468.754          34.000  
R12  19125960.773   102167449.450       -1445.334          23.000  
> 2021  9 12 10 38 27.9997184  0 10
C06  36700465.896   191108974.031        -733.588          33.000  
C09  37695190.463   196288893.351        -839.357          23.000  
C25  21825397.891   113650516.779       -1019.076          33.000  
C33  22273140.026   115982084.466       -1080.965          33.000  
E21  24215956.742   127255692.311       -1313.660          29.000  
G10  20150879.237   105893623.258        -779.190          37.000    20150883.134    79076392.355        -582.329          33.000  
G25  20780914.972   109204389.5271       -693.571          26.000  
G31  21700378.740   114036280.369         908.743          30.000  
J01  37971524.461   199541686.925         468.014          33.000  
R12  19126081.289   102168092.303       -1446.374          23.000  
> 2021  9 12 10 38 28.9997181  0 11
C06  36700518.959   191109238.600        -733.117          33.000  
C09  37695262.713   196289264.915        -840.044          23.000  
C25  21825502.219   113651068.883       -1021.211          32.000  
C33  22273257.844   115982697.504       -1081.384          33.000  
E21  24216116.531   127256535.735       -1317.492          28.000  
G10  20150936.497   105893929.983        -779.726          38.000    20150941.593    79076621.383        -582.075          32.000  
G23  21349203.054   112190738.5201      -3108.792          19.000  
G25  20780957.243   109204609.713        -693.038          26.000  
G31  21700116.122   114034898.644         909.441          29.000  
J01  37971344.285   199540745.806         469.402          33.000  
R12  19126271.358   102169108.319       -1447.116          25.000  
> 2021  9 12 10 38 29.9997176  0 11
C06  36700510.565   191109190.884        -732.410          33.000  
C09  37695272.906   196289324.414        -839.992          22.000  
C25  21825544.790   113651309.348       -1021.290          31.000  
C33  22273316.004   115982998.782       -1081.566          34.000  
E21  24216216.662   127257063.291       -1315.634          27.000  
G10  20150934.698   105893922.343        -780.313          40.000    20150940.094    79076615.658        -585.300          31.000  
G23  21349648.546   112193060.032       -3110.182          19.000  
G25  20780938.656   109204515.126        -693.972          25.000  
G32  21739025.286   114239279.5301        523.751          14.000  
J01  37971105.051   199539489.636         467.304          33.000  
R12  19126394.573   102169766.021       -1448.210          26.000  
> 2021  9 12 10 38 30.9997171  0 11
C06  36700505.169   191109143.059        -732.871          34.000  
C09  37695284.897   196289383.517        -839.618          22.000  
C25  21825594.555   113651550.907       -1024.244          31.000  
C33  22273376.262   115983300.653       -1082.982          34.000  
E21  24216317.392   127257591.690       -1315.867          27.000  
G10  20150939.495   105893915.074        -781.590          41.000    20150939.795    79076610.550        -582.509          31.000  
G25  20780919.469   109204421.959        -695.206          26.000  
G31  21699472.468   114031504.9731        908.382          33.000  
G32  21738774.959   114237966.758         526.875          12.000  
J01  37970864.617   199538233.663         469.030          33.000  
R12  19126515.689   102170413.092       -1449.555          27.000  
> 2021  9 12 10 38 31.9997169  0 10
C06  36700586.113   191109563.056        -731.359          31.000  
C09  37695387.426   196289910.884        -839.089          28.000  
C25  21825731.560   113652259.646       -1020.985          26.000  
C33  22273522.861   115984070.573       -1083.675          30.000  
G10  20151028.833   105894380.851        -780.761          35.000    20151027.934    79076958.266        -583.644          32.000  
G25  20780991.719   109204802.145        -695.496          24.000  
G31  21699239.829   114030282.748         907.227          28.000  
G32  21738613.371   114237123.173         529.438          31.000  
J01  37970718.019   199537450.205         468.518          28.000  
R12  19126729.441   102171554.689       -1450.688          20.000  
> 2021  9 12 10 38 32.9997164  0  9
C06  36700574.121   191109515.086        -733.383          29.000  
C09  37695397.919   196289969.216        -839.316          27.000  
C25  21825777.728   113652499.941       -1021.422          28.000  
C33  22273582.220   115984372.915       -1084.610          30.000  
G10  20151031.231   105894375.044        -781.016          34.000    20151026.435    79076953.983        -583.164          33.000  
G25  20780972.832   109204710.486        -696.325          26.000  
G31  21698918.152   114028587.508         907.520          30.000  
J01  37970479.984   199536193.018         469.754          26.000  
R12  19126848.458   102172190.867       -1450.926          21.000  
> 2021  9 12 10 38 33.9997161  0 11
C06  36700626.285   191109779.465        -730.892          30.000  
C08  37989014.952   197818769.4681      -2448.796          26.000  
C09  37695468.670   196290339.952        -838.641          27.000  
C25  21825885.054   113653053.673       -1022.758          27.000  
C33  22273699.439   115984988.101       -1083.829          31.000  
G10  20151079.798   105894685.477        -782.060          27.000    20151085.794    79077185.637        -583.471          32.000  
G23  21351579.209   112203140.6631      -3107.889          19.000  
G25  20781016.002   109204934.660        -696.994          26.000  
G31  21698655.533   114027207.706         906.844          30.000  
G32  21738167.880   114234803.6071        528.495          32.000  
J01  37970299.808   199535251.281         468.891          27.000  
> 2021  9 12 10 38 34.9997156  0 10
C06  36700619.690   191109731.651        -732.603          32.000  
C08  37989336.929   197820439.304       -2451.545          23.000  
C09  37695481.561   196290397.345        -837.233          21.000  
C25  21825930.323   113653296.734       -1024.627          31.000  
C33  22273756.699   115985290.799       -1082.798          30.000  
G10  20151069.905   105894681.378        -785.747          31.000    20151084.594    79077182.539        -587.547          33.000  
G23  21352018.405   112205462.861       -3112.260          17.000  
G32  21737919.352   114233487.381         528.318          30.000  
J01  37970062.673   199533995.104         468.203          29.000  
R12  19127149.750   102173800.4591      -1451.803          22.000  
> 2021  9 12 10 38 35.9997151  0 10
C06  36700609.497   191109683.842        -730.731          30.000  
C08  37989655.609   197822109.356       -2449.904          21.000  
C25  21825975.891   113653541.012       -1024.962          31.000  
C33  22273812.760   115985593.985       -1084.072          28.000  
G10  20151062.410   105894677.759        -787.108          31.000    20151083.695    79077180.169        -585.514          33.000  
G23  21352457.301   112207790.648       -3119.232          15.000  
G31  21698013.977   114023819.8161        907.200          33.000  
G32  21737670.824   114232171.473         527.865          33.000  
J01  37969827.036   199532739.893         465.857          30.000  
R12  19127267.868   102174430.848       -1452.761          24.000  
> 2021  9 12 10 38 36.9997146  0  8
C06  36700599.004   191109635.577        -732.446          28.000  
C08  37989974.888   197823777.776       -2449.194          23.000  
C09  37695501.347   196290510.2071       -837.625          24.000  
C25  21826021.160   113653785.086       -1025.074          28.000  
G10  20151066.307   105894676.941        -786.396          30.000    20151083.995    79077177.877        -586.815          34.000  
G25  20780967.136   109204670.6331       -701.205          18.000  
G31  21697692.900   114022125.608         906.142          31.000  
R12  19127388.085   102175073.435       -1454.124          27.000  
> 2021  9 12 10 38 37.9997140  0 10
C06  36700557.333   191109431.178        -731.853          28.000  
C09  37695483.959   196290410.845        -836.630          23.000  
C25  21826036.449   113653873.669       -1025.277          32.000  
C33  22273895.503   115986047.3701      -1086.411          26.000  
G10                                                                  20151054.915    79077060.406        -588.734          29.000  
G25  20780916.771   109204426.988        -702.374          19.000  
G31  21697341.243   114020274.249         905.877          31.000  
G32  21737139.292   114229383.5951        528.060          30.000  
J01  37969319.787   199530074.7451        465.772          25.000  
R12  19127480.121   102175564.997       -1455.114          29.000  
> 2021  9 12 10 38 38.9997138  0  8
C06  36700634.380   191109850.493        -731.072          28.000  
C08  37990675.802   197827425.3451      -2447.476          16.000  
C09  37695583.191   196290935.284        -835.964          23.000  
C25  21826173.155   113654587.215       -1027.132          35.000  
C33  22274045.699   115986821.407       -1086.958          29.000  
G10  20151130.163   105894990.6471       -787.267          30.000    20151143.654    79077412.229        -587.404          27.000  
J01  37969171.090   199529293.918         465.944          30.000  
R12  19127690.276   102176688.023       -1455.602          31.000  
> 2021  9 12 10 38 39.9997135  0 10
C06  36700683.845   191110113.355        -731.850          32.000  
C08  37991053.541   197829405.635       -2449.540          27.000  
C25  21826278.682   113655145.252       -1025.729          32.000  
C33  22274164.417   115987441.024       -1088.099          28.000  
G10  20151190.721   105895304.687        -786.309          36.000    20151201.214    79077646.742        -587.630          27.000  
G23  21354345.694   112217752.0291      -3120.169          19.000  
G25  20781029.493   109205045.2471       -702.846          24.000  
G31  21696850.483   114017676.3711        905.050          29.000  
J01  37968992.114   199528354.959         466.639          30.000  
R12  19127870.451   102177650.228       -1455.668          30.000  
> 2021  9 12 10 38 40.9997130  0 10
C06  36700675.451   191110064.320        -731.849          32.000  
C08  37991371.921   197831075.029       -2450.606          27.000  
C25  21826324.850   113655391.411       -1027.019          29.000  
C33  22274222.577   115987747.632       -1086.155          30.000  
G10  20151194.019   105895304.247        -790.224          31.000    20151200.314    79077648.226        -589.676          20.000  
G25  20781012.704   109204960.035        -702.089          24.000  
G31  21696528.806   114015984.105         904.018          31.000  
G32  21736519.021   114226213.7281        531.776          36.000  
J01  37968754.079   199527099.205         468.408          27.000  
R12  19127995.164   102178316.085       -1456.003          28.000  
> 2021  9 12 10 38 41.9997125  0 11
C06  36700666.757   191110015.781        -731.842          31.000  
C08  37991691.499   197832745.839       -2452.098          28.000  
C09  37695686.020   196291419.7461       -835.471          20.000  
C25  21826371.617   113655636.480       -1025.325          29.000  
C33  22274279.837   115988052.733       -1085.664          30.000  
G10  20151192.819   105895306.188        -788.894          32.000    20151198.815    79077648.746        -588.378          20.000  
G25  20780995.316   109204873.838        -701.110          26.000  
G31  21696206.529   114014293.211         901.467          31.000  
G32  21736268.994   114224895.886         529.473          34.000  
J01  37968511.247   199525841.514         470.667          27.000  
R12  19128115.681   102178960.333       -1456.946          29.000  
> 2021  9 12 10 38 42.9997120  0 11
C06  36700656.264   191109965.704        -729.848          30.000  
C08  37992011.378   197834417.787       -2453.419          29.000  
C09  37695696.213   196291473.949        -835.020          21.000  
C25  21826418.685   113655881.400       -1026.160          29.000  
C33  22274337.097   115988358.443       -1087.190          32.000  
G10  20151193.119   105895307.617        -789.128          32.000    20151199.115    79077650.056        -590.126          21.000  
G25  20780976.729   109204787.956        -703.134          29.000  
G31  21695884.252   114012603.539         902.693          30.000  
G32  21736020.166   114223576.514         532.263          35.000  
J01  37968271.113   199524583.733         469.427          29.000  
R12  19128237.397   102179610.083       -1458.180          29.000  
> 2021  9 12 10 38 43.9997117  0 11
C06  36700705.730   191110226.074        -728.045          34.000  
C08  37992390.915   197836403.082       -2453.806          24.000  
C09  37695765.165   196291840.791        -834.823          27.000  
C25  21826526.010   113656439.404       -1026.648          34.000  
C33  22274453.417   115988978.031       -1087.772          34.000  
E21  24217960.555   127266243.1431      -1323.382          30.000  
G10  20151256.076                        -793.011          33.000    20151259.973    79077887.579        -591.038          24.000  
G25  20781018.400   109205019.366        -705.111          31.000  
G31  21695622.233   114011228.500         901.470          27.000  
G32  21735826.800                         534.526          38.000  
R12  19128418.172   102180575.866       -1458.670          32.000  
> 2021  9 12 10 38 44.9997112  0 12
C06  36700695.537   191110173.291        -728.120          33.000  
C08  37992711.993   197838076.262       -2453.735          23.000  
C09  37695772.060   196291893.895        -833.136          27.000  
C25  21826572.179   113656685.456       -1026.621          34.000  
C33  22274510.078   115989284.449       -1091.425          35.000  
E21  24218064.283   127266779.300       -1324.730          29.000  
G10  20151256.076   105895568.0571       -793.547          36.000    20151260.573    79077889.468        -590.409          27.000  
G25  20781000.113   109204936.959        -706.147          35.000  
G31  21695300.556   114009542.757         899.117          26.000  
G32  21735575.274   114221221.1251        530.484          39.000  
J01  37967853.202   199522386.7101        468.258          32.000  
R12  19128540.187   102181227.909       -1459.239          33.000  
> 2021  9 12 10 38 45.9997107  0 12
C06  36700686.244   191110121.723        -728.738          32.000  
C08  37993034.270   197839747.901       -2451.535          21.000  
C09  37695779.555   196291946.616        -833.122          30.000  
C25  21826619.546   113656933.459       -1028.730          34.000  
C33  22274568.237   115989591.793       -1087.373          35.000  
E21  24218170.110   127267317.735       -1327.159          25.000  
G10  20151259.074                        -793.991          35.000    20151261.472    79077890.677        -589.454          29.000  
G25  20780981.226   109204854.494        -705.079          37.000  
G31  21694981.277   114007855.324         899.466          28.000  
G32  21735326.447   114219902.243         528.789          42.000  
J01  37967608.572   199521131.733         467.587          34.000  
R12  19128662.802   102181882.994       -1460.366          32.000  
> 2021  9 12 10 38 46.9997102  0 12
C06  36700676.051   191110069.803        -730.450          31.000  
C08  37993355.347   197841418.365       -2448.955          21.000  
C09  37695787.949   196292000.994        -836.388          26.000  
C25  21826666.913   113657180.998       -1027.872          32.000  
C33  22274629.395   115989899.760       -1090.227          34.000  
E21  24218275.037   127267855.926       -1324.345          24.000  
G10  20151259.673   105895584.4341       -791.280          34.000    20151261.172    79077891.698        -590.803          25.000  
G25  20780963.239   109204771.895        -704.774          33.000  
G31  21694663.797   114006167.878         899.690          26.000  
G32  21735076.420   114218582.678         528.367          38.000  
J01  37967371.436   199519876.107         468.701          32.000  
R12  19128783.019   102182525.046       -1461.622          33.000  
