     3.03           OBSERVATION DATA    M: Mixed            RINEX VERSION / TYPE
Geo++ RINEX Logger  Geo++               20210912 115942 UTC PGM / RUN BY / DATE
************************************************************COMMENT
This file was generated by the Geo++ RINEX Logger App       COMMENT
for Android devices (Version 2.1.6). If you encounter       COMMENT
any issues, please send an email to android@geopp.de        COMMENT
Filtering Mode: MORE                                        COMMENT
************************************************************COMMENT
Geo++                                                       MARKER NAME
GEODETIC                                                    MARKER TYPE
Geo++               Geo++                                   OBSERVER / AGENCY
unknown             HUAWEI              ELS-AN00            REC # / TYPE / VERS
unknown             ELS-AN00                                ANT # / TYPE
 -2417100.9021  5385876.5299  2406645.6497                  APPROX POSITION XYZ
        0.0000        0.0000        0.0000                  ANTENNA: DELTA H/E/N
G    8 C1C L1C D1C S1C C5Q L5Q D5Q S5Q                      SYS / # / OBS TYPES
R    4 C1C L1C D1C S1C                                      SYS / # / OBS TYPES
E   12 C1B L1B D1B S1B C1C L1C D1C S1C C5Q L5Q D5Q S5Q      SYS / # / OBS TYPES
C    4 C2I L2I D2I S2I                                      SYS / # / OBS TYPES
J    8 C1C L1C D1C S1C C5Q L5Q D5Q S5Q                      SYS / # / OBS TYPES
  2021     9    12    12     0    0.9975721     GPS         TIME OF FIRST OBS
 24 R01  1 R02 -4 R03  5 R04  6 R05  1 R06 -4 R07  5 R08  6 GLONASS SLOT / FRQ #
    R09 -2 R10 -5 R11  0 R12 -1 R13 -2 R14 -7 R15  0 R16 -1 GLONASS SLOT / FRQ #
    R17  4 R18 -3 R19  3 R20  2 R21  4 R22 -3 R23  3 R24  2 GLONASS SLOT / FRQ #
G L1C                                                       SYS / PHASE SHIFT
G L5Q -0.25000                                              SYS / PHASE SHIFT
R L1C                                                       SYS / PHASE SHIFT
E L1B                                                       SYS / PHASE SHIFT
E L1C +0.50000                                              SYS / PHASE SHIFT
E L5Q -0.25000                                              SYS / PHASE SHIFT
C L2I                                                       SYS / PHASE SHIFT
J L1C                                                       SYS / PHASE SHIFT
J L5Q -0.25000                                              SYS / PHASE SHIFT
 C1C    0.000 C1P    0.000 C2C    0.000 C2P    0.000        GLONASS COD/PHS/BIS
                                                            END OF HEADER
> 2021  9 12 12  0  0.9975721  0  5
C23  22554594.479   117447677.747        -257.335          23.000  
G10  21655945.301   113802882.7621      -3589.903          36.000  
G26  21412456.865   112523249.599        1996.701          19.000  
G31  21090635.657   110831823.450        -792.334          28.000  
G32  20843267.606   109532096.426        -181.259          23.000  
> 2021  9 12 12  0  1.9975716  0  3
G10  21656483.728                       -3593.455          34.000  
G31  21090635.357   110831828.569        -793.605          29.000  
G32  20843150.987   109531491.081        -183.803          24.000  
> 2021  9 12 12  0  2.9975713  0  4
C23  22554456.874   117446939.8141       -256.668          21.000  
G10  21657079.716   113808707.2111      -3590.232          35.000  
G31  21090695.915   110832149.695        -793.916          32.000  
G32  20843094.626   109531202.692        -184.594          24.000  
> 2021  9 12 12  0  3.9975708  0  3
C23  22554356.144   117446415.999        -258.173          22.000  
G10  21657610.948   113811509.731       -3591.654          39.000  
G31  21090696.215   110832155.851        -794.332          32.000  
> 2021  9 12 12  0  4.9975706  0  4
C23  22554345.951   117446361.053        -258.096          19.000  
G10  21658229.720   113814785.586       -3591.514          36.000  
G31  21090787.052   110832634.517        -793.446          30.000  
G32  20842946.229   109530470.7211       -185.674          28.000  
> 2021  9 12 12  0  5.9975700  0  4
C23  22554219.439   117445682.473        -258.006          20.000  
G10  21658734.870   113817431.931       -3591.045          34.000  
G31  21090755.574   110832482.866        -794.029          31.000  
G32  20842795.133   109529711.704        -186.510          23.000  
> 2021  9 12 12  0  6.9975695  0  5
C23  22554119.908   117445161.636        -260.848          21.000  
G10  21659268.201   113820234.985       -3591.016          30.000  
G26  21409361.507   112507163.2671       1999.302          30.000  
G31  21090755.874   110832488.956        -794.300          30.000  
G32  20842680.313   109529109.691        -184.920          23.000  
> 2021  9 12 12  0  7.9975690  0  5
C23  22554018.878   117444641.632        -259.393          21.000  
G10  21659801.232   113823038.943       -3592.619          30.000  
G26  21408824.879   112504376.039        1998.443          22.000  
G31  21090757.372   110832495.384        -794.793          28.000  
G32  20842564.893   109528506.416        -184.403          24.000  
> 2021  9 12 12  0  8.9975685  0  4
C23  22553918.447   117444121.345        -259.956          21.000  
G10  21660335.762   113825844.546       -3593.482          30.000  
G26  21408291.848   112501590.398        1996.043          21.000  
G32  20842448.273   109527904.155        -186.245          24.000  
> 2021  9 12 12  0  9.9975683  0  2
G10  21660958.730   113829123.151       -3594.207          34.000  
G32  20842422.491   109527773.671        -184.689          21.000  
> 2021  9 12 12  0 10.9975680  0  2
G10  21661552.319   113832244.934       -3593.563          33.000  
G31  21090918.661   110833299.6851       -793.175          27.000  
> 2021  9 12 12  0 11.9975675  0  3
G10  21662084.751   113835051.205       -3593.703          33.000  
G26  21406846.249   112493736.0541       1993.083          19.000  
G32  20842257.006   109526884.0801       -185.665          22.000  
> 2021  9 12 12  0 12.9975670  0  2
G31  21090924.956   110833309.3671       -794.163          26.000  
G32  20842142.785   109526281.544        -185.068          20.000  
> 2021  9 12 12  0 13.9975665  0  1
G31  21090925.256   110833316.338        -795.549          30.000  
> 2021  9 12 12  0 14.9975662  0  3
G10  21663745.601   113843787.4161      -3595.032          33.000  
G26  21405316.108   112485711.5631       1988.580          17.000  
G31  21090987.613   110833638.759        -794.261          29.000  
> 2021  9 12 12  0 15.9975657  0  3
C23  22553425.888   117441577.6591       -260.982          29.000  
G10  21664278.932   113846594.549       -3595.695          30.000  
G31  21090990.911   110833644.688        -791.848          26.000  
> 2021  9 12 12  0 16.9975652  0  3
C23  22553326.357   117441057.726        -260.222          28.000  
G26  21404265.335   112480163.8331       1982.736          15.000  
G31  21090993.609   110833919.411        -792.862          26.000  
> 2021  9 12 12  0 17.9975647  0  2
C23  22553225.627   117440537.742        -261.487          29.000  
G31  21090997.506   110833924.719        -793.167          26.000  
> 2021  9 12 12  0 18.9975644  0  3
C23  22553186.054   117440333.574        -265.856          23.000  
G10  21665949.675   113855336.1971      -3597.439          32.000  
G31  21091056.266   110834243.871        -792.060          23.000  
> 2021  9 12 12  0 19.9975639  0  5
C23  22553086.823   117439818.702        -265.691          23.000  
G10  21666481.507   113858145.909       -3597.707          28.000  
G26  21402751.084   112472163.2971       1986.462          10.000  
G31  21091057.765   110834249.914        -795.256          26.000  
G32  20841487.438   109522700.1441       -186.529          16.000  
> 2021  9 12 12  0 20.9975636  0  3
C23  22553048.150   117439616.272        -265.386          25.000  
G10  21667075.696   113861272.098       -3600.642          30.000  
G31  21091122.520   110834574.097        -798.890          27.000  
> 2021  9 12 12  0 21.9975631  0  3
G10  21667611.425   113864084.827       -3600.164          29.000  
G31  21091127.916   110834584.774        -798.011          27.000  
G32  20841314.458   109521809.5241       -184.161          17.000  
> 2021  9 12 12  0 22.9975626  0  3
C23  22552851.486   117438586.5401       -266.093          19.000  
G31  21091130.314   110834595.174        -797.665          31.000  
G32  20841197.539   109521206.299        -185.887          18.000  
> 2021  9 12 12  0 23.9975621  0  2
G10  21668681.984   113869710.5271      -3600.445          29.000  
G32  20841082.119   109520605.870        -189.225          23.000  
> 2021  9 12 12  0 24.9975616  0  1
G10  21669217.113   113872523.694       -3601.189          30.000  
> 2021  9 12 12  0 25.9975613  0  3
C23  22552622.145   117437354.8801       -265.739          20.000  
G10  21669812.801   113875652.220       -3601.128          28.000  
G26  21399700.695   112456135.9981       1988.804          15.000  
> 2021  9 12 12  0 26.9975611  0  4
C23  22552614.050   117437308.008        -266.440          20.000  
G10  21670437.268   113878937.906       -3600.346          31.000  
G31  21091269.418   110835421.5801       -796.186          26.000  
G32  20840885.155   109519601.8141       -193.750          18.000  
> 2021  9 12 12  0 27.9975606  0  3
E01  23375255.947   122837798.3681       -821.505          28.000  
G10  21670971.798   113881749.968       -3599.813          32.000  
G31  21091270.617   110835429.868        -796.658          29.000  
> 2021  9 12 12  0 28.9975601  0  4
C23  22552423.982   117436279.8691       -266.277          20.000  
E01  23375261.943   122837829.658        -821.122          29.000  
G10  21671506.029   113884562.201       -3600.254          33.000  
G31  21091272.716   110835439.342        -797.649          29.000  
> 2021  9 12 12  0 29.9975596  0  4
C23  22552324.451   117435764.718        -264.878          21.000  
E01  23375269.438   122837869.948        -824.091          28.000  
G10  21672040.559   113887374.775       -3600.313          32.000  
G32  20840542.493   109517821.1641       -192.234          18.000  
> 2021  9 12 12  0 30.9975593  0  3
C23  22552286.077   117435561.311        -265.139          21.000  
E01  23375336.591   122838222.322        -822.906          28.000  
G10  21672636.546   113890503.000       -3602.139          34.000  
> 2021  9 12 12  0 31.9975588  0  4
C23  22552185.347   117435046.165        -266.535          23.000  
E01  23375343.786   122838260.612        -822.671          30.000  
G31  21091339.270   110835784.9721       -797.326          28.000  
G32  20840369.213   109516944.1891       -190.385          19.000  
> 2021  9 12 12  0 32.9975583  0  5
C23  22552086.116   117434532.397        -266.282          24.000  
E01  23375350.082   122838292.902        -823.410          31.000  
G10  21673709.803   113896131.7721      -3603.299          33.000  
G26  21396151.752   112437487.4141       1985.946          17.000  
G31  21091342.567   110835795.226        -798.723          28.000  
> 2021  9 12 12  0 33.9975578  0  3
G10  21674241.035   113898944.999       -3601.089          32.000  
G31  21091345.865   110835806.432        -799.018          30.000  
G32  20840142.869   109515750.3861       -190.465          20.000  
> 2021  9 12 12  0 34.9975575  0  3
G10  21674839.421   113902075.940       -3601.437          31.000  
G26  21395154.643   112432263.5871       1980.409          17.000  
G31  21091408.222   110836133.338        -800.076          31.000  
> 2021  9 12 12  0 35.9975572  0  1
G10  21675434.809   113905205.415       -3603.518          29.000  
> 2021  9 12 12  0 36.9975567  0  3
G10  21675969.039   113908021.965       -3604.032          29.000  
G26  21394156.634   112427040.5001       1981.512          23.000  
G31  21091477.774   110836471.7831       -799.024          28.000  
> 2021  9 12 12  0 37.9975562  0  3
G10  21676504.468   113910838.651       -3605.417          31.000  
G31  21091480.172   110836483.719        -799.817          32.000  
G32  20839811.898   109513995.2601       -193.236          25.000  
> 2021  9 12 12  0 38.9975557  0  4
G10  21677039.598   113913657.563       -3607.795          28.000  
G26  21393098.666   112421503.1381       1980.647          22.000  
G31  21091481.971   110836495.701        -799.441          33.000  
G32  20839702.774   109513401.284        -194.173          25.000  
> 2021  9 12 12  0 39.9975552  0  3
G26  21392568.933   112418734.783        1981.183          26.000  
G31  21091483.770   110836507.743        -799.481          29.000  
G32  20839589.752   109512807.729        -194.389          30.000  
> 2021  9 12 12  0 40.9975549  0  2
G26  21392098.558   112416279.685        1982.949          25.000  
G32  20839535.490   109512528.610        -192.659          30.000  
> 2021  9 12 12  0 41.9975544  0  2
G10  21678711.540   113922441.3281      -3611.646          22.000  
G31  21091549.724   110836842.9741       -796.181          26.000  
> 2021  9 12 12  0 42.9975542  0  3
G10  21679340.505   113925737.535       -3612.051          21.000  
G26  21391131.128   112411211.6771       1983.332          19.000  
G32  20839391.889   109511808.4631       -191.083          23.000  
> 2021  9 12 12  0 43.9975537  0  1
G32  20839275.570   109511211.751        -191.415          23.000  
> 2021  9 12 12  0 44.9975532  0  2
G10  21680421.856   113931385.2841      -3610.507          17.000  
G32  20839158.950   109510616.422        -193.215          28.000  
> 2021  9 12 12  0 45.9975526  0  8
C06  36548209.401   190316116.6001       -298.339          23.000  
C07  37032233.918   192836709.8801        421.720          24.000  
C16  37153071.264   193465790.9881       -245.658          26.000  
C23  22551045.236   117429118.6121       -270.519          25.000  
G10  21680929.705   113934049.580       -3609.163          19.000  
G26  21389521.542   112402741.9481       1982.820          25.000  
G31  21091640.561   110837195.8071       -797.643          25.000  
G32  20839013.551   109509865.026        -194.065          27.000  
> 2021  9 12 12  0 46.9975524  0  5
C07  37032094.215   192835975.763         422.309          24.000  
C16  37153059.572   193465724.684        -247.223          24.000  
C23  22551037.442   117429075.799        -268.283          23.000  
G10  21681555.072   113937343.534       -3609.062          28.000  
G32  20838991.366   109509743.408        -192.637          26.000  
> 2021  9 12 12  0 47.9975519  0  7
C06  36548114.367   190315627.3181       -301.731          18.000  
C07  37031864.574   192834773.058         422.409          28.000  
C16  37152956.743   193465191.173        -247.235          29.000  
C23  22550937.311   117428564.002        -268.745          25.000  
E01  23375789.578   122840603.2141       -828.491          34.000  
G10  21682092.899   113940164.425       -3608.524          29.000  
G32  20838877.445   109509148.976        -194.252          30.000  
> 2021  9 12 12  0 48.9975514  0  9
C03  36497492.612   190052020.6681       -696.290          31.000  
C06  36548019.932   190315146.985        -298.474          28.000  
C07  37031633.434   192833569.839         422.476          30.000  
C16  37152853.315   193464657.621        -246.761          33.000  
C23  22550838.080   117428052.552        -270.133          24.000  
E01  23375792.875   122840620.504        -828.824          32.000  
G10  21682633.425   113942986.058       -3610.298          25.000  
G31  21091729.899   110837697.2171       -797.316          18.000  
G32  20838764.723   109508555.506        -194.664          31.000  
> 2021  9 12 12  0 49.9975508  0  8
C06  36547894.919   190314507.989        -297.375          27.000  
C07  37031373.514   192832211.455         421.591          31.000  
C16  37152720.207   193463967.367        -246.692          36.000  
E01  23375771.590   122840508.252        -830.322          31.000  
G10  21683139.175   113945650.402       -3610.004          20.000  
G31  21091698.421   110837549.748        -798.086          21.000  
G32  20838624.421   109507805.261        -195.192          30.000  
J02  38683554.632   203283412.8341      -1517.267          27.000  
> 2021  9 12 12  0 50.9975506  0 12
C03  36497519.893   190052161.1281       -697.000          27.000  
C06  36547888.923   190314492.992        -297.370          27.000  
C07  37031233.211   192831477.657         422.012          32.000  
C16  37152707.016   193463901.737        -245.804          35.000  
C23  22550694.479   117427346.4171       -272.612          23.000  
E01  23375866.624   122841008.168        -829.421          32.000  
G10  21683765.741   113948945.333       -3610.467          25.000  
G26  21387031.766   112389683.3271       1979.447          29.000  
G31  21091789.558   110838033.401        -799.267          21.000  
G32  20838603.735   109507685.291        -195.319          31.000  
J02  38683783.674   203284616.102       -1518.912          27.000  
R02  19161755.393   102250847.9641       -262.203          33.000  
> 2021  9 12 12  0 51.9975503  0  7
C06  36547855.046   190314322.511        -298.229          27.000  
C16  37152663.546   193463678.577        -243.544          29.000  
E01  23375934.078   122841362.542        -829.865          31.000  
G10  21684361.429   113952083.861       -3612.355          23.000  
J02  38683981.237   203285663.035       -1520.256          28.000  
R02  19161712.522   102250630.255        -262.386          34.000  
R03  21429740.499   114715077.8241       2833.437          24.000  
> 2021  9 12 12  0 52.9975498  0  8
C06  36547760.612   190313839.292        -296.630          28.000  
C16  37152562.216   193463141.315        -243.997          23.000  
C23  22550557.174   117426640.9431       -272.072          23.000  
E01  23375943.671   122841412.832        -827.554          33.000  
G10  21684900.456   113954908.094       -3611.761          26.000  
G26  21386032.858   112384464.0381       1978.495          28.000  
J02  38684120.341   203286395.454       -1520.302          28.000  
R02  19161611.792   102250093.283        -263.422          33.000  
> 2021  9 12 12  0 53.9975493  0 10
C06  36547665.877   190313355.820        -296.983          23.000  
C16  37152458.188   193462605.125        -244.280          25.000  
C23  22550459.742   117426132.536        -271.061          23.000  
E01  23375952.665   122841460.122        -830.931          34.000  
G10  21685438.883   113957732.608       -3612.553          28.000  
G26  21385505.822   112381697.601        1978.369          28.000  
G31  21091845.319   110838382.0471       -796.372          21.000  
G32  20838338.718   109506209.0471       -195.049          32.000  
J02  38684258.545   203287128.092       -1519.887          28.000  
R02  19161509.863   102249556.788        -263.929          34.000  
> 2021  9 12 12  0 54.9975488  0  8
C06  36547571.143   190312871.492        -296.614          26.000  
C23  22550363.208   117425623.053        -270.764          24.000  
E01  23375959.860   122841497.412        -829.163          33.000  
G10  21685978.210   113960556.709       -3610.940          27.000  
G26  21384978.787   112378931.610        1977.253          29.000  
G32  20838228.095   109505617.106        -195.353          32.000  
J02  38684396.749   203287859.902       -1519.078          28.000  
R02  19161407.933   102249021.219        -264.525          34.000  
> 2021  9 12 12  0 55.9975483  0 10
C06  36547478.207   190312386.996        -296.646          26.000  
C16  37152258.826   193461534.1601       -245.697          22.000  
C23  22550268.174   117425114.604        -273.232          25.000  
E01  23375966.455   122841532.702        -829.917          34.000  
G10  21686516.937   113963379.676       -3611.250          27.000  
G26  21384452.352   112376166.662        1976.941          29.000  
G31  21091846.818   110838400.3801       -798.234          24.000  
G32  20838111.775   109505025.490        -196.673          32.000  
J02  38684535.254   203288590.602       -1518.168          28.000  
R02  19161309.302   102248486.549        -266.486          34.000  
> 2021  9 12 12  0 56.9975478  0  9
C06  36547386.171   190311903.518        -296.717          26.000  
C16  37152158.096   193460999.222        -245.476          25.000  
C23  22550172.540   117424606.385        -272.448          27.000  
E01  23375976.648   122841585.992        -831.422          34.000  
G10  21687054.764   113966204.917       -3614.297          27.000  
G26  21383925.916   112373401.750        1977.562          29.000  
G32  20837995.456   109504434.222        -197.547          32.000  
J02  38684673.158   203289321.201       -1518.265          28.000  
R02  19161211.569   102247953.311        -267.073          34.000  
> 2021  9 12 12  0 57.9975475  0  9
C06  36547354.093   190311731.072        -294.671          27.000  
C16  37152115.226   193460776.344        -245.272          27.000  
C23  22550137.764   117424409.731        -272.149          25.000  
E01  23376045.600   122841948.366        -832.179          34.000  
G10  21687652.251   113969346.960       -3614.638          27.000  
G26  21383457.640   112370952.305        1976.286          29.000  
G32  20837946.890   109504158.675        -196.486          34.000  
J02  38684871.321   203290368.064       -1519.915          28.000  
R02  19161171.997   102247740.874        -267.603          33.000  
> 2021  9 12 12  0 58.9975473  0 10
C06  36547350.796   190311714.009        -296.132          28.000  
C16  37152101.735   193460708.893        -244.902          26.000  
C23  22550134.167   117424370.422        -273.797          28.000  
E01  23376146.031   122842476.282        -830.826          34.000  
G10  21688281.215   113972646.502       -3614.863          27.000  
G26  21383020.543   112368662.127        1974.361          29.000  
G31  21092007.207   110839227.4491       -801.938          23.000  
G32  20837919.608   109504041.218        -199.050          34.000  
J02  38685099.463   203291573.223       -1519.885          28.000  
R02  19161165.101   102247688.783        -268.229          34.000  
> 2021  9 12 12  0 59.9975468  0  9
C07  37029368.202   192821766.3591        418.143          28.000  
C16  37151998.906   193460174.279        -246.316          26.000  
C23  22550038.233   117423863.440        -273.684          25.000  
E01  23376152.027   122842507.572        -832.903          33.000  
G26  21382492.908   112365899.789        1974.958          26.000  
G31  21092012.604   110839241.879        -801.110          28.000  
G32  20837804.188   109503452.379        -197.395          34.000  
J02  38685238.267   203292305.199       -1519.069          27.000  
R02  19161064.071   102247157.259        -268.697          35.000  
> 2021  9 12 12  1  0.9975462  0  9
C07  37029107.982   192820411.136         419.540          32.000  
C16  37151864.000   193459484.360        -247.149          28.000  
C23  22549908.723   117423200.090        -273.565          25.000  
E01  23376133.440   122842410.320        -834.939          32.000  
G10  21689325.692   113978142.5461      -3614.135          26.000  
G26  21381937.992   112362978.810        1976.402          21.000  
G32  20837661.187   109502705.050        -197.374          32.000  
J02  38685344.993   203292879.056       -1519.588          25.000  
R02  19160936.360   102246466.310        -269.375          34.000  
> 2021  9 12 12  1  1.9975457  0  9
C03  36497540.878   190052231.7991       -702.220          31.000  
C06  36547047.106   190310106.6511       -297.071          16.000  
C07  37028876.842   192819211.023         419.678          35.000  
C16  37151758.173   193458950.321        -246.419          29.000  
C23  22549811.290   117422693.337        -274.161          26.000  
E01  23376146.331   122842477.610        -833.185          31.000  
G32  20837549.964   109502115.669        -197.909          31.000  
J01  36934770.490   194093528.4701        315.425          28.000  
R02  19160839.827   102245936.042        -270.032          34.000  
> 2021  9 12 12  1  2.9975455  0  9
C06  36547042.609   190310090.200        -295.104          15.000  
C07  37028737.139   192818478.056         421.512          35.000  
C16  37151742.884   193458884.719        -246.518          28.000  
C23  22549804.395   117422655.095        -274.050          28.000  
E01  23376244.962   122842995.526        -833.751          31.000  
G26  21380975.958   112357927.5541       1973.292          17.000  
G32  20837522.983   109501998.979        -199.794          29.000  
J01  36934648.475   194092897.087         316.388          28.000  
R02  19160835.330   102245886.372        -270.682          35.000  
> 2021  9 12 12  1  3.9975450  0  9
C07  37028504.200                         420.047          35.000  
C16  37151637.656   193458350.326        -245.815          28.000  
C23  22549706.663   117422148.911        -274.485          28.000  
E01  23376253.656   122843041.816        -832.725          32.000  
G10  21691031.511   113987085.7211      -3613.110          19.000  
G31  21092089.051   110839609.8921       -801.676          25.000  
J01  36934438.920   194091793.464         315.263          28.000  
J02  38685856.139   203295546.8611      -1519.031          25.000  
R02  19160739.396   102245357.486        -271.452          34.000  
> 2021  9 12 12  1  4.9975444  0 10
C06  36546822.261   190308955.5061       -286.261          14.000  
C07  37028242.481   192815780.9611        419.379          35.000  
C16  37151503.349   193457658.626        -245.028          27.000  
C23  22549580.750   117421486.325        -273.990          27.000  
E01  23376231.771   122842926.564        -835.421          31.000  
G10  21691542.657   113989753.890       -3613.903          23.000  
G32  20837262.164   109500664.3311       -199.679          27.000  
J01  36934198.486   194090533.534         314.305          27.000  
J02  38685966.163   203296120.582       -1518.854          25.000  
R02  19160613.184   102244669.393        -272.090          34.000  
> 2021  9 12 12  1  5.9975439  0  9
C07  37028012.241   192814580.527         418.599          34.000  
C16  37151401.120   193457124.103        -246.781          26.000  
C23  22549483.018   117420980.427        -274.887          27.000  
E01  23376240.166   122842970.854        -836.716          31.000  
G10  21692082.884   113992581.248       -3615.314          23.000  
G31  21092068.365   110839482.9841       -803.229          25.000  
J01  36933984.435   194089431.333         314.693          27.000  
J02  38686107.065   203296853.391       -1520.994          25.000  
R02  19160513.652   102244141.996        -272.892          33.000  
> 2021  9 12 12  1  6.9975437  0 12
C03  36497613.428   190052612.4461       -699.588          31.000  
C07  37027870.738   192813848.815         417.753          34.000  
C16  37151388.829   193457057.851        -246.246          28.000  
C23  22549475.823   117420943.591        -276.846          26.000  
E01  23376337.898   122843484.770        -836.117          31.000  
G10  21692713.947   113995883.582       -3619.048          26.000  
G26  21378944.864   112347196.4451       1972.053          23.000  
G31  21092160.701   110839971.051        -803.046          23.000  
G32  20837128.756   109499961.6451       -200.925          28.000  
J01  36933865.117   194088802.415         312.990          26.000  
J02  38686336.706   203298058.804       -1519.282          20.000  
R02  19160506.757   102244095.507        -274.042          33.000  
> 2021  9 12 12  1  7.9975432  0 12
C03  36497597.239   190052531.368        -699.639          31.000  
C06  36546626.797   190307941.9371       -288.548          14.000  
C07  37027640.498   192812648.751         418.441          34.000  
C16  37151286.899   193456523.128        -246.157          27.000  
C23  22549377.791   117420440.487        -278.203          27.000  
E01  23376347.491   122843535.060        -838.222          30.000  
E19  23881608.706                       -1028.655          29.000  
G26  21378422.326   112344437.818        1969.335          23.000  
G31  21092164.898   110839987.139        -803.495          26.000  
G32  20837018.432   109499374.675        -200.553          28.000  
J02  38686475.810   203298790.329       -1519.756          24.000  
R02  19160409.924   102243569.905        -274.817          35.000  
> 2021  9 12 12  1  8.9975429  0 12
C06  36546591.421   190307764.435        -292.138          15.000  
C07  37027468.717   192811761.172         419.507          34.000  
C16  37151243.729   193456300.304        -244.956          27.000  
C23  22549340.317   117420250.670        -279.060          27.000  
E01  23376417.943   122843904.434        -836.659          31.000  
E19  23881716.032                       -1029.102          29.000  
G10  21693856.156   114001864.6681      -3622.027          25.000  
G31  21092230.253   110840318.341        -803.886          25.000  
G32  20836965.669   109499103.732        -201.284          27.000  
J01  36933499.670   194086916.1391        313.309          26.000  
J02  38686674.872   203299837.617       -1519.237          24.000  
R02  19160372.150   102243365.052        -275.559          34.000  
> 2021  9 12 12  1  9.9975424  0 12
C07  37027241.174   192810561.379         419.575          33.000  
C16  37151140.900   193455765.096        -245.249          28.000  
C23  22549243.484   117419749.080        -278.807          28.000  
E01  23376423.639   122843934.724        -835.866          30.000  
E19  23881762.500   125499506.1421      -1029.662          29.000  
G10  21694392.784   114004697.801       -3619.831          27.000  
G26  21377443.204   112339242.4131       1965.960          21.000  
G31  21092232.351   110840335.121        -805.080          26.000  
G32  20836855.345   109498517.266        -201.439          25.000  
J01  36933287.717   194085814.874         313.922          26.000  
J02  38686814.576   203300569.635       -1519.582          27.000  
R02  19160276.517   102242841.001        -276.207          34.000  
> 2021  9 12 12  1 10.9975419  0 12
C07  37027009.135   192809361.671         420.588          33.000  
C16  37151038.971   193455230.194        -245.687          27.000  
C23  22549145.152   117419246.881        -278.238          27.000  
E01  23376433.232   122843985.014        -838.637          30.000  
E19  23881809.567   125499748.378       -1030.386          30.000  
G10  21694933.010   114007529.815       -3619.454          27.000  
G26  21376922.165   112336487.698        1967.660          22.000  
G31  21092235.649   110840352.977        -807.173          21.000  
G32  20836744.422   109497931.345        -201.486          25.000  
J01  36933074.265   194084712.730         314.621          26.000  
J02  38686953.979   203301301.718       -1521.104          26.000  
R02  19160176.985   102242317.642        -276.914          33.000  
> 2021  9 12 12  1 11.9975414  0 13
C03  36497594.541   190052518.9281       -699.551          31.000  
C06  36546310.516   190306302.8141       -291.376          16.000  
C07  37026777.395   192808162.111         418.970          33.000  
C16  37150934.943   193454694.313        -244.095          27.000  
C23  22549045.621   117418744.718        -278.476          26.000  
E01  23376442.825   122844035.304        -836.906          31.000  
E19  23881855.436   125499991.262       -1030.781          30.000  
G10  21695471.138   114010361.362       -3619.316          29.000  
G26  21376398.427   112333732.082        1968.727          24.000  
G32  20836634.098   109497344.970        -201.397          26.000  
J01  36932864.110   194083610.466         313.272          26.000  
J02  38687094.882   203302034.006       -1518.700          22.000  
R02  19160077.155   102241794.955        -277.580          34.000  
> 2021  9 12 12  1 12.9975409  0 11
C07  37026547.754   192806962.689         419.752          33.000  
C16  37150831.515   193454157.596        -244.468          28.000  
C23  22548949.687   117418242.036        -278.343          27.000  
E01  23376453.618   122844092.594        -836.482          31.000  
E19  23881901.004   125500234.679       -1031.104          31.000  
G10  21696009.265   114013192.802       -3619.141          28.000  
G26  21375875.289   112330975.178        1969.550          26.000  
G32  20836523.475   109496759.442        -203.197          27.000  
J01  36932655.155   194082509.176         313.979          25.000  
J02  38687232.786   203302764.195       -1517.240          22.000  
R02  19159977.624   102241272.975        -278.256          35.000  
> 2021  9 12 12  1 13.9975406  0 10
C07  37026378.372   192806075.532         418.932          33.000  
C16  37150788.944   193453933.975        -245.964          28.000  
C23  22548911.913   117418051.663        -277.659          27.000  
E01  23376524.069   122844462.968        -837.609          32.000  
E19  23882007.730   125500793.127       -1031.109          30.000  
G10  21696607.651   114016339.305       -3619.459          28.000  
G26  21375412.410   112328532.414        1970.190          25.000  
G32  20836469.512   109496489.862        -203.023          27.000  
J01  36932505.259   194081722.033         313.712          25.000  
R02  19159937.751   102241071.610        -278.899          34.000  
> 2021  9 12 12  1 14.9975404  0 10
C06  36546180.106   190305621.6711       -295.806          16.000  
C07  37026239.268   192805344.684         418.843          33.000  
C16  37150776.053   193453866.848        -244.043          27.000  
C23  22548905.318   117418017.210        -278.387          28.000  
E01  23376622.401   122844978.884        -839.436          31.000  
E19  23882143.236   125501509.217       -1032.689          30.000  
G10  21697237.215   114019644.024       -3620.308          27.000  
G32  20836449.726   109496378.367        -204.417          25.000  
J01  36932385.342   194081093.648         312.785          25.000  
R02  19159929.657   102241031.038        -279.984          34.000  
> 2021  9 12 12  1 15.9975398  0 11
C03  36497651.202   190052819.4081       -699.476          31.000  
C07  37025976.950   192803989.578         418.657          32.000  
C16  37150641.746   193453174.378        -244.530          26.000  
C23  22548777.906   117417359.507        -279.214          29.000  
E01  23376601.715   122844870.632        -840.914          30.000  
E19  23882159.725   125501596.031       -1031.854          29.000  
G10  21697744.164   114022319.336       -3621.597          26.000  
G26  21374425.193   112323333.8711       1967.335          24.000  
G32  20836308.824   109495637.303        -204.020          25.000  
J01  36932143.409   194079835.753         312.880          25.000  
R02  19159799.847   102240351.491        -280.981          34.000  
> 2021  9 12 12  1 16.9975393  0 10
C07  37025747.009   192802790.809         417.958          33.000  
C16  37150537.718   193452639.026        -245.261          26.000  
C23  22548680.174   117416857.832        -279.455          29.000  
E01  23376612.208   122844925.922        -842.447          30.000  
E19  23882204.694   125501840.082       -1031.628          31.000  
G10  21698281.692   114025153.135       -3621.995          27.000  
G32  20836198.200   109495054.339        -204.469          26.000  
J01  36931932.655   194078734.920         313.651          26.000  
J02  38687910.917   203306324.5961      -1522.419          20.000  
R02  19159700.315   102239832.807        -281.671          35.000  
> 2021  9 12 12  1 17.9975388  0 13
C03  36497621.223   190052657.4531       -699.840          30.000  
C07  37025518.867   192801592.103         416.525          33.000  
C16  37150435.189   193452102.326        -243.909          27.000  
C23  22548582.441   117416357.402        -280.115          27.000  
E01  23376625.399   122844995.212        -842.140          29.000  
E19  23882250.862   125502084.499       -1032.344          31.000  
G10  21698821.618   114027987.528       -3622.270          26.000  
G26  21373369.025   112317824.4581       1966.120          25.000  
G31  21092390.642   110841104.2431       -802.662          23.000  
G32  20836087.877   109494470.666        -203.454          29.000  
J01  36931723.100   194077633.459         314.729          26.000  
J02  38688050.920   203307059.486       -1521.739          24.000  
R02  19159601.984   102239314.985        -282.484          36.000  
> 2021  9 12 12  1 18.9975383  0 12
C03  36497605.933   190052576.794        -700.460          31.000  
C07  37025286.827   192800393.600         418.032          32.000  
C16  37150331.760   193451565.976        -245.349          28.000  
C23  22548485.908   117415856.514        -279.166          25.000  
E01  23376638.290   122845062.502        -842.255          30.000  
E19  23882299.128   125502329.197       -1032.577          31.000  
G10  21699359.746   114030821.839       -3622.299          26.000  
G26  21372841.690   112315070.284        1965.982          25.000  
G32  20835977.853   109493886.915        -204.500          27.000  
J01  36931512.646   194076531.971         314.805          25.000  
J02  38688189.424   203307793.144       -1521.052          21.000  
R02  19159503.951   102238797.826        -283.110          35.000  
> 2021  9 12 12  1 19.9975380  0 10
C07  37025118.644   192799507.441         418.971          33.000  
C16  37150290.389   193451342.710        -245.011          28.000  
C23  22548449.034   117415666.898        -279.595          26.000  
E01  23376709.641   122845437.876        -840.833          29.000  
E19  23882407.953                       -1032.205          31.000  
G10  21699959.631   114033971.554       -3622.625          26.000  
G26  21372378.210   112312632.175        1965.179          26.000  
J01  36931363.049   194075744.421         314.508          26.000  
J02  38688389.086   203308841.395       -1521.305          23.000  
R02  19159466.777   102238601.306        -283.843          35.000  
> 2021  9 12 12  1 20.9975375  0 11
C03  36497636.212   190052729.3251       -701.152          32.000  
C07  37024888.103   192798309.218         417.789          33.000  
C16  37150188.160   193450807.331        -244.951          28.000  
C23  22548352.500   117415166.435        -280.438          26.000  
E01  23376717.735   122845480.166        -840.853          30.000  
E19  23882454.121   125503145.7751      -1033.966          31.000  
G10  21700497.758   114036805.891       -3622.201          26.000  
G26  21371855.972   112309879.484        1965.494          26.000  
G32  20835814.466   109493035.0321       -203.730          24.000  
J01  36931154.394   194074641.616         315.415          25.000  
R02  19159370.244   102238085.673        -284.638          35.000  
> 2021  9 12 12  1 21.9975370  0 11
C07  37024658.462   192797111.291         418.230          32.000  
C16  37150085.331   193450272.061        -245.613          28.000  
C23  22548259.565   117414665.978        -280.532          28.000  
E01  23376725.530   122845521.456        -841.227          31.000  
E19  23882501.488   125503391.788       -1032.021          31.000  
G26  21371332.534   112307126.545        1965.034          23.000  
G31  21092472.485   110841476.1961       -804.562          20.000  
G32  20835704.142   109492451.694        -204.769          26.000  
J01  36930943.640   194073538.829         314.694          25.000  
J02  38688668.492   203310308.9841      -1521.764          20.000  
R02  19159272.212   102237570.774        -285.256          36.000  
> 2021  9 12 12  1 22.9975368  0  9
C07  37024519.059   192796382.154         416.307          32.000  
C16  37150074.838   193450205.073        -245.775          30.000  
C23  22548254.768   117414634.798        -280.937          26.000  
E01  23376822.662   122846031.372        -843.598          33.000  
E19  23882635.795   125504110.728       -1035.153          29.000  
G10  21701659.754   114042947.8891      -3621.714          24.000  
G32  20835686.454   109492341.977        -205.539          30.000  
J02  38688900.531   203311515.581       -1521.564          25.000  
R02  19159264.117   102237536.668        -286.586          34.000  
> 2021  9 12 12  1 23.9975363  0 10
C07  37024287.019   192795184.734         417.822          28.000  
C16  37149972.909   193449669.700        -245.279          29.000  
C23  22548162.432   117414134.238        -280.836          22.000  
E01  23376831.656   122846078.662        -844.115          28.000  
E19  23882680.464   125504358.171       -1034.706          24.000  
G10  21702196.682   114045781.378       -3621.556          27.000  
G31  21092569.618   110841988.6551       -809.419          22.000  
J01  36930618.665   194071804.7591        313.750          26.000  
J02  38689040.235   203312249.415       -1521.955          29.000  
R02  19159167.284   102237023.600        -287.376          32.000  
> 2021  9 12 12  1 24.9975357  0  7
C07  37024027.999   192793831.390         416.333          26.000  
C16  37149839.801   193448977.872        -244.938          31.000  
E01  23376812.469   122845978.410        -845.634          30.000  
G10  21702705.130   114048459.345       -3624.499          25.000  
J01  36930380.330   194070547.348         311.327          24.000  
J02  38689149.359   203312826.580       -1522.906          25.000  
R02  19159039.573   102236351.464        -288.403          33.000  
> 2021  9 12 12  1 25.9975355  0  9
C07  37023886.497   192793102.426         416.558          27.000  
C16  37149826.910   193448910.185        -244.185          31.000  
C23  22548031.123   117413449.5051       -282.851          25.000  
E01  23376914.699   122846515.326        -845.284          33.000  
G26  21369368.294   112296911.2101       1963.046          18.000  
G32  20835422.337                        -208.047          33.000  
J01  36930261.012   194069922.807         309.233          23.000  
J02  38689377.801   203314034.648       -1523.525          23.000  
R02  19159035.676   102236320.336        -289.334          33.000  
> 2021  9 12 12  1 26.9975350  0  9
C16  37149722.282   193448374.081        -244.861          30.000  
C23  22547936.988   117412951.341        -283.193          26.000  
E01  23376924.292   122846565.616        -844.673          34.000  
G26  21368842.758   112294160.238        1961.816          18.000  
G31  21092630.476   110842367.3861       -809.930          24.000  
G32  20835311.414   109490302.0371       -206.880          33.000  
J01  36930051.457   194068824.646         310.534          22.000  
J02  38689516.905   203314768.241       -1519.129          24.000  
R02  19158939.142   102235809.867        -289.743          34.000  
> 2021  9 12 12  1 27.9975345  0  9
C06  36545160.812   190300211.2591       -296.854          24.000  
C07  37023423.317   192790707.7021        417.016          25.000  
C16  37149619.154   193447838.699        -245.611          31.000  
C23  22547842.553   117412454.907        -285.364          21.000  
E01  23376936.883   122846631.906        -845.712          34.000  
G10  21704412.748   114057446.3151      -3625.712          21.000  
G32  20835200.791   109489721.471        -206.945          34.000  
J01  36929844.301   194067726.017         311.114          24.000  
R02  19158844.708   102235299.951        -290.293          33.000  
> 2021  9 12 12  1 28.9975340  0  9
C06  36545069.675   190299727.296        -296.760          25.000  
C07  37023193.676   192789510.186         416.966          27.000  
C16  37149517.524   193447303.642        -245.731          33.000  
C23  22547747.219   117411959.026        -284.429          24.000  
E01  23376948.275   122846692.196        -845.377          34.000  
G32  20835092.266   109489141.258        -207.623          33.000  
J01  36929636.245   194066626.617         311.953          23.000  
J02  38689790.915   203316229.9831      -1518.310          21.000  
R02  19158749.074   102234790.692        -290.984          32.000  
> 2021  9 12 12  1 29.9975334  0 11
C06  36544949.458   190299087.026        -296.399          26.000  
C07  37022934.656   192788157.401         415.413          27.000  
C16  37149385.615   193446612.490        -245.036          33.000  
C23  22547623.105   117411305.283        -283.182          22.000  
E01  23376928.789   122846588.944        -846.227          35.000  
G26  21367247.263   112285760.6551       1959.550          18.000  
G31  21092590.903   110842276.7011       -809.809          26.000  
G32  20834948.665   109488403.768        -205.826          30.000  
J01  36929395.511   194065368.975         312.609          23.000  
J02  38689900.339   203316804.520       -1520.254          23.000  
R02  19158625.560   102234122.225        -291.741          33.000  
> 2021  9 12 12  1 30.9975334  0 10
C06  36545008.817   190299382.548        -295.523          27.000  
C07  37022856.710   192787741.274         416.460          24.000  
C16  37149431.784   193446857.663        -244.579          30.000  
C23  22547677.668   117411589.057        -284.830          24.000  
E01  23377087.979   122847425.944        -846.119          33.000  
G31  21092741.699   110843085.879        -808.919          28.000  
G32  20834993.334   109488611.926        -208.398          27.000  
J01  36929336.452   194065056.845         311.587          24.000  
J02  38690190.838   203318326.309       -1522.894          26.000  
R02  19158680.422   102234414.248        -292.447          33.000  
> 2021  9 12 12  1 31.9975329  0 11
C06  36544914.982   190298897.690        -296.873          25.000  
C07  37022627.968   192786544.478         415.977          25.000  
C16  37149327.756   193446320.989        -243.690          31.000  
C23  22547583.533   117411093.579        -285.237          25.000  
E01  23377100.270   122847490.234        -846.491          35.000  
G26  21366354.181   112281054.5601       1959.198          19.000  
G31  21092744.097   110843107.294        -809.345          29.000  
G32  20834880.612   109488032.766        -208.128          32.000  
J01  36929127.797   194063956.987         311.713          26.000  
J02  38690333.839   203319061.137       -1522.942          24.000  
R02  19158586.886   102233906.986        -293.141          32.000  
> 2021  9 12 12  1 32.9975324  0 11
C06  36544819.348   190298413.924        -297.080          26.000  
C07  37022399.526   192785349.777         414.111          23.000  
C16  37149224.627   193445784.306        -244.236          32.000  
C23  22547490.897   117410598.497        -286.050          25.000  
E01  23377109.864   122847540.524        -847.991          35.000  
G26  21365832.542   112278306.694        1960.182          24.000  
G31  21092747.695   110843129.372        -810.962          30.000  
G32  20834769.389   109487453.822        -208.766          32.000  
J01  36928917.642   194062857.824         311.383          25.000  
J02  38690473.842   203319796.529       -1523.079          25.000  
R02  19158499.047   102233400.566        -294.026          32.000  
> 2021  9 12 12  1 33.9975319  0 12
C06  36544724.913   190297929.218        -294.667          27.000  
C07  37022171.684   192784154.895         415.127          24.000  
C09  37631501.654   195957103.3951       -355.345          25.000  
C16  37149124.196   193445247.848        -245.239          31.000  
C23  22547395.263   117410103.723        -286.119          25.000  
E01  23377120.356   122847595.814        -846.803          34.000  
G26  21365308.505   112275558.196        1961.396          22.000  
G31  21092751.592   110843152.559        -810.955          30.000  
G32  20834657.267   109486875.205        -210.780          31.000  
J01  36928710.186   194061758.920         311.065          27.000  
J02  38690613.246   203320531.890       -1522.650          26.000  
R02  19158406.111   102232895.085        -294.887          32.000  
> 2021  9 12 12  1 34.9975314  0 11
C06  36544630.779   190297442.427        -293.347          27.000  
C07  37021940.544   192782959.086         415.217          24.000  
C09  37631423.108   195956678.814        -356.463          26.000  
C16  37149021.068   193444712.051        -244.472          31.000  
C23  22547302.627   117409609.078        -286.160          26.000  
E01  23377133.547   122847665.104        -848.422          34.000  
G26  21364785.367   112272809.734        1959.601          23.000  
G31  21092755.789   110843175.391        -810.425          30.000  
G32  20834552.340   109486296.994        -209.203          31.000  
J02  38690753.549   203321266.370       -1522.243          25.000  
R02  19158314.675   102232390.528        -295.895          32.000  
> 2021  9 12 12  1 35.9975311  0 11
C06  36544595.703   190297267.701        -293.965          26.000  
C07  37021769.362   192782075.359         416.001          26.000  
C09  37631403.322   195956566.763        -357.001          25.000  
C16  37148976.099   193444488.120        -244.705          32.000  
C23  22547270.849   117409428.034        -288.009          24.000  
E01  23377203.998   122848035.478        -848.286          34.000  
G10  21708913.832   114081110.3801      -3628.117          20.000  
G32  20834500.475   109486034.682        -210.424          30.000  
J01  36928348.936   194059878.2331        310.292          23.000  
J02  38690953.210   203322315.305       -1521.742          25.000  
R02  19158279.599   102232206.752        -296.461          32.000  
> 2021  9 12 12  1 36.9975306  0 12
C06  36544502.467   190296781.717        -295.096          25.000  
C07  37021540.021   192780879.138         415.390          27.000  
C09  37631322.378   195956144.003        -359.235          23.000  
C16  37148872.071   193443952.318        -244.738          30.000  
C23  22547178.213   117408936.092        -288.390          24.000  
E01  23377218.089   122848109.768        -849.156          33.000  
G10  21709456.756   114083951.181       -3629.463          25.000  
G26  21363798.150   112267631.8181       1956.908          24.000  
G32  20834388.653   109485457.603        -210.349          30.000  
J01  36928142.379   194058780.717         308.836          26.000  
J02  38691093.214   203323049.702       -1522.589          25.000  
R02  19158189.961   102231703.697        -297.152          32.000  
> 2021  9 12 12  1 37.9975301  0 11
C06  36544408.333   190296295.667        -294.871          27.000  
C07  37021311.579   192779683.748         414.143          26.000  
C09  37631241.434   195955722.536        -357.311          25.000  
C16  37148768.643   193443416.520        -244.816          30.000  
C23  22547087.976   117408444.120        -289.126          25.000  
E01  23377228.581   122848165.058        -850.129          34.000  
G26  21363276.811   112264888.030        1955.673          23.000  
G32  20834276.530   109484880.128        -210.819          30.000  
J01  36927934.623   194057683.048         310.514          26.000  
J02  38691232.017   203323783.614       -1521.116          25.000  
R02  19158098.225   102231201.248        -297.755          32.000  
> 2021  9 12 12  1 38.9975299  0 12
C06  36544404.135   190296277.944        -294.918          27.000  
C07  37021170.377   192778957.443         414.346          26.000  
C09  37631250.727   195955767.008        -355.847          24.000  
C16  37148755.152   193443348.769        -244.734          31.000  
C23  22547084.978   117408420.729        -288.620          25.000  
E01  23377332.310   122848709.974        -850.085          33.000  
G10  21710636.739   114090108.6451      -3632.415          22.000  
G31  21092930.268   110844056.6191       -811.767          29.000  
G32  20834256.744   109484775.526        -210.288          30.000  
J01  36927813.507   194057056.784         312.158          25.000  
J02  38691461.658   203324988.401       -1519.610          25.000  
R02  19158093.128   102231179.386        -298.669          32.000  
> 2021  9 12 12  1 39.9975293  0 12
C06  36544281.221   190295635.979        -294.872          27.000  
C07  37020911.057   192777605.625         415.330          26.000  
C09  37631138.605   195955186.475        -355.971          22.000  
C16  37148621.145   193442656.593        -244.654          31.000  
C23  22546961.463   117407772.320        -287.873          26.000  
E01  23377314.922   122848618.722        -851.002          34.000  
G10  21711150.583   114092795.652       -3634.054          22.000  
G31  21092904.186   110843922.821        -811.610          31.000  
G32  20834116.441   109484040.668        -210.924          30.000  
J01  36927571.274   194055798.807         313.081          24.000  
J02  38691571.383   203325563.547       -1521.062          25.000  
R02  19157969.614   102230518.387        -299.407          34.000  
> 2021  9 12 12  1 40.9975288  0 11
C06  36544190.084   190295150.389        -295.151          26.000  
C07  37020681.116   192776410.558         412.929          25.000  
C09  37631058.860   195954762.386        -355.958          22.000  
C16  37148518.616   193442120.707        -244.768          30.000  
C23  22546867.329   117407279.836        -288.266          28.000  
E01  23377327.213   122848683.012        -851.455          33.000  
G10  21711696.805   114095642.260       -3634.522          19.000  
G32  20834005.218   109483463.837        -210.524          28.000  
J01  36927360.520   194054698.984         312.200          24.000  
J02  38691711.386   203326296.181       -1520.448          25.000  
R02  19157878.177   102230018.309        -300.398          34.000  
> 2021  9 12 12  1 41.9975286  0 10
C06  36544189.184   190295132.391        -294.436          26.000  
C07  37020542.012   192775685.715         411.945          25.000  
C09  37631066.055   195954805.364        -354.308          21.000  
C16  37148506.624   193442052.668        -244.798          30.000  
C23  22546861.932   117407256.078        -288.406          27.000  
E01  23377428.543   122849215.928        -851.294          34.000  
G32  20833984.233   109483360.432        -212.721          29.000  
J01  36927240.004   194054072.287         312.202          25.000  
J02  38691941.027   203327501.883       -1521.931          24.000  
R02  19157875.179   102229999.114        -301.297          34.000  
> 2021  9 12 12  1 42.9975281  0 10
C06  36544095.049   190294645.788        -294.464          25.000  
C07  37020312.371   192774493.053         412.024          24.000  
C16  37148402.896   193441516.599        -244.229          29.000  
C23  22546765.699   117406763.448        -287.854          27.000  
E01  23377439.935   122849275.218        -852.759          33.000  
G31  21093018.107   110844469.6861       -813.523          24.000  
G32  20833872.410   109482785.745        -213.197          28.000  
J01  36927033.447   194052973.328         310.484          24.000  
J02  38692083.128   203328235.611       -1521.692          23.000  
R02  19157780.145   102229500.889        -302.134          35.000  
> 2021  9 12 12  1 43.9975276  0 10
C06  36544000.615   190294158.151        -293.465          25.000  
C07  37020082.130   192773299.549         414.105          25.000  
C09  37630897.871   195953956.3821       -357.682          20.000  
C16  37148300.667   193440980.279        -243.960          28.000  
C23  22546669.765   117406271.244        -288.661          29.000  
E01  23377451.927   122849338.508        -852.805          33.000  
G26  21360296.874   112249219.6111       1952.340          22.000  
G31  21093024.403   110844495.389        -813.516          24.000  
G32  20833761.487   109482211.822        -214.046          28.000  
R02  19157684.811   102229003.318        -302.580          35.000  
> 2021  9 12 12  1 44.9975270  0 11
C06  36543877.400   190293514.641        -292.834          26.000  
C07  37019823.110   192771949.483         412.868          26.000  
C09  37630786.648   195953376.916        -357.716          20.000  
C16  37148167.859   193440287.720        -244.124          29.000  
C23  22546543.852   117405624.414        -290.625          29.000  
E01  23377433.939   122849244.256        -853.106          33.000  
G31  21093003.118   110844363.688        -813.729          25.000  
G32  20833620.285   109481480.384        -214.757          29.000  
J01  36926586.456   194050619.1761        310.611          24.000  
J02  38692335.553   203329545.0001      -1521.502          24.000  
R02  19157559.797   102228346.340        -303.177          35.000  
> 2021  9 12 12  1 45.9975265  0 11
C06  36543783.565   190293027.007        -293.668          24.000  
C07  37019594.968   192770755.486         414.613          26.000  
C09  37630705.105   195952953.763        -356.556          25.000  
C16  37148065.929   193439750.909        -243.489          31.000  
E01  23377446.531   122849310.546        -854.416          32.000  
G10  21714447.701   114110195.4341      -3634.972          19.000  
G26  21359229.613   112243582.1831       1952.149          25.000  
G31  21093013.311   110844388.979        -812.280          26.000  
J01  36926378.700   194049521.073         310.117          27.000  
J02  38692474.657   203330278.721       -1521.500          28.000  
R02  19157464.763   102227849.832        -303.585          34.000  
> 2021  9 12 12  1 46.9975265  0 12
C06  36543840.526   190293320.399        -294.166          21.000  
C07  37019516.122   192770339.661         416.121          22.000  
C09  37630773.458   195953309.860        -355.849          24.000  
C16  37148115.395   193439994.065        -242.461          28.000  
E01  23377608.418   122850160.546        -854.351          35.000  
G10  21715138.722   114113829.680       -3633.317          27.000  
G26  21358857.870   112241629.649        1953.099          24.000  
G31  21093169.203   110845202.080        -813.792          29.000  
G32  20833554.930   109481119.5551       -212.372          25.000  
J01  36926322.339   194049210.425         311.352          25.000  
J02  38692765.156   203331800.498       -1522.180          27.000  
R02  19157519.625   102228153.796        -304.457          34.000  
> 2021  9 12 12  1 47.9975260  0 13
C06  36543748.190   190292833.157        -293.412          19.000  
C07  37019286.481   192769143.948         415.544          22.000  
C09  37630693.413   195952885.832        -357.077          25.000  
C16  37148014.665   193439456.498        -243.644          26.000  
C23  22546400.851   117404936.7261       -293.691          25.000  
E01  23377621.010   122850226.836        -855.438          32.000  
G10  21715679.848   114116675.353       -3633.730          23.000  
G26  21358336.831   112238888.479        1953.092          26.000  
G31  21093174.599   110845228.031        -814.261          26.000  
G32  20833444.606   109480544.033        -212.030          22.000  
J01  36926113.683   194048111.489         311.375          27.000  
J02  38692904.260   203332535.353       -1522.906          28.000  
R02  19157426.390   102227658.623        -305.237          34.000  
> 2021  9 12 12  1 48.9975255  0 12
C07  37019056.540   192767948.215         414.900          28.000  
C09  37630613.668   195952462.373        -356.606          24.000  
C16  37147910.637   193438919.664        -244.142          30.000  
C23  22546306.417   117404449.253        -291.758          26.000  
E01  23377636.599   122850309.126        -854.661          31.000  
G10  21716222.172   114119521.748       -3634.419          24.000  
G26  21357815.792   112236149.858        1950.177          27.000  
G31  21093178.796   110845254.566        -814.796          27.000  
G32  20833336.381   109479969.148        -214.045          29.000  
J01  36925906.227   194047013.601         309.730          23.000  
J02  38693043.963   203333270.152       -1521.763          26.000  
R02  19157333.754   102227164.280        -306.104          36.000  
> 2021  9 12 12  1 49.9975250  0 12
C07  37018827.199   192766752.952         414.783          31.000  
C09  37630530.926   195952036.873        -354.834          24.000  
C16  37147807.208   193438383.239        -243.699          30.000  
C23  22546211.383   117403960.702        -291.872          25.000  
E01  23377648.591   122850372.416        -856.095          29.000  
G10  21716764.497   114122369.294       -3635.993          18.000  
G26  21357294.753   112233413.097        1949.446          27.000  
G31  21093184.192   110845281.056        -813.500          24.000  
G32  20833226.657   109479395.791        -214.722          23.000  
J01  36925697.272   194045915.615         310.761          23.000  
J02  38693183.067   203334003.264       -1519.874          27.000  
R02  19157240.219   102226670.806        -306.941          36.000  
> 2021  9 12 12  1 50.9975245  0 12
C06  36543460.389   190291369.5341       -292.126          19.000  
C07  37018597.858   192765558.283         413.747          34.000  
C09  37630448.483   195951610.868        -355.243          23.000  
C16  37147705.279   193437846.652        -244.540          30.000  
C23  22546116.049   117403471.622        -292.138          27.000  
E01  23377663.280   122850449.706        -855.609          29.000  
G10  21717306.522   114125217.466       -3636.301          24.000  
G26  21356773.713   112230675.555        1949.556          27.000  
G31  21093188.989   110845305.911        -813.136          28.000  
G32  20833117.533   109478821.794        -213.430          26.000  
J02  38693321.871   203334735.934       -1519.621          23.000  
R02  19157149.681   102226178.099        -307.558          36.000  
> 2021  9 12 12  1 51.9975240  0 12
C07  37018367.018   192764362.810         413.632          32.000  
C09  37630367.838   195951188.278        -357.077          17.000  
C16  37147603.649   193437310.498        -244.738          22.000  
C23  22546023.713   117402982.694        -290.968          23.000  
E01  23377674.073   122850505.996        -855.473          35.000  
G10  21717848.846   114128066.630       -3635.922          27.000  
G26  21356250.875   112227937.709        1950.907          19.000  
G31  21093192.287   110845331.796        -813.911          30.000  
G32  20833008.708   109478247.787        -213.579          26.000  
J02  38693462.473   203335469.507       -1522.720          20.000  
R02  19157057.045   102225686.159        -308.388          35.000  
R03  21390144.511   114503117.5231       2817.673          25.000  
> 2021  9 12 12  1 52.9975237  0 11
C07  37018198.834                         414.319          34.000  
C09  37630347.153   195951077.063        -356.757          20.000  
C16  37147560.479   193437086.496        -244.203          26.000  
C23  22545985.939   117402805.095        -291.393          27.000  
E01  23377750.220   122850906.370        -857.029          33.000  
G26  21355788.595   112225514.377        1951.071          24.000  
G31  21093257.342   110845673.392        -814.785          31.000  
G32  20832959.842   109477990.511        -215.840          25.000  
J02  38693664.533   203336520.012       -1522.853          23.000  
R02  19157023.469   102225514.870        -308.957          34.000  
R03  21389527.238   114499813.102        2819.747          25.000  
> 2021  9 12 12  1 53.9975232  0 11
C07  37017969.793   192762281.0041        414.130          34.000  
C16  37147456.151   193436549.480        -243.907          26.000  
C23  22545887.907   117402317.087        -293.044          27.000  
E01  23377764.910   122850983.660        -857.104          32.000  
G10  21718995.252   114134077.7371      -3636.551          28.000  
G26  21355267.556   112222776.067        1950.850          25.000  
G31  21093263.637   110845700.604        -815.457          28.000  
G32  20832853.715   109477418.536        -215.116          25.000  
J02  38693805.136   203337256.007       -1524.400          22.000  
R02  19156930.233   102225024.277        -309.611          34.000  
R03  21388848.209   114496179.024        2819.158          26.000  
> 2021  9 12 12  1 54.9975229  0 11
C06  36543213.660   190290040.1111       -290.983          21.000  
C07  37017801.909   192761399.457         414.827          33.000  
C16  37147413.880   193436324.471        -242.901          21.000  
C23  22545850.732   117402141.975        -294.083          23.000  
E01  23377835.661   122851355.034        -856.922          33.000  
G10  21719599.334   114137242.110       -3637.388          28.000  
G31  21093327.493   110846043.912        -816.457          31.000  
J01  36924785.903   194041051.4551        311.882          25.000  
J02  38694004.498   203338306.262       -1520.932          19.000  
R02  19156895.157   102224854.221        -310.587          36.000  
R03  21388227.039   114492853.073        2820.867          26.000  
> 2021  9 12 12  1 55.9975224  0 11
C07  37017571.968   192760205.796         413.673          32.000  
C09  37630164.279   195950115.0991       -354.455          20.000  
C16  37147310.152   193435786.641        -243.245          17.000  
C23  22545754.199   117401655.105        -293.211          23.000  
E01  23377846.154   122851410.324        -856.791          34.000  
G10  21720143.458   114140092.124       -3637.947          29.000  
G25  22325257.746   117320021.0051      -3630.421          21.000  
G31  21093334.388   110846072.817        -816.540          29.000  
G32  20832690.329   109476585.2301       -214.638          22.000  
J01  36924575.448   194039952.082         310.744          23.000  
R02  19156802.821   102224365.130        -311.278          35.000  
> 2021  9 12 12  1 56.9975219  0 13
C06  36543028.388   190289062.1031       -292.136          21.000  
C07  37017339.929   192759012.110         413.259          34.000  
C09  37630082.736   195949688.757        -353.608          21.000  
C23  22545658.266   117401168.205        -291.989          23.000  
E01  23377858.146   122851473.614        -857.820          34.000  
G10  21720686.981   114142942.026       -3637.947          30.000  
G26  21353771.292   112214877.1371       1951.063          20.000  
G31  21093340.085   110846101.059        -815.764          29.000  
G32  20832584.502   109476012.221        -214.680          23.000  
J01  36924366.493   194038854.611         309.233          22.000  
J02  38694291.399   203339773.6451      -1521.994          20.000  
R02  19156709.286   102223876.818        -312.012          35.000  
R03  21386867.780   114485577.0571       2818.867          26.000  
> 2021  9 12 12  1 57.9975217  0 14
C06  36543025.090   190289041.835        -292.201          24.000  
C07  37017204.722   192758287.023         415.446          33.000  
C09  37630091.130   195949729.392        -352.077          23.000  
C16  37147194.432   193435180.3981       -241.287          19.000  
C23  22545649.871   117401147.926        -292.705          21.000  
E01  23377964.272   122852030.530        -858.089          33.000  
E19  23885031.737   125516710.8791      -1045.609          29.000  
G10  21721319.843   114146264.906       -3638.022          30.000  
G25  22326429.634   117326178.7411      -3629.136          22.000  
G31  21093433.620   110846601.677        -815.766          30.000  
G32  20832566.814   109475912.511        -215.880          23.000  
J01  36924246.876   194038230.301         308.997          23.000  
J02  38694523.139   203340980.609       -1521.586          20.000  
R02  19156706.288   102223869.084        -312.614          35.000  
> 2021  9 12 12  1 58.9975212  0 12
C06  36542932.454   190288553.348        -292.077          20.000  
C07  37016973.882   192757093.422         414.331          31.000  
C09  37630010.786   195949300.554        -352.264          20.000  
C23  22545554.837   117400661.259        -295.371          22.000  
E01  23377977.163   122852098.820        -857.285          34.000  
E19  23885081.802   125516967.691       -1043.486          29.000  
G10  21721863.367   114149115.366       -3638.108          29.000  
G25  22326969.261   117329020.671       -3630.980          22.000  
G26  21352829.044   112209875.8921       1947.481          20.000  
G31  21093436.917   110846629.109        -815.407          29.000  
G32  20832458.589   109475341.186        -216.645          26.000  
R02  19156615.751   102223381.948        -312.876          35.000  
> 2021  9 12 12  1 59.9975206  0 11
C06  36542808.940   190287910.512        -293.205          18.000  
C07  37016713.962   192755743.781         413.061          33.000  
C09  37629902.261   195948717.309        -354.024          21.000  
C23  22545429.824   117400021.991        -299.313          22.000  
E01  23377960.974   122852013.568        -859.020          34.000  
E19  23885099.190   125517065.904       -1044.030          26.000  
G10  21722375.412   114151807.744       -3638.035          28.000  
G25  22327481.906   117331705.235       -3630.013          22.000  
G26  21352279.524   112206984.199        1943.639          22.000  
J01  36923796.887   194035877.2501        309.332          23.000  
R02  19156493.735   102222735.187        -313.387          35.000  
> 2021  9 12 12  2  0.9975201  0 14
C06  36542714.505   190287423.403        -294.402          18.000  
C07  37016483.722   192754550.394         413.869          34.000  
C09  37629818.319   195948290.663        -354.574          20.000  
C16  37146859.864   193433403.5641       -239.969          18.000  
C23  22545333.890   117399540.254        -297.648          20.000  
E01  23377976.264   122852093.858        -858.284          35.000  
E19  23885147.157   125517323.781       -1044.991          25.000  
G10  21722917.437   114154658.296       -3638.647          30.000  
G25  22328021.233   117334547.837       -3631.900          22.000  
G26  21351758.785   112204252.703        1943.788          21.000  
G32  20832217.256   109474044.1831       -218.011          25.000  
J01  36923586.733   194034780.944         308.180          22.000  
R02  19156399.301   102222249.035        -314.207          35.000  
R03  21384233.203   114471474.2291       2815.741          24.000  
> 2021  9 12 12  2  1.9975196  0 11
C07  37016255.879   192753357.050         413.443          34.000  
E01  23377988.256   122852157.148        -858.870          34.000  
E19  23885197.222   125517580.960       -1045.602          27.000  
G10  21723459.462   114157509.046       -3638.514          28.000  
G25  22328559.360   117337391.183       -3630.551          22.000  
G26  21351238.645   112201521.920        1942.371          21.000  
G31  21093416.232   110846557.9931       -816.838          26.000  
G32  20832109.331   109473474.678        -219.210          27.000  
J02  38695051.973   203343769.5971      -1525.198          19.000  
R02  19156308.464   102221763.747        -314.976          35.000  
R03  21383560.169   114467870.873        2817.350          25.000  
> 2021  9 12 12  2  2.9975194  0 13
C07  37016114.677   192752632.259         414.291          35.000  
C09  37629746.069   195947908.0361       -355.012          20.000  
C16  37146738.448   193432781.6551       -231.280          16.000  
C23  22545228.663   117399043.9191       -297.058          19.000  
E01  23378091.084   122852697.064        -860.804          34.000  
E19  23885334.827   125518310.919       -1044.117          27.000  
G10  21724091.424   114160832.534       -3637.775          27.000  
G31  21093512.165   110847060.813        -818.479          21.000  
G32  20832092.842   109473377.685        -217.888          27.000  
J01  36923259.359   194033061.0901        306.924          20.000  
J02  38695283.113   203344978.675       -1523.332          19.000  
R02  19156306.365   102221759.363        -316.234          35.000  
R03  21382980.671   114464768.839        2816.823          26.000  
> 2021  9 12 12  2  3.9975191  0 10
C07  37015944.095   192751751.587         411.579          34.000  
C09  37629725.683   195947793.716        -354.606          21.000  
C16  37146691.381   193432542.439        -227.196          13.000  
C23  22545192.988   117398872.672        -298.278          19.000  
E01  23378164.234   122853081.438        -861.264          35.000  
E19  23885444.551   125518883.628       -1045.702          29.000  
G10  21724692.508   114163998.131       -3640.223          29.000  
G32  20832043.376   109473122.389        -217.446          27.000  
R02  19156276.086   102221595.892        -316.972          36.000  
R03  21382366.396   114461481.348        2816.227          26.000  
> 2021  9 12 12  2  4.9975186  0 11
C07  37015717.152   192750558.641         411.696          34.000  
C23  22545095.855   117398390.501        -295.445          18.000  
E01  23378178.324   122853155.728        -860.669          35.000  
E19  23885494.316   125519140.663       -1045.048          26.000  
G10  21725233.934   114166851.094       -3640.818          29.000  
G25  22330332.333   117346716.8081      -3634.517          21.000  
G31  21093582.916   110847435.6571       -817.227          25.000  
G32  20831935.451   109472552.851        -218.575          26.000  
J01  36922897.810   194031185.4961        307.249          20.000  
R02  19156189.746   102221113.243        -317.744          37.000  
R03  21381693.961   114457881.354        2818.164          27.000  
> 2021  9 12 12  2  5.9975181  0  9
C06  36542395.826   190285769.4661       -291.979          17.000  
C07  37015487.811   192749365.590         412.477          35.000  
E01  23378193.014   122853233.018        -860.796          35.000  
G10  21725774.759   114169704.533       -3641.995          27.000  
G31  21093587.114   110847464.574        -817.323          26.000  
G32  20831828.125   109471983.981        -218.979          29.000  
J02  38695757.684   203347498.7411      -1523.137          20.000  
R02  19156099.208   102220631.261        -318.266          35.000  
R03  21381021.227   114454279.879        2816.574          29.000  
> 2021  9 12 12  2  6.9975176  0 10
C07  37015261.168   192748172.487         412.297          35.000  
C09  37629479.553   195946513.8261       -352.981          17.000  
C16  37146378.397   193430906.4411       -237.510          13.000  
E01  23378205.605   122853299.308        -861.362          35.000  
G10  21726316.484   114172558.606       -3642.394          26.000  
G25  22331408.288   117352405.8191      -3631.970          20.000  
G31  21093591.011   110847494.907        -819.543          24.000  
G32  20831720.200   109471415.298        -219.114          31.000  
J02  38695893.790   203348233.770       -1522.581          19.000  
R02  19156008.671   102220149.826        -318.738          36.000  
> 2021  9 12 12  2  7.9975171  0  9
C07  37015030.927   192746979.449         412.061          35.000  
C09  37629395.611   195946085.469        -351.677          20.000  
E01  23378218.196   122853365.598        -861.297          35.000  
G10  21726857.010   114175412.347       -3641.147          28.000  
G26  21348269.201   112185921.9011       1944.198          19.000  
G31  21093597.306   110847526.222        -818.293          25.000  
G32  20831610.476   109470846.376        -219.112          30.000  
J02  38696031.395   203348968.051       -1520.841          19.000  
R02  19155923.530   102219668.873        -319.205          36.000  
> 2021  9 12 12  2  8.9975168  0  8
C07  37014860.645   192746098.717         410.506          35.000  
C09  37629374.326   195945968.854        -353.227          20.000  
E01  23378292.245   122853753.972        -862.817          35.000  
G10  21727458.993   114178580.074       -3640.608          28.000  
G25  22332551.696   117358412.3521      -3633.162          18.000  
G31  21093659.663   110847871.883        -817.339          24.000  
G32  20831562.509   109470593.291        -219.689          29.000  
R02  19155897.448   102219508.378        -319.757          35.000  
> 2021  9 12 12  2  9.9975163  0 11
C06  36542070.551   190284126.2041       -289.689          19.000  
C07  37014633.103   192744905.857         412.475          34.000  
C09  37629291.584   195945542.236        -354.600          20.000  
E01  23378306.635   122853830.262        -861.826          35.000  
G10  21728001.018   114181432.838       -3640.543          25.000  
G31  21093662.961   110847900.569        -815.694          23.000  
G32  20831453.685   109470025.659        -220.283          30.000  
J01  36921913.591   194026016.4951        308.378          24.000  
J02  38696371.659   203350746.5201      -1518.294          19.000  
R02  19155811.708   102219028.583        -320.422          35.000  
R03  21378388.450   114440186.5911       2815.530          18.000  
> 2021  9 12 12  2 10.9975160  0  9
C07  37014464.919   192744025.682         411.541          34.000  
C16  37146092.395   193429371.4401       -242.611          24.000  
E01  23378378.285   122854206.636        -862.459          36.000  
G10  21728604.500   114184600.693       -3641.452          23.000  
G25  22333688.509   117364420.7141      -3634.414          17.000  
G32  20831405.718   109469773.167        -220.511          28.000  
J02  38696571.921   203351791.242       -1517.177          19.000  
R02  19155781.428   102218869.429        -321.407          36.000  
R03  21377770.577   114436879.389        2817.104          23.000  
> 2021  9 12 12  2 11.9975155  0 12
C07  37014237.976   192742833.173         410.478          30.000  
C09  37629185.157   195945003.1161       -353.983          24.000  
C16  37145988.367   193428834.256        -244.185          25.000  
C23  22544584.709   117395623.2401       -297.579          19.000  
E01  23378396.573   122854302.926        -862.720          33.000  
G10  21729148.324   114187455.731       -3644.460          21.000  
G26  21346295.667   112175619.5731       1943.177          24.000  
G32  20831297.793   109469206.219        -221.872          27.000  
J01  36921558.037   194024137.2191        309.676          27.000  
J02  38696708.026   203352521.926       -1520.651          25.000  
R02  19155692.690   102218391.292        -322.558          35.000  
R03  21377090.948   114433240.671        2814.573          24.000  
> 2021  9 12 12  2 12.9975150  0  8
C07  37014009.235   192741641.819         410.890          28.000  
C09  37629098.817   195944576.629        -354.070          25.000  
C16  37145883.740   193428296.892        -242.563          28.000  
E01  23378412.162   122854384.216        -864.322          29.000  
G26  21345771.330   112172889.974        1940.501          24.000  
J01  36921349.981   194023039.763         309.357          26.000  
J02  38696848.030   203353255.162       -1521.026          27.000  
R02  19155605.151   102217914.260        -323.477          35.000  
> 2021  9 12 12  2 13.9975148  0 11
C06  36541850.204   190282951.7141       -294.507          20.000  
C07  37013869.232   192740919.256         409.695          28.000  
C09  37629103.614   195944618.002        -353.420          25.000  
C16  37145869.350   193428226.421        -242.185          29.000  
E01  23378517.989   122854941.132        -864.955          30.000  
G10  21730331.604   114193646.6041      -3645.925          17.000  
G25  22335398.825   117373423.0391      -3623.985          14.000  
G32  20831175.777   109468545.1901       -220.091          23.000  
J01  36921231.263   194022415.004         309.813          26.000  
J02  38697076.172   203354461.427       -1520.851          28.000  
R02  19155607.849   102217918.058        -324.187          36.000  
> 2021  9 12 12  2 14.9975142  0 13
C06  36541728.188   190282308.657        -293.427          25.000  
C07  37013610.211   192739571.383         411.900          24.000  
C09  37628989.393   195944034.325        -352.423          22.000  
C16  37145735.343   193427531.866        -242.255          29.000  
E01  23378503.299   122854863.880        -863.453          31.000  
G10  21730842.151   114196346.645       -3645.113          19.000  
G25  22335909.671   117376101.890       -3623.969          13.000  
G31  21093821.251   110848683.9151       -820.425          30.000  
G32  20831036.973   109467819.660        -219.370          28.000  
J01  36920992.329   194021159.936         309.471          25.000  
J02  38697183.198   203355037.477       -1521.966          28.000  
R02  19155484.034   102217282.798        -325.476          37.000  
R03  21375130.305   114422745.4391       2814.052          28.000  
> 2021  9 12 12  2 15.9975137  0 10
C06  36541635.852   190281821.507        -292.428          25.000  
C07  37013381.169   192738378.013         413.407          24.000  
C16  37145630.415   193426993.346        -241.346          30.000  
E01  23378514.691   122854923.170        -865.473          32.000  
G31  21093832.344   110848716.642        -819.828          31.000  
G32  20830928.149   109467252.552        -221.008          29.000  
J01  36920782.774   194020062.664         309.535          25.000  
J02  38697321.402   203355771.855       -1521.948          28.000  
R02  19155386.602   102216809.078        -326.672          36.000  
R03  21374457.571   114419144.191        2815.029          26.000  
> 2021  9 12 12  2 16.9975132  0 11
C06  36541543.516   190281333.198        -292.242          22.000  
C07  37013150.929   192737184.506         412.077          25.000  
C09  37628825.406   195943177.1381       -352.283          24.000  
C16  37145525.188   193426454.080        -241.557          27.000  
E01  23378529.980   122855003.460        -864.330          33.000  
G26  21343741.735   112162292.4651       1936.923          22.000  
G31  21093840.438   110848748.836        -819.987          30.000  
G32  20830819.923   109466685.920        -222.080          29.000  
J01  36920573.819   194018965.409         309.374          26.000  
J02  38697459.906   203356505.145       -1520.728          26.000  
R02  19155295.765   102216335.205        -325.903          35.000  
> 2021  9 12 12  2 17.9975127  0 12
C06  36541451.180   190280845.079        -292.614          24.000  
C07  37012920.688   192735992.133         411.318          26.000  
C16  37145421.160   193425915.064        -241.357          30.000  
E01  23378543.171   122855072.750        -865.844          32.000  
G10  21732469.724   114204908.0691      -3642.085          19.000  
G26  21343222.495   112159568.132        1935.817          21.000  
G31  21093847.933   110848781.464        -820.666          31.000  
G32  20830711.099   109466120.496        -222.515          28.000  
J01  36920364.264   194017868.539         309.936          24.000  
J02  38697598.110   203357238.167       -1520.911          27.000  
R02  19155205.227   102215861.261        -326.204          36.000  
R03  21373103.708   114411897.1131       2812.566          25.000  
> 2021  9 12 12  2 18.9975124  0 13
C06  36541418.502   190280670.206        -293.493          24.000  
C07  37012752.205   192735113.118         410.058          27.000  
C09  37628718.081   195942631.6531       -351.592          20.000  
C16  37145377.390   193425687.904        -241.431          32.000  
E01  23378618.119   122855467.124        -866.661          33.000  
G10  21733069.609   114208077.719       -3643.997          20.000  
G26  21342765.611   112157158.773        1936.898          21.000  
G31  21093915.386   110849129.710        -820.942          33.000  
G32  20830662.832   109465870.645        -223.899          30.000  
J01  36920216.166   194017085.438         310.944          22.000  
J02  38697795.674   203358286.643       -1521.022          27.000  
R02  19155174.649   102215707.798        -327.053          35.000  
R03  21372482.538   114408572.013        2812.184          28.000  
> 2021  9 12 12  2 19.9975122  0 12
C06  36541415.205   190280650.069        -291.171          25.000  
C07  37012614.001   192734390.721         410.708          27.000  
C16  37145362.701   193425617.127        -241.448          31.000  
E01  23378723.646   122856021.040        -867.130          33.000  
G10  21733700.672   114211407.653       -3646.120          23.000  
G25  22338763.396   117391095.7371      -3635.238          18.000  
G26  21342340.805   112154907.685        1935.774          20.000  
G31  21094010.121   110849634.399        -819.515          33.000  
G32  20830645.444   109465779.189        -223.356          31.000  
J02  38698024.115   203359492.695       -1521.481          27.000  
R02  19155175.548   102215715.170        -327.979          34.000  
R03  21371895.245   114405428.373        2813.230          29.000  
> 2021  9 12 12  2 20.9975117  0 11
C06  36541321.070   190280159.315        -289.541          26.000  
C07  37012385.259   192733200.040         409.333          26.000  
C16  37145258.073   193425078.504        -241.755          31.000  
E01  23378738.336   122856098.330        -867.532          33.000  
G10  21734243.296   114214266.583       -3647.880          23.000  
G26  21341820.365   112152185.856        1933.059          22.000  
G31  21094023.312                        -821.722          31.000  
G32  20830537.219   109465215.120        -224.109          31.000  
J01  36919888.793   194015365.1941        307.535          20.000  
J02  38698162.320   203360226.354       -1520.236          27.000  
R02  19155088.009   102215243.627        -328.947          35.000  
> 2021  9 12 12  2 21.9975112  0 12
C06  36541227.834   190279667.806        -290.003          25.000  
C07  37012156.817   192732009.418         411.491          28.000  
C09  37628556.492   195941816.6341       -351.294          19.000  
C16  37145154.045   193424539.729        -241.647          30.000  
E01  23378753.326   122856177.620        -869.096          32.000  
E04  24916606.792   130937651.6841       1113.434          27.000  
G31  21094030.806   110849873.9921       -819.875          32.000  
G32  20830430.493   109464651.306        -223.786          31.000  
J01  36919681.336   194014271.977         305.062          22.000  
J02  38698299.625   203360959.355       -1520.941          26.000  
R02  19155000.469   102214773.058        -329.749          36.000  
R03  21370542.581   114398187.2181       2811.464          28.000  
> 2021  9 12 12  2 22.9975107  0  7
C06  36541134.299   190279179.144        -292.815          23.000  
C07  37011929.275   192730817.754         411.090          28.000  
C09  37628472.551   195941388.043        -350.980          20.000  
C16  37145049.417   193423999.547        -239.294          27.000  
E04  24916243.444   130935748.326        1117.183          24.000  
G26  21340788.480   112146742.9421       1936.984          17.000  
G31  21094038.601   110849907.660        -822.519          29.000  
> 2021  9 12 12  2 23.9975101  0  5
C06  36541012.883   190278536.672        -294.856          20.000  
C07  37011671.153   192729469.064         412.299          25.000  
C16  37144913.911   193423301.706        -239.122          20.000  
G31  21094013.718   110849784.076        -821.681          24.000  
G32  20830187.661   109463365.6161       -223.221          29.000  
> 2021  9 12 12  2 24.9975099  0  8
C06  36541008.086   190278518.088        -292.388          22.000  
C07  37011532.949   192728745.890         409.308          29.000  
C16  37144898.622   193423228.382        -239.232          28.000  
G10  21736483.945   114226010.2561      -3646.558          19.000  
G31  21094109.652   110850290.681        -821.338          29.000  
G32  20830169.374   109463274.554        -224.049          29.000  
R02  19154824.191   102213672.7381       -329.782          25.000  
R03  21368555.557   114387550.9381       2812.674          22.000  
> 2021  9 12 12  2 25.9975094  0  9
C06  36540912.153   190278029.277        -290.254          22.000  
C07  37011305.706   192727556.220         409.800          30.000  
C09  37628289.677   195940413.6751       -354.627          21.000  
C16  37144794.894   193422687.310        -239.824          29.000  
G10  21737028.968   114228870.684       -3648.857          27.000  
G32  20830062.947   109462711.397        -225.147          31.000  
J02  38698911.801   203364210.0771      -1520.983          22.000  
R02  19154732.155   102213204.568        -333.497          32.000  
R03  21367882.823   114383949.130        2811.501          29.000  
> 2021  9 12 12  2 26.9975091  0 11
C06  36540877.077   190277851.631        -291.949          22.000  
C07  37011138.422   192726678.431         409.191          30.000  
C09  37628265.994   195940299.313        -354.009          21.000  
C16  37144751.124   193422459.247        -240.595          31.000  
G10  21737632.450   114232047.127       -3649.087          27.000  
G25  22342688.279   117411687.5281      -3637.801          18.000  
G26  21338835.931   112136469.1171       1938.057          18.000  
G31  21094178.304   110850674.1691       -823.193          28.000  
G32  20830014.981   109462464.017        -224.719          31.000  
R02  19154701.576   102213058.581        -334.826          32.000  
R03  21367270.047   114380669.144        2810.690          30.000  
> 2021  9 12 12  2 27.9975086  0 10
C07  37010910.580   192725488.577         409.499          30.000  
C16  37144647.995   193421920.001        -241.991          31.000  
C23  22543468.282   117389673.8011       -303.388          29.000  
E01  23378963.780   122857283.5281       -870.187          34.000  
G10  21738180.171   114234908.978       -3650.161          25.000  
G31  21094184.900   110850709.488        -822.430          28.000  
G32  20829907.055   109461901.674        -225.928          26.000  
J02  38699252.965   203365989.9561      -1519.146          23.000  
R02  19154611.039   102212593.817        -335.460          32.000  
R03  21366594.015   114377050.446        2810.159          25.000  
> 2021  9 12 12  2 28.9975081  0  9
C07  37010682.737   192724298.756         409.136          30.000  
C09  37628100.208   195939442.4161       -351.564          21.000  
C16  37144545.166   193421381.329        -241.780          32.000  
C23  22543375.346   117389197.164        -304.822          28.000  
E01  23378980.269   122857369.818        -871.341          31.000  
G25  22343777.125   117417390.5581      -3641.718          18.000  
G31  21094192.095   110850744.323        -822.572          26.000  
J02  38699393.268   203366720.543       -1519.707          24.000  
R02  19154522.000   102212129.501        -335.857          30.000  
> 2021  9 12 12  2 29.9975078  0 10
C07  37010514.854   192723421.059         409.813          31.000  
C09  37628076.525   195939325.035        -350.833          23.000  
C16  37144502.896   193421154.151        -241.097          32.000  
C23  22543343.268   117389033.623        -304.975          28.000  
E01  23379054.317   122857759.192        -871.120          30.000  
G10  21739324.479   114240950.2441      -3651.340          19.000  
G26  21337341.766   112128612.9261       1933.752          19.000  
G31  21094258.049   110851094.104        -822.692          26.000  
J02  38699595.627   203367768.034       -1520.048          26.000  
R02  19154493.820   102211985.676        -336.541          34.000  
> 2021  9 12 12  2 30.9975073  0 11
C07  37010286.712   192722230.761         409.600          31.000  
C09  37627994.681   195938895.131        -351.287          24.000  
C16  37144400.067   193420613.534        -239.451          29.000  
C23  22543250.632   117388558.722        -306.560          26.000  
E01  23379069.907   122857841.482        -871.331          30.000  
G10  21739868.302   114243811.516       -3646.443          19.000  
G31  21094263.745   110851129.159        -823.349          29.000  
G32  20829644.137   109460532.8281       -226.243          19.000  
J02  38699735.631   203368500.780       -1520.857          26.000  
R02  19154403.882   102211522.499        -337.010          33.000  
R03  21364635.171   114366564.5141       2808.252          23.000  
> 2021  9 12 12  2 31.9975068  0 13
C06  36540472.957   190275707.3551       -287.877          18.000  
C07  37010059.169   192721041.020         409.182          31.000  
C09  37627914.637   195938467.554        -351.335          23.000  
C16  37144296.339   193420073.050        -241.158          29.000  
C23  22543160.095   117388085.116        -306.847          26.000  
E01  23379086.095   122857925.772        -871.252          29.000  
G10  21740408.828   114246669.220       -3646.528          16.000  
G25  22345482.045   117426267.4051      -3642.983          19.000  
G31  21094268.542   110851165.057        -824.149          26.000  
G32  20829538.011   109459972.920        -228.511          19.000  
J02  38699877.732   203369233.477       -1520.108          26.000  
R02  19154311.546   102211059.784        -337.311          33.000  
R03  21363961.237   114362956.909        2811.114          25.000  
> 2021  9 12 12  2 32.9975063  0 13
C07  37009825.331   192719852.235         409.293          32.000  
C09  37627835.192   195938038.627        -352.619          25.000  
C16  37144193.810   193419532.999        -239.586          25.000  
C23  22543067.759   117387610.079        -305.791          24.000  
E01  23379102.584   122858013.062        -873.140          29.000  
G10  21740953.251   114249529.614       -3649.740          17.000  
G25  22346027.367   117429121.728       -3642.592          18.000  
G26  21335776.849   112120451.9731       1930.061          23.000  
G31  21094273.638   110851201.593        -825.283          27.000  
G32  20829434.283   109459415.196        -230.237          24.000  
J02  38700018.635   203369965.564       -1519.811          23.000  
R02  19154220.109   102210597.636        -338.162          27.000  
R03  21363290.302   114359364.783        2810.968          23.000  
> 2021  9 12 12  2 33.9975058  0  8
C07  37009599.288                         411.060          30.000  
C16  37144089.182   193418991.376        -238.612          28.000  
C23  22542974.823   117387135.827        -306.840          27.000  
E01  23379118.773   122858098.352        -873.613          31.000  
G10  21741500.372   114252392.890       -3651.122          24.000  
G32  20829326.957   109458856.543        -227.718          22.000  
J02  38700158.338   203370698.946       -1522.070          24.000  
R02  19154134.069   102210136.290        -339.185          32.000  
> 2021  9 12 12  2 34.9975058  0 11
C06  36540331.455   190275016.9101       -289.213          20.000  
C07  37009519.843   192718286.2501        408.818          28.000  
C16  37144135.050   193419230.198        -238.609          27.000  
C23  22543032.683   117387442.190        -305.726          26.000  
E01  23379284.558   122858969.352        -874.060          32.000  
G10  21742197.690   114256043.707       -3652.011          24.000  
G26  21334889.164   112115803.7181       1929.427          20.000  
G32  20829368.328   109459084.034        -227.535          25.000  
J02  38700448.237   203372221.203       -1522.363          26.000  
R02  19154197.925   102210475.659        -339.846          32.000  
R03  21362098.927   114352987.2421       2809.374          21.000  
> 2021  9 12 12  2 35.9975053  0 10
C06  36540237.020   190274525.547        -289.858          23.000  
C07  37009287.803   192717096.850         410.291          30.000  
C16  37144030.423   193418688.604        -239.304          28.000  
C23  22542940.647   117386967.384        -305.229          26.000  
E01  23379301.646   122859058.642        -874.079          31.000  
G26  21334372.921   112113085.950        1929.415          20.000  
G32  20829262.801   109458523.739        -226.567          26.000  
J02  38700588.840   203372955.410       -1521.906          27.000  
R02  19154110.086   102210015.834        -340.390          33.000  
R03  21361420.796   114349357.136        2809.780          25.000  
> 2021  9 12 12  2 36.9975048  0 10
C06  36540142.885   190274034.585        -289.260          22.000  
C07  37009060.561   192715907.517         408.703          31.000  
C16  37143925.795   193418147.739        -240.415          27.000  
C23  22542848.910   117386492.231        -306.130          25.000  
E01  23379317.835   122859143.932        -875.840          31.000  
G26  21333855.779   112110369.154        1929.228          15.000  
G31  21094431.029   110852138.9501       -824.222          22.000  
G32  20829156.675   109457961.836        -225.478          22.000  
J02  38700727.944   203373690.132       -1523.493          25.000  
R02  19154021.647   102209556.692        -341.230          33.000  
> 2021  9 12 12  2 37.9975043  0  8
C07  37008836.016   192714718.400         409.040          31.000  
C16  37143821.767   193417607.731        -240.140          27.000  
C23  22542757.474   117386018.001        -305.992          26.000  
E01  23379335.823   122859238.222        -875.326          32.000  
G10  21743846.248   114264638.3641      -3653.380          26.000  
G26  21333340.136   112107653.935        1928.787          15.000  
J02  38700867.947   203374425.718       -1522.648          26.000  
R02  19153934.407   102209098.346        -341.943          33.000  
> 2021  9 12 12  2 38.9975037  0 10
C06  36539926.136   190272897.8141       -290.340          21.000  
C07  37008582.092   192713373.379         408.689          31.000  
C16  37143688.360   193416910.838        -239.503          28.000  
C23  22542637.257   117385387.677        -307.257          26.000  
E01  23379320.833   122859159.970        -873.102          32.000  
G10  21744365.789   114267347.448       -3655.679          24.000  
G25  22349430.611   117446887.2961      -3644.969          20.000  
J02  38700977.671   203375001.799       -1520.892          25.000  
R02  19153818.987   102208480.722        -342.626          33.000  
R03  21359358.524   114338318.2181       2810.739          19.000  
> 2021  9 12 12  2 39.9975032  0 12
C06  36539832.600   190272407.712        -290.368          25.000  
C07  37008354.249   192712184.590         408.370          27.000  
C16  37143585.531   193416369.913        -240.352          32.000  
C23  22542543.422   117384913.503        -306.360          25.000  
E01  23379339.120   122859256.260        -873.788          32.000  
G10  21744908.713   114270214.622       -3653.908          26.000  
G26  21332272.875   112102061.1681       1931.641          18.000  
G31  21094416.939   110852095.4571       -826.221          29.000  
G32  20828815.211   109456118.2661       -226.671          24.000  
J02  38701118.873   203375735.117       -1520.682          27.000  
R02  19153737.743   102208023.748        -343.305          33.000  
R03  21358691.785   114334749.275        2806.732          24.000  
> 2021  9 12 12  2 40.9975030  0 11
C06  36539827.504   190272385.744        -290.434          23.000  
C07  37008216.645   192711463.901         408.065          27.000  
C16  37143572.640   193416297.631        -239.002          30.000  
C23  22542541.623   117384907.669        -307.355          27.000  
E01  23379446.146   122859818.176        -876.273          28.000  
G10  21745540.376   114273553.150       -3653.871          25.000  
G26  21331846.270   112099814.592        1930.563          23.000  
G31  21094513.172   110852605.223        -824.422          27.000  
G32  20828798.423   109456030.753        -229.221          23.000  
J02  38701348.814   203376941.012       -1521.130          29.000  
R02  19153748.236   102208047.457        -344.003          32.000  
> 2021  9 12 12  2 41.9975025  0  9
C06  36539733.069   190271895.975        -290.888          24.000  
C07  37007989.102   192710275.169         409.253          22.000  
C16  37143467.413   193415755.806        -238.770          30.000  
C23  22542448.688   117384435.386        -308.695          25.000  
E01  23379461.436   122859898.466        -873.652          29.000  
G26  21331331.526   112097096.171        1930.663          24.000  
G32  20828690.797   109455472.385        -229.596          25.000  
J02  38701489.117   203377674.629       -1521.517          28.000  
R02  19153666.692   102207591.952        -344.830          33.000  
> 2021  9 12 12  2 42.9975022  0 12
C06  36539696.494   190271718.478        -289.910          23.000  
C07  37007819.120   192709398.042         408.674          24.000  
C16  37143423.943   193415525.934        -237.975          30.000  
C23  22542417.209   117384275.933        -309.044          27.000  
E01  23379538.482   122860303.840        -875.014          30.000  
G10  21746683.185   114279596.5811      -3651.577          22.000  
G26  21330876.142   112094693.795        1929.652          25.000  
G31  21094586.622   110852993.3391       -824.821          28.000  
G32  20828648.227   109455230.158        -231.130          23.000  
J02  38701688.179   203378723.809       -1521.453          28.000  
R02  19153645.407   102207457.143        -345.801          32.000  
R03  21356789.302   114324564.4201       2808.913          20.000  
> 2021  9 12 12  2 43.9975017  0 12
C06  36539603.259   190271227.262        -288.549          24.000  
C07  37007590.678   192708209.142         407.997          29.000  
C16  37143319.315   193414982.713        -236.692          28.000  
C23  22542327.272   117383804.107        -309.472          28.000  
E01  23379556.470   122860398.130        -876.892          29.000  
E04  24909091.295   130898198.3981       1113.683          23.000  
G26  21330361.098   112091976.173        1929.544          24.000  
G31  21094592.917   110853030.462        -824.779          26.000  
G32  20828542.400   109454673.129        -231.294          25.000  
J02  38701827.582   203379457.363       -1520.647          25.000  
R02  19153562.365   102207003.302        -346.486          32.000  
R03  21356125.562   114321011.877        2809.442          22.000  
> 2021  9 12 12  2 44.9975012  0 11
C06  36539508.525   190270734.292        -286.502          22.000  
C07  37007363.136   192707020.864         407.355          29.000  
C16  37143215.587   193414440.049        -238.384          28.000  
C23  22542235.235   117383333.044        -309.411          26.000  
E01  23379572.059   122860479.420        -879.415          30.000  
E04  24908730.645   130896297.566        1112.702          24.000  
G26  21329846.355   112089259.491        1928.559          23.000  
G31  21094596.815   110853067.338        -825.394          23.000  
J02  38701967.885   203380189.853       -1520.303          25.000  
R02  19153477.523   102206550.169        -347.082          34.000  
R03  21355463.920   114317470.225        2807.616          22.000  
> 2021  9 12 12  2 45.9975009  0 13
C06  36539473.749   190270553.079        -287.846          21.000  
C07  37007194.053   192706144.850         407.786          29.000  
C16  37143172.117   193414210.537        -239.238          27.000  
C23  22542204.956   117383174.114        -309.925          27.000  
E01  23379649.705   122860887.794        -876.903          30.000  
G10  21748376.113   114288507.3131      -3654.868          21.000  
G25  22353448.130   117468010.8331      -3645.645          17.000  
G26  21329390.670   112086860.037        1926.116          24.000  
G31  21094659.471   110853420.493        -826.073          23.000  
G32  20828388.607   109453873.8211       -229.676          24.000  
J02  38702168.147   203381237.409       -1521.030          27.000  
R02  19153452.940   102206417.566        -347.632          33.000  
R03  21354855.641   114314213.781        2806.969          24.000  
> 2021  9 12 12  2 46.9975004  0 11
C06  36539379.314   190270059.905        -287.799          22.000  
C07  37006965.611   192704957.191         406.450          29.000  
C16  37143068.689   193413669.034        -239.705          26.000  
C23  22542115.318   117382703.591        -310.096          27.000  
E01  23379667.993   122860984.084        -878.465          31.000  
G10  21748919.636   114291375.499       -3657.096          20.000  
G26  21328877.425   112084145.947        1925.755          24.000  
G31  21094666.666   110853457.967        -825.031          24.000  
G32  20828279.782   109453314.999        -228.656          22.000  
J02  38702306.950   203381970.313       -1520.584          28.000  
R02  19153367.200   102205965.698        -348.466          33.000  
> 2021  9 12 12  2 47.9974999  0 10
C07  37006737.469   192703770.274         406.493          28.000  
C16  37142964.661   193413128.625        -238.682          26.000  
C23  22542024.181   117382233.794        -311.417          25.000  
E01  23379687.479   122861086.374        -879.009          32.000  
G10  21749462.560   114294245.516       -3658.830          20.000  
G26  21328363.581   112081432.772        1924.743          25.000  
G31  21094673.561   110853496.655        -827.307          23.000  
G32  20828173.356   109452755.472        -228.451          19.000  
J02  38702445.754   203382703.335       -1520.961          26.000  
R02  19153282.359   102205514.692        -349.294          34.000  
> 2021  9 12 12  2 48.9974994  0  7
C07  37006508.427   192702583.157         406.432          29.000  
C16  37142860.932   193412586.301        -237.764          26.000  
C23  22541934.244   117381764.874        -311.804          24.000  
E01  23379704.867   122861177.664        -878.495          32.000  
G26  21327848.837   112078721.481        1921.988          24.000  
J02  38702587.556   203383436.691       -1521.622          28.000  
R02  19153196.618   102205064.445        -349.961          33.000  
> 2021  9 12 12  2 49.9974989  0  9
C06  36539090.014   190268580.0761       -288.761          23.000  
C07  37006280.285   192701395.526         407.344          28.000  
C16  37142757.504   193412043.581        -238.753          27.000  
C23  22541844.606   117381296.240        -311.795          25.000  
E01  23379721.356   122861264.954        -878.333          32.000  
G10  21750552.606   114299987.9761      -3657.942          17.000  
G26  21327337.691   112076011.415        1922.636          26.000  
J02  38702727.559   203384171.225       -1522.326          28.000  
R02  19153110.877   102204614.824        -350.912          33.000  
> 2021  9 12 12  2 50.9974986  0 11
C06  36539056.438   190268400.618        -289.051          21.000  
C07  37006111.502   192700519.519         406.864          28.000  
C16  37142713.435   193411814.220        -238.794          27.000  
C23  22541814.926   117381139.767        -312.533          23.000  
E01  23379798.702   122861671.328        -880.301          32.000  
G10  21751165.082   114303173.172       -3659.581          18.000  
G25  22356236.799   117482644.0061      -3650.415          16.000  
G26  21326885.005   112073616.209        1922.255          27.000  
G32  20827918.232   109451400.8011       -238.268          17.000  
J02  38702927.221   203385220.531       -1522.298          28.000  
R02  19153086.294   102204486.034        -351.601          33.000  
> 2021  9 12 12  2 51.9974984  0 11
C06  36539051.041   190268376.730        -289.005          23.000  
C07  37005973.298   192699800.524         406.320          28.000  
C16  37142700.543   193411740.304        -238.005          28.000  
C23  22541815.226   117381140.210        -313.662          26.000  
E01  23379905.728   122862233.244        -880.166          32.000  
G10  21751803.939   114306517.829       -3660.394          19.000  
G25  22356874.458   117485979.225       -3649.977          15.000  
G26  21326460.798   112071378.283        1922.653          26.000  
G31  21094856.135   110854441.3421       -825.792          23.000  
J02  38703156.562   203386428.294       -1523.776          28.000  
R02  19153093.189   102204517.952        -352.345          32.000  
> 2021  9 12 12  2 52.9974979  0 10
C06  36538955.408   190267884.980        -288.852          23.000  
C07  37005745.156   192698614.313         405.900          28.000  
C16  37142596.515   193411197.680        -237.489          27.000  
C23  22541723.789   117380673.004        -312.473          24.000  
E01  23379921.317   122862315.534        -881.161          32.000  
G10  21752349.562   114309390.183       -3658.879          19.000  
G26  21325948.153   112068667.466        1922.619          24.000  
G32  20827801.613   109450778.0711       -238.568          17.000  
J02  38703295.666   203387163.308       -1521.871          28.000  
R02  19153009.248   102204070.695        -353.193          32.000  
> 2021  9 12 12  2 53.9974973  0 11
C06  36538830.994   190267236.972        -288.747          24.000  
C07  37005487.034   192697271.146         407.056          27.000  
C16  37142462.808   193410498.625        -238.081          26.000  
C23  22541604.172   117380048.710        -312.502          25.000  
E01  23379910.825   122862260.282        -882.294          33.000  
G10  21752867.903   114312104.253       -3658.973          20.000  
G25  22357942.019   117491547.5801      -3649.540          14.000  
G26  21325403.430   112065799.635        1922.603          25.000  
G31  21094848.940   110854363.7171       -828.765          26.000  
J02  38703405.690   203387739.643       -1521.985          28.000  
R02  19152896.526   102203464.346        -353.824          31.000  
> 2021  9 12 12  2 54.9974968  0 10
C06  36538736.559   190266745.302        -288.359          24.000  
C07  37005260.092   192696083.668         405.413          28.000  
C16  37142358.780   193409957.160        -239.730          25.000  
C23  22541515.134   117379579.533        -310.915          24.000  
E01  23379928.512   122862353.572        -881.527          32.000  
G10  21753414.425   114314976.271       -3660.932          21.000  
G25  22358486.442   117494412.721       -3655.603          13.000  
G31  21094860.332   110854404.095        -828.088          26.000  
J02  38703545.993   203388473.439       -1520.835          28.000  
R02  19152813.783   102203018.620        -354.497          33.000  
> 2021  9 12 12  2 55.9974963  0  9
C06  36538642.424   190266254.392        -289.021          21.000  
C07  37005031.650   192694897.451         406.553          29.000  
C16  37142257.150   193409415.444        -238.069          25.000  
C23  22541425.496   117379110.673        -311.735          23.000  
E01  23379946.200   122862445.862        -882.709          32.000  
G10  21753958.848   114317848.819       -3659.846          22.000  
G31  21094870.825   110854444.906        -828.540          28.000  
J02  38703684.797   203389206.231       -1520.197          29.000  
R02  19152729.841   102202573.417        -354.990          34.000  
> 2021  9 12 12  2 56.9974961  0 11
C06  36538639.726   190266230.781        -287.259          23.000  
C07  37004893.745   192694178.739         406.198          26.000  
C16  37142242.760   193409341.702        -239.173          26.000  
C23  22541426.095   117379110.259        -312.267          25.000  
E01  23380054.425   122863014.778        -880.014          32.000  
G10  21754595.307   114321193.138       -3659.756          23.000  
G25  22359674.519   117500621.0141      -3652.698          13.000  
G26  21323942.842   112058144.9701       1919.170          25.000  
G31  21094970.955   110854958.628        -829.591          29.000  
J02  38703915.337   203390410.924       -1519.970          29.000  
R02  19152733.738   102202608.758        -355.644          34.000  
> 2021  9 12 12  2 57.9974956  0  9
C07  37004666.203   192692991.945         406.144          25.000  
C16  37142138.433   193408800.201        -239.218          26.000  
C23  22541338.856   117378643.084        -314.236          26.000  
E01  23380071.513   122863104.068        -881.783          32.000  
G25  22360213.846   117503488.919       -3658.118          12.000  
G26  21323427.498   112055438.945        1917.684          24.000  
G31  21094981.148   110854999.948        -829.107          26.000  
J02  38704055.940   203391143.653       -1520.965          28.000  
R02  19152649.197   102202164.940        -356.555          33.000  
> 2021  9 12 12  2 58.9974953  0 11
C06  36538509.916   190265559.5441       -290.005          22.000  
C07  37004497.420   192692117.186         406.568          28.000  
C16  37142094.663   193408570.493        -238.614          25.000  
C23  22541309.776   117378488.846        -315.077          24.000  
E01  23380148.860   122863511.442        -883.227          33.000  
G10  21755749.208   114327250.0481      -3660.234          24.000  
G26  21322969.415   112053048.186        1917.759          22.000  
G31  21095050.400   110855356.149        -828.938          29.000  
G32  20827282.073   109448091.2661       -239.072          19.000  
J02  38704255.002   203392192.257       -1522.532          28.000  
R02  19152624.614   102202041.662        -357.212          33.000  
> 2021  9 12 12  2 59.9974948  0  8
C07  37004267.479   192690931.197         405.125          28.000  
C16  37141989.736   193408027.525        -237.719          23.000  
C23  22541221.337   117378023.067        -314.310          23.000  
E01  23380166.248   122863602.732        -883.274          33.000  
G10  21756298.128   114330122.090       -3660.539          25.000  
G31  21095059.394   110855397.325        -828.671          29.000  
J02  38704392.607   203392927.154       -1522.156          28.000  
R02  19152540.672   102201599.268        -357.996          34.000  
> 2021  9 12 12  3  0.9974943  0  8
C07  37004037.838   192689745.181         406.164          28.000  
C16  37141885.108   193407485.291        -239.481          24.000  
E01  23380184.535   122863698.022        -881.961          33.000  
G10  21756844.950   114332995.989       -3662.199          24.000  
G26  21321937.530   112047633.2511       1921.331          23.000  
G31  21095069.287   110855438.950        -829.686          30.000  
J02  38704533.509   203393660.978       -1521.296          28.000  
R02  19152457.030   102201157.659        -358.709          34.000  
> 2021  9 12 12  3  1.9974940  0 10
C06  36538286.571   190264398.6461       -290.308          22.000  
C07  37003869.354   192688870.601         406.936          28.000  
C16  37141840.439   193407256.057        -239.020          25.000  
C23  22541106.217   117377401.3791       -313.985          24.000  
E01  23380263.081   122864111.396        -884.063          32.000  
G10  21757452.329   114336186.403       -3663.871          24.000  
G31  21095138.839   110855796.458        -830.469          31.000  
J01  36912190.422   193974937.9041        304.964          24.000  
J02  38704734.370   203394709.647       -1520.850          29.000  
R02  19152435.745   102201036.682        -359.385          35.000  
> 2021  9 12 12  3  2.9974935  0  9
C06  36538192.736   190263907.545        -288.741          23.000  
C07  37003641.512   192687683.802         406.406          27.000  
C16  37141735.512   193406714.525        -239.041          25.000  
C23  22541016.279   117376934.390        -313.490          24.000  
E01  23380281.968   122864210.686        -884.596          32.000  
G31  21095148.732   110855839.186        -830.640          32.000  
J01  36911982.366   193973845.505         303.825          26.000  
J02  38704873.474   203395442.408       -1520.917          29.000  
R02  19152352.103   102200596.509        -360.090          34.000  
> 2021  9 12 12  3  3.9974930  0 10
C06  36538098.900   190263413.816        -286.065          23.000  
C07  37003412.770   192686496.188         407.636          28.000  
C16  37141631.783   193406172.314        -238.793          24.000  
C23  22540929.939   117376467.629        -314.051          25.000  
E01  23380299.056   122864299.976        -884.286          32.000  
G10  21758543.274   114341937.1331      -3663.245          23.000  
G31  21095161.324   110855881.569        -830.038          32.000  
J01  36911774.310   193972754.125         303.619          25.000  
J02  38705013.477   203396176.004       -1521.292          28.000  
R02  19152269.660   102200157.081        -360.799          34.000  
> 2021  9 12 12  3  4.9974925  0  9
C06  36538001.168   190262919.327        -285.435          23.000  
C07  37003184.928   192685308.208         407.517          28.000  
C16  37141530.154   193405630.484        -237.148          25.000  
C23  22540843.299   117376000.875        -313.904          24.000  
E01  23380316.744   122864393.266        -886.516          32.000  
G31  21095168.819                        -831.612          33.000  
J01  36911566.854   193971662.412         305.763          24.000  
J02  38705155.279   203396909.159       -1520.621          28.000  
R02  19152189.315   102199718.218        -361.347          34.000  
> 2021  9 12 12  3  5.9974920  0 10
C07  37002957.086   192684120.265         406.864          29.000  
C16  37141426.126   193405086.656        -237.263          26.000  
C23  22540756.359   117375533.745        -313.117          25.000  
E01  23380335.630   122864492.556        -886.247          32.000  
G26  21319403.384   112034407.3031       1919.045          23.000  
G31  21095182.009   110855902.0561       -826.621          32.000  
G32  20826596.148   109444535.5731       -238.368          17.000  
J01  36911357.599   193970569.451         305.565          23.000  
J02  38705294.382   203397642.044       -1520.800          28.000  
R02  19152109.570   102199280.066        -362.389          34.000  
> 2021  9 12 12  3  6.9974917  0  9
C07  37002789.202   192683245.423         405.875          29.000  
C16  37141383.255   193404854.398        -235.224          26.000  
C23  22540728.478   117375379.884        -314.432          24.000  
E01  23380416.574   122864917.930        -885.373          33.000  
G26  21318949.798   112032016.945        1915.040          24.000  
G31  21095250.362   110856259.351        -830.722          29.000  
J01  36911208.602   193969791.355         305.764          25.000  
J02  38705493.444   203398690.291       -1519.712          27.000  
R02  19152086.786   102199162.673        -363.071          34.000  
> 2021  9 12 12  3  7.9974915  0 10
C06  36537861.165   190262211.6821       -286.607          19.000  
C07  37002652.497   192682527.344         405.545          27.000  
C16  37141369.165   193404777.817        -236.297          24.000  
C23  22540730.877   117375382.303        -316.481          24.000  
E01  23380526.598   122865495.846        -887.436          32.000  
G26  21318523.193   112029787.053        1914.355          20.000  
G31  21095346.895   110856775.055        -831.022          32.000  
J01  36911087.486   193969169.548         306.771          25.000  
J02  38705722.786   203399894.040       -1519.264          28.000  
R02  19152093.981   102199205.954        -363.696          34.000  
> 2021  9 12 12  3  8.9974909  0  9
C07  37002395.275   192681185.192         405.252          26.000  
C16  37141234.259   193404077.281        -236.517          24.000  
E01  23380515.206   122865436.594        -887.157          32.000  
G26  21317979.070   112026927.703        1914.085          22.000  
G31  21095324.711   110856660.751        -831.252          32.000  
G32  20826403.381   109443519.0751       -241.796          18.000  
J01  36910849.451   193967918.250         305.270          27.000  
J02  38705831.610   203400468.121       -1519.677          28.000  
R02  19151982.458   102198610.121        -364.520          34.000  
> 2021  9 12 12  3  9.9974904  0 10
C07  37002167.133   192679999.597         405.371          26.000  
C16  37141128.732   193403535.502        -238.853          24.000  
C23  22540526.718   117374298.1341       -317.444          23.000  
E01  23380531.695   122865522.884        -887.694          32.000  
G26  21317462.828   112024225.044        1915.440          22.000  
G31  21095328.908   110856704.350        -831.292          34.000  
G32  20826298.753   109442972.535        -241.017          19.000  
J01  36910641.395   193966825.002         305.524          26.000  
J02  38705970.114   203401199.633       -1519.654          28.000  
R02  19151898.816   102198175.023        -365.179          34.000  
> 2021  9 12 12  3 10.9974899  0 10
C06  36537544.884   190260575.4901       -286.681          23.000  
C07  37001939.890   192678813.517         406.021          25.000  
C16  37141023.205   193402992.282        -236.759          23.000  
C23  22540436.481   117373833.454        -315.319          20.000  
E01  23380549.083   122865614.174        -887.833          32.000  
G26  21316949.283   112021522.240        1914.676          23.000  
G31  21095336.702                        -831.522          34.000  
J01  36910433.938   193965731.508         305.601          26.000  
J02  38706109.218   203401931.745       -1519.959          28.000  
R02  19151815.474   102197740.601        -365.813          34.000  
> 2021  9 12 12  3 11.9974894  0 11
C06  36537452.248   190260081.989        -288.305          22.000  
C07  37001711.448   192677627.599         405.206          25.000  
C16  37140920.376   193402447.569        -235.647          25.000  
C23  22540347.442   117373369.965        -318.069          21.000  
E01  23380566.770   122865707.464        -889.327          33.000  
G10  21763035.964   114365570.3471      -3665.328          22.000  
G26  21316436.038   112018820.091        1914.488          25.000  
G32  20826091.597   109441879.4311       -240.964          23.000  
J01  36910225.283   193964637.811         305.793          26.000  
J02  38706248.022   203402664.150       -1520.279          28.000  
R02  19151732.731   102197306.679        -366.269          33.000  
> 2021  9 12 12  3 12.9974892  0  9
C07  37001573.843   192676910.699         404.271          28.000  
C16  37140905.086   193402371.144        -238.066          24.000  
C23  22540348.641   117373375.509        -316.913          21.000  
E01  23380676.195   122866282.380        -887.978          33.000  
G26  21316011.832   112016590.349        1914.906          25.000  
G32  20826078.706   109441803.791        -238.694          23.000  
J01  36910106.265   193964016.574         306.393          25.000  
J02  38706477.963   203403870.089       -1521.205          28.000  
R02  19151739.627   102197353.347        -367.041          34.000  
> 2021  9 12 12  3 13.9974886  0  9
C07  37001316.622   192675570.184         403.692          28.000  
C16  37140770.180   193401670.855        -235.420          25.000  
E01  23380665.102   122866224.128        -888.727          32.000  
G10  21764195.561   114371641.1781      -3667.323          26.000  
G31  21095423.942   110857189.7111       -830.929          30.000  
G32  20825945.298   109441097.011        -238.548          26.000  
J01  36909867.930   193962766.361         303.831          22.000  
J02  38706587.687   203404446.505       -1521.942          27.000  
R02  19151628.404   102196760.969        -368.219          34.000  
> 2021  9 12 12  3 14.9974884  0 11
C06  36537317.641   190259382.6651       -286.561          18.000  
C07  37001179.317   192674853.945         404.050          28.000  
C16  37140755.490   193401595.199        -237.386          27.000  
C23  22540229.324   117372761.1961       -317.045          18.000  
E01  23380776.325   122866808.044        -889.604          33.000  
G26  21315047.700   112011499.5621       1914.631          26.000  
G31  21095524.972   110857706.933        -832.100          30.000  
G32  20825932.407   109441020.619        -239.009          27.000  
J01  36909748.613   193962147.330         304.295          23.000  
J02  38706818.227   203405653.679       -1521.117          26.000  
R02  19151644.592   102196809.470        -369.015          35.000  
> 2021  9 12 12  3 15.9974879  0 11
C07  37000952.074   192673669.705         403.212          29.000  
C16  37140651.762   193401051.353        -236.844          25.000  
C23  22540142.984   117372297.745        -318.588          19.000  
E01  23380795.512   122866909.334        -889.439          33.000  
G10  21765386.936   114377870.4981      -3666.522          26.000  
G26  21314537.153   112008798.571        1911.864          24.000  
G31  21095536.664   110857751.823        -831.810          28.000  
G32  20825829.578   109440471.449        -238.096          27.000  
J01  36909541.456   193961054.628         304.780          22.000  
J02  38706955.832   203406387.050       -1520.858          25.000  
R02  19151567.246   102196378.829        -369.846          35.000  
> 2021  9 12 12  3 16.9974874  0  8
C06  36537128.173   190258394.6091       -286.777          17.000  
C07  37000724.531   192672485.039         404.453          29.000  
C16  37140546.235   193400506.703        -235.748          26.000  
C23  22540053.945   117371835.877        -318.248          20.000  
E01  23380813.500   122867003.624        -891.050          31.000  
G32  20825724.351   109439921.918        -238.774          26.000  
J01  36909333.100   193959961.985         304.342          23.000  
R02  19151487.501   102195948.959        -370.388          35.000  
> 2021  9 12 12  3 17.9974868  0 11
C07  37000466.110   192671143.301         405.404          30.000  
C16  37140412.527   193399805.398        -235.303          27.000  
C23  22539934.628   117371217.465        -319.547          20.000  
C33  23706735.568   123447192.6421      -3141.170          18.000  
E01  23380798.810   122866926.372        -890.247          32.000  
G10  21766457.795   114383471.5851      -3667.246          28.000  
G31  21095515.079   110857684.3521       -832.858          28.000  
G32  20825590.943   109439216.286        -240.405          26.000  
J01  36909094.466   193958713.432         302.850          23.000  
J02  38707204.060   203407696.6331      -1522.144          28.000  
R02  19151377.477   102195359.650        -370.893          35.000  
> 2021  9 12 12  3 18.9974866  0 12
C07  37000327.606   192670425.803         405.101          29.000  
C16  37140397.538   193399728.043        -234.751          27.000  
C23  22539934.028   117371224.488        -318.492          20.000  
C33  23707276.994   123450022.243       -3143.808          18.000  
E01  23380907.934   122867500.288        -891.026          32.000  
G10  21767098.451   114386824.300       -3668.206          30.000  
G26  21313064.572   112001014.3421       1912.109          22.000  
G31  21095606.216   110858202.423        -830.037          29.000  
G32  20825576.254   109439142.167        -241.374          28.000  
J01  36908974.549   193958093.665         304.892          22.000  
J02  38707432.502   203408902.840       -1520.914          27.000  
R02  19151387.071   102195410.839        -371.517          35.000  
> 2021  9 12 12  3 19.9974861  0 10
C07  37000099.164   192669240.007         404.386          29.000  
C16  37140291.711   193399183.408        -236.669          26.000  
C33  23707731.179   123452385.479       -3144.021          19.000  
E01  23380931.018   122867621.578        -891.631          32.000  
G10  21767648.870   114389704.791       -3668.559          30.000  
G31  21095613.711   110858247.828        -833.867          28.000  
G32  20825475.523   109438596.013        -241.411          28.000  
J01  36908765.893   193957001.773         303.004          20.000  
J02  38707572.505   203409636.079       -1521.387          29.000  
R02  19151309.125   102194982.795        -372.195          35.000  
> 2021  9 12 12  3 20.9974856  0 12
C07  36999871.322   192668055.386         404.285          30.000  
C16  37140187.383   193398639.816        -236.329          27.000  
C23  22539755.952   117370303.2941       -320.730          24.000  
C33  23708186.264   123454748.367       -3142.466          20.000  
E01  23380950.805   122867724.868        -890.420          32.000  
G10  21768200.189   114392585.435       -3668.755          30.000  
G26  21312038.982   111995616.5201       1910.739          24.000  
G31  21095621.805   110858293.662        -832.500          28.000  
G32  20825370.596   109438049.562        -241.406          28.000  
J01  36908556.338   193955910.144         305.068          23.000  
J02  38707713.408   203410369.787       -1520.549          29.000  
R02  19151229.380   102194555.443        -372.894          35.000  
> 2021  9 12 12  3 21.9974851  0 13
C07  36999644.379   192666870.917         404.126          29.000  
C16  37140081.856   193398094.679        -234.749          26.000  
C23  22539668.112   117369842.669        -320.193          22.000  
C32  25016665.523   130268434.9581        230.793          21.000  
C33  23708641.649   123457111.625       -3144.452          20.000  
E01  23380972.689   122867840.158        -892.911          31.000  
G10  21768750.608   114395466.321       -3668.826          31.000  
G26  21311527.536   111992917.271        1911.684          23.000  
G31  21095630.199   110858340.166        -834.137          27.000  
G32  20825269.266   109437503.352        -242.007          30.000  
J01  36908349.781   193954816.421         306.264          24.000  
J02  38707854.010   203411102.017       -1519.936          28.000  
R02  19151148.136   102194128.951        -373.980          35.000  
> 2021  9 12 12  3 22.9974848  0 11
C07  36999476.495   192665997.607         405.221          29.000  
C16  37140035.389   193397860.609        -234.824          27.000  
C23  22539637.534   117369694.650        -319.230          24.000  
C32  25016575.585   130267966.629         228.967          22.000  
E01  23381055.732   122868276.532        -892.301          31.000  
G10  21769358.886   114398662.573       -3669.427          31.000  
G26  21311074.850   111990532.719        1911.625          22.000  
G31  21095698.852   110858701.049        -833.676          29.000  
G32  20825226.995   109437272.940        -242.649          29.000  
J02  38708053.072   203412149.143       -1519.471          29.000  
R02  19151126.551   102194023.136        -374.526          35.000  
> 2021  9 12 12  3 23.9974845  0 10
C06  36536638.911   190255867.5941       -287.501          18.000  
C07  36999308.012   192665123.998         404.824          24.000  
C16  37139989.520   193397627.000        -235.553          27.000  
C23  22539609.653   117369546.266        -320.328          23.000  
C32  25016485.647   130267498.299         228.967          21.000  
E01  23381140.873   122868723.906        -893.036          31.000  
G10  21769966.266   114401859.781       -3670.958          28.000  
G26  21310626.360   111988148.184        1911.275          18.000  
J02  38708253.334   203413196.720       -1521.694          27.000  
R02  19151107.064   102193918.019        -375.425          37.000  
> 2021  9 12 12  3 24.9974840  0 11
C07  36999079.570   192663938.266         405.007          26.000  
C16  37139886.092   193397082.201        -235.981          27.000  
C23  22539522.114   117369086.712        -321.755          28.000  
E01  23381160.959   122868829.196        -892.760          36.000  
G10  21770515.786   114404743.253       -3671.624          26.000  
G26  21310111.317   111985449.409        1910.084          21.000  
G31  21095781.295   110859109.0331       -834.036          28.000  
G32  20825072.602   109436496.4491       -242.344          21.000  
J01  36907845.230   193952163.6471        306.086          21.000  
J02  38708391.838   203413930.609       -1522.106          24.000  
R02  19151026.720   102193493.896        -376.349          36.000  
> 2021  9 12 12  3 25.9974835  0 12
C07  36998850.229   192662752.773         404.460          30.000  
C16  37139784.162   193396536.743        -234.896          25.000  
C23  22539434.274   117368628.186        -321.803          28.000  
C32  25016185.855   130265937.2011       -694.404          19.000  
C33  23710584.304   123467177.4141      -3138.440          20.000  
E01  23381174.750   122868902.486        -891.854          34.000  
G26  21309601.070   111982751.854        1908.387          24.000  
G31  21095791.487   110859154.829        -833.286          30.000  
G32  20824963.778   109435949.900        -242.345          26.000  
J01  36907636.575   193951070.793         304.669          21.000  
J02  38708531.241   203414664.404       -1520.658          22.000  
R02  19150949.074   102193070.194        -376.457          35.000  
> 2021  9 12 12  3 26.9974830  0 11
C07  36998620.888   192661567.428         404.954          30.000  
C16  37139678.935   193395991.964        -236.634          22.000  
C23  22539345.536   117368169.988        -322.742          28.000  
C32  25016035.959   130265156.652         235.288          23.000  
C33  23711038.789   123469537.785       -3143.828          18.000  
E01  23381196.634   122869016.776        -893.254          32.000  
G26  21309090.224   111980055.464        1909.218          24.000  
G31  21095801.680   110859201.269        -834.720          30.000  
J01  36907425.521   193949978.958         303.722          24.000  
J02  38708670.945   203415397.751       -1521.948          24.000  
R02  19150868.430   102192647.041        -377.027          30.000  
> 2021  9 12 12  3 27.9974825  0 10
C07  36998392.146   192660382.087         403.988          31.000  
C16  37139574.608   193395447.497        -234.950          22.000  
C23  22539255.298   117367711.712        -322.045          29.000  
C32  25015886.062   130264376.103         235.288          23.000  
E01  23381217.320   122869126.066        -896.095          33.000  
G26  21308576.979   111977359.456        1907.423          25.000  
G31  21095812.473   110859248.374        -835.735          30.000  
J01  36907218.964   193948888.091         303.101          22.000  
J02  38708810.348   203416133.204       -1524.249          19.000  
R02  19150788.685   102192224.470        -377.747          30.000  
> 2021  9 12 12  3 28.9974822  0 11
C07  36998224.562   192659509.882         403.607          29.000  
C16  37139530.538   193395214.063        -235.955          24.000  
C23  22539225.019   117367565.756        -322.515          29.000  
C32  25015796.125   130263907.774        -695.614          22.000  
E01  23381296.765   122869543.440        -894.937          32.000  
G26  21308125.492   111974979.605        1907.787          25.000  
G31  21095883.224   110859611.536        -835.655          28.000  
G32  20824712.252   109434636.8221       -241.507          18.000  
J01  36907069.967   193948112.870         302.878          23.000  
J02  38709009.111   203417185.000       -1523.390          21.000  
R02  19150770.098   102192122.899        -378.831          29.000  
> 2021  9 12 12  3 29.9974817  0  9
C07  36997997.020   192658325.952         403.460          31.000  
C16  37139424.711   193394669.211        -235.710          24.000  
C23  22539135.681   117367107.970        -323.061          28.000  
E01  23381315.652   122869642.730        -895.434          32.000  
G26  21307613.146   111972284.826        1906.604          24.000  
G31  21095895.515   110859660.042        -836.619          24.000  
G32  20824597.431   109434089.093        -240.359          16.000  
J01  36906862.811   193947021.754         304.147          24.000  
R02  19150684.357   102191702.087        -379.662          29.000  
> 2021  9 12 12  3 30.9974815  0 11
C07  36997859.715   192657610.438         403.360          32.000  
C16  37139408.223   193394591.605        -232.621          24.000  
C23  22539137.480   117367119.183        -323.915          29.000  
C32  25015586.270   130262815.0051       -697.002          22.000  
E01  23381425.676   122870220.646        -893.077          33.000  
G26  21307190.739   111970063.607        1905.725          26.000  
G31  21095993.248   110860180.221        -834.289          23.000  
G32  20824586.639   109434015.335        -240.595          16.000  
J01  36906744.992   193946402.272         304.276          24.000  
J02  38709377.855   203419129.0291      -1524.305          20.000  
R02  19150691.552   102191762.152        -380.782          28.000  
> 2021  9 12 12  3 31.9974810  0  8
C07  36997631.872   192656426.661         403.303          31.000  
C16  37139300.297   193394044.118        -233.011          22.000  
C23  22539049.641   117366662.295        -323.745          28.000  
C32  25015436.374   130262034.456        -697.002          22.000  
E01  23381445.162   122870322.936        -896.359          32.000  
G26  21306678.993   111967371.035        1904.589          23.000  
J02  38709516.060   203419865.290       -1523.425          21.000  
R02  19150611.508   102191343.347        -381.585          28.000  
> 2021  9 12 12  3 32.9974804  0 11
C07  36997375.550   192655086.574         402.616          32.000  
C16  37139164.791   193393341.452        -234.542          23.000  
C23  22538929.724   117366049.493        -323.710          28.000  
C32  25015256.498   130261097.798        -697.002          22.000  
E01  23381437.668   122870283.684        -896.649          32.000  
G10  21775004.878   114428445.1461      -3672.934          21.000  
G26  21306136.968   111964521.710        1903.647          23.000  
G31  21095981.256   110860116.3621       -834.243          24.000  
G32  20824348.603   109432759.8951       -242.490          14.000  
J01  36906300.400   193944059.8361        304.665          23.000  
R02  19150501.783   102190765.185        -382.196          28.000  
> 2021  9 12 12  3 33.9974802  0 11
C07  36997240.044                         401.039          31.000  
C09  37624100.677   195918409.1951       -345.356          20.000  
C16  37139150.401   193393264.283        -235.499          25.000  
C23  22538930.323   117366060.835        -323.959          28.000  
C32  25015196.540   130260785.578        -697.002          20.000  
E01  23381548.291   122870864.600        -896.136          32.000  
G10  21775647.633   114431803.226       -3673.341          22.000  
G31  21096077.489   110860635.769        -834.247          25.000  
G32  20824338.411   109432688.209        -244.484          17.000  
J01  36906180.183   193943440.260         303.777          24.000  
R02  19150511.077   102190827.604        -382.847          28.000  
> 2021  9 12 12  3 34.9974797  0 10
C07  36997011.602   192653153.5801        402.563          31.000  
C09  37624016.735   195917974.220        -345.815          24.000  
C16  37139046.673   193392720.137        -237.064          22.000  
C23  22538839.186   117365604.283        -324.422          26.000  
E01  23381567.178   122870963.890        -897.209          33.000  
G10  21776193.555   114434689.932       -3675.174          21.000  
G31  21096086.183   110860683.063        -837.551          25.000  
G32  20824236.481   109432145.243        -242.546          19.000  
J01  36905972.127   193942349.669         303.511          23.000  
R02  19150431.932   102190410.952        -383.698          29.000  
> 2021  9 12 12  3 35.9974792  0  8
C07  36996783.460   192651970.349         402.566          31.000  
C09  37623930.395   195917539.211        -346.218          23.000  
C16  37138940.546   193392176.543        -237.584          22.000  
C23  22538749.548   117365148.504        -325.515          29.000  
E01  23381591.761   122871093.180        -898.851          31.000  
G10  21776743.074   114437577.349       -3675.360          22.000  
J02  38710134.831   203423104.6961      -1516.674          20.000  
R02  19150353.386   102189995.131        -384.548          29.000  
> 2021  9 12 12  3 36.9974787  0  9
C07  36996556.217   192650787.327         402.082          30.000  
C09  37623847.053   195917103.803        -344.966          22.000  
C16  37138835.619   193391632.939        -236.381          21.000  
C23  22538663.208   117364693.142        -325.586          29.000  
E01  23381612.746   122871203.470        -899.028          33.000  
G10  21777293.493   114440465.016       -3675.150          24.000  
G32  20824030.524   109431058.7221       -245.837          20.000  
J01  36905559.013   193940170.4751        300.758          22.000  
R02  19150273.641   102189580.177        -385.229          30.000  
> 2021  9 12 12  3 37.9974781  0  9
C07  36996303.492   192649448.376         403.404          32.000  
C09  37623731.333   195916513.008        -345.325          22.000  
C16  37138699.214   193390932.764        -236.040          21.000  
C23  22538545.390   117364082.337        -326.159          28.000  
C32  25014566.976   130257507.2721       -697.002          18.000  
E01  23381603.153   122871153.218        -898.665          33.000  
G32  20823896.217   109430359.550        -246.216          21.000  
J01  36905321.578   193938922.675         303.382          21.000  
R02  19150165.416   102189006.161        -386.329          30.000  
> 2021  9 12 12  3 38.9974779  0  9
C07  36996167.686   192648734.182         402.577          32.000  
C09  37623735.530   195916544.903        -343.546          24.000  
C23  22538548.088   117364096.894        -327.372          27.000  
C32  25014507.017   130257195.053        -697.002          18.000  
E01  23381713.776   122871735.134        -898.311          32.000  
G10  21778458.487   114446555.0491      -3675.507          25.000  
G31  21096182.117   110861196.9201       -837.897          23.000  
J01  36905201.960   193938304.337         303.111          23.000  
R02  19150177.108   102189072.814        -387.310          31.000  
> 2021  9 12 12  3 39.9974776  0  8
C07  36995997.704   192647863.976         402.130          32.000  
C09  37623709.448   195916420.773        -345.232          25.000  
C23  22538520.807   117363955.467        -327.103          27.000  
C32  25014417.079   130256726.723        -697.002          18.000  
E01  23381797.119   122872172.508        -899.736          31.000  
G10  21779067.365   114449758.277       -3676.409          24.000  
J01  36905052.064   193937528.716         302.910          21.000  
R02  19150157.322   102188980.388        -387.967          32.000  
> 2021  9 12 12  3 40.9974771  0 10
C07  36995768.662   192646681.541         401.593          33.000  
C09  37623624.607   195915984.089        -343.442          23.000  
C16  37138535.227   193390079.8781       -235.986          21.000  
C23  22538432.668   117363501.677        -326.994          29.000  
E01  23381818.404   122872284.798        -899.629          31.000  
G10  21779619.883   114452647.116       -3676.895          26.000  
G31  21096264.860   110861612.4391       -837.679          21.000  
G32  20823734.628   109429527.5691       -248.752          21.000  
J01  36904845.807   193936438.186         301.790          21.000  
R02  19150080.575   102188568.726        -388.690          32.000  
> 2021  9 12 12  3 41.9974766  0  9
C07  36995542.619   192645499.347         401.907          32.000  
C09  37623539.466   195915546.993        -344.540          24.000  
C23  22538346.627   117363048.436        -328.072          28.000  
E01  23381840.589   122872401.088        -900.560          32.000  
G10  21780170.302   114455536.375       -3677.011          25.000  
G31  21096272.654   110861662.724        -837.627          20.000  
G32  20823632.099   109428988.906        -248.835          21.000  
J01  36904636.852   193935346.333         304.708          21.000  
R02  19150005.927   102188157.840        -389.497          32.000  
> 2021  9 12 12  3 42.9974761  0 10
C07  36995314.477   192644317.210         400.600          32.000  
C09  37623454.624   195915111.778        -346.484          23.000  
C23  22538261.486   117362596.337        -328.516          29.000  
E01  23381860.974   122872508.378        -901.158          31.000  
G10  21780723.419   114458425.575       -3676.895          26.000  
G26  21301185.596   111938725.0651       1902.344          19.000  
G31  21096284.346   110861713.807        -839.586          20.000  
G32  20823526.872   109428449.893        -248.748          21.000  
J01  36904428.196   193934254.019         304.558          20.000  
R02  19149932.478   102187747.749        -390.110          33.000  
> 2021  9 12 12  3 43.9974756  0 10
C07  36995087.534   192643135.119         401.910          33.000  
C09  37623368.584   195914677.136        -344.994          23.000  
C16  37138221.644   193388446.8011       -232.956          21.000  
C23  22538175.746   117362143.482        -327.058          29.000  
E01  23381882.560   122872621.668        -902.867          31.000  
G10  21781275.936   114461315.118       -3677.781          25.000  
G26  21300672.651   111936035.930        1900.333          20.000  
G32  20823425.842   109427910.557        -248.156          21.000  
J01  36904221.939   193933161.793         303.128          21.000  
R02  19149857.230   102187338.290        -390.789          33.000  
> 2021  9 12 12  3 44.9974753  0 10
C07  36994921.149   192642265.485         401.276          32.000  
C09  37623344.001   195914553.051        -344.211          24.000  
C16  37138174.877   193388213.196        -237.234          19.000  
C23  22538149.364   117362003.533        -329.188          27.000  
E01  23381961.405   122873036.042        -901.910          30.000  
G10  21781886.614   114464520.192       -3678.088          25.000  
G32  20823379.974   109427685.465        -244.468          22.000  
J01  36904076.240   193932386.720         302.853          21.000  
J02  38711574.435   203430633.3761      -1521.643          18.000  
R02  19149842.240   102187249.516        -391.525          33.000  
> 2021  9 12 12  3 45.9974748  0 11
C07  36994693.607   192641083.880         401.189          31.000  
C09  37623259.459   195914116.537        -343.522          23.000  
C16  37138069.050   193387668.756        -234.649          21.000  
C23  22538063.323   117361551.874        -328.942          30.000  
E01  23381986.288   122873166.332        -902.571          31.000  
G10  21782437.033   114467410.831       -3678.581          24.000  
G26  21299710.917   111930976.4811       1899.196          21.000  
G32  20823281.642   109427143.146        -247.580          21.000  
J01  36903870.882   193931296.517         301.531          22.000  
J02  38711712.639   203431369.342       -1525.128          19.000  
R02  19149771.489   102186841.563        -392.498          34.000  
> 2021  9 12 12  3 46.9974743  0 11
C07  36994471.161   192639902.348         401.494          33.000  
C09  37623175.518   195913680.323        -345.210          22.000  
C16  37137965.621   193387123.545        -236.209          26.000  
E01  23382008.772   122873284.622        -905.980          33.000  
G10  21782985.353   114470301.806       -3679.415          25.000  
G26  21299195.274   111928289.175        1900.941          21.000  
G31  21096378.481   110862228.4011       -839.025          27.000  
G32  20823179.413   109426603.707        -249.280          21.000  
J01  36903662.826   193930208.719         299.014          23.000  
J02  38711850.244   203432108.099       -1526.948          20.000  
R02  19149697.740   102186434.396        -393.276          33.000  
> 2021  9 12 12  3 47.9974740  0  8
C07  36994304.476   192639032.477         401.042          29.000  
C16  37137921.252   193386890.652        -235.405          29.000  
C23  22537955.098   117360961.8271       -331.293          26.000  
E01  23382092.414   122873723.996        -903.634          31.000  
G10  21783590.634   114473507.796       -3678.249          24.000  
J01  36903518.326   193929436.237         299.765          26.000  
J02  38712053.203   203433162.010       -1526.607          21.000  
R02  19149686.048   102186348.089        -394.355          34.000  
> 2021  9 12 12  3 48.9974735  0 10
C07  36994078.133   192637851.157         400.754          31.000  
C09  37623065.494   195913120.9971       -345.196          20.000  
C16  37137816.924   193386345.595        -236.166          28.000  
E01  23382116.697   122873852.286        -904.289          29.000  
G10  21784141.353   114476398.826       -3679.670          24.000  
G31  21096461.524   110862648.7561       -840.861          29.000  
G32  20823043.607   109425844.0831       -251.102          23.000  
J01  36903313.268   193928348.230         299.519          21.000  
J02  38712192.007   203433899.387       -1523.780          25.000  
R02  19149612.599   102185942.912        -395.167          33.000  
> 2021  9 12 12  3 49.9974730  0 10
C07  36993850.890   192636669.978         400.380          34.000  
C09  37622979.453   195912684.537        -343.025          22.000  
C16  37137713.196   193385800.870        -234.924          28.000  
E01  23382136.484   122873955.576        -904.182          33.000  
G10  21784694.170   114479290.487       -3679.554          25.000  
G31  21096472.016   110862702.445        -842.785          25.000  
G32  20822942.277   109425307.042        -250.376          26.000  
J01  36903107.011   193927260.281         301.386          19.000  
J02  38712330.811   203434634.758       -1523.617          21.000  
R02  19149538.251   102185538.461        -395.900          34.000  
> 2021  9 12 12  3 50.9974728  0  8
C07  36993713.885   192635957.678         399.788          34.000  
C09  37622984.250   195912715.139        -342.602          22.000  
C16  37137698.806   193385722.330        -233.857          25.000  
E01  23382247.707   122874540.492        -907.334          32.000  
G10  21785335.126   114482655.182       -3679.939          20.000  
G31  21096571.547   110863229.217        -840.983          26.000  
G32  20822931.185   109425241.798        -249.298          26.000  
R02  19149552.940   102185614.788        -396.759          35.000  
> 2021  9 12 12  3 51.9974723  0 10
C07  36993487.841   192634775.577         402.199          31.000  
C09  37622897.910   195912279.233        -344.921          20.000  
C16  37137595.977   193385176.592        -236.220          26.000  
C23  22537709.568   117359631.2581       -330.361          25.000  
E01  23382269.292   122874653.782        -906.858          29.000  
G10  21785885.845   114485547.013       -3680.484          24.000  
G26  21296811.924   111915657.6931       1892.827          19.000  
G32  20822828.955   109424703.960        -250.759          21.000  
J01  36902778.438   193925553.1661        302.676          19.000  
R02  19149480.990   102185211.936        -397.391          35.000  
> 2021  9 12 12  3 52.9974717  0 11
C07  36993229.720   192633438.222         399.911          29.000  
C09  37622786.087   195911686.987        -343.636          20.000  
C16  37137459.872   193384475.506        -235.380          26.000  
C23  22537591.450   117359025.736        -331.973          27.000  
E01  23382260.898   122874609.530        -906.102          29.000  
G10  21786405.086   114488283.483       -3682.509          22.000  
G31  21096568.250   110863180.6541       -842.595          19.000  
G32  20822694.049   109424009.961        -251.888          26.000  
J01  36902539.803   193924304.779         303.330          20.000  
R02  19149378.761   102184650.365        -398.728          31.000  
R03  21311052.965   114079734.9191       2787.415          23.000  
> 2021  9 12 12  3 53.9974712  0 11
C07  36993003.377   192632259.748         396.986          28.000  
C16  37137355.244   193383929.242        -234.117          25.000  
C23  22537502.712   117358577.410        -332.884          27.000  
E01  23382282.782   122874724.820        -906.697          26.000  
G10  21786957.603   114491177.588       -3682.293          22.000  
G26  21295763.550   111910141.1221       1891.787          19.000  
G31  21096578.742   110863235.572        -841.886          24.000  
J01  36902332.647   193923215.151         300.855          23.000  
J02  38712946.885   203437895.7131      -1524.544          19.000  
R02  19149303.513   102184249.584        -399.611          32.000  
R03  21310385.027   114076159.474        2787.551          25.000  
> 2021  9 12 12  3 54.9974710  0 12
C03  36498451.947   190057236.5431       -701.950          27.000  
C07  36992867.571   192631549.620         398.589          28.000  
C16  37137339.655   193383851.361        -235.053          28.000  
C23  22537505.410   117358597.875        -331.208          22.000  
E01  23382394.005   122875309.736        -907.750          32.000  
G10  21787597.360   114494544.630       -3680.896          20.000  
G26  21295345.939   111907932.439        1894.404          29.000  
G31  21096679.773   110863762.301        -841.568          27.000  
G32  20822581.027   109423410.9521       -252.608          22.000  
J01  36902214.229   193922598.868         301.284          21.000  
J02  38713176.526   203439105.084       -1523.689          23.000  
R02  19149318.203   102184329.539        -399.701          33.000  
> 2021  9 12 12  3 55.9974707  0 11
C07  36992700.286   192630682.289         400.405          27.000  
C16  37137296.485   193383617.721        -235.149          30.000  
C23  22537480.527   117358461.413        -333.295          24.000  
E01  23382478.547   122875753.110        -907.845          25.000  
G26  21294899.248   111905566.509        1892.183          30.000  
G31  21096750.224   110864133.143        -845.287          25.000  
G32  20822542.054   109423191.906        -255.022          25.000  
J01  36902068.230   193921824.838         301.782          25.000  
J02  38713375.588   203440155.514       -1523.069          22.000  
R02  19149301.414   102184249.021        -399.823          32.000  
R03  21309200.248   114069817.2621       2786.753          31.000  
> 2021  9 12 12  3 56.9974702  0 11
C07  36992472.144   192629501.166         400.726          30.000  
C09  37622608.310   195910724.0131       -344.187          21.000  
C16  37137193.356   193383072.476        -235.277          24.000  
E01  23382501.331   122875873.400        -906.838          32.000  
G10  21788766.551   114500649.5501      -3683.134          19.000  
G26  21294390.800   111902885.354        1893.271          21.000  
G31  21096759.218   110864190.850        -845.144          19.000  
G32  20822442.523   109422658.807        -254.713          23.000  
J01  36901861.673   193920735.339         301.579          24.000  
J02  38713515.291   203440890.017       -1521.423          24.000  
R02  19149226.167   102183849.094        -400.111          33.000  
> 2021  9 12 12  3 57.9974697  0 12
C07  36992245.202   192628320.131         400.066          31.000  
C09  37622526.767   195910285.628        -341.340          21.000  
C16  37137090.527   193382526.534        -234.286          26.000  
C23  22537314.442   117357565.7961       -331.889          26.000  
E01  23382525.614   122876000.690        -907.924          33.000  
E19  23893665.160   125562030.9191      -1078.480          27.000  
G26  21293881.153   111900204.041        1892.261          22.000  
G32  20822340.893   109422125.173        -253.933          21.000  
J01  36901652.717   193919646.788         301.196          26.000  
J02  38713655.294   203441623.358       -1520.691          27.000  
R02  19149149.420   102183449.961        -401.393          30.000  
R03  21307858.377   114062633.5821       2789.061          29.000  
> 2021  9 12 12  3 58.9974692  0 12
C07  36992018.558   192627139.576         399.843          31.000  
C16  37136985.600   193381980.120        -234.620          28.000  
C23  22537227.802   117357117.705        -333.559          28.000  
E01  23382546.900   122876112.980        -907.410          33.000  
E19  23893720.022   125562321.578       -1078.607          28.000  
G10  21789865.590   114506441.1531      -3683.627          23.000  
G31  21096777.805   110864306.6321       -847.110          22.000  
G32  20822238.964   109421591.531        -254.193          26.000  
J01  36901446.160   193918557.135         302.086          27.000  
J02  38713791.999   203442356.493       -1521.668          25.000  
R02  19149074.172   102183051.899        -402.305          37.000  
R03  21307190.439   114059058.654        2787.603          33.000  
> 2021  9 12 12  3 59.9974687  0 11
C07  36991792.215   192625959.692         398.944          31.000  
C09  37622359.782   195909410.5701       -343.394          21.000  
C16  37136881.872   193381433.425        -233.966          26.000  
C23  22537144.160   117356670.695        -332.924          26.000  
E01  23382565.487   122876210.270        -908.631          32.000  
G10  21790418.707   114509337.284       -3683.439          23.000  
G26  21292867.255   111894843.8591       1892.084          20.000  
G32  20822135.536   109421058.507        -254.712          26.000  
J01  36901237.805   193917467.437         301.281          24.000  
J02  38713932.302   203443089.626       -1519.855          26.000  
R02  19148993.528   102182654.765        -402.637          36.000  
> 2021  9 12 12  4  0.9974684  0 11
C07  36991623.732   192625091.522         400.072          33.000  
C09  37622337.598   195909284.797        -343.640          23.000  
C16  37136840.800   193381199.175        -234.015          26.000  
C23  22537118.977   117356535.705        -333.502          26.000  
E01  23382650.028   122876654.644        -909.381          29.000  
G10  21791031.483   114512548.189       -3682.981          27.000  
G26  21292417.866   111892479.312        1891.139          26.000  
G32  20822092.665   109420838.983        -253.337          26.000  
J01  36901086.110   193916693.107         301.042          25.000  
J02  38714134.362   203444137.109       -1520.824          23.000  
R02  19148981.836   102182578.353        -404.401          35.000  
> 2021  9 12 12  4  1.9974679  0 10
C07  36991397.388   192623911.749         398.834          30.000  
C09  37622252.457   195908847.926        -344.305          21.000  
C16  37136737.072   193380652.438        -233.914          32.000  
E01  23382677.309   122876797.934        -909.288          33.000  
G10  21791587.898   114515445.290       -3685.424          26.000  
G26  21291912.116   111889801.598        1888.061          23.000  
G31  21096862.946   110864794.1511       -841.902          11.000  
J02  38714274.366   203444870.949       -1522.130          29.000  
R02  19148904.189   102182182.396        -404.436          36.000  
R03  21305232.494   114048577.5511       2786.513          27.000  
> 2021  9 12 12  4  2.9974674  0  7
C07  36991171.045   192622732.062         399.346          31.000  
C16  37136631.545   193380105.298        -233.258          31.000  
C23  22536954.991   117355642.5961       -333.691          23.000  
E01  23382701.293   122876924.224        -909.618          32.000  
J02  38714414.369   203445605.802       -1523.086          30.000  
R02  19148829.541   102181787.467        -404.941          37.000  
R03  21304563.657   114044996.776        2785.908          31.000  
> 2021  9 12 12  4  3.9974671  0  6
C07  36991005.260   192621864.816         398.882          32.000  
C16  37136581.779   193379871.398        -236.073          31.000  
E01  23382783.436   122877355.598        -909.827          32.000  
J01  36900532.093   193913744.0171        300.329          29.000  
J02  38714615.529   203446656.137       -1522.459          29.000  
R02  19148814.552   102181713.595        -405.290          36.000  
> 2021  9 12 12  4  4.9974666  0 10
C07  36990778.917   192620685.277         398.785          31.000  
C09  37622060.290   195907852.4771       -341.610          18.000  
C16  37136475.953   193379326.002        -234.068          30.000  
C23  22536852.162   117355060.2731       -332.867          21.000  
E01  23382806.520   122877476.888        -911.181          32.000  
G32  20821738.011   109419021.3601       -256.194          26.000  
J01  36900327.635   193912655.993         300.588          29.000  
J02  38714755.233   203447390.628       -1522.150          29.000  
R02  19148739.004   102181318.830        -405.792          36.000  
R03  21303285.942   114038157.0571       2786.745          31.000  
> 2021  9 12 12  4  5.9974661  0  8
C07  36990553.173   192619506.915         398.158          31.000  
C16  37136370.426   193378779.408        -233.849          29.000  
E01  23382830.803   122877605.178        -911.379          32.000  
G32  20821636.681   109418490.029        -256.561          26.000  
J01  36900121.977   193911567.577         300.967          29.000  
J02  38714895.835   203448124.723       -1521.738          29.000  
R02  19148660.458   102180926.471        -408.456          36.000  
R03  21302616.505   114034573.401        2786.067          31.000  
> 2021  9 12 12  4  6.9974659  0 12
C07  36990418.866   192618796.267         397.657          31.000  
C09  37621981.444   195907444.4061       -342.547          19.000  
C16  37136354.537   193378700.676        -233.111          30.000  
C23  22536782.310   117354938.7171       -334.699          20.000  
E01  23382944.125   122878200.094        -911.762          31.000  
G10  21794490.488   114530710.6481      -3677.269          17.000  
G26  21289520.372   111877213.8631       1884.819          16.000  
G32  20821627.387   109418431.523        -256.757          26.000  
J01  36900005.957   193910952.171         298.665          28.000  
J02  38715125.776   203449331.625       -1521.948          29.000  
R02  19148677.247   102181014.908        -408.713          36.000  
R03  21302037.007   114031470.953        2786.457          33.000  
> 2021  9 12 12  4  7.9974653  0 11
C07  36990162.244                         401.236          32.000  
C09  37621868.422   195906849.382        -341.649          19.000  
C16  37136219.031   193377996.311        -232.296          29.000  
C23  22536670.787   117354337.345        -337.162          20.000  
E01  23382939.928   122878177.842        -911.772          32.000  
G10  21795003.733   114533445.722       -3679.513          16.000  
G32  20821495.479   109417743.272        -257.129          28.000  
J01  36899770.920   193909707.853         299.664          28.000  
J02  38715235.500   203449908.207       -1521.562          29.000  
R02  19148573.518   102180464.072        -408.525          35.000  
R03  21301338.790   114027733.994        2785.376          32.000  
> 2021  9 12 12  4  8.9974648  0 10
C07  36989935.301   192616302.7331        396.936          31.000  
C09  37621785.380   195906410.851        -344.350          19.000  
C16  37136113.204   193377448.202        -233.005          31.000  
C23  22536590.143   117353894.032        -337.542          21.000  
E01  23382962.412   122878296.132        -913.985          32.000  
G32  20821394.149   109417212.799        -257.551          27.000  
J01  36899566.761   193908621.073         299.629          28.000  
J02  38715374.304   203450642.025       -1521.861          29.000  
R02  19148511.761   102180074.073        -411.061          35.000  
R03  21300666.356   114024134.459        2783.771          32.000  
> 2021  9 12 12  4  9.9974643  0 11
C06  36533095.964   190237409.3151       -284.907          22.000  
C07  36989709.857   192615124.463         399.401          31.000  
C16  37136009.176   193376900.996        -233.438          29.000  
C23  22536507.401   117353450.018        -336.642          21.000  
E01  23382986.695   122878424.422        -912.699          31.000  
G10  21796100.074   114539234.8571      -3684.544          13.000  
G32  20821294.318   109416682.806        -258.085          28.000  
J01  36899360.804   193907533.849         299.658          28.000  
J02  38715513.708   203451375.862       -1521.965          29.000  
R02  19148438.012   102179684.950        -410.809          35.000  
R03  21299996.919   114020550.803        2784.495          30.000  
> 2021  9 12 12  4 10.9974641  0 11
C06  36533089.069   190237381.956        -284.828          22.000  
C07  36989574.650   192614414.645         397.572          31.000  
C09  37621707.434   195906008.6271       -345.091          18.000  
C16  37135995.086   193376822.241        -233.467          29.000  
E01  23383101.815   122879029.338        -912.733          32.000  
G10  21796740.131   114542608.526       -3691.417          10.000  
G32  20821283.525   109416625.896        -258.318          28.000  
J01  36899242.086   193906918.410         300.941          28.000  
J02  38715744.848   203452583.072       -1521.688          28.000  
R02  19148450.004   102179776.897        -412.340          35.000  
R03  21299417.420   114017448.173        2784.820          31.000  
> 2021  9 12 12  4 11.9974638  0  8
C06  36533053.993   190237197.716        -284.561          22.000  
C07  36989408.865   192613548.735         398.181          31.000  
C09  37621683.451   195905885.110        -345.001          18.000  
C16  37135949.517   193376587.805        -234.010          30.000  
E01  23383184.858   122879465.712        -914.210          31.000  
G32  20821244.552   109416411.422        -258.227          28.000  
J02  38715943.910   203453632.257       -1522.131          28.000  
R02  19148440.411   102179709.302        -413.392          35.000  
> 2021  9 12 12  4 12.9974633  0  9
C07  36989183.721   192612370.662         396.472          31.000  
C09  37621596.511   195905449.468        -344.219          19.000  
C16  37135845.189   193376041.710        -234.607          28.000  
E01  23383207.043   122879582.002        -913.979          31.000  
G32  20821144.721   109415881.989        -258.542          28.000  
J01  36898888.931   193905058.7371        299.596          27.000  
J02  38716083.913   203454367.592       -1523.081          27.000  
R02  19148372.358   102179322.564        -412.709          35.000  
R03  21298140.004   114010610.0351       2784.092          33.000  
> 2021  9 12 12  4 13.9974628  0 12
C06  36532864.824   190236205.3991       -284.590          24.000  
C07  36988956.178   192611192.745         397.262          32.000  
C16  37135740.862   193375495.768        -234.148          27.000  
E01  23383232.225   122879714.292        -917.106          31.000  
E19  23894886.214   125568445.0421      -1083.883          27.000  
G26  21286054.171   111859117.8451       1885.258          21.000  
G31  21097277.858   110866878.7161       -846.595          26.000  
G32  20821045.190   109415352.817        -258.645          30.000  
J01  36898681.774   193903971.446         299.314          28.000  
J02  38716224.216   203455102.894       -1522.819          28.000  
R02  19148294.711   102178935.420        -413.092          34.000  
R03  21297471.767   114007033.684        2783.522          32.000  
> 2021  9 12 12  4 14.9974623  0 10
C06  36532770.989   190235709.179        -284.740          24.000  
C07  36988728.936   192610014.784         397.018          31.000  
C16  37135636.834   193374948.838        -232.881          26.000  
E01  23383255.009   122879833.582        -915.164          30.000  
E19  23894941.676   125568739.832       -1082.886          28.000  
G32  20820946.259   109414823.984        -259.113          30.000  
J01  36898476.117   193902884.346         299.642          27.000  
J02  38716364.219   203455837.600       -1521.958          26.000  
R02  19148217.365   102178548.946        -413.914          34.000  
R03  21296802.630   114003451.378        2784.487          32.000  
> 2021  9 12 12  4 15.9974618  0 10
C07  36988501.094   192608836.710         399.239          32.000  
C09  37621348.582   195904133.5571       -341.155          19.000  
C16  37135531.906   193374400.894        -233.048          27.000  
E01  23383278.393   122879956.872        -914.912          32.000  
E19  23894996.838   125569035.610       -1082.356          25.000  
G31  21097306.938   110866996.4531       -846.532          29.000  
G32  20820845.229   109414295.585        -259.529          30.000  
J01  36898270.759   193901796.254         301.565          26.000  
J02  38716505.121   203456571.423       -1522.239          26.000  
R02  19148140.618   102178163.411        -414.708          34.000  
> 2021  9 12 12  4 16.9974612  0  8
C07  36988251.966   192607504.640         397.014          27.000  
C09  37621235.860   195903538.438        -343.123          19.000  
C16  37135395.501   193373696.734        -232.368          28.000  
E01  23383273.896   122879933.620        -916.406          35.000  
G31  21097285.653   110866897.401        -846.258          27.000  
G32  20820717.517   109413610.313        -259.363          28.000  
J02  38716614.545   203457146.375       -1519.748          21.000  
R02  19148033.592   102177618.664        -415.613          35.000  
> 2021  9 12 12  4 17.9974610  0  7
C06  36532548.543   190234532.6911       -286.821          18.000  
E01  23383389.316   122880539.536        -914.938          33.000  
G26  21284084.535   111848754.4901       1879.264          23.000  
J01  36897913.406   193899937.7401        297.212          18.000  
J02  38716843.587   203458352.380       -1522.026          28.000  
R02  19148049.781   102177715.143        -416.993          37.000  
R03  21294833.294   113992909.3521       2783.100          26.000  
> 2021  9 12 12  4 18.9974605  0  6
C16  37135276.183   193373073.3101       -236.904          17.000  
C23  22535951.585   117350562.2651       -341.005          25.000  
E01  23383407.004   122880632.826        -918.324          30.000  
J01  36897706.249   193898851.781         297.749          23.000  
J02  38716983.290   203459087.304       -1522.670          29.000  
R02  19147977.831   102177332.885        -418.304          31.000  
> 2021  9 12 12  4 19.9974602  0  8
C09  37621127.335   195903002.7121       -343.870          18.000  
C16  37135229.715   193372837.898        -230.938          15.000  
C23  22535922.805   117350434.712        -340.222          25.000  
E01  23383489.447   122881066.200        -917.288          30.000  
E19  23895346.096   125570845.6961      -1085.180          26.000  
G31  21097438.847   110867861.2171       -846.178          25.000  
J02  38717183.252   203460137.676       -1523.587          28.000  
R02  19147968.537   102177271.392        -418.906          29.000  
> 2021  9 12 12  4 20.9974597  0 11
C06  36532334.191   190233356.4511       -283.144          24.000  
C23  22535835.266   117349994.452        -340.257          26.000  
E01  23383516.129   122881206.490        -918.704          31.000  
E19  23895405.155   125571144.001       -1087.062          26.000  
G26  21282628.443   111841065.7941       1882.678          19.000  
G31  21097446.642   110867920.467        -847.456          24.000  
G32  20820474.685   109412276.0591       -261.413          20.000  
J01  36897353.993   193896994.7151        298.681          25.000  
J02  38717322.355   203460873.644       -1524.328          27.000  
R02  19147900.484   102176890.603        -419.662          30.000  
R03  21292877.448   113982439.7631       2782.053          25.000  
> 2021  9 12 12  4 21.9974592  0 13
C06  36532240.056   190232858.087        -282.084          25.000  
C16  37135015.364   193371735.8771       -229.690          18.000  
C23  22535749.225   117349555.030        -341.829          27.000  
C32  25008900.898   130228002.5201       -707.685          22.000  
E01  23383541.911   122881341.780        -918.846          30.000  
E19  23895461.816   125571443.676       -1086.868          27.000  
G26  21282126.291   111838394.337        1882.389          21.000  
G31  21097456.835   110867981.186        -848.755          21.000  
G32  20820372.456   109411751.013        -263.157          24.000  
J01  36897148.036   193895907.828         298.632          26.000  
J02  38717460.560   203461609.389       -1522.259          28.000  
R02  19147832.731   102176510.634        -420.328          30.000  
R03  21292207.112   113978851.704        2782.129          26.000  
> 2021  9 12 12  4 22.9974589  0 14
C06  36532206.480   190232672.644        -283.180          24.000  
C09  37620937.267   195902003.2441       -342.730          13.000  
C10  37719980.001   196417833.9011        375.718          23.000  
C16  37134969.196   193371498.728        -232.842          19.000  
C23  22535721.944   117349428.233        -341.184          26.000  
C32  24559519.498                        2032.679          24.000  
E01  23383626.152   122881784.154        -917.631          30.000  
E19  23895577.836   125572057.471       -1086.087          26.000  
G26  21281679.000   111836039.918        1881.416          24.000  
G31  21097526.386   110868357.765        -850.680          24.000  
G32  20820331.085   109411540.870        -262.105          22.000  
J01  36897000.538   193895136.012         299.532          25.000  
J02  38717659.622   203462658.309       -1521.243          28.000  
R02  19147823.438   102176451.197        -420.718          30.000  
> 2021  9 12 12  4 23.9974584  0 12
C06  36532112.944   190232175.112        -283.207          24.000  
C10  37719760.253   196416677.426         376.859          21.000  
C16  37134866.967   193370951.561        -233.408          20.000  
C23  22535635.904   117348988.862        -341.121          27.000  
E01  23383651.635   122881918.444        -918.494          30.000  
E19  23895633.897   125572356.273       -1085.730          25.000  
G26  21281173.550   111833371.333        1879.748          20.000  
G31  21097536.579   110868420.645        -849.494          25.000  
G32  20820232.153   109411015.525        -262.415          24.000  
J01  36896790.683   193894048.672         299.460          26.000  
J02  38717798.726   203463391.867       -1521.259          27.000  
R02  19147752.687   102176072.314        -421.303          30.000  
> 2021  9 12 12  4 24.9974579  0 13
C06  36532019.109   190231677.576        -282.945          25.000  
C09  37620769.084   195901129.1821       -339.624          14.000  
C16  37134763.238   193370405.510        -235.156          21.000  
C23  22535548.964   117348549.385        -340.965          27.000  
C32  24558435.749   127882219.2881       2030.607          22.000  
E01  23383676.518   122882048.734        -918.244          30.000  
E19  23895689.658   125572654.089       -1084.713          26.000  
G26  21280667.500   111830704.848        1878.105          23.000  
G31  21097548.871   110868482.351        -848.762          26.000  
G32  20820131.423   109410491.607        -264.721          24.000  
J01  36896585.026   193892961.095         300.010          26.000  
J02  38717937.829   203464125.900       -1521.908          27.000  
R02  19147682.235   102175694.048        -421.994          30.000  
> 2021  9 12 12  4 25.9974574  0 13
C06  36531925.574   190231179.950        -282.964          23.000  
C09  37620681.844   195900689.196        -341.881          13.000  
C10  37719314.762   196414359.4801        380.313          21.000  
C16  37134661.909   193369859.216        -232.456          21.000  
C23  22535464.123   117348109.925        -342.021          27.000  
E01  23383701.400   122882180.024        -920.621          30.000  
E19  23895746.319   125572951.580       -1086.554          26.000  
G26  21280161.451   111828038.231        1879.605          25.000  
G31  21097561.462   110868544.155        -849.808          26.000  
G32  20820030.393   109409968.440        -263.032          23.000  
J01  36896379.968   193891873.591         299.277          26.000  
J02  38718077.533   203464859.264       -1521.112          27.000  
R02  19147614.183   102175315.879        -422.071          30.000  
> 2021  9 12 12  4 26.9974572  0 11
C06  36531921.077   190231149.820        -281.654          25.000  
C07  36986280.531   192597258.8771        395.286          15.000  
C10  37719180.155   196413668.285         377.755          22.000  
C16  37134646.919   193369780.793        -233.785          21.000  
C23  22535468.920   117348140.997        -343.660          27.000  
E01  23383815.322   122882777.940        -919.555          30.000  
E19  23895892.318   125573723.506       -1087.032          26.000  
G26  21279746.538   111825844.674        1876.445          22.000  
J01  36896263.049   193891258.687         299.763          26.000  
J02  38718308.972   203466065.979       -1522.789          27.000  
R02  19147636.367   102175418.599        -423.194          31.000  
> 2021  9 12 12  4 27.9974566  0 10
C06  36531793.666   190230495.977        -283.122          24.000  
C16  37134511.413   193369077.454        -232.671          22.000  
C23  22535354.399   117347547.569        -343.657          26.000  
E01  23383810.525   122882753.688        -918.890          30.000  
G26  21279214.107   111823022.213        1877.356          21.000  
G32  20819889.490   109409233.6711       -261.733          22.000  
J01  36896026.512   193890014.408         298.826          26.000  
J02  38718418.097   203466643.144       -1522.579          27.000  
R02  19147537.136   102174882.211        -424.029          32.000  
R03  21288318.204   113958033.7421       2781.472          21.000  
> 2021  9 12 12  4 28.9974564  0 11
C06  36531788.869   190230467.882        -284.618          23.000  
C09  37620575.118   195900140.0981       -329.009          13.000  
C10  37718794.622   196411664.1111        378.635          23.000  
C16  37134499.421   193368996.766        -231.341          22.000  
C23  22535359.795   117347578.424        -343.050          27.000  
E01  23383927.744   122883369.604        -921.242          30.000  
G26  21278797.395   111820830.253        1876.506          20.000  
J01  36895908.694   193889400.616         298.578          26.000  
J02  38718647.138   203467850.677       -1522.795          28.000  
R02  19147559.920   102174986.519        -424.725          31.000  
R03  21287738.705   113954931.628        2781.689          24.000  
> 2021  9 12 12  4 29.9974559  0 10
C06  36531692.336   190229971.155        -284.033          24.000  
C07  36985670.453   192594045.6961        393.655          13.000  
C16  37134394.194   193368447.470        -231.627          22.000  
C23  22535272.855   117347140.713        -342.335          28.000  
C32  24555867.427   127868948.3091       2032.555          17.000  
E01  23383954.425   122883509.894        -921.344          30.000  
G32  20819787.261   109408654.6551       -262.764          21.000  
J01  36895699.739   193888314.873         297.771          26.000  
J02  38718786.842   203468584.507       -1520.943          28.000  
R02  19147492.467   102174611.630        -425.437          32.000  
> 2021  9 12 12  4 30.9974554  0  9
C06  36531597.301   190229473.718        -283.339          26.000  
C09  37620401.538   195899244.2161       -335.022          16.000  
C10  37718352.428   196409347.6911        376.753          22.000  
C23  22535186.815   117346702.173        -342.985          26.000  
E01  23383981.107   122883649.184        -919.740          31.000  
G32  20819689.829   109408129.901        -263.745          23.000  
J01  36895491.683   193887229.031         298.445          26.000  
J02  38718926.545   203469317.877       -1520.895          25.000  
R02  19147420.816   102174237.710        -426.432          33.000  
> 2021  9 12 12  4 31.9974548  0  9
C06  36531472.888   190228819.939        -282.025          25.000  
C10  37718101.202   196408034.141         377.341          23.000  
C16  37134156.458   193367191.6161       -230.159          21.000  
C23  22535070.495   117346109.534        -344.890          28.000  
E01  23383976.010   122883622.932        -921.720          31.000  
G31  21097767.719   110869544.8441       -850.262          27.000  
J01  36895253.947   193885984.918         298.860          27.000  
J02  38719035.070   203469893.340       -1521.011          28.000  
R02  19147321.885   102173704.589        -427.079          31.000  
> 2021  9 12 12  4 32.9974543  0 11
C06  36531376.654   190228321.520        -282.685          26.000  
C07  36984976.434   192590381.4341        386.105          13.000  
C10  37717879.955   196406875.520         378.682          23.000  
C23  22534984.455   117345674.005        -345.037          26.000  
C32  24554206.876   127860339.4631       2036.927          15.000  
E01  23383999.094   122883744.222        -923.629          30.000  
G31  21097780.311   110869607.545        -850.378          30.000  
G32  20819463.785   109406923.9221       -263.942          21.000  
J01  36895045.591   193884898.370         298.795          27.000  
J02  38719176.572   203470626.264       -1520.894          27.000  
R02  19147250.834   102173332.144        -427.828          31.000  
> 2021  9 12 12  4 33.9974541  0 12
C06  36531370.658   190228291.527        -282.570          27.000  
C10  37717748.046   196406183.506         379.343          24.000  
C16  37134034.443   193366559.3611       -230.808          20.000  
C23  22534990.751   117345706.105        -344.262          25.000  
C32  24553756.288   127857992.017        2031.804          13.000  
E01  23384116.313   122884360.138        -920.028          31.000  
G26  21276322.608   111807824.5381       1881.171          17.000  
G31  21097884.039   110870142.451        -850.100          29.000  
G32  20819456.290   109406872.782        -264.316          22.000  
J01  36894929.872   193884284.281         298.477          28.000  
J02  38719405.913   203471832.276       -1520.661          26.000  
R02  19147268.822   102173440.422        -428.661          32.000  
> 2021  9 12 12  4 34.9974536  0  9
C06  36531274.125   190227792.610        -281.004          26.000  
C16  37133928.616   193366012.016        -234.359          19.000  
C23  22534904.410   117345270.259        -344.243          27.000  
E01  23384142.995   122884500.428        -923.711          31.000  
G31  21097898.729   110870205.029        -850.692          27.000  
G32  20819358.558   109406351.097        -272.775          23.000  
J01  36894723.015   193883198.057         298.278          26.000  
J02  38719544.417   203472565.801       -1522.114          27.000  
R02  19147199.570   102173069.474        -429.313          31.000  
> 2021  9 12 12  4 35.9974533  0 10
C06  36531236.052   190227605.846        -282.437          24.000  
C10  37717361.014   196404177.0431        377.699          22.000  
C16  37133883.048   193365777.512        -233.177          20.000  
C23  22534880.127   117345146.161        -344.187          26.000  
E01  23384230.834   122884961.802        -921.667          31.000  
G31  21097973.077   110870583.051        -851.013          26.000  
J01  36894571.620   193882427.694         297.185          25.000  
J02  38719742.880   203473615.150       -1521.699          27.000  
R02  19147191.775   102173019.059        -430.038          32.000  
R03  21283188.155   113930571.7831       2777.102          26.000  
> 2021  9 12 12  4 36.9974528  0  8
C06  36531140.418   190227107.593        -283.042          23.000  
C23  22534796.485   117344710.842        -346.823          25.000  
E01  23384258.115   122885105.092        -924.294          31.000  
G31  21097983.870   110870645.039        -849.145          26.000  
J01  36894365.063   193881341.900         299.653          25.000  
J02  38719881.983   203474348.417       -1521.038          28.000  
R02  19147123.122   102172649.340        -430.622          32.000  
R03  21282521.717   113927004.345        2777.930          26.000  
> 2021  9 12 12  4 37.9974523  0  9
C06  36531044.484   190226609.801        -282.947          23.000  
C16  37133668.097   193364683.8081       -232.374          20.000  
C32  24551652.345   127847051.4201       2033.618          14.000  
E01  23384282.698   122885234.382        -926.211          31.000  
G26  21274340.381   111797477.7071       1873.441          25.000  
G31  21097997.360   110870706.495        -849.439          27.000  
J01  36894159.405   193880254.800         298.954          27.000  
J02  38720021.387   203475081.708       -1522.037          27.000  
R02  19147054.770   102172280.340        -431.254          31.000  
> 2021  9 12 12  4 38.9974518  0 11
C06  36530946.752   190226111.464        -281.311          26.000  
C10  37716693.377   196400700.8731        377.343          23.000  
C23  22534633.398   117343843.5451       -347.533          23.000  
C32  24551111.519   127844235.736        2037.636          14.000  
E01  23384309.979   122885377.672        -923.065          31.000  
G26  21273835.230   111794816.784        1873.235          26.000  
G31  21098009.952   110870769.093        -851.323          28.000  
J01  36893952.848   193879168.793         297.950          28.000  
J02  38720161.390   203475815.432       -1520.558          27.000  
R02  19146984.019   102171912.008        -431.850          33.000  
R03  21281189.139   113919871.2091       2777.999          28.000  
> 2021  9 12 12  4 39.9974515  0  8
C06  36530910.177   190225923.701        -280.896          26.000  
C23  22534608.215   117343721.868        -346.733          26.000  
E01  23384392.122   122885809.046        -924.914          31.000  
G26  21273387.940   111792471.575        1872.303          26.000  
G31  21098084.600   110871147.767        -851.110          28.000  
J01  36893807.748   193878397.882         298.771          29.000  
J02  38720361.951   203476863.968       -1521.982          27.000  
R02  19146973.226   102171864.276        -432.675          32.000  
> 2021  9 12 12  4 40.9974510  0 10
C06  36530813.044   190225423.367        -280.347          26.000  
C10  37716306.944   196398697.5951        378.745          24.000  
C16  37133412.673   193363343.9621       -227.774          20.000  
C23  22534523.674   117343287.621        -346.187          23.000  
E01  23384416.106   122885935.336        -923.349          31.000  
G26  21272881.890   111789811.153        1872.906          22.000  
G31  21098096.891   110871211.406        -851.934          30.000  
J01  36893602.690   193877311.358         298.712          27.000  
J02  38720503.153   203477597.803       -1521.783          25.000  
R02  19146900.976   102171497.385        -433.432          33.000  
> 2021  9 12 12  4 41.9974505  0 10
C06  36530717.411   190224924.086        -281.437          25.000  
C10  37716086.297   196397538.050         379.432          24.000  
C23  22534438.833   117342851.109        -342.490          22.000  
E01  23384442.787   122886075.626        -925.531          31.000  
G26  21272377.639   111787150.752        1872.928          23.000  
G31  21098109.483   110871275.999        -852.454          28.000  
J01  36893395.834   193876224.641         299.133          28.000  
J02  38720642.857   203478332.546       -1523.005          27.000  
R02  19146833.223   102171131.204        -433.944          33.000  
R03  21279238.690   113909430.2031       2777.483          24.000  
> 2021  9 12 12  4 42.9974502  0 10
C06  36530683.834   190224737.483        -281.627          25.000  
C16  37133255.882   193362547.8151       -228.893          23.000  
C23  22534410.053   117342727.654        -347.586          22.000  
E01  23384529.727   122886533.000        -926.461          32.000  
G26  21271931.548   111784805.124        1873.143          23.000  
G31  21098182.033   110871656.243        -852.701          29.000  
J01  36893250.134   193875453.377         297.486          28.000  
J02  38720844.317   203479382.771       -1522.607          25.000  
R02  19146822.431   102171085.492        -434.732          34.000  
R03  21278630.411   113906174.567        2775.772          26.000  
> 2021  9 12 12  4 43.9974497  0 10
C06  36530587.301   190224238.225        -281.560          24.000  
C10  37715704.061   196395532.5851        377.369          22.000  
C16  37133148.556   193361998.232        -231.521          22.000  
E01  23384555.809   122886669.290        -923.915          31.000  
G26  21271427.897   111782144.063        1873.350          22.000  
G31  21098193.125   110871721.038        -852.426          30.000  
G32  20818635.459   109402605.5721       -267.250          26.000  
J01  36893040.280   193874368.220         297.234          27.000  
J02  38720984.320   203480117.041       -1521.019          26.000  
R02  19146750.780   102170720.679        -435.673          34.000  
> 2021  9 12 12  4 44.9974495  0 10
C06  36530582.204   190224208.662        -284.404          23.000  
C10  37715570.354   196394843.446         376.860          23.000  
C23  22534326.410   117342329.1661       -345.235          18.000  
E01  23384670.629   122887273.206        -926.853          30.000  
G26  21271012.984   111779956.490        1871.954          25.000  
G31  21098293.855   110872257.981        -852.727          27.000  
G32  20818626.465   109402557.374        -267.331          24.000  
J01  36892924.260   193873755.758         296.895          29.000  
J02  38721213.961   203481322.223       -1519.809          26.000  
R02  19146772.665   102170836.653        -436.487          32.000  
> 2021  9 12 12  4 45.9974490  0  8
C10  37715347.608   196393685.879         377.371          24.000  
E01  23384697.611   122887414.496        -925.477          31.000  
G26  21270508.134   111777296.885        1871.302          24.000  
G31  21098305.247   110872323.650        -853.887          26.000  
J01  36892718.303   193872670.574         297.630          27.000  
J02  38721352.765   203482054.789       -1520.134          26.000  
R02  19146702.514   102170473.509        -437.251          33.000  
R03  21276697.049   113895824.1921       2773.711          24.000  
> 2021  9 12 12  4 46.9974484  0  9
C10  37715093.084   196392371.363         378.360          23.000  
C23  22534129.447   117341308.5851       -350.583          17.000  
E01  23384692.214   122887386.244        -926.523          30.000  
G31  21098286.960   110872232.751        -854.534          30.000  
G32  20818397.723   109401360.3171       -268.453          24.000  
J01  36892483.265   193871428.606         295.386          29.000  
J02  38721460.691   203482630.448       -1521.325          26.000  
R02  19146605.980   102169951.170        -437.819          32.000  
R03  21275997.933   113892082.223        2774.153          26.000  
> 2021  9 12 12  4 47.9974479  0  8
C10  37714867.341   196391212.638         377.200          21.000  
E01  23384719.795   122887531.534        -926.242          30.000  
G26  21269465.455   111771822.9761       1870.669          19.000  
G31  21098300.151   110872299.403        -854.082          27.000  
G32  20818295.794   109400841.183        -268.797          24.000  
J01  36892277.608   193870344.228         297.726          28.000  
J02  38721600.094   203483363.755       -1521.462          26.000  
R02  19146535.829   102169589.469        -438.546          33.000  
> 2021  9 12 12  4 48.9974474  0  9
C06  36530165.792   190222057.6701       -279.775          24.000  
E01  23384747.976   122887679.824        -927.676          29.000  
G26  21268960.305   111769163.901        1871.557          24.000  
G31  21098312.742   110872365.537        -852.556          27.000  
G32  20818196.862   109400323.149        -269.987          25.000  
J01  36892074.648   193869258.665         296.805          26.000  
J02  38721740.697   203484097.867       -1522.750          25.000  
R02  19146468.376   102169228.470        -439.288          32.000  
R03  21274657.561   113884906.9721       2775.979          26.000  
> 2021  9 12 12  4 49.9974472  0  6
C06  36530156.199   190222025.402        -280.171          27.000  
C23  22533959.764   117340489.4261       -351.773          26.000  
E01  23384865.794   122888298.740        -927.597          34.000  
G32  20818186.969   109400277.960        -270.154          25.000  
J02  38721972.137   203485306.516       -1524.740          27.000  
R02  19146493.558   102169348.134        -440.046          34.000  
> 2021  9 12 12  4 50.9974467  0  9
C06  36530057.867   190221524.277        -279.724          27.000  
C10  37714289.940   196388208.4941        377.291          23.000  
C23  22533878.221   117340058.827        -349.580          22.000  
E01  23384894.275   122888448.030        -927.891          34.000  
G26  21268036.645   111764321.3221       1869.396          26.000  
G31  21098430.860   110872967.9131       -854.325          21.000  
G32  20818084.440   109399760.024        -270.673          26.000  
J02  38722109.741   203486043.069       -1523.695          23.000  
R02  19146426.105   102168988.706        -440.771          33.000  
> 2021  9 12 12  4 51.9974464  0 11
C06  36530021.592   190221335.952        -280.823          27.000  
C16  37132501.904   193358684.1661       -229.824          30.000  
C23  22533856.636   117339940.507        -350.451          26.000  
C33  23751630.688   123680771.1901      -3174.826          24.000  
E01  23384983.613   122888917.404        -929.418          33.000  
E19  23897828.378   125583944.8881      -1093.595          32.000  
G26  21267586.356   111761979.643        1869.677          28.000  
G31  21098505.509   110873349.310        -854.022          31.000  
J01  36891605.773   193866806.0301        295.461          25.000  
J02  38722309.103   203487093.692       -1523.158          24.000  
R02  19146418.310   102168949.576        -441.108          35.000  
> 2021  9 12 12  4 52.9974459  0  7
C06  36529923.860   190220835.850        -279.616          17.000  
C16  37132394.878   193358133.184        -229.212          26.000  
E01  23385013.892   122889076.694        -931.508          31.000  
E19  23897885.938   125584250.592       -1092.440          29.000  
G26  21267079.107   111759322.511        1869.495          20.000  
J02  38722447.607   203487829.100       -1524.776          18.000  
R02  19146354.754   102168591.226        -442.241          30.000  
> 2021  9 12 12  4 53.9974454  0  6
C16  37132287.252   193357581.699        -229.589          25.000  
C33  23752545.655   123685555.5061      -3172.360          23.000  
E01  23385034.577   122889185.984        -928.353          29.000  
E19  23897944.697   125584555.206       -1092.798          30.000  
J01  36891192.659   193864635.0231        299.362          27.000  
R02  19146294.196   102168233.897        -443.026          32.000  
> 2021  9 12 12  4 54.9974449  0  9
C16  37132182.325   193357030.703        -230.084          27.000  
C23  22533609.307   117338658.2831       -353.136          25.000  
C33  23753002.838   123687946.082       -3170.506          25.000  
E01  23385060.360   122889321.274        -930.481          29.000  
E19  23898003.756   125584860.717       -1093.928          31.000  
G26  21266064.610   111754007.9401       1867.792          22.000  
J01  36890985.502   193863548.213         298.375          29.000  
R02  19146228.242   102167877.237        -443.604          34.000  
R03  21270811.224   113864317.5771       2774.482          30.000  
> 2021  9 12 12  4 55.9974446  0 10
C16  37132138.256   193356791.909        -229.035          28.000  
C23  22533585.323   117338542.684        -352.640          28.000  
C33  23753519.681   123690649.564       -3172.868          24.000  
E01  23385149.098   122889787.648        -931.137          28.000  
E19  23898123.673   125585482.393       -1093.794          30.000  
G26  21265618.219   111751668.791        1864.328          23.000  
G32  20817719.892   109397802.9971       -269.968          27.000  
J01  36890840.403   193862777.374         297.952          26.000  
R02  19146224.045   102167841.797        -445.071          33.000  
R03  21270229.027   113861201.206        2772.081          30.000  
> 2021  9 12 12  4 56.9974441  0 10
C06  36529599.485   190219140.6841       -280.483          19.000  
C16  37132034.527   193356240.049        -228.406          31.000  
C23  22533503.180   117338113.827        -351.393          28.000  
E01  23385175.780   122889927.938        -933.713          31.000  
E19  23898183.332   125585787.560       -1093.748          22.000  
G26  21265112.769   111749016.882        1863.489          25.000  
G31  21098632.321   110873996.7581       -854.890          29.000  
J01  36890633.846   193861691.804         297.884          25.000  
R02  19146156.592   102167486.619        -444.665          35.000  
R03  21269562.588   113857633.362        2772.090          29.000  
> 2021  9 12 12  4 57.9974436  0 10
C06  36529504.750   190218639.946        -279.424          20.000  
C10  37712859.031   196380717.8521        374.145          17.000  
C16  37131929.600   193355688.251        -228.928          27.000  
C23  22533421.937   117337683.577        -350.636          24.000  
E01  23385205.159   122890082.228        -934.371          31.000  
G26  21264608.218   111746365.580        1864.727          20.000  
G31  21098645.212   110874063.625        -853.620          24.000  
G32  20817524.128   109396768.7351       -269.918          22.000  
J01  36890424.590   193860606.201         297.292          25.000  
R03  21268893.451   113854051.087        2769.830          29.000  
> 2021  9 12 12  4 58.9974431  0  9
C06  36529406.118   190218138.584        -279.275          24.000  
C23  22533340.093   117337253.337        -350.580          26.000  
E01  23385231.241   122890219.518        -933.210          29.000  
G26  21264104.267   111743713.564        1863.979          22.000  
G31  21098656.304   110874129.928        -854.317          26.000  
G32  20817426.396   109396251.594        -272.050          23.000  
J01  36890216.834   193859522.194         295.080          24.000  
R02  19146025.882   102166778.0631       -448.681          34.000  
R03  21268228.512   113850492.112        2771.048          28.000  
> 2021  9 12 12  4 59.9974428  0  8
C10  37712473.498   196378720.7021        373.687          18.000  
C16  37131783.901   193354900.5921       -231.756          22.000  
C23  22533317.909   117337135.224        -351.222          23.000  
E01  23385317.282   122890670.892        -933.367          22.000  
G26  21263655.478   111741377.404        1863.848          24.000  
G32  20817389.521   109396052.449        -274.635          26.000  
J01  36890072.334   193858754.241         294.971          30.000  
R02  19146019.586   102166745.892        -447.680          29.000  
> 2021  9 12 12  5  0.9974423  0 10
C06  36529274.509   190217441.6441       -273.037          21.000  
C10  37712252.251   196377566.718         374.218          19.000  
C16  37131680.473   193354350.566        -228.428          24.000  
C23  22533237.264   117336706.789        -352.713          25.000  
E01  23385345.462   122890819.182        -934.284          27.000  
G26  21263153.925   111738727.138        1862.487          25.000  
G31  21098740.246   110874579.3041       -855.562          21.000  
J01  36889866.377   193857671.658         294.834          30.000  
R02  19145955.431   102166393.835        -448.011          32.000  
R03  21266952.295   113843660.3831       2773.020          28.000  
> 2021  9 12 12  5  1.9974420  0  9
C10  37712090.063   196376724.255         374.356          20.000  
C23  22533218.078   117336592.145        -354.458          27.000  
C33  23756404.583   123705671.9251      -3180.745          18.000  
E01  23385432.702   122891277.556        -934.393          29.000  
G26  21262710.532   111736392.212        1861.566          33.000  
G31  21098812.496   110874961.691        -856.438          22.000  
J01  36889720.378   193856903.932         295.103          31.000  
R02  19145948.236   102166362.059        -448.603          30.000  
R03  21266346.715   113840418.781        2773.908          26.000  
> 2021  9 12 12  5  2.9974415  0 11
C06  36529144.999   190216743.9751       -277.879          21.000  
C10  37711867.018   196375568.022         376.022          20.000  
C16  37131525.480   193353555.7761       -227.214          21.000  
C23  22533136.834   117336166.316        -354.372          27.000  
E01  23385459.983   122891420.846        -935.023          26.000  
G26  21262204.782   111733743.219        1860.536          34.000  
G31  21098821.790   110875031.514        -858.409          23.000  
G32  20817152.685   109394831.2251       -276.019          22.000  
J01  36889514.421   193855821.549         294.696          30.000  
R02  19145881.382   102166010.907        -449.137          30.000  
R03  21265678.777   113836843.217        2772.061          27.000  
> 2021  9 12 12  5  3.9974410  0 10
C06  36529050.265   190216243.195        -281.998          18.000  
C07  36978628.328   192557421.1361        394.526          32.000  
C23  22533055.290   117335739.435        -353.508          23.000  
E01  23385487.564   122891566.136        -934.195          26.000  
G26  21261699.931   111731094.607        1861.317          34.000  
G31  21098833.182   110875102.652        -859.201          26.000  
G32  20817058.550   109394320.351        -277.569          25.000  
J01  36889308.763   193854738.947         295.253          30.000  
R02  19145813.629   102165660.437        -449.726          33.000  
R03  21265010.839   113833267.423        2770.430          28.000  
> 2021  9 12 12  5  4.9974405  0 10
C06  36528955.231   190215744.448        -283.200          19.000  
C07  36978402.884   192556248.555         390.747          24.000  
C16  37131315.026   193352447.9801       -226.621          18.000  
C23  22532973.747   117335313.431        -355.682          27.000  
E01  23385515.145   122891711.426        -933.731          24.000  
G26  21261197.179   111728445.701        1861.137          31.000  
G31  21098849.371   110875174.272        -859.112          21.000  
G32  20816963.516   109393809.495        -277.100          24.000  
J01  36889102.806   193853656.374         294.784          27.000  
R02  19145747.375   102165310.512        -450.332          30.000  
> 2021  9 12 12  5  5.9974400  0  7
C06  36528860.796   190215247.808        -284.682          18.000  
C16  37131210.698   193351894.936        -228.200          17.000  
C23  22532892.503   117334889.492        -356.773          23.000  
G26  21260693.528   111725797.324        1859.747          30.000  
G32  20816868.782   109393298.881        -275.931          20.000  
J01  36888895.649   193852572.897         296.777          23.000  
R02  19145678.423   102164961.100        -450.946          26.000  
> 2021  9 12 12  5  6.9974397  0  8
C07  36978018.251   192554219.2911        389.311          23.000  
C23  22532870.019   117334778.795        -359.094          25.000  
G26  21260250.135   111723465.855        1858.291          31.000  
G31  21098939.908   110875630.4441       -858.844          18.000  
G32  20816829.809   109393101.467        -274.955          23.000  
J01  36888750.849   193851804.597         295.332          27.000  
R02  19145671.527   102164932.893        -452.863          25.000  
R03  21263071.182   113822884.0281       2768.267          24.000  
> 2021  9 12 12  5  7.9974395  0  9
C06  36528821.223   190215036.7681       -282.450          19.000  
C07  36977884.243   192553518.261         387.815          22.000  
C23  22532877.513   117334824.520        -357.187          26.000  
G26  21259834.923   111721291.991        1858.370          28.000  
G31  21099042.737   110876174.619        -859.024          20.000  
G32  20816820.815   109393061.323        -275.061          23.000  
J01  36888634.830   193851194.280         295.115          25.000  
R02  19145697.909   102165066.025        -453.016          22.000  
R03  21262488.386   113819764.334        2766.545          25.000  
> 2021  9 12 12  5  8.9974390  0  9
C06  36528724.390   190214535.913        -276.889          19.000  
C07  36977661.797   192552349.846         388.195          20.000  
C23  22532795.071   117334400.802        -356.956          21.000  
G26  21259332.470   111718646.165        1857.772          29.000  
G31  21099051.730   110876246.792        -861.020          20.000  
G32  20816720.984   109392549.201        -276.153          23.000  
J01  36888428.273   193850112.266         294.041          25.000  
R02  19145632.854   102164720.267        -455.168          21.000  
R03  21261826.144   113816219.968        2766.424          25.000  
> 2021  9 12 12  5  9.9974385  0  6
C16  37130941.184   193350472.9321       -226.516          15.000  
G26  21258828.219   111716000.925        1856.988          33.000  
G31  21099066.720   110876319.057        -859.398          24.000  
G32  20816623.252   109392036.648        -275.878          22.000  
J01  36888221.716   193849027.974         297.014          24.000  
R02  19145569.898   102164375.994        -455.791          21.000  
> 2021  9 12 12  5 10.9974380  0  5
C16  37130833.859   193349917.471        -222.821          14.000  
G31  21099084.108   110876390.112        -858.691          22.000  
G32  20816520.723   109391525.708        -276.987          23.000  
J01  36888015.758   193847944.323         294.915          23.000  
R02  19145504.543   102164032.106        -456.366          22.000  
> 2021  9 12 12  5 11.9974374  0  6
C07  36976961.482   192548690.0411        387.313          14.000  
G26  21257790.338   111710554.0951       1856.487          30.000  
G31  21099067.919   110876303.786        -859.405          23.000  
G32  20816393.910   109390859.189        -279.734          19.000  
J01  36887780.721   193846703.804         294.583          22.000  
R02  19145406.811   102163528.205        -456.157          23.000  
> 2021  9 12 12  5 12.9974372  0  6
G26  21257377.524   111708381.939        1857.013          31.000  
G31  21099171.947   110876848.258        -859.943          25.000  
G32  20816390.013   109390823.837        -279.898          18.000  
J01  36887663.802   193846094.022         294.539          20.000  
R02  19145431.394   102163664.826        -456.807          24.000  
R03  21259195.465   113802137.0771       2765.722          16.000  
> 2021  9 12 12  5 13.9974367  0  6
C07  36976602.331   192546816.5141        389.442          13.000  
G26  21256874.772   111705737.601        1856.404          34.000  
G31  21099185.138   110876920.428        -859.873          26.000  
G32  20816289.283   109390315.212        -278.228          18.000  
R02  19145368.137   102163322.471        -458.506          28.000  
R03  21258524.530   113798545.898        2766.473          17.000  
> 2021  9 12 12  5 14.9974362  0  6
C16  37130465.114   193348002.4931       -226.146          13.000  
G26  21256369.622   111703093.024        1857.566          32.000  
G31  21099197.430   110876992.687        -860.307          31.000  
G32  20816189.152   109389804.940        -277.723          19.000  
J01  36887251.587   193843928.3951        295.723          19.000  
R02  19145301.883   102162980.662        -458.303          24.000  
> 2021  9 12 12  5 15.9974359  0  6
G26  21255926.828   111700764.154        1854.065          25.000  
G31  21099269.979   110877380.911        -861.153          25.000  
G32  20816149.580   109389610.954        -279.437          20.000  
J01  36887105.888   193843158.633         296.510          22.000  
R02  19145293.489   102162958.697        -457.294          27.000  
R03  21257265.102   113791803.8971       2764.142          19.000  
> 2021  9 12 12  5 16.9974354  0  5
G26  21255424.376   111698122.297        1853.649          27.000  
G31  21099283.770   110877454.386        -861.335          30.000  
J01  36886898.432   193842075.885         294.894          21.000  
R02  19145233.531   102162615.819        -457.791          22.000  
R03  21256602.560   113788257.275        2766.483          20.000  
> 2021  9 12 12  5 17.9974351  0  6
G26  21254982.182   111695795.692        1854.729          27.000  
G31  21099356.619   110877842.816        -860.920          28.000  
G32  20816021.568   109388909.0291       -278.010          22.000  
J01  36886753.032   193841307.346         294.711          19.000  
R02  19145217.042   102162594.224        -459.571          18.000  
R03  21255990.684   113784981.702        2767.342          26.000  
> 2021  9 12 12  5 18.9974346  0  6
G26  21254479.430   111693154.011        1853.148          26.000  
G31  21099372.209   110877916.092        -861.756          22.000  
G32  20815924.435   109388398.998        -277.580          22.000  
J01  36886547.375   193840224.780         296.930          18.000  
R02  19145154.685   102162255.905        -462.133          25.000  
R03  21255320.348   113781393.521        2767.271          23.000  
> 2021  9 12 12  5 19.9974341  0  5
G26  21253976.978   111690513.584        1851.318          24.000  
G31  21099387.498   110877990.310        -862.447          28.000  
G32  20815824.604   109387889.927        -278.976          22.000  
R02  19145083.634   102161917.098        -459.763          25.000  
R03  21254653.609   113777824.750        2769.056          26.000  
> 2021  9 12 12  5 20.9974336  0  5
C07  36975147.438   192539264.8181        389.388          15.000  
G26  21253476.924   111687874.554        1851.335          25.000  
G31  21099403.087   110878065.265        -862.364          29.000  
G32  20815726.572   109387383.157        -280.646          22.000  
R03  21253990.768   113774276.322        2768.510          27.000  
> 2021  9 12 12  5 21.9974331  0  5
C32  24528816.554   127727989.5741       2016.136          30.000  
G26  21252974.772   111685236.966        1849.407          25.000  
G31  21099418.377   110878139.719        -861.100          26.000  
R02  19144960.420   102161245.9181       -464.417          20.000  
R03  21253325.229   113770713.673        2768.223          21.000  
> 2021  9 12 12  5 22.9974328  0  4
C32  24528340.783   127725505.115        2015.674          27.000  
G26  21252535.876   111682913.710        1851.477          20.000  
G31  21099491.526   110878528.892        -862.452          28.000  
G32  20815595.263   109386682.2121       -279.081          23.000  
> 2021  9 12 12  5 23.9974326  0  5
C32  24527898.589   127723179.483        2012.675          22.000  
G31  21099594.954   110879076.634        -862.984          24.000  
G32  20815587.469   109386646.050        -279.303          25.000  
R02  19144985.902   102161376.4211       -466.234          22.000  
R03  21252147.644   113764410.2731       2767.064          23.000  
> 2021  9 12 12  5 24.9974321  0  6
C32  24527363.759   127720386.289        2015.026          22.000  
G26  21251630.802   111678107.4241       1850.966          19.000  
G31  21099608.745   110879151.191        -862.063          27.000  
G32  20815488.837   109386138.100        -279.648          24.000  
R02  19144929.841   102161042.647        -466.915          25.000  
R03  21251478.508   113760827.999        2765.429          25.000  
> 2021  9 12 12  5 25.9974316  0  5
G26  21251127.451   111675470.671        1847.428          23.000  
G31  21099621.636   110879224.826        -860.748          32.000  
G32  20815389.006   109385630.894        -279.843          22.000  
J01  36885248.374   193833432.6581        296.236          18.000  
R03  21250814.167   113757271.991        2763.599          24.000  
> 2021  9 12 12  5 26.9974310  0  6
C32  24526262.921   127714636.2161       2016.865          21.000  
G26  21250596.518   111672678.051        1848.189          21.000  
G31  21099606.646   110879140.328        -861.102          24.000  
G32  20815260.995   109384964.785        -278.990          28.000  
J01  36885013.936   193832189.592         298.768          18.000  
R02  19144778.745   102160214.3051       -466.801          21.000  
> 2021  9 12 12  5 27.9974308  0  5
G31  21099711.574   110879687.296        -862.509          24.000  
G32  20815252.600   109384928.976        -279.480          27.000  
J01  36884896.717   193831574.227         300.708          18.000  
R02  19144809.924   102160359.931        -465.649          25.000  
R03  21249532.555   113750410.6151       2763.267          24.000  
> 2021  9 12 12  5 28.9974303  0  7
C32  24525279.302   127709510.3481       2014.235          18.000  
G26  21249688.447   111667880.6571       1847.119          17.000  
G31  21099726.263   110879762.637        -863.638          24.000  
G32  20815155.768   109384422.350        -281.961          25.000  
J01  36884689.861   193830486.744         297.522          19.000  
R02  19144751.464   102160026.841        -467.067          26.000  
R03  21248865.816   113746841.536        2763.361          24.000  
> 2021  9 12 12  5 29.9974298  0  5
C32  24524744.473   127706715.010        2016.216          19.000  
G26  21249185.095   111665245.373        1848.247          19.000  
J01  36884485.102   193829403.036         295.242          20.000  
R02  19144692.705   102159695.220        -468.535          26.000  
R03  21248202.675   113743291.863        2760.952          21.000  
> 2021  9 12 12  5 30.9974292  0  5
G26  21248654.762   111662450.794        1849.033          19.000  
G31  21099728.662   110879756.9351       -864.148          21.000  
J01  36884249.465   193828164.030         292.939          20.000  
R02  19144604.266   102159204.424        -470.009          27.000  
R03  21247494.266   113739500.110        2764.254          22.000  
> 2021  9 12 12  5 31.9974290  0  6
G26  21248244.347   111660288.357        1845.671          19.000  
G31  21099833.589   110880307.182        -864.978          22.000  
G32  20814924.328   109383228.1941       -285.771          21.000  
J01  36884135.245   193827556.639         291.408          20.000  
R02  19144631.248   102159354.690        -470.444          27.000  
R03  21246916.566   113736407.435        2762.372          19.000  
> 2021  9 12 12  5 32.9974285  0  3
C32  24523195.745   127698639.7431       2012.556          18.000  
G31  21099847.380   110880383.990        -864.377          22.000  
R02  19144570.689   102159025.383        -471.364          25.000  
> 2021  9 12 12  5 33.9974282  0  4
G26  21247294.604   111655336.3351       1848.868          19.000  
G31  21099919.630   110880774.082        -861.938          23.000  
G32  20814800.513   109382535.2531       -282.436          21.000  
J01  36883781.190   193825711.7481        293.411          20.000  
> 2021  9 12 12  5 34.9974277  0  4
G26  21246791.252   111652700.638        1847.532          19.000  
G31  21099934.619   110880848.194        -861.763          25.000  
G32  20814702.481   109382031.330        -284.809          22.000  
R02  19144500.538   102158688.6751       -472.563          28.000  
> 2021  9 12 12  5 35.9974272  0  3
G26  21246291.498   111650065.480        1847.663          19.000  
G31  21099946.311   110880922.851        -862.660          23.000  
J01  36883361.180   193823550.5421        293.255          27.000  
> 2021  9 12 12  5 36.9974267  0  2
J01  36883154.024   193822468.848         293.951          24.000  
R02  19144374.625   102158034.2331       -472.930          28.000  
> 2021  9 12 12  5 37.9974262  0  4
C32  24520573.760   127684996.4841       2010.528          16.000  
G32  20814415.880   109380522.2101       -282.095          20.000  
J01  36882947.767   193821385.926         295.940          24.000  
R02  19144311.669   102157707.935        -473.949          31.000  
> 2021  9 12 12  5 38.9974259  0  3
G26  21244846.799   111642488.4211       1843.503          17.000  
J01  36882801.168   193820615.792         298.495          23.000  
R02  19144310.170   102157702.489        -475.324          31.000  
> 2021  9 12 12  5 39.9974257  0  3
G32  20814357.420   109380298.0461       -282.586          21.000  
J01  36882684.249   193820003.266         296.913          27.000  
R02  19144339.849   102157857.417        -475.558          28.000  
> 2021  9 12 12  5 40.9974252  0  3
G32  20814259.688   109379793.514        -283.546          26.000  
J01  36882475.593   193818918.257         297.624          22.000  
R02  19144277.492   102157532.962        -475.837          29.000  
> 2021  9 12 12  5 41.9974246  0  4
C05  74633859.454                        -277.006          29.000  
G26  21243409.893   111634902.5181       1849.165          12.000  
G32  20814131.077   109379131.431        -283.685          26.000  
R02  19144192.651   102157049.160        -476.234          30.000  
> 2021  9 12 12  5 42.9974241  0  2
G32  20814031.546   109378627.862        -284.450          29.000  
R02  19144131.494   102156726.307        -477.650          26.000  
> 2021  9 12 12  5 43.9974236  0  4
G26  21242408.886   111629626.7991       1853.603          12.000  
G32  20813934.413   109378125.108        -285.742          27.000  
J01  36881819.348   193815510.0271        295.066          21.000  
R02  19144074.233   102156404.358        -478.381          26.000  
> 2021  9 12 12  5 44.9974234  0  3
G31  21100290.773   110882711.0701       -863.231          18.000  
J01  36881704.227   193814899.331         296.700          25.000  
R02  19144099.716   102156562.928        -478.668          25.000  
> 2021  9 12 12  5 45.9974228  0  5
G26  21241466.039   111624661.0871       1850.819          17.000  
G31  21100276.083   110882630.916        -867.907          18.000  
G32  20813802.504   109377432.0401       -284.189          27.000  
J01  36881466.492   193813657.591         296.830          28.000  
R02  19144013.975   102156082.347        -479.693          28.000  
> 2021  9 12 12  5 46.9974223  0  4
G31  21100291.072   110882710.565        -866.769          19.000  
G32  20813705.072   109376928.909        -285.106          27.000  
J01  36881259.036   193812573.553         296.031          29.000  
R02  19143955.216   102155762.854        -480.881          24.000  
> 2021  9 12 12  5 47.9974221  0  4
G26  21240557.968   111619860.9021       1845.826          24.000  
G32  20813698.776   109376899.572        -287.276          29.000  
J01  36881141.517   193811963.251         294.960          30.000  
R02  19143988.493   102155924.133        -481.914          26.000  
> 2021  9 12 12  5 48.9974216  0  3
G26  21240057.015   111617228.562        1842.546          22.000  
J01  36880934.960   193810880.555         294.933          31.000  
R02  19143927.035   102155606.908        -482.945          27.000  
> 2021  9 12 12  5 49.9974213  0  6
G26  21239617.819   111614914.194        1840.558          21.000  
G31  21100488.036   110883734.1811       -866.438          20.000  
G32  20813568.067   109376214.3441       -286.922          29.000  
J01  36880788.062   193809848.853         294.899          32.000  
J02  38731551.105   203535788.5051      -1518.620          29.000  
R02  19143926.436   102155609.791        -482.550          30.000  
> 2021  9 12 12  5 50.9974208  0  3
G31  21100500.627   110883812.457        -865.783          25.000  
J01  36880584.203   193808766.355         295.523          33.000  
J02  38731689.309   203536520.091       -1519.872          29.000  
> 2021  9 12 12  5 51.9974203  0  6
C33  23780433.848   123830959.0231      -3193.472          30.000  
G31  21100516.217   110883890.549        -865.754          29.000  
G32  20813377.099   109375213.3631       -288.362          26.000  
J01  36880382.742                         294.282          33.000  
J02  38731830.212   203537251.860       -1519.896          27.000  
R02  19143803.521   102154978.2561       -485.034          29.000  
> 2021  9 12 12  5 52.9974198  0  7
C33  23780896.728   123833370.339       -3191.611          27.000  
G26  21238120.055   111607024.8711       1843.073          20.000  
G31  21100531.506   110883968.670        -866.427          31.000  
G32  20813283.264   109374714.011        -288.192          31.000  
J01  36880176.785   193806637.0251        293.853          33.000  
J02  38731972.014   203537983.895       -1519.981          21.000  
R02  19143742.063   102154664.794        -487.096          26.000  
> 2021  9 12 12  5 53.9974193  0  5
C33  23781359.607   123835781.625       -3193.021          31.000  
G31  21100545.596   110884047.190        -866.432          29.000  
J01  36879968.129   193805555.144         293.067          34.000  
J02  38732110.218   203538716.205       -1519.923          27.000  
R02  19143678.807   102154351.903        -487.546          29.000  
> 2021  9 12 12  5 54.9974190  0  7
C33  23781882.146   123838506.226       -3192.467          28.000  
G26  21237185.902   111602081.1271       1839.959          19.000  
G31  21100619.645   110884441.036        -866.373          27.000  
G32  20813153.454   109374029.2521       -288.624          29.000  
J01  36879819.132   193804787.680         294.093          30.000  
J02  38732309.280   203539763.721       -1520.635          26.000  
R02  19143677.308   102154359.266        -488.317          29.000  
> 2021  9 12 12  5 55.9974188  0  6
C33  23782434.663   123841386.540       -3192.290          33.000  
G26  21236779.983   111599926.992        1839.230          19.000  
G31  21100720.975   110884991.871        -865.809          24.000  
J01  36879703.413   193804179.045         293.589          24.000  
J02  38732537.422   203540969.205       -1520.145          28.000  
R02  19143706.088   102154526.837        -487.775          24.000  
> 2021  9 12 12  5 56.9974182  0  6
C33  23782867.563   123843642.418       -3195.210          33.000  
G31  21100703.887   110884912.108        -865.409          28.000  
G32  20813022.744   109373347.2041       -289.544          28.000  
J01  36879467.476   193802939.973         293.982          31.000  
J02  38732644.448   203541544.280       -1520.789          25.000  
R02  19143616.750   102154054.854        -488.117          32.000  
> 2021  9 12 12  5 57.9974177  0 10
C06  36524910.131   190194787.9451       -273.406          31.000  
C16  37126753.983   193328750.5871       -222.859          27.000  
C23  22529861.901   117318972.3581       -368.935          24.000  
C33  23783329.843   123846056.576       -3194.245          26.000  
E01  23388208.780   122905865.8501       -956.329          28.000  
G31  21100717.677   110884989.735        -866.329          27.000  
G32  20812928.909   109372848.998        -289.666          29.000  
J01  36879262.418   193801858.101         294.147          34.000  
J02  38732782.053   203542276.480       -1519.775          27.000  
R02  19143560.089   102153743.651        -489.635          30.000  
> 2021  9 12 12  5 58.9974172  0 11
C06  36524812.099   190194281.182        -274.181          30.000  
C16  37126648.756   193328192.613        -222.156          25.000  
C23  22529780.058   117318559.680        -367.684          22.000  
C33  23783793.323   123848470.002       -3194.606          29.000  
E01  23388239.958   122906030.140        -955.410          29.000  
G26  21235252.241   111591890.9201       1837.748          23.000  
G31  21100730.568   110885068.356        -866.131          23.000  
G32  20812833.575   109372351.346        -290.150          32.000  
J01  36879057.360   193800776.208         294.610          27.000  
J02  38732919.957   203543007.747       -1517.136          23.000  
R02  19143501.330   102153433.082        -488.384          26.000  
> 2021  9 12 12  5 59.9974170  0  8
C06  36524803.405   190194243.716        -275.133          25.000  
C16  37126630.469   193328102.285        -222.019          29.000  
C23  22529788.452   117318615.521        -369.278          23.000  
C33  23784346.140   123851351.461       -3193.946          27.000  
E01  23388362.274   122906673.056        -954.836          30.000  
J01  36878940.741   193800166.394         294.635          29.000  
J02  38733145.701   203544210.681       -1519.025          21.000  
R02  19143532.808   102153601.064        -488.672          24.000  
> 2021  9 12 12  6  0.9974164  0  8
C06  36524679.590   190193581.917        -274.756          23.000  
C16  37126492.264   193327387.577        -222.471          25.000  
C33  23784780.239   123853608.897       -3193.746          29.000  
E01  23388365.272   122906688.804        -954.734          26.000  
G32  20812705.864   109371672.7161       -291.078          30.000  
J01  36878703.605   193798926.853         293.778          28.000  
J02  38733255.425   203544783.685       -1518.081          25.000  
R02  19143444.369   102153130.631        -490.277          20.000  
> 2021  9 12 12  6  1.9974159  0  8
C06  36524583.357   190193075.671        -274.176          27.000  
C16  37126386.437   193326829.395        -222.454          26.000  
C23  22529594.786   117317637.6241       -370.326          20.000  
C33  23785244.318   123856021.450       -3193.387          28.000  
G32  20812610.530   109371175.922        -290.805          31.000  
J01  36878499.146   193797845.960         292.666          29.000  
J02  38733393.929   203545513.188       -1517.175          24.000  
R02  19143411.692   102152823.392        -492.794          18.000  
> 2021  9 12 12  6  2.9974154  0  9
C06  36524485.925   190192568.193        -272.763          26.000  
C16  37126280.911   193326271.608        -223.298          29.000  
C23  22529514.741   117317226.642        -370.067          25.000  
C33  23785706.298   123858434.046       -3194.648          28.000  
G31  21100856.781   110885704.0071       -867.643          29.000  
G32  20812515.495   109370678.778        -290.415          33.000  
J01  36878294.088   193796765.067         293.423          29.000  
J02  38733533.033   203546242.937       -1518.997          28.000  
R02  19143359.528   102152516.662        -493.692          23.000  
> 2021  9 12 12  6  3.9974152  0  8
C06  36524478.430   190192529.137        -273.571          25.000  
C16  37126264.122   193326182.806        -224.171          30.000  
C23  22529523.435   117317284.945        -372.500          27.000  
C33  23786259.115   123861317.608       -3196.328          28.000  
G31  21100962.608   110886256.450        -867.594          30.000  
J01  36878178.069   193796156.539         293.280          28.000  
J02  38733764.473   203547446.845       -1519.051          28.000  
R02  19143396.103   102152690.448        -494.420          28.000  
> 2021  9 12 12  6  4.9974149  0  9
C06  36524440.656   190192333.850        -272.477          27.000  
C16  37126217.654   193325938.647        -224.298          29.000  
C23  22529505.148   117317189.085        -371.827          29.000  
C33  23786780.754   123864045.579       -3196.056          29.000  
G31  21101038.755   110886651.462        -867.787          28.000  
G32  20812478.921                        -295.188          32.000  
J01  36878032.669   193795391.097         292.255          28.000  
J02  38733965.634   203548493.770       -1520.474          27.000  
R02  19143404.797   102152705.311        -495.340          28.000  
> 2021  9 12 12  6  5.9974144  0  9
C06  36524343.223   190191824.886        -271.823          24.000  
C16  37126111.528   193325381.216        -223.045          28.000  
C23  22529426.603   117316780.807        -373.454          27.000  
C33  23787242.735   123866461.375       -3196.513          28.000  
G31  21101055.543   110886731.505        -867.908          27.000  
G32  20812385.086                        -292.828          33.000  
J01  36877825.812   193794310.231         293.707          27.000  
J02  38734105.037   203549226.896       -1521.313          28.000  
R02  19143350.834   102152400.709        -495.507          28.000  
> 2021  9 12 12  6  6.9974139  0  6
C16  37126003.902   193324823.184        -223.029          28.000  
C23  22529348.057   117316373.010        -372.580          29.000  
C33  23787706.513   123868877.092       -3196.051          30.000  
G31  21101071.732   110886811.765        -868.209          28.000  
J01  36877619.255   193793229.200         292.471          28.000  
J02  38734245.940   203549959.757       -1520.521          26.000  
> 2021  9 12 12  6  7.9974134  0  9
C06  36524143.262   190190803.8941       -269.617          18.000  
C16  37125896.876   193324265.641        -222.900          27.000  
C23  22529267.713   117315965.375        -373.846          24.000  
C33  23788172.091   123871292.579       -3196.654          32.000  
G31  21101087.321   110886892.325        -868.453          27.000  
G32  20812195.017   109368828.3231       -291.209          33.000  
J01  36877413.598   193792148.358         293.448          28.000  
J02  38734385.643   203550692.070       -1519.781          28.000  
R02  19143231.816   102151793.0671       -496.614          25.000  
> 2021  9 12 12  6  8.9974129  0  8
C06  36524047.928   190190293.833        -271.907          28.000  
C16  37125791.050   193323707.921        -222.960          31.000  
C33  23788641.266   123873709.011       -3196.956          34.000  
G31  21101102.611   110886972.549        -867.735          27.000  
G32  20812102.082                        -293.350          34.000  
J01  36877207.041   193791067.367         292.891          28.000  
J02  38734524.747   203551423.647       -1518.793          28.000  
R02  19143173.657   102151490.125        -497.384          30.000  
> 2021  9 12 12  6  9.9974124  0  8
C06  36523951.095   190189785.750        -272.702          29.000  
C16  37125685.223   193323150.085        -222.401          32.000  
C33  23789112.540                       -3197.001          36.000  
G31  21101118.500   110887052.882        -868.712          25.000  
G32  20812008.546   109367838.9501       -292.683          35.000  
J01  36877001.083   193789986.750         292.829          29.000  
J02  38734663.251   203552154.693       -1518.824          29.000  
R02  19143115.197   102151188.077        -498.182          34.000  
> 2021  9 12 12  6 10.9974121  0  9
C06  36523916.619   190189590.296        -273.041          28.000  
C16  37125636.956   193322903.452        -221.940          31.000  
C23  22529098.330   117315069.9711       -376.717          22.000  
C33  23789632.380   123878879.6561      -3197.888          36.000  
G31  21101195.546   110887449.033        -869.000          26.000  
G32  20811974.970   109367659.404        -293.123          36.000  
J01  36876855.384   193789221.163         293.546          28.000  
J02  38734862.313   203553200.931       -1518.793          30.000  
R02  19143116.696   102151206.840        -499.386          35.000  
> 2021  9 12 12  6 11.9974118  0  8
C06  36523879.444   190189394.875        -273.188          30.000  
C23  22529081.541   117314977.659        -375.879          25.000  
C33  23790159.116   123881608.771       -3197.904          33.000  
G31  21101270.794   110887845.826        -869.917          26.000  
G32  20811944.690   109367480.465        -293.796          36.000  
J01  36876709.685   193788455.498         292.268          25.000  
J02  38735060.775   203554247.098       -1518.635          27.000  
R02  19143118.495   102151226.571        -500.225          34.000  
> 2021  9 12 12  6 12.9974113  0  9
C06  36523782.611   190188888.073        -273.990          29.000  
C16  37125479.565   193322098.4131       -222.075          30.000  
C23  22529002.996   117314571.928        -374.207          21.000  
C33  23790625.293   123884026.026       -3197.732          34.000  
G31  21101286.084   110887928.315        -870.634          25.000  
G32  20811852.055   109366986.881        -290.654          38.000  
J01  36876503.728   193787375.286         292.721          29.000  
J02  38735199.579   203554978.619       -1519.794          29.000  
R02  19143061.234   102150927.243        -501.112          33.000  
> 2021  9 12 12  6 13.9974108  0 10
C06  36523684.879   190188381.420        -273.997          28.000  
C16  37125372.240   193321539.834        -221.839          30.000  
C23  22528921.152   117314164.543        -372.097          22.000  
C33  23791083.675   123886443.397       -3195.151          34.000  
E01  23389059.891   122910338.4521       -960.944          29.000  
G31  21101301.373   110888011.065        -870.459          25.000  
G32  20811759.419   109366493.253        -294.959          35.000  
J01  36876298.370   193786294.296         293.364          28.000  
J02  38735337.184   203555710.557       -1521.107          25.000  
R02  19143002.775   102150628.734        -501.769          34.000  
> 2021  9 12 12  6 14.9974103  0 10
C06  36523586.247   190187873.310        -272.801          30.000  
C16  37125266.713   193320981.662        -222.993          31.000  
C23  22528841.408   117313755.547        -372.343          22.000  
C33  23791542.658   123888861.281       -3197.644          33.000  
E01  23389093.168   122910513.742        -960.931          28.000  
G31  21101313.065   110888093.319        -869.886          25.000  
G32  20811664.385   109366000.033        -295.495          35.000  
J01  36876092.712   193785212.580         294.186          30.000  
J02  38735477.787   203556442.960       -1520.771          26.000  
R02  19142944.315   102150330.807        -502.293          35.000  
> 2021  9 12 12  6 15.9974100  0  9
C06  36523548.474   190187677.617        -272.720          28.000  
C16  37125218.146   193320736.206        -223.163          32.000  
C33  23792068.794   123891591.776       -3198.636          30.000  
E01  23389186.103   122911002.116        -961.641          26.000  
G31  21101387.114   110888490.197        -869.177          24.000  
G32  20811636.804   109365822.291        -297.714          34.000  
J01  36875947.013   193784446.076         293.673          30.000  
J02  38735675.650   203557490.345       -1519.559          27.000  
R02  19142947.014   102150353.575        -503.088          34.000  
> 2021  9 12 12  6 16.9974095  0  8
C06  36523452.240   190187169.839        -273.086          29.000  
C16  37125111.420   193320178.504        -222.761          30.000  
C33  23792537.069   123894011.554       -3202.267          31.000  
E01  23389219.680   122911178.406        -961.358          26.000  
G31  21101403.302   110888572.430        -871.310          23.000  
J01  36875741.955   193783365.328         292.955          30.000  
J02  38735815.653   203558221.876       -1519.687          26.000  
R02  19142889.154   102150057.074        -503.668          34.000  
> 2021  9 12 12  6 17.9974090  0  7
C06  36523354.508   190186661.766        -273.075          28.000  
C16  37125004.694   193319620.480        -222.793          31.000  
C33  23792997.551                       -3196.674          32.000  
G32  20811438.641   109364837.5161       -295.492          34.000  
J01  36875535.998   193782284.758         292.763          30.000  
J02  38735954.457   203558954.096       -1520.165          26.000  
R02  19142832.193   102149761.224        -504.297          33.000  
> 2021  9 12 12  6 18.9974085  0  7
C06  36523257.375   190186153.628        -272.231          27.000  
C16  37124897.069   193319062.509        -222.359          31.000  
C33  23793468.824                       -3199.835          33.000  
G32  20811345.106   109364345.525        -295.151          34.000  
J01  36875328.841   193781203.391         294.001          28.000  
J02  38736094.160   203559686.575       -1520.317          25.000  
R02  19142775.232   102149466.007        -505.162          34.000  
> 2021  9 12 12  6 19.9974083  0  8
C06  36523248.681   190186112.274        -270.362          27.000  
C16  37124881.180   193318971.819        -221.412          30.000  
C33  23794017.444   123901688.3971      -3201.634          33.000  
E19  23904880.096   125621029.6361      -1115.943          26.000  
G32  20811342.707   109364326.450        -295.890          33.000  
J01  36875213.721   193780594.808         292.180          29.000  
J02  38736322.302   203560891.277       -1519.478          25.000  
R02  19142808.210   102149651.426        -505.804          34.000  
> 2021  9 12 12  6 20.9974080  0  9
C06  36523211.507   190185914.393        -271.228          29.000  
C16  37124834.412   193318725.075        -221.858          32.000  
C33  23794543.280                       -3201.629          32.000  
E19  23905003.910   125621673.783       -1116.140          24.000  
G31  21101611.358   110889690.6021       -871.588          25.000  
G32  20811304.334   109364150.105        -295.383          31.000  
J01  36875068.621   193779830.066         291.909          29.000  
J02  38736522.264   203561937.800       -1518.909          27.000  
R02  19142812.707   102149678.207        -507.848          34.000  
> 2021  9 12 12  6 21.9974075  0  7
C06  36523115.573   190185405.563        -272.145          28.000  
C16  37124728.285   193318166.345        -222.315          32.000  
C33  23795004.661   123906840.0721      -3201.430          32.000  
G31  21101628.147   110889774.260        -871.699          21.000  
G32  20811210.799   109363658.872        -296.782          31.000  
J01  36874864.163   193778749.927         292.453          29.000  
J02  38736659.868   203562668.520       -1517.197          23.000  
> 2021  9 12 12  6 22.9974070  0  8
C06  36523017.541   190184896.757        -271.483          27.000  
C16  37124621.559                        -222.407          31.000  
C25  23089833.141   120234819.3791      -2514.381          22.000  
C33  23795472.637   123909260.532       -3203.751          31.000  
G32  20811115.764   109363167.871        -297.317          32.000  
J01  36874659.105   193777669.639         292.383          32.000  
J02  38736798.373   203563398.140       -1517.237          27.000  
R02  19142697.286   102149094.3231       -508.270          33.000  
> 2021  9 12 12  6 23.9974065  0  8
C06  36522918.010   190184387.129        -271.505          24.000  
C16  37124515.133   193317087.0441       -223.671          30.000  
C25  23090165.311   120236553.017       -2514.044          23.000  
C33  23795935.816   123911681.158       -3201.743          32.000  
G31  21101661.424   110889946.5431       -874.160          13.000  
J01  36874454.047   193776589.206         293.023          31.000  
J02  38736936.877   203564129.564       -1520.330          24.000  
R02  19142640.326   102148803.543        -509.562          34.000  
> 2021  9 12 12  6 24.9974060  0  8
C06  36522820.278   190183877.277        -270.852          27.000  
C16  37124407.807   193316527.616        -222.936          30.000  
C33  23796405.291   123914102.676       -3202.115          31.000  
G31  21101676.713   110890032.252        -873.047          30.000  
G32  20810933.491                        -299.848          34.000  
J01  36874248.989   193775509.891         290.514          27.000  
J02  38737076.280   203564862.196       -1520.808          29.000  
R02  19142583.365   102148513.401        -509.495          33.000  
> 2021  9 12 12  6 25.9974057  0  9
C06  36522783.703   190183679.731        -271.021          31.000  
C16  37124364.637   193316280.615        -223.694          31.000  
C25  23090889.610   120240337.5801      -2519.238          17.000  
C33  23796932.626   123916836.423       -3202.169          26.000  
G31  21101753.760   110890432.227        -872.165          27.000  
G32  20810902.612                        -297.585          33.000  
J01  36874104.788   193774745.628         292.937          30.000  
J02  38737276.242   203565910.964       -1521.758          28.000  
R02  19142586.363   102148542.445        -508.940          31.000  
> 2021  9 12 12  6 26.9974052  0  7
C06  36522686.570   190183170.197        -271.536          29.000  
C16  37124255.812   193315721.975        -221.225          30.000  
G31  21101769.949   110890516.436        -872.053          28.000  
G32  20810811.475   109361530.1361       -294.721          34.000  
J01  36873899.730   193773665.262         292.566          24.000  
J02  38737416.545   203566644.267       -1519.919          26.000  
R02  19142536.897   102148252.806        -511.562          30.000  
> 2021  9 12 12  6 27.9974049  0  6
C06  36522649.696   190182973.580        -272.081          20.000  
C16  37124203.948   193315473.446        -218.524          24.000  
C25  23091619.904   120244125.4241      -2518.898          17.000  
G31  21101846.396   110890915.952        -872.844          30.000  
G32  20810779.097   109361356.068        -298.643          32.000  
R02  19142543.493   102148284.711        -512.365          32.000  
> 2021  9 12 12  6 28.9974044  0  6
C16  37124091.826   193314911.842        -219.642          22.000  
C33  23798383.322   123924410.2351      -3201.198          24.000  
G31  21101863.784   110891001.167        -873.451          30.000  
G32  20810684.663   109360867.075        -300.147          30.000  
J01  36873547.174   193771820.0591        291.433          23.000  
R02  19142490.130   102147997.199        -512.648          30.000  
> 2021  9 12 12  6 29.9974039  0  7
C06  36522454.231   190181956.7561       -272.331          13.000  
C16  37123980.603   193314350.365        -219.180          22.000  
C25  23092290.540   120247603.0301      -2518.805          19.000  
G31  21101880.872   110891087.121        -874.066          31.000  
G32  20810593.226   109360378.227        -298.692          32.000  
J01  36873341.817   193770740.303         292.430          24.000  
R02  19142436.167   102147710.189        -513.227          30.000  
> 2021  9 12 12  6 30.9974034  0  7
C06  36522355.599   190181448.971        -273.238          16.000  
C16  37123872.378   193313787.747        -217.329          26.000  
C25  23092624.209   120249341.226       -2518.763          21.000  
C33  23799315.976   123929254.2651      -3203.934          24.000  
G32  20810493.995   109359889.718        -300.052          30.000  
J01  36873139.457   193769659.154         293.348          25.000  
R02  19142381.605   102147423.885        -514.052          29.000  
> 2021  9 12 12  6 31.9974031  0  9
C06  36522317.226   190181254.559        -274.945          18.000  
C16  37123824.711   193313537.117        -218.823          27.000  
C25  23093017.237   120251391.573       -2518.721          24.000  
E01  23390058.200   122915584.7181       -967.228          29.000  
G26  21219526.927   111509272.0291       1824.116          21.000  
G31  21101975.007   110891574.5821       -873.853          32.000  
G32  20810458.919   109359716.643        -296.977          30.000  
J01  36872994.057   193768892.576         293.998          26.000  
R02  19142391.798   102147458.184        -514.426          27.000  
> 2021  9 12 12  6 32.9974026  0 10
C06  36522220.993   190180747.875        -272.662          19.000  
C16  37123716.486   193312975.459        -219.235          25.000  
C25  23093350.006   120253129.134       -2519.207          21.000  
C33  23800305.891   123934411.7271      -3204.128          24.000  
E01  23390091.776   122915761.008        -967.901          29.000  
G26  21219033.169   111506660.018        1823.526          20.000  
G31  21101993.594   110891660.729        -874.457          32.000  
G32  20810361.187   109359227.632        -301.528          28.000  
J01  36872788.700   193767811.035         293.116          25.000  
R02  19142343.831   102147173.102        -515.133          29.000  
> 2021  9 12 12  6 33.9974021  0  9
C06  36522123.560   190180239.603        -271.789          26.000  
C16  37123608.561   193312414.620        -220.449          29.000  
C25  23093681.577   120254867.919       -2519.561          23.000  
C33  23800769.970   123936834.572       -3202.688          22.000  
E01  23390125.953   122915941.298        -967.186          28.000  
G31  21102012.481                        -872.736          33.000  
G32  20810265.253   109358741.157        -301.241          28.000  
J01  36872582.742   193766729.908         293.512          27.000  
R02  19142291.667   102146888.853        -515.988          29.000  
> 2021  9 12 12  6 34.9974016  0  9
C06  36522025.528   190179730.205        -271.206          29.000  
C16  37123501.235   193311854.423        -220.402          30.000  
C25  23094014.347   120256606.451       -2519.068          21.000  
C33  23801234.348   123939256.702       -3202.890          23.000  
E01  23390159.230   122916115.588        -969.116          27.000  
G31  21102026.271   110891909.2411       -874.324          33.000  
G32  20810171.418   109358254.315        -300.859          30.000  
J01  36872375.586   193765649.828         291.649          27.000  
R02  19142245.499   102146605.304        -516.768          29.000  
> 2021  9 12 12  6 35.9974013  0  8
C06  36521986.855   190179532.527        -270.534          29.000  
C16  37123454.167   193311606.627        -221.128          31.000  
C25  23094407.374   120258655.260       -2515.955          21.000  
C33  23801759.885   123941992.500       -3204.622          19.000  
G31  21102105.117   110892310.503        -874.180          32.000  
G32  20810137.242   109358082.495        -300.856          30.000  
J01  36872228.088   193764885.885         291.446          27.000  
R02  19142260.489   102146642.523        -517.945          29.000  
> 2021  9 12 12  6 36.9974011  0  7
C06  36521978.460   190179490.774        -270.455          30.000  
C16  37123436.480   193311514.996        -220.498          31.000  
G26  21217193.942   111497003.3721       1817.610          19.000  
G31  21102207.646   110892869.472        -875.803          32.000  
G32  20810135.743   109358068.395        -301.284          31.000  
J01  36872110.869   193764279.553         290.326          28.000  
R02  19142305.757   102146840.846        -518.838          29.000  
> 2021  9 12 12  6 37.9974006  0  8
C06  36521880.428   190178980.337        -270.136          31.000  
C16  37123329.754   193310954.701        -220.696          32.000  
C33  23802779.479   123947311.7681      -3204.581          20.000  
G31  21102230.430   110892956.056        -875.242          33.000  
G32  20810044.606   109357581.220        -299.214          31.000  
J01  36871904.911   193763201.275         291.333          29.000  
J02  38739226.991   203576087.5301      -1518.326          25.000  
R02  19142252.694   102146560.098        -519.568          28.000  
> 2021  9 12 12  6 38.9974001  0  9
C05  74626514.539                        1820.250          28.000  
C06  36521782.696   190178469.591        -269.731          29.000  
C16  37123225.426   193310394.837        -221.945          31.000  
C25  23095486.028   120264338.7221      -2519.920          18.000  
G31  21102243.921   110893042.838        -875.822          33.000  
G32  20809951.670   109357093.506        -301.130          31.000  
J01  36871699.254   193762121.830         291.850          27.000  
J02  38739366.095   203576818.091       -1518.664          24.000  
R02  19142199.031   102146280.023        -520.199          29.000  
> 2021  9 12 12  6 39.9973996  0  5
C06  36521684.064   190177959.058        -270.384          29.000  
C16  37123121.997                        -219.504          32.000  
G31  21102258.011   110893129.892        -874.706          33.000  
J01  36871494.196   193761042.223         291.435          28.000  
J02  38739505.798   203577549.623       -1519.177          26.000  
> 2021  9 12 12  6 40.9973990  0  7
C06  36521554.854   190177292.953        -271.612          31.000  
C16  37122984.093   193309120.5581       -218.805          33.000  
C25  23096120.089   120267660.9931      -2517.945          19.000  
G31  21102246.918   110893059.618        -875.243          33.000  
J01  36871256.460   193759805.084         292.320          28.000  
J02  38739615.522   203578123.139       -1519.169          24.000  
R02  19142056.930   102145561.6851       -521.184          25.000  
> 2021  9 12 12  6 41.9973988  0  7
C06  36521546.160   190177252.035        -271.237          30.000  
C16  37122966.705   193309027.997        -222.233          32.000  
G31  21102352.146   110893619.588        -875.570          33.000  
G32  20809749.910                        -303.880          35.000  
J01  36871141.640   193759197.846         292.022          28.000  
J02  38739846.063   203579326.721       -1518.597          23.000  
R02  19142092.905   102145763.403        -521.974          25.000  
> 2021  9 12 12  6 42.9973983  0  7
C06  36521447.828   190176742.851        -271.489          31.000  
C16  37122860.878   193308466.862        -220.041          34.000  
G31  21102368.634   110893707.170        -873.505          34.000  
G32  20809658.473   109355488.3961       -302.470          34.000  
J01  36870935.982   193758118.106         291.897          28.000  
J02  38739985.766   203580057.735       -1518.073          25.000  
R02  19142031.747   102145485.682        -522.814          23.000  
> 2021  9 12 12  6 43.9973980  0  8
C06  36521409.754   190176545.267        -270.440          31.000  
C16  37122809.913   193308217.911        -218.343          33.000  
C25  23097266.195   120273649.5431      -2516.819          18.000  
G31  21102442.983   110894109.988        -875.631          32.000  
G32  20809626.395   109355318.964        -302.031          34.000  
J01  36870790.883   193757353.388         291.849          27.000  
J02  38740184.229   203581102.870       -1517.563          25.000  
R02  19142038.043   102145528.716        -523.716          24.000  
> 2021  9 12 12  6 44.9973975  0  7
C06  36521312.621   190176034.951        -270.392          30.000  
C16  37122704.387   193307656.882        -217.767          32.000  
C25  23097600.164   120275386.413       -2518.074          19.000  
G32  20809532.261   109354835.009        -306.117          35.000  
J01  36870585.225   193756273.914         291.978          28.000  
J02  38740320.934   203581832.514       -1517.103          25.000  
R02  19141982.281   102145252.518        -523.864          27.000  
> 2021  9 12 12  6 45.9973970  0  9
C06  36521214.289   190175524.494        -270.069          30.000  
C16  37122595.262   193307095.733        -220.122          32.000  
C23  22527112.804   117304754.1871       -382.947          25.000  
C25  23097936.231   120277124.911       -2520.801          20.000  
G31  21102476.559   110894286.3631       -876.762          33.000  
G32  20809438.426   109354351.211        -303.551          33.000  
J01  36870380.167   193755194.124         292.186          29.000  
J02  38740458.239   203582563.144       -1519.268          25.000  
R02  19141928.319   102144977.383        -525.235          26.000  
> 2021  9 12 12  6 46.9973967  0  8
C06  36521174.717   190175323.756        -266.083          29.000  
C16  37122541.599   193306845.409        -220.410          32.000  
C23  22527096.915   117304668.208        -382.133          26.000  
G31  21102552.107   110894689.531        -873.651          30.000  
G32  20809406.947   109354182.657        -303.883          32.000  
J01  36870233.868   193754429.356         292.473          25.000  
J02  38740654.603   203583609.995       -1519.216          23.000  
R02  19141933.415   102145023.037        -525.853          28.000  
> 2021  9 12 12  6 47.9973962  0  9
C06  36521075.486   190174810.169        -267.245          23.000  
C16  37122434.274   193306284.947        -219.712          27.000  
C23  22527022.567   117304270.701        -383.796          27.000  
C25  23098667.125   120280917.3851      -2520.475          21.000  
G31  21102567.696   110894775.974        -874.980          26.000  
G32  20809321.806   109353699.514        -305.360          31.000  
J01  36870027.311   193753349.394         292.670          25.000  
J02  38740790.709   203584340.760       -1517.842          24.000  
R02  19141880.652   102144749.329        -526.672          31.000  
> 2021  9 12 12  6 48.9973957  0  7
C16  37122328.447   193305724.731        -220.805          25.000  
C23  22526946.120   117303874.672        -384.326          25.000  
C25  23099003.193   120282657.573       -2519.534          22.000  
G31  21102582.686   110894863.676        -876.330          30.000  
G32  20809226.472   109353217.027        -305.935          32.000  
J01  36869821.953   193752268.798         292.604          23.000  
R02  19141827.289   102144476.490        -527.415          31.000  
> 2021  9 12 12  6 49.9973952  0  8
C16  37122222.620   193305164.170        -219.247          27.000  
C23  22526869.673   117303480.064        -387.454          25.000  
E01  23391009.141   122920581.9001       -975.464          28.000  
G31  21102597.975   110894952.342        -876.182          30.000  
G32  20809133.537   109352734.573        -307.139          33.000  
J01  36869617.495   193751190.008         289.985          24.000  
J02  38741058.723   203585798.7921      -1517.048          20.000  
R02  19141775.125   102144204.493        -528.292          31.000  
> 2021  9 12 12  6 50.9973947  0  9
C16  37122114.695   193304602.445        -218.315          25.000  
C23  22526790.827   117303085.895        -386.088          26.000  
C25  23099670.831   120286132.6341      -2518.520          22.000  
E01  23391046.915   122920780.190        -977.276          28.000  
G31  21102613.864   110895041.051        -876.278          31.000  
G32  20809036.404   109352252.341        -306.106          32.000  
J01  36869413.936   193750111.209         291.217          26.000  
J02  38741196.328   203586528.916       -1518.645          19.000  
R02  19141722.961   102143933.398        -528.998          30.000  
> 2021  9 12 12  6 51.9973944  0  5
C16  37122066.428   193304352.995        -219.488          24.000  
C23  22526774.339   117303003.360        -385.940          24.000  
G31  21102690.911   110895445.112        -876.771          31.000  
J01  36869269.736   193749346.922         291.936          23.000  
R02  19141730.456   102143982.682        -529.554          30.000  
> 2021  9 12 12  6 52.9973942  0  8
C06  36520737.619   190173018.0181       -266.277          17.000  
C16  37122048.441   193304260.036        -219.817          24.000  
C23  22526786.330   117303076.527        -385.693          26.000  
G31  21102798.237   110896006.839        -877.101          31.000  
G32  20809010.022   109352076.4181       -306.280          33.000  
J01  36869157.314   193748739.279         291.397          21.000  
J02  38741621.434   203588777.3861      -1519.437          18.000  
R02  19141769.429   102144192.542        -530.393          30.000  
> 2021  9 12 12  6 53.9973937  0  6
C06  36520638.688   190172501.658        -264.220          18.000  
C16  37121942.314   193303699.198        -219.727          24.000  
C23  22526709.284   117302682.222        -386.750          26.000  
G32  20808916.187   109351595.042        -305.926          33.000  
J01  36868952.555   193747660.116         292.758          24.000  
R02  19141719.064   102143923.363        -531.166          30.000  
> 2021  9 12 12  6 54.9973932  0  6
C16  37121834.089   193303137.241        -217.625          27.000  
C23  22526632.237   117302288.654        -387.252          26.000  
C25  23101155.103   120293863.0901      -2520.400          24.000  
G32  20808825.350   109351114.096        -307.952          32.000  
J01  36868748.696   193746579.931         292.934          23.000  
R02  19141672.896   102143654.844        -531.787          30.000  
> 2021  9 12 12  6 55.9973926  0  8
C23  22526528.809   117301738.597        -385.947          27.000  
C25  23101460.592   120295446.417       -2520.478          23.000  
G10  21892131.693   115043928.4091      -3745.425          25.000  
G31  21102828.816                        -877.263          32.000  
G32  20808701.236   109350474.968        -303.202          33.000  
J01  36868515.158   193745342.322         290.959          24.000  
J02  38742013.562   203590820.6581      -1520.696          20.000  
R02  19141593.451   102143226.945        -532.336          31.000  
> 2021  9 12 12  6 56.9973921  0  9
C06  36520314.312   190170806.0521       -272.886          20.000  
C16  37121587.959   193301854.7191       -218.467          23.000  
C23  22526453.860   117301343.960        -385.736          25.000  
C25  23101795.760   120297188.357       -2523.392          21.000  
G31  21102846.503   110896203.7131       -879.897          32.000  
G32  20808608.300   109349994.654        -308.014          31.000  
J01  36868310.100   193744263.497         290.930          24.000  
J02  38742152.966   203591551.409       -1518.254          20.000  
R02  19141546.983   102142959.830        -533.232          31.000  
> 2021  9 12 12  6 57.9973919  0  8
C16  37121571.171   193301761.248        -218.918          25.000  
C23  22526466.752   117301417.659        -385.916          25.000  
C25  23102219.966   120299398.404       -2521.150          22.000  
C33  23812495.153   123997917.4171      -3215.193          26.000  
G31  21102952.330   110896766.886        -877.251          32.000  
G32  20808606.202   109349987.010        -307.549          31.000  
J01  36868195.579   193743656.588         291.475          23.000  
R02  19141589.553   102143173.468        -533.887          31.000  
> 2021  9 12 12  6 58.9973914  0  6
C16  37121463.546   193301199.408        -218.396          28.000  
C23  22526391.803   117301023.921        -386.846          25.000  
C33  23812962.229   124000350.765       -3213.133          26.000  
G31  21102971.817   110896857.689        -878.923          32.000  
J01  36867989.322   193742577.235         291.920          23.000  
R02  19141538.589   102142907.972        -534.975          32.000  
> 2021  9 12 12  6 59.9973911  0  9
C06  36520175.209   190170070.8031       -276.535          18.000  
C16  37121414.380   193300949.302        -217.059          27.000  
C23  22526375.315   117300943.609        -388.042          25.000  
C25  23102950.560   120303190.5231      -2520.817          22.000  
C33  23813490.164   124003095.428       -3213.046          29.000  
E01  23391645.301   122923925.6781       -980.055          27.000  
G31  21103045.566   110897263.817        -879.461          32.000  
J01  36867841.824   193741813.918         289.741          22.000  
R02  19141549.381   102142963.306        -535.831          31.000  
> 2021  9 12 12  7  0.9973906  0 10
C06  36520077.476   190169565.338        -273.822          18.000  
C16  37121305.855   193300386.016        -217.921          25.000  
C23  22526301.266   117300551.451        -389.539          24.000  
C25  23103285.129   120304930.169       -2520.381          22.000  
C33  23813959.339   124005527.825       -3212.965          28.000  
E01  23391681.576   122924115.968        -980.976          27.000  
G31  21103059.956   110897355.327        -878.360          31.000  
G32  20808396.947   109348861.6491       -307.969          31.000  
J01  36867636.167   193740736.096         290.532          26.000  
R02  19141502.314   102142699.666        -536.791          31.000  
> 2021  9 12 12  7  1.9973901  0  8
C06  36519979.145   190169057.157        -271.605          23.000  
C16  37121197.330   193299822.379        -217.021          29.000  
C23  22526225.718   117300160.818        -389.517          24.000  
C33  23814428.214   124007960.069       -3213.688          29.000  
G31  21103081.541   110897446.904        -878.770          32.000  
G32  20808304.610   109348382.755        -309.440          34.000  
J01  36867429.610   193739658.847         289.002          24.000  
R02  19141450.150   102142436.951        -537.598          30.000  
> 2021  9 12 12  7  2.9973896  0  7
C06  36519882.312   190168547.404        -271.446          25.000  
C16  37121087.906   193299258.402        -217.219          27.000  
C33  23814896.190   124010392.898       -3213.582          28.000  
G31  21103098.329   110897538.538        -880.772          32.000  
J01  36867225.151   193738582.060         289.375          25.000  
J02  38743125.792   203596704.1471      -1516.486          17.000  
R02  19141400.384   102142174.964        -538.290          29.000  
> 2021  9 12 12  7  3.9973893  0  8
C06  36519843.938   190168349.236        -268.586          22.000  
C16  37121040.538   193299007.518        -217.565          29.000  
C25  23104354.188   120310469.2321      -2521.161          18.000  
C33  23815426.523   124013138.331       -3213.869          29.000  
G31  21103177.174   110897945.465        -878.495          32.000  
G32  20808183.494   109347741.4861       -309.157          31.000  
J01  36867079.452   193737819.366         289.498          25.000  
R02  19141409.378   102142233.563        -538.711          29.000  
> 2021  9 12 12  7  4.9973888  0 10
C06  36519743.508   190167836.796        -268.264          23.000  
C16  37120933.213   193298444.437        -217.832          29.000  
C23  22526054.537   117299305.2221       -393.779          20.000  
C25  23104687.258   120312210.839       -2522.166          19.000  
C33  23815894.799   124015571.798       -3214.078          30.000  
G10  21897419.432   115071657.5001      -3747.582          20.000  
G31  21103193.063   110898036.931        -879.535          29.000  
J01  36866874.394   193736742.041         289.959          24.000  
J02  38743472.952   203598479.2791      -1518.907          18.000  
R02  19141361.711   102141972.687        -539.186          30.000  
> 2021  9 12 12  7  5.9973883  0  9
C06  36519644.276   190167323.770        -267.649          27.000  
C16  37120825.887   193297881.677        -217.849          29.000  
C23  22525980.188   117298917.229        -392.926          23.000  
C33  23816362.475   124018005.385       -3214.190          29.000  
G10  21897982.442   115074617.383       -3747.735          25.000  
G31  21103209.252   110898128.820        -879.904          29.000  
G32  20807998.223   109346784.0311       -309.260          31.000  
J01  36866669.336   193735663.482         290.666          26.000  
R02  19141318.241   102141712.374        -539.932          31.000  
> 2021  9 12 12  7  6.9973878  0  8
C06  36519545.645   190166809.949        -266.187          29.000  
C16  37120719.461   193297319.023        -218.000          34.000  
C23  22525907.039   117298529.144        -390.306          26.000  
C33  23816831.051   124020439.412       -3214.990          31.000  
G10  21898546.352   115077577.407       -3748.097          25.000  
G31  21103226.940   110898221.056        -879.907          26.000  
G32  20807906.786   109346306.196        -310.601          33.000  
R02  19141272.073   102141452.802        -541.023          32.000  
> 2021  9 12 12  7  7.9973875  0 11
C06  36519506.072   190166608.555        -267.595          30.000  
C16  37120674.492   193297068.557        -217.064          36.000  
C23  22525895.047   117298450.808        -392.276          25.000  
C33  23817358.086   124023185.818       -3214.728          31.000  
E01  23392050.021   122926052.1661       -980.488          26.000  
G10  21899171.419   115080853.373       -3748.650          25.000  
G31  21103303.987   110898628.554        -880.350          28.000  
G32  20807875.308   109346144.524        -311.626          34.000  
J01  36866311.084   193733823.2171        289.587          25.000  
J02  38743960.714   203600989.8821      -1519.232          31.000  
R02  19141287.362   102141514.144        -541.859          32.000  
> 2021  9 12 12  7  8.9973873  0 11
C06  36519497.378   190166563.472        -267.119          28.000  
C16  37120655.605                        -219.236          34.000  
C23  22525908.238   117298531.772        -393.229          24.000  
C33  23817917.199   124026088.422       -3214.279          31.000  
E01  23392178.932   122926729.082        -983.261          30.000  
G10  21899830.363   115084287.270       -3749.221          23.000  
G31  21103412.512   110899193.962        -880.901          24.000  
G32  20807871.111   109346140.995        -311.552          30.000  
J01  36866196.563   193733218.578         290.470          26.000  
J02  38744190.055   203602194.216       -1519.694          29.000  
R02  19141331.132   102141736.376        -542.698          31.000  
> 2021  9 12 12  7  9.9973868  0 11
C06  36519396.948   190166050.954        -268.974          29.000  
C16  37120546.480   193296431.2821       -218.186          33.000  
C23  22525834.189   117298144.747        -393.724          27.000  
C25  23106508.197   120321697.4271      -2525.637          15.000  
C33  23818382.777   124028522.854       -3215.222          32.000  
E01  23392216.406   122926926.372        -982.936          29.000  
G10  21900398.470   115087248.872       -3749.398          23.000  
G31  21103429.000   110899287.064        -880.921          26.000  
J01  36865993.004   193732140.234         289.483          25.000  
J02  38744332.157   203602925.876       -1519.416          31.000  
R02  19141286.463   102141479.359        -543.235          32.000  
> 2021  9 12 12  7 10.9973862  0 10
C06  36519267.137   190165382.520        -267.740          29.000  
C16  37120408.876   193295712.213        -216.686          35.000  
C23  22525732.560   117297600.897        -391.587          23.000  
C33  23818817.776   124030802.323       -3216.040          30.000  
E01  23392222.701   122926959.120        -983.999          28.000  
G10  21900931.501   115090053.515       -3750.491          23.000  
G31  21103416.409   110899223.329        -881.930          24.000  
G32  20807657.958   109345031.0691       -311.829          31.000  
J02  38744443.080   203603499.980       -1519.414          31.000  
R02  19141209.416   102141063.114        -544.193          33.000  
> 2021  9 12 12  7 11.9973857  0 10
C06  36519167.307   190164869.717        -268.117          31.000  
C16  37120297.653   193295149.082        -216.477          35.000  
C23  22525659.710   117297211.565        -391.525          26.000  
C33  23819283.653   124033237.174       -3214.916          30.000  
E01  23392260.175   122927156.410        -984.830          30.000  
G10  21901493.312   115093016.332       -3750.691          25.000  
G31  21103426.902   110899320.186        -884.334          22.000  
J01  36865559.204   193729830.8761        287.774          25.000  
J02  38744576.188                       -1519.826          30.000  
R02  19141161.749   102140807.854        -545.010          32.000  
> 2021  9 12 12  7 12.9973852  0 11
C06  36519068.675   190164357.130        -267.872          31.000  
C16  37120190.927   193294585.693        -216.529          35.000  
C23  22525587.460   117296822.412        -390.748          25.000  
C33  23819750.130   124035671.418       -3215.169          32.000  
E01  23392296.750   122927348.700        -985.900          29.000  
G10  21902055.423   115095979.411       -3751.050          24.000  
G31  21103446.088   110899416.046        -883.100          26.000  
G32  20807483.779   109344079.7801       -311.919          34.000  
J01  36865352.947   193728755.367         287.679          24.000  
J02  38744720.988                       -1518.176          30.000  
R02  19141112.583   102140553.177        -545.471          31.000  
> 2021  9 12 12  7 13.9973850  0 10
C06  36519059.981   190164312.781        -267.973          31.000  
C16  37120176.836   193294490.553        -217.490          36.000  
C23  22525601.850   117296901.843        -391.532          24.000  
C33  23820307.444   124038575.320       -3217.713          33.000  
E01  23392427.459   122928035.616        -985.765          29.000  
G31  21103553.714   110899983.475        -882.113          29.000  
G32  20807480.481                        -314.235          34.000  
J01  36865236.028   193728152.028         287.933          24.000  
J02  38744949.130   203606055.8801      -1520.044          30.000  
R02  19141153.355   102140778.982        -546.088          32.000  
> 2021  9 12 12  7 14.9973844  0 11
C06  36518931.969   190163644.277        -268.717          31.000  
C16  37120036.234   193293771.654        -220.517          36.000  
C23  22525496.923   117296355.919        -389.681          21.000  
C25  23108214.916   120330582.8751      -2523.913          18.000  
C33  23820744.542   124040856.290       -3217.848          30.000  
E01  23392436.453   122928082.364        -984.383          30.000  
G10  21903246.498   115102220.0941      -3751.186          22.000  
G32  20807364.461   109343416.2421       -314.720          35.000  
J01  36864999.192   193726919.233         287.929          26.000  
J02  38745056.156   203606629.768       -1519.353          31.000  
R02  19141076.908   102140365.865        -547.264          32.000  
> 2021  9 12 12  7 15.9973842  0 10
C06  36518923.875   190163600.853        -269.237          30.000  
C16  37120015.848   193293677.068        -217.402          35.000  
C33  23821302.455   124043761.497       -3217.322          32.000  
E01  23392564.165   122928754.280        -985.621          30.000  
G10  21903899.146   115105656.796       -3752.084          25.000  
G31  21103656.842   110900488.6991       -882.747          25.000  
G32  20807359.365   109343415.080        -314.619          33.000  
J01  36864883.172   193726314.373         290.081          29.000  
J02  38745286.696   203607833.002       -1515.040          30.000  
R02  19141117.680   102140593.644        -548.584          31.000  
> 2021  9 12 12  7 16.9973837  0 11
C06  36518825.843   190163088.507        -267.724          29.000  
C16  37119908.822   193293112.878        -216.068          35.000  
C23  22525440.562   117296045.1091       -392.521          22.000  
C33  23821770.132   124046199.203       -3219.154          31.000  
E01  23392601.639   122928950.570        -986.310          27.000  
G10  21904460.358   115108620.939       -3751.755          25.000  
G31  21103675.130   110900583.247        -881.602          26.000  
G32  20807273.025   109342940.874        -313.241          34.000  
J01  36864677.515   193725236.622         289.095          30.000  
J02  38745427.599   203608564.992       -1519.622          28.000  
R02  19141069.713   102140342.406        -548.813          29.000  
> 2021  9 12 12  7 17.9973832  0 11
C06  36518726.911   190162574.807        -266.879          31.000  
C16  37119802.695   193292549.369        -217.731          34.000  
C23  22525369.511   117295658.074        -394.064          23.000  
C33  23822239.007   124048637.989       -3219.337          32.000  
E01  23392638.513   122929144.860        -984.895          29.000  
G10  21905021.869   115111585.092       -3752.034          28.000  
G31  21103692.518   110900677.181        -881.800          26.000  
G32  20807184.586   109342468.386        -314.951          32.000  
J01  36864472.457   193724160.075         288.712          25.000  
J02  38745566.103   203609296.369       -1519.339          31.000  
R02  19141020.547   102140091.483        -549.327          29.000  
> 2021  9 12 12  7 18.9973829  0 11
C06  36518690.037   190162373.987        -268.589          29.000  
C16  37119755.328   193292297.578        -214.276          33.000  
C23  22525356.920   117295584.658        -395.631          22.000  
C33  23822766.342   124051389.598       -3220.566          36.000  
E01  23392736.545   122929660.234        -986.138          28.000  
G10  21905646.037   115114864.547       -3752.596          26.000  
G31  21103770.164   110901085.471        -880.289          23.000  
G32  20807154.007   109342309.850        -313.913          28.000  
J01  36864327.657   193723398.507         288.973          28.000  
J02  38745765.165   203610342.948       -1518.701          30.000  
R02  19141031.340   102140161.149        -550.041          31.000  
> 2021  9 12 12  7 19.9973824  0 11
C06  36518590.506   190161860.629        -266.821          28.000  
C16  37119642.606   193291734.173        -216.332          30.000  
C23  22525281.972   117295199.721        -395.533          24.000  
C33  23823234.018   124053828.296       -3218.427          29.000  
E01  23392774.319   122929858.524        -987.626          30.000  
G10  21906209.647   115117830.021       -3753.492          26.000  
G31  21103786.653   110901178.834        -882.470          25.000  
G32  20807062.570   109341835.898        -313.879          32.000  
J01  36864123.798   193722321.317         290.130          29.000  
J02  38745902.770   203611074.024       -1517.703          30.000  
R02  19140982.174   102139911.686        -550.793          32.000  
> 2021  9 12 12  7 20.9973819  0 11
C06  36518492.474   190161346.844        -266.806          29.000  
C16  37119533.182   193291169.731        -216.097          31.000  
C23  22525207.923   117294814.640        -395.483          26.000  
C25  23110380.916   120341830.7421      -2528.994          17.000  
C33  23823702.894   124056266.171       -3218.608          33.000  
G10  21906772.357   115120795.095       -3752.213          25.000  
G31  21103803.441   110901273.866        -883.444          27.000  
G32  20806972.333   109341362.501        -314.878          32.000  
J01  36863918.740   193721244.181         287.617          27.000  
J02  38746042.473   203611803.628       -1517.301          29.000  
R02  19140932.708   102139662.795        -551.258          32.000  
> 2021  9 12 12  7 21.9973814  0 10
C06  36518394.741   190160833.016        -266.870          31.000  
C16  37119424.957   193290605.726        -217.441          32.000  
C23  22525133.275   117294430.316        -397.075          19.000  
C33  23824173.268   124058704.612       -3219.158          34.000  
E01  23392851.066   122930261.1041       -987.015          27.000  
G10  21907333.868   115123758.987       -3751.756          26.000  
G31  21103818.730   110901369.387        -883.643          25.000  
G32  20806885.993   109340890.900        -316.265          34.000  
J01  36863714.282   193720168.333         288.539          27.000  
R02  19140885.041   102139414.469        -551.836          32.000  
> 2021  9 12 12  7 22.9973809  0 10
C06  36518296.110   190160319.554        -266.604          30.000  
C16  37119318.531   193290041.332        -216.558          32.000  
C23  22525058.327   117294046.369        -396.868          24.000  
C33  23824645.141                       -3221.991          33.000  
E01  23392887.341   122930452.394        -986.868          30.000  
G10  21907896.579   115126723.529       -3752.200          26.000  
G32  20806794.856   109340419.556        -316.954          29.000  
J01  36863507.725   193719091.849         288.097          25.000  
J02  38746320.680   203613263.4221      -1517.180          31.000  
R02  19140835.875   102139166.866        -552.965          31.000  
> 2021  9 12 12  7 23.9973806  0 11
C06  36518259.235   190160116.739        -265.525          28.000  
C16  37119268.765   193289789.057        -216.299          30.000  
C23  22525045.735   117293975.630        -398.006          24.000  
C33  23825174.875   124063930.6311      -3219.556          35.000  
E01  23392985.673   122930968.768        -988.831          31.000  
G10  21908520.747   115130004.052       -3753.717          26.000  
G31  21103918.261   110901874.4891       -882.476          28.000  
G32  20806764.277   109340263.161        -316.964          25.000  
J01  36863361.126   193718330.444         287.743          26.000  
J02  38746517.944   203614307.702       -1516.694          29.000  
R02  19140849.666   102139240.034        -553.494          30.000  
> 2021  9 12 12  7 24.9973804  0 10
C06  36518250.541   190160070.136        -266.441          28.000  
C16  37119251.677   193289692.911        -214.749          34.000  
C23  22525060.725   117294062.686        -400.335          21.000  
C33  23825730.990   124066839.868       -3223.888          33.000  
E01  23393116.383   122931655.684        -989.473          32.000  
G10  21909174.294   115133443.119       -3754.819          25.000  
G31  21104027.386   110902441.650        -882.758          27.000  
G32  20806765.176   109340265.483        -316.840          24.000  
J02  38746745.786   203615510.092       -1518.351          30.000  
R02  19140891.636   102139474.028        -554.667          29.000  
> 2021  9 12 12  7 25.9973798  0 10
C06  36518120.431   190159400.231        -267.405          31.000  
C16  37119117.070   193288972.358        -215.474          36.000  
C23  22524953.399   117293526.209        -399.376          23.000  
C33  23826168.986   124069125.445       -3221.428          30.000  
E01  23393126.276   122931707.432        -990.362          31.000  
G31  21104018.992   110902378.983        -883.408          23.000  
G32  20806644.660   109339636.979        -316.571          32.000  
J01  36863015.166   193716494.5811        288.413          26.000  
J02  38746854.311   203616082.614       -1517.959          29.000  
R02  19140813.990   102139069.539        -555.927          31.000  
> 2021  9 12 12  7 26.9973793  0 11
C06  36518020.600   190158886.864        -267.983          30.000  
C16  37119003.748   193288408.110        -217.212          36.000  
C23  22524879.051   117293142.733        -395.813          21.000  
C33  23826635.763   124071564.869       -3219.606          30.000  
E01  23393164.050   122931906.722        -989.831          32.000  
G10  21910274.233   115139220.1851      -3756.018          24.000  
G31  21104039.677   110902474.892        -884.616          27.000  
G32  20806553.523   109339165.984        -316.943          36.000  
J01  36862809.508   193715418.126         288.674          28.000  
J02  38746992.515   203616813.489       -1518.700          31.000  
R02  19140764.524   102138825.679        -556.326          32.000  
> 2021  9 12 12  7 27.9973788  0  9
C06  36517921.369   190158374.575        -267.490          30.000  
C16  37118894.324   193287843.446        -215.288          35.000  
C23  22524805.602   117292757.152        -395.149          21.000  
C33  23827104.938   124074004.218       -3220.372          34.000  
E01  23393203.622   122932114.012        -990.063          31.000  
G10  21910838.442   115142188.220       -3755.883          27.000  
G31  21104058.864   110902571.667        -884.751          28.000  
J01  36862605.349   193714341.350         289.565          26.000  
R02  19140720.755   102138582.195        -556.723          31.000  
> 2021  9 12 12  7 28.9973783  0 11
C06  36517822.138   190157861.463        -267.639          30.000  
C16  37118785.799   193287278.729        -216.093          34.000  
C23  22524733.651   117292371.839        -394.822          22.000  
C33  23827573.814   124076444.128       -3222.272          33.000  
E01  23393242.295   122932317.302        -991.767          31.000  
G10  21911403.251   115145156.435       -3757.057          27.000  
G31  21104077.151   110902669.558        -885.839          26.000  
G32  20806370.949   109338224.9731       -316.340          29.000  
J01  36862399.392   193713264.973         287.669          24.000  
J02  38747271.622   203618274.9811      -1518.330          31.000  
R02  19140677.585   102138339.469        -557.483          33.000  
> 2021  9 12 12  7 29.9973780  0 10
C06  36517783.165   190157660.836        -267.225          31.000  
C16  37118740.830   193287025.706        -218.106          35.000  
C23  22524720.760   117292299.645        -396.462          27.000  
C33  23828104.746   124079198.095       -3223.248          32.000  
E01  23393340.028   122932830.676        -991.345          30.000  
G31  21104155.097   110903081.669        -884.081          25.000  
G32  20806341.869   109338068.741        -316.838          32.000  
J01  36862256.991   193712504.932         287.060          29.000  
J02  38747470.984   203619320.772       -1518.328          30.000  
R02  19140691.375   102138416.416        -556.806          32.000  
> 2021  9 12 12  7 30.9973775  0  9
C06  36517683.034   190157146.696        -266.138          28.000  
C16  37118631.106   193286461.086        -214.979          34.000  
C23  22524644.913   117291914.928        -394.958          25.000  
C33  23828572.722   124081640.264       -3222.856          28.000  
G31  21104173.685   110903178.940        -886.025          26.000  
G32  20806251.032   109337598.851        -319.661          40.000  
J01  36862053.731   193711429.342         287.975          29.000  
J02  38747610.388   203620051.537       -1518.417          33.000  
R02  19140644.008   102138174.117        -558.402          34.000  
> 2021  9 12 12  7 31.9973773  0 10
C06  36517672.841   190157100.348        -266.052          31.000  
C16  37118614.618   193286364.296        -216.842          35.000  
C23  22524660.502   117291998.215        -396.269          29.000  
C33  23829131.236   124084551.294       -3223.483          27.000  
E01  23393508.511   122933716.8821       -992.025          27.000  
G10  21913239.180   115154850.6021      -3757.229          22.000  
G31  21104285.507   110903749.916        -886.244          23.000  
J01  36861940.110   193710825.543         288.447          29.000  
J02  38747839.429   203621255.036       -1518.631          31.000  
R02  19140690.176   102138412.995        -559.373          30.000  
> 2021  9 12 12  7 32.9973768  0 10
C06  36517573.610   190156586.322        -266.409          28.000  
C16  37118505.194   193285799.886        -216.021          32.000  
C23  22524586.453   117291614.330        -397.183          26.000  
C33  23829601.010   124086993.099       -3222.545          26.000  
E01  23393546.285   122933915.172        -991.345          29.000  
G10  21913801.591   115157820.154       -3757.464          21.000  
G31  21104302.595   110903848.500        -886.077          27.000  
J01  36861734.452   193709749.063         288.552          25.000  
J02  38747979.132   203621986.049       -1519.111          30.000  
R02  19140645.807   102138172.783        -560.296          32.000  
> 2021  9 12 12  7 33.9973763  0  9
C06  36517476.177   190156072.008        -265.950          26.000  
C16  37118394.870   193285234.634        -214.869          28.000  
C23  22524511.505   117291231.723        -399.038          29.000  
E01  23393585.258   122934119.462        -992.141          25.000  
G10  21914369.098   115160789.769       -3757.405          25.000  
G31  21104319.684   110903946.689        -885.991          32.000  
G32  20806073.255   109336663.2791       -318.379          32.000  
J01  36861527.296   193708672.273         289.143          25.000  
J02  38748122.733   203622717.832       -1519.930          27.000  
> 2021  9 12 12  7 34.9973760  0  8
C06  36517439.303   190155869.167        -265.296          32.000  
C16  37118345.104   193284981.309        -215.095          35.000  
C23  22524495.316   117291161.888        -398.631          29.000  
G10  21914993.566   115164074.495       -3757.407          27.000  
G31  21104396.730   110904359.956        -885.944          33.000  
G32  20806042.976   109336509.680        -320.998          32.000  
J01  36861381.297   193707910.305         289.218          26.000  
J02  38748323.894   203623765.426       -1519.380          28.000  
> 2021  9 12 12  7 35.9973755  0  9
C06  36517342.770   190155354.105        -266.113          32.000  
C16  37118237.479   193284415.435        -213.889          35.000  
C23  22524423.366   117290780.066        -399.062          30.000  
C33  23831079.587   124094638.4911      -3225.026          21.000  
G10  21915560.173   115167044.449       -3757.616          27.000  
G31  21104411.120   110904458.131        -886.505          33.000  
G32  20805952.739   109336042.529        -320.386          31.000  
J02  38748463.897   203624496.929       -1519.015          29.000  
R02  19140585.548   102137776.9071       -562.628          19.000  
> 2021  9 12 12  7 36.9973750  0  8
C06  36517244.738   190154838.514        -265.163          33.000  
C16  37118127.455                        -214.542          36.000  
C23  22524349.617   117290398.494        -398.971          31.000  
G10  21916126.781   115170014.609       -3757.985          23.000  
G31  21104428.508                        -885.057          31.000  
G32  20805864.000   109335574.960        -320.024          31.000  
J01  36860971.480   193705755.7361        288.607          29.000  
J02  38748603.600   203625227.641       -1518.006          31.000  
> 2021  9 12 12  7 37.9973745  0  9
C06  36517145.206   190154323.217        -265.555          32.000  
C16  37118020.729   193283264.1271       -213.700          34.000  
C23  22524277.367   117290017.503        -399.744          31.000  
C33  23832015.839   124099526.8181      -3226.210          21.000  
G10  21916692.789   115172985.118       -3758.441          24.000  
G31  21104449.494   110904618.2341       -886.061          31.000  
G32  20805773.763   109335106.994        -319.790          31.000  
J01  36860769.420   193704680.584         286.784          28.000  
J02  38748742.704   203625958.145       -1518.670          29.000  
> 2021  9 12 12  7 38.9973740  0 10
C06  36517047.474   190153807.448        -264.039          32.000  
C16  37117912.504   193282698.481        -215.162          35.000  
C23  22524209.314   117289636.888        -399.561          32.000  
C33  23832488.312   124101974.726       -3231.724          23.000  
G10  21917259.397   115175956.042       -3758.830          24.000  
G31  21104467.781   110904716.815        -888.972          31.000  
G32  20805685.624   109334639.295        -320.101          31.000  
J01  36860565.262   193703605.960         286.570          28.000  
J02  38748881.508   203626689.357       -1519.244          27.000  
R02  19140489.015   102137068.7251       -564.090          20.000  
> 2021  9 12 12  7 39.9973737  0  8
C06  36517006.403                        -266.272          33.000  
C16  37117859.740   193282444.855        -216.330          35.000  
C23  22524198.522                        -399.672          32.000  
C33  23833016.846   124104737.274       -3229.484          23.000  
G31  21104543.029   110905130.569        -887.462          31.000  
G32  20805655.045   109334486.788        -320.166          29.000  
J01  36860422.560   193702846.129         287.692          28.000  
J02  38749080.270   203627735.147       -1518.075          28.000  
> 2021  9 12 12  7 40.9973734  0  9
C06  36516965.331   190153431.8581       -265.506          32.000  
C16  37117810.874   193282191.188        -213.344          34.000  
C23  22524186.230   117289343.6481       -399.133          31.000  
C33  23833547.778   124107499.456       -3231.240          22.000  
G31  21104624.572   110905544.663        -886.289          31.000  
G32  20805626.564   109334334.853        -321.292          30.000  
J01  36860279.559   193702085.292         287.754          28.000  
J02  38749277.833   203628779.322       -1516.311          29.000  
R02  19140514.498   102137238.7671       -566.622          20.000  
> 2021  9 12 12  7 41.9973729  0  9
C06  36516865.200   190152916.456        -264.908          32.000  
C16  37117701.150   193281625.216        -213.498          34.000  
C23  22524113.980   117288963.586        -400.718          31.000  
C33  23834017.853   124109948.551       -3229.358          21.000  
G10  21919084.833   115185500.4681      -3759.025          21.000  
G31  21104642.260   110905643.670        -886.088          31.000  
G32  20805536.027   109333868.485        -321.723          30.000  
J01  36860076.600   193701010.100         287.395          28.000  
J02  38749416.637   203629507.864       -1517.213          31.000  
> 2021  9 12 12  7 42.9973724  0  9
C06  36516765.969   190152400.902        -265.082          33.000  
C16  37117592.026   193281059.240        -214.554          34.000  
C23  22524039.932   117288584.042        -401.855          31.000  
C33  23834487.328   124112393.970       -3224.527          22.000  
G10  21919648.743   115188472.296       -3760.095          23.000  
G31  21104663.246   110905743.111        -886.340          32.000  
G32  20805446.089   109333402.573        -322.033          29.000  
J01  36859871.842   193699934.389         287.762          28.000  
J02  38749556.640   203630237.371       -1517.732          29.000  
> 2021  9 12 12  7 43.9973719  0  9
C06  36516669.136   190151885.318        -265.878          32.000  
C16  37117484.700   193280493.224        -214.051          35.000  
C23  22523961.686   117288204.716        -401.508          29.000  
C33  23834956.203   124114838.438       -3225.950          26.000  
G10  21920212.053   115191444.931       -3760.712          26.000  
G31  21104687.529   110905842.647        -887.926          32.000  
G32  20805356.451   109332937.021        -322.274          30.000  
J01  36859664.385   193698858.457         287.620          28.000  
J02  38749695.744   203630967.072       -1517.534          30.000  
> 2021  9 12 12  7 44.9973716  0 10
C06  36516630.763   190151681.765        -265.284          31.000  
C16  37117438.232   193280239.147        -213.900          34.000  
C23  22523941.300   117288137.830        -402.468          28.000  
C33  23835484.737   124117596.000       -3226.420          26.000  
G10  21920836.221   115194733.061       -3760.845          27.000  
G31  21104764.875   110906257.280        -888.894          31.000  
G32  20805329.770   109332786.839        -322.805          31.000  
J01  36859519.286   193698097.756         289.007          27.000  
J02  38749893.907   203632012.012       -1517.411          31.000  
R02  19140393.082   102136631.7951       -569.499          20.000  
> 2021  9 12 12  7 45.9973711  0  8
C06  36516533.630   190151165.825        -263.081          33.000  
C16  37117331.506   193279672.780        -214.529          36.000  
C23  22523863.654   117287758.216        -401.284          27.000  
C33  23835952.414   124120042.013       -3226.424          27.000  
G31  21104781.364   110906357.112        -888.587          29.000  
J01  36859312.129   193697020.882         288.498          25.000  
J02  38750032.411   203632741.502       -1517.416          30.000  
R02  19140352.010   102136401.822        -570.733          20.000  
> 2021  9 12 12  7 46.9973706  0 11
C05  74617670.662                       -1139.474          30.000  
C06  36516432.300   190150649.770        -265.536          33.000  
C16  37117221.482   193279106.242        -214.510          35.000  
C23  22523789.605   117287379.318        -401.874          27.000  
C33  23836423.088   124122487.986       -3226.544          24.000  
G10  21921962.541   115200679.9001      -3761.381          26.000  
G31  21104799.951   110906457.032        -887.032          29.000  
G32  20805160.987                        -321.961          33.000  
J01  36859104.973   193695944.753         288.138          25.000  
J02  38750170.315   203633471.651       -1518.213          31.000  
R02  19140305.842   102136172.702        -570.900          20.000  
> 2021  9 12 12  7 47.9973704  0 10
C06  36516422.107   190150602.024        -262.944          32.000  
C16  37117198.998   193279007.994        -213.162          34.000  
C23  22523804.295   117287469.510        -403.240          27.000  
C33  23836983.700   124125402.734       -3227.758          22.000  
G10  21922617.288   115204126.309       -3761.789          27.000  
G31  21104909.975   110907029.839        -888.699          31.000  
G32  20805160.087                        -322.847          32.000  
J01  36858988.953   193695340.787         288.319          26.000  
J02  38750399.057   203634674.241       -1517.397          29.000  
R02  19140346.614   102136420.535        -568.301          20.000  
> 2021  9 12 12  7 48.9973699  0 10
C06  36516324.375   190150085.841        -263.462          30.000  
C16  37117091.073   193278441.375        -215.509          33.000  
C23  22523730.246   117287092.629        -404.233          27.000  
C33  23837454.674   124127851.002       -3230.218          20.000  
G10  21923181.497   115207100.127       -3762.218          29.000  
G31  21104925.264   110907130.163        -889.976          31.000  
G32  20805071.649   109331403.3631       -322.912          31.000  
J01  36858783.595   193694264.542         288.433          26.000  
J02  38750537.261   203635403.842       -1517.073          29.000  
R02  19140304.343   102136188.824        -570.037          20.000  
> 2021  9 12 12  7 49.9973693  0 11
C05  74617280.931                         288.433          28.000  
C06  36516196.663   190149413.333        -263.786          31.000  
C16  37116951.969   193277718.401        -215.086          33.000  
C23  22523628.017   117286560.732        -404.287          27.000  
C33  23837894.469   124130143.127       -3228.783          21.000  
G10  21923717.226   115209916.732       -3761.898          28.000  
G31  21104916.270   110907073.130        -887.464          31.000  
G32  20804949.933   109330781.298        -323.490          28.000  
J01  36858547.958   193693030.973         287.886          26.000  
J02  38750646.985   203635975.594       -1517.285          30.000  
R02  19140232.393   102135798.155        -571.006          21.000  
> 2021  9 12 12  7 50.9973691  0  7
C06  36516183.472   190149365.233        -265.653          32.000  
C16  37116936.380   193277619.777        -213.507          34.000  
G10  21924373.472   115213364.383       -3762.902          29.000  
G31  21105028.093   110907646.344        -886.746          31.000  
G32  20804948.134   109330789.980        -324.212          29.000  
J01  36858431.639   193692428.291         287.359          26.000  
J02  38750875.427   203637177.823       -1517.289          29.000  
> 2021  9 12 12  7 51.9973686  0  8
C06  36516085.440   190148848.763        -263.234          32.000  
C16  37116827.555   193277052.904        -214.156          35.000  
C33  23838923.956   124135509.2941      -3232.046          18.000  
G31  21105045.481   110907747.152        -889.468          30.000  
G32  20804857.597   109330326.922        -324.395          28.000  
J01  36858226.880   193691353.727         286.058          26.000  
J02  38751015.430   203637907.306       -1517.297          28.000  
R02  19140226.697   102135820.3981       -575.490          20.000  
> 2021  9 12 12  7 52.9973681  0  9
C06  36515990.106   190148332.326        -263.616          32.000  
C16  37116716.032   193276485.930        -213.498          35.000  
C23  22523509.299   117285900.3661       -404.818          29.000  
G10  21925503.690   115219315.9691      -3764.790          26.000  
G31  21105062.569   110907848.734        -888.906          31.000  
G32  20804767.659   109329864.149        -324.942          28.000  
J01  36858023.621   193690278.525         288.103          24.000  
J02  38751153.335   203638637.079       -1518.208          28.000  
R02  19140183.227   102135598.171        -579.664          20.000  
> 2021  9 12 12  7 53.9973676  0  6
C06  36515887.277   190147815.694        -264.175          32.000  
C16  37116608.107   193275918.945        -214.175          35.000  
G31  21105079.957   110907950.492        -889.487          31.000  
G32  20804679.220   109329401.221        -324.046          28.000  
J01  36857814.666   193689200.848         289.988          23.000  
J02  38751291.539   203639367.480       -1517.785          27.000  
> 2021  9 12 12  7 54.9973670  0  8
C06  36515758.367   190147143.130        -263.597          32.000  
C16  37116467.504   193275195.869        -211.791          35.000  
C23  22523344.113   117284992.9081       -405.801          31.000  
G31  21105067.965   110907894.528        -888.981          30.000  
G32  20804562.301   109328780.791        -326.312          28.000  
J01  36857577.530   193687965.755         289.917          24.000  
J02  38751400.364   203639939.651       -1517.214          29.000  
R02  19140074.102   102135010.3651       -585.963          19.000  
> 2021  9 12 12  7 55.9973668  0  9
C06  36515746.075   190147094.803        -263.458          30.000  
C16  37116446.519   193275097.039        -209.501          32.000  
C23  22523363.600   117285086.150        -404.729          32.000  
G10  21927268.268   115228559.2851      -3762.886          23.000  
G31  21105178.589   110908468.249        -888.793          29.000  
G32  20804567.697   109328791.352        -325.657          21.000  
J01  36857462.410   193687361.349         290.703          23.000  
J02  38751630.005   203641141.645       -1517.422          31.000  
R02  19140117.572   102135273.474        -578.935          20.000  
> 2021  9 12 12  7 56.9973665  0  9
C06  36515707.702   190146890.810        -264.439          26.000  
C16  37116397.653   193274841.865        -214.762          29.000  
C23  22523351.908   117285021.916        -403.602          29.000  
C33  23841397.844   124148394.1011      -3230.777          27.000  
G10  21927891.836   115231850.400       -3762.536          23.000  
G31  21105257.734   110908884.975        -889.782          25.000  
G32  20804541.616   109328644.438        -325.979          31.000  
J02  38751826.369   203642186.383       -1517.463          30.000  
R02  19140129.864   102135371.325        -576.932          30.000  
> 2021  9 12 12  7 57.9973660  0  9
C06  36515609.370   190146374.328        -264.534          31.000  
C16  37116288.828   193274275.890        -214.557          30.000  
C23  22523278.459   117284645.153        -405.150          24.000  
C33  23841864.621   124150843.391       -3229.994          33.000  
G10  21928460.543   115234825.251       -3764.061          13.000  
G31  21105277.820   110908987.832        -891.720          23.000  
G32  20804455.575   109328183.683        -328.411          30.000  
J02  38751964.573   203642916.112       -1517.425          30.000  
R02  19140085.794   102135148.952        -578.312          31.000  
> 2021  9 12 12  7 58.9973655  0  8
C06  36515512.537   190145858.030        -264.150          32.000  
C16  37116180.903   193273709.363        -213.561          30.000  
C23  22523205.010   117284269.527        -405.179          24.000  
C33  23842331.397   124153293.562       -3231.186          30.000  
G31  21105299.405   110909091.686        -889.582          24.000  
G32  20804369.235   109327724.472        -328.399          27.000  
J02  38752103.077   203643646.050       -1518.166          31.000  
R02  19140041.125   102134927.215        -577.940          30.000  
> 2021  9 12 12  7 59.9973650  0 10
C06  36515413.305   190145340.994        -263.493          32.000  
C16  37116072.078   193273142.537        -213.410          29.000  
C23  22523134.858   117283894.824        -405.619          25.000  
C33  23842801.172   124155743.596       -3230.514          31.000  
G10  21929588.662   115240779.6331      -3768.104          16.000  
G31  21105317.992   110909193.480        -889.723          27.000  
G32  20804285.293   109327264.956        -328.050          30.000  
J01  36856713.828   193683371.7721        289.069          26.000  
J02  38752240.682   203644376.843       -1517.941          29.000  
R02  19139993.458   102134705.521        -578.665          30.000  
